timestamp,observer_vehicle_id,vehicle_0_x,vehicle_0_y,vehicle_0_theta,vehicle_0_velocity,vehicle_1_x,vehicle_1_y,vehicle_1_theta,vehicle_1_velocity
1759837626.659827,0,-1.205,-0.83,-0.7801621756414646,0.0,0.0,0.0,0.0,0.0
1759837626.6702073,0,-1.205,-0.83,-0.7801621756414646,0.0,0.0,0.0,0.0,0.0
1759837626.6812634,0,-1.205,-0.83,-0.7801621756414646,0.0,0.0,0.0,0.0,0.0
1759837626.6928437,0,-1.205,-0.83,-0.7801621756414646,0.0,0.0,0.0,0.0,0.0
1759837626.7036536,0,-1.205,-0.83,-0.7801621756414646,0.0,0.0,0.0,0.0,0.0
1759837626.7139845,0,-1.205,-0.83,-0.7801621756414646,0.0,0.0,0.0,0.0,0.0
1759837626.724907,0,-1.205,-0.83,-0.7801621756414646,0.0,0.0,0.0,0.0,0.0
1759837626.7363615,0,-1.205,-0.83,-0.7801621756414646,0.0,0.0,0.0,0.0,0.0
1759837626.7470834,0,-1.205,-0.83,-0.7801621756414646,0.0,0.0,0.0,0.0,0.0
1759837626.758682,0,-1.205,-0.83,-0.7801621756414646,0.0,0.0,0.0,0.0,0.0
1759837626.7698846,0,-1.205,-0.83,-0.7801621756414646,0.0,0.0,0.0,0.0,0.0
1759837626.7799797,0,-1.205,-0.83,-0.7801621756414646,0.0,0.0,0.0,0.0,0.0
1759837626.7912724,0,-1.205,-0.83,-0.7801621756414646,0.0,0.0,0.0,0.0,0.0
1759837626.8015318,0,-1.205,-0.83,-0.7801621756414646,0.0,0.0,0.0,0.0,0.0
1759837626.8129678,0,-1.205,-0.83,-0.7801621756414646,0.0,0.0,0.0,0.0,0.0
1759837626.8244348,0,-1.205,-0.83,-0.7801621756414646,0.0,0.0,0.0,0.0,0.0
1759837626.8353472,0,-1.205,-0.83,-0.7801621756414646,0.0,0.0,0.0,0.0,0.0
1759837626.8460555,0,-1.205,-0.83,-0.7801621756414646,0.0,0.0,0.0,0.0,0.0
1759837626.85696,0,-1.2049998061259588,-0.8299996288021405,-0.722999872025227,0.0,0.0,0.0,0.0,0.0
1759837626.8680732,0,-1.2049998050413424,-0.829999626725497,-0.7181155720309693,0.0,0.0,0.0,0.0,0.0
1759837626.8787336,0,-1.2049998047010528,-0.8299996260739668,-0.7176573181903017,0.0,0.0,0.0,0.0,0.0
1759837626.8902612,0,-1.2049998045745929,-0.8299996258318424,-0.7175946944181675,0.0,0.0,0.0,0.0,0.0
1759837626.9017715,0,-1.2049998045264814,-0.8299996257397265,-0.7175881528855612,0.0,0.0,0.0,0.0,0.0
1759837626.9123642,0,-1.2049998045081152,-0.8299996257045619,-0.7175983914052058,0.0,0.0,0.0,0.0,0.0
1759837626.923366,0,-1.2049998045011003,-0.8299996256911313,-0.7176101372520733,0.0,0.0,0.0,0.0,0.0
1759837626.934804,0,-1.204999804498421,-0.8299996256860013,-0.7176211691516414,0.0,0.0,0.0,0.0,0.0
1759837626.9455862,0,-1.2049998044973975,-0.8299996256840418,-0.7176322482640991,0.0,0.0,0.0,0.0,0.0
1759837626.9564342,0,-1.2049998044970067,-0.8299996256832933,-0.7176413259448999,0.0,0.0,0.0,0.0,0.0
1759837626.9677968,0,-1.2049998044968575,-0.8299996256830074,-0.7176482885776387,0.0,0.0,0.0,0.0,0.0
1759837626.9789493,0,-1.2049998044968004,-0.8299996256828983,-0.7176544615638036,0.0,-0.34489622712135315,-0.06957560777664185,1.7422852722284754,0.0
1759837626.9891684,0,-1.2049998044967787,-0.8299996256828566,-0.7176603980062347,0.0,-0.6183902913687871,-0.12474732102540373,-3.1399314390235213,0.0
1759837627.0000439,0,-1.2049998044967702,-0.8299996256828407,-0.7176646283150259,0.0,-0.8356474106371751,-0.16857440560404108,-0.7836863699388619,0.0
1759837627.0102503,0,-1.2049998044967671,-0.8299996256828346,-0.7176686233084872,0.0,-1.0087972882775589,-0.2035037757332251,1.113972847671085,0.0
1759837627.0212982,0,-1.2049998044967658,-0.8299996256828323,-0.7176713739692779,0.0,-1.1470065024577853,-0.23138459703759356,2.650328173417029,0.0
1759837627.0313969,0,-1.2049998044967654,-0.8299996256828314,-0.717674352181012,0.0,-1.2577244663670997,-0.2537196329847175,-2.382094842769976,0.0
1759837627.0415502,0,-1.2049998044967651,-0.829999625682831,-0.7176768066731629,0.0,-1.3519118918872428,-0.27271997819051,-0.16868160753034164,0.0
1759837627.052207,0,-1.2049998044967651,-0.8299996256828309,-0.7176786087785043,0.0,-1.4266955002358628,-0.28780600869311346,1.609098145219477,0.0
1759837627.0629132,0,-1.2049998044967651,-0.8299996256828308,-0.717680197686267,0.0,-1.4862202562497566,-0.2998138845460603,3.0448152033137488,0.0
1759837627.0729446,0,-1.2049998044967651,-0.8299996256828308,-0.7176819515948232,0.0,-1.5337533642908856,-0.30940269596646097,-2.0723001188222687,0.0
1759837627.0838048,0,-1.2049998044967651,-0.8299996256828308,-0.7176831106471866,0.0,-1.5717674419084793,-0.31707124188355484,0.06852939413490346,0.0
1759837627.0950677,0,-1.2049998044967651,-0.8299996256828308,-0.7176840376001596,0.0,-1.6040297738105644,-0.3235794932759063,1.798088992372634,0.0
1759837627.1058438,0,-1.2049998044967651,-0.8299996256828308,-0.7176851609387107,0.0,-1.629633302924319,-0.3287444703305542,-3.0919559355288952,0.0
1759837627.1166308,0,-1.2049998044967651,-0.8299996256828308,-0.7176862050904553,0.0,-1.650004248604944,-0.3328538830038791,-0.7479769328958719,0.0
1759837627.126876,0,-1.2049998044967651,-0.8299996256828308,-0.7176873441386213,0.0,-1.666262639822429,-0.3361336737393948,1.14276962974268,0.0
1759837627.1379893,0,-1.2049998044967651,-0.8299996256828308,-0.7176880599132218,0.0,-1.679258270759779,-0.3387552707584568,2.675980353457741,0.0
1759837627.1495156,0,-1.2049998044967651,-0.8299996256828308,-0.7176886266379281,0.0,-1.6902781169139471,-0.3409782944783178,-2.3931626487049305,0.0
1759837627.1598577,0,-1.2049998044967651,-0.8299996256828308,-0.7176895685742846,0.0,-1.6990268937233088,-0.3427431774081602,-0.18044304433422706,0.0
1759837627.1713004,0,-1.2049998044967651,-0.8299996256828308,-0.7176901047852482,0.0,-1.7059818540246647,-0.3441461953363876,1.600639932833584,0.0
1759837627.182846,0,-1.2049998044967651,-0.8299996256828308,-0.7176906141990358,0.0,-1.7115251510626808,-0.3452644396956416,3.0427256500242055,0.0
1759837627.1940503,0,-1.2049998044967651,-0.8299996256828308,-0.7176912280286629,0.0,-1.7162129768406695,-0.34621008022762684,2.2917885430602336,0.0
1759837627.2052093,0,-1.2049998044967651,-0.8299996256828308,-0.7176918271327075,0.0,-1.7199227404523991,-0.3469584234898291,1.6975260243478327,0.0
1759837627.2162967,0,-1.2049998044967651,-0.8299996256828308,-0.7176924036715988,0.0,-1.7228665300707844,-0.3475522524656953,1.2259639475487552,0.0
1759837627.2269125,0,-1.2049998044967651,-0.8299996256828308,-0.7176930385666207,0.0,-1.7252097970584555,-0.3480249424387761,0.8505988602138062,0.0
1759837627.2378721,0,-1.2049998044967651,-0.8299996256828308,-0.7176935285451033,0.0,-1.7270790677189474,-0.3484020166274355,0.5511626677440746,0.0
1759837627.249188,0,-1.2049998044967651,-0.8299996256828308,-0.7176939070452218,0.0,-1.7285735115285779,-0.3487034797589786,0.311769532403279,0.0
1759837627.2606359,0,-1.2049998044967651,-0.8299996256828308,-0.7176942557671175,0.0,-1.7298408849778535,-0.3489591376608623,0.10875052177563697,0.0
1759837627.2718759,0,-1.2049998044967651,-0.8299996256828308,-0.7176946470884608,0.0,-1.730846725789586,-0.3491620385119915,-0.05237389389172137,0.0
1759837627.2825127,0,-1.2049998044967651,-0.8299996256828308,-0.7176951294145653,0.0,-1.7316476333027333,-0.3493235996797208,-0.18067029383312813,0.0
1759837627.2933486,0,-1.2049998044967651,-0.8299996256828308,-0.7176955257024619,0.0,-1.7322868352200893,-0.34945254116982755,-0.28306327115727403,0.0
1759837627.304819,0,-1.2049998044967651,-0.8299996256828308,-0.7176957820459825,0.0,-1.7328278380368178,-0.34956167367936297,-0.3697258540461508,0.0
1759837627.3150282,0,-1.2049998044967651,-0.8299996256828308,-0.7176962368216059,0.0,-1.7332565352176892,-0.34964815160097923,-0.4383983337868983,0.0
1759837627.3257632,0,-1.2049998044967651,-0.8299996256828308,-0.7176965577012648,0.0,-1.7335968865443714,-0.3497168081647826,-0.4929187986493501,0.0
1759837627.3370788,0,-1.2049998044967651,-0.8299996256828308,-0.7176967639721603,0.0,-1.7338676253969163,-0.3497714223174143,-0.5362881259881482,0.0
1759837627.3481073,0,-1.2049998044967651,-0.8299996256828308,-0.7176970166094527,0.0,-1.7340836306137253,-0.3498149954572468,-0.5708897388214005,0.0
1759837627.36021,0,-1.2049998044967651,-0.8299996256828308,-0.7176971248085735,0.0,-1.7342562183705155,-0.3498498103129762,-0.5985363615670467,0.0
1759837627.370278,0,-1.2049998044967651,-0.8299996256828308,-0.7176975268323851,0.0,-1.7344031575315535,-0.34987945126658543,-0.6220743669698373,0.0
1759837627.3814013,0,-1.2049998044967651,-0.8299996256828308,-0.7176977507840228,0.0,-1.734519744980947,-0.34990296959318046,-0.6407503686179713,0.0
1759837627.391826,0,-1.2049998044967651,-0.8299996256828308,-0.7176980405216895,0.0,-1.734612561711265,-0.3499216928278721,-0.655618567702953,0.0
1759837627.4025571,0,-1.2049998044967651,-0.8299996256828308,-0.7176982647953878,0.0,-1.7346866133309384,-0.3499366307151441,-0.6674808065482096,0.0
1759837627.413979,0,-1.2049998044967651,-0.8299996256828308,-0.7176983954001237,0.0,-1.7347458000367617,-0.34994857001294055,-0.6769618529322943,0.0
1759837627.425031,0,-1.2049998044967651,-0.8299996256828308,-0.7176985765130137,0.0,-1.7347962683538987,-0.34995875061446585,-0.6850463112417448,0.0
1759837627.436426,0,-1.2049998044967651,-0.8299996256828308,-0.7176987229934753,0.0,-1.7348362574514955,-0.34996681732029405,-0.6914521161247557,0.0
1759837627.447367,0,-1.2049998044967651,-0.8299996256828308,-0.7176989196741079,0.0,-1.7348680439074269,-0.34997322936769526,-0.6965439498208501,0.0
1759837627.4610014,0,-1.2049998044967651,-0.8299996256828308,-0.7176988573330245,0.0,-1.7348933046641248,-0.3499783250339025,-0.7005904396976051,0.0
1759837627.471593,0,-1.2049998044967651,-0.8299996256828308,-0.7176991358889389,0.0,-1.7349135082694345,-0.3499824005582453,-0.7038268306472699,0.0
1759837627.4826136,0,-1.2049998044967651,-0.8299996256828308,-0.7176993548363111,0.0,-1.734930642384947,-0.3499858568970419,-0.7065715237614629,0.0
1759837627.4932375,0,-1.2049998044967651,-0.8299996256828308,-0.7176995796597866,0.0,-1.7349442397894057,-0.34998859980119296,-0.7087496754355805,0.0
1759837627.503375,0,-1.2049998044967651,-0.8299996256828308,-0.7176998140338071,0.0,-1.734955063249852,-0.34999078313807,-0.7104834723938773,0.0
1759837627.5148044,0,-1.2049998044967651,-0.8299996256828308,-0.7176999119258802,0.0,-1.7349636877923746,-0.34999252290344646,-0.7118650273657492,0.0
1759837627.5252645,0,-1.2049998044967651,-0.8299996256828308,-0.7177000835175793,0.0,-1.734970585716749,-0.3499939143708738,-0.7129699974775053,0.0
1759837627.5355647,0,-1.2049998044967651,-0.8299996256828308,-0.7177002516393074,0.0,-1.7349764500109823,-0.34999509733171347,-0.7139093916347438,0.0
1759837627.5464997,0,-1.2049998044967651,-0.8299996256828308,-0.717700354848393,0.0,-1.7349810986339405,-0.3499960350641496,-0.7146540488896863,0.0
1759837627.557638,0,-1.2049998044967651,-0.8299996256828308,-0.7177004414408632,0.0,-1.7349847924174315,-0.3499967801838599,-0.715245751572333,0.0
1759837627.5687008,0,-1.2049998044967651,-0.8299996256828308,-0.7177005377192351,0.0,-1.7349877354663519,-0.3499973738634202,-0.7157171949976108,0.0
1759837627.5801125,0,-1.2049998044967651,-0.8299996256828308,-0.717700614314186,0.0,-1.7349900856218181,-0.3499978479429553,-0.7160936635419471,0.0
1759837627.5908935,0,-1.2049998044967651,-0.8299996256828308,-0.717700735899605,0.0,-1.734992082833268,-0.3499982508256961,-0.7164135944137546,0.0
1759837627.6011589,0,-1.2049998044967651,-0.8299996256828308,-0.7177008810109733,0.0,-1.7349936665320072,-0.3499985702935665,-0.7166672851876614,0.0
1759837627.6120582,0,-1.2049998044967651,-0.8299996256828308,-0.7177009723518317,0.0,-1.7349949245945553,-0.34999882407324895,-0.7168688126963839,0.0
1759837627.623016,0,-1.2049998044967651,-0.8299996256828308,-0.717701055521534,0.0,-1.7349959265025015,-0.34999902618075207,-0.7170293071110876,0.0
1759837627.6343315,0,-1.2049998044967651,-0.8299996256828308,-0.7177011193859677,0.0,-1.73499672617804,-0.34999918749340264,-0.7171574061624992,0.0
1759837627.6444442,0,-1.2049998044967651,-0.8299996256828308,-0.7177012494111352,0.0,-1.7349974042422853,-0.3499993242743037,-0.7172660244488495,0.0
1759837627.65931,0,-1.2049998044967651,-0.8299996256828308,-0.7177011333771279,0.0,-1.7349979392562846,-0.34999943219873325,-0.7173517276903574,0.0
1759837627.6661277,0,-1.2049998044967651,-0.8299996256828308,-0.7177014522457004,0.0,-1.7349983664006061,-0.3499995183634079,-0.7174201514194277,0.0
1759837627.677635,0,-1.2049998044967651,-0.8299996256828308,-0.7177014961191617,0.0,-1.734998706328128,-0.3499995869344808,-0.7174746039955486,0.0
1759837627.688457,0,-1.2049998044967651,-0.8299996256828308,-0.71770156336542,0.0,-1.7349989777771133,-0.34999964169188325,-0.7175180870781754,0.0
1759837627.6999328,0,-1.2049998044967651,-0.8299996256828308,-0.7177016034698145,0.0,-1.7349992078426548,-0.3499996881013087,-0.7175549409973362,0.0
1759837627.710167,0,-1.2049998044967651,-0.8299996256828308,-0.7177017018336791,0.0,-1.734999390215772,-0.34999972489009307,-0.7175841551250474,0.0
1759837627.7213812,0,-1.2049998044967651,-0.8299996256828308,-0.7177017518860307,0.0,-1.7349995349911673,-0.3499997540945662,-0.7176073465194592,0.0
1759837627.7321243,0,-1.2049998044967651,-0.8299996256828308,-0.7177018209229704,0.0,-1.7349996502820473,-0.34999977735134535,-0.7176258148252077,0.0
1759837627.7428813,0,-1.2049998044967651,-0.8299996256828308,-0.7177018867407092,0.0,-1.7349997423253325,-0.3499997959185587,-0.7176405591270631,0.0
1759837627.754076,0,-1.2049998044967651,-0.8299996256828308,-0.717701933310174,0.0,-1.7349998201724712,-0.349999811622088,-0.7176530293654714,0.0
1759837627.7655022,0,-1.2049998044967651,-0.8299996256828308,-0.7177019737053136,0.0,-1.7349998818118648,-0.34999982405614843,-0.7176629033049444,0.0
1759837627.7767906,0,-1.2049998044967651,-0.8299996256828308,-0.7177020231942989,0.0,-1.7349999307575352,-0.34999983392959766,-0.7176707438523262,0.0
1759837627.7874835,0,-1.2049998044967651,-0.8299996256828308,-0.7177020935960741,0.0,-1.7349999697517002,-0.34999984179560306,-0.7176769902801721,0.0
1759837627.7988505,0,-1.2049998044967651,-0.8299996256828308,-0.7177021374681729,0.0,-1.7350000008742135,-0.3499998480737182,-0.7176819757577065,0.0
1759837627.8094976,0,-1.2049998044967651,-0.8299996256828308,-0.7177022033062775,0.0,-1.7350000271465913,-0.3499998533734513,-0.717686184297969,0.0
1759837627.820876,0,-1.2049998044967651,-0.8299996256828308,-0.7177022427126794,0.0,-1.7350000479730763,-0.34999985757462454,-0.7176895204672464,0.0
1759837627.8323643,0,-1.2049998044967651,-0.8299996256828308,-0.7177022798516717,0.0,-1.7350000645252535,-0.3499998609135732,-0.717692171940354,0.0
1759837627.8426366,0,-1.2049998044967651,-0.8299996256828308,-0.7177023522023216,0.0,-1.7350000777328627,-0.3499998635778469,-0.7176942876512289,0.0
1759837627.8538213,0,-1.2049998044967651,-0.8299996256828308,-0.7177023923617831,0.0,-1.7350000888552977,-0.34999986582149367,-0.7176960693405259,0.0
1759837627.8647661,0,-1.2049998044967651,-0.8299996256828308,-0.7177024368845348,0.0,-1.7350000976622424,-0.3499998675980536,-0.7176974801142615,0.0
1759837627.8754222,0,-1.2049998044967651,-0.8299996256828308,-0.717702486710273,0.0,-1.735000104656015,-0.3499998690088559,-0.717698600438224,0.0
1759837627.8861601,0,-1.2049998044967651,-0.8299996256828308,-0.7177025305240469,0.0,-1.735000110223519,-0.34999987013194744,-0.7176994922899199,0.0
1759837627.8972058,0,-1.2049998044967651,-0.8299996256828308,-0.7177025641514803,0.0,-1.7350001146654597,-0.34999987102798735,-0.7177002038389871,0.0
1759837627.9082332,0,-1.2049998044967651,-0.8299996256828308,-0.7177025978657756,0.0,-1.7350001182186812,-0.3499998717447525,-0.7177007730252136,0.0
1759837627.9186518,0,-1.2049998044967651,-0.8299996256828308,-0.7177026443055041,0.0,-1.7350001212459536,-0.34999987235542185,-0.7177012579602982,0.0
1759837627.929717,0,-1.2049998044967651,-0.8299996256828308,-0.7177026731738678,0.0,-1.735000123646929,-0.3499998728397529,-0.7177016425696052,0.0
1759837627.941136,0,-1.2049998044967651,-0.8299996256828308,-0.7177026947677199,0.0,-1.7350001255554908,-0.349999873224753,-0.7177019482997807,0.0
1759837627.9518647,0,-1.2049998044967651,-0.8299996256828308,-0.7177027321063498,0.0,-1.7350001270778215,-0.3499998735318416,-0.7177021921600917,0.0
1759837627.9626365,0,-1.2049998044967651,-0.8299996256828308,-0.7177027667388458,0.0,-1.7350001282951037,-0.34999987377739494,-0.717702387155059,0.0
1759837627.973629,0,-1.2049998044967651,-0.8299996256828308,-0.7177027950295044,0.0,-1.7350001293258415,-0.34999987398531807,-0.7177025522676663,0.0
1759837627.9848754,0,-1.2049998044967651,-0.8299996256828308,-0.7177028182159031,0.0,-1.7350001301436018,-0.34999987415027883,-0.7177026832636969,0.0
1759837627.995776,0,-1.2049998044967651,-0.8299996256828308,-0.7177028479873151,0.0,-1.7350001307943568,-0.3499998742815508,-0.7177027875073452,0.0
1759837628.0072358,0,-1.2049998044967651,-0.8299996256828308,-0.7177028677909778,0.0,-1.7350001313132453,-0.3499998743862223,-0.717702870627433,0.0
1759837628.0180013,0,-1.2049998044967651,-0.8299996256828308,-0.7177028995896428,0.0,-1.7350001317284087,-0.3499998744699702,-0.717702937131976,0.0
1759837628.0287862,0,-1.2049998044967651,-0.8299996256828308,-0.7177029291114199,0.0,-1.7350001320828046,-0.34999987454145987,-0.7177029939021996,0.0
1759837628.0400124,0,-1.2049998044967651,-0.8299996256828308,-0.7177029499357914,0.0,-1.735000132363663,-0.34999987459811543,-0.7177030388925966,0.0
1759837628.051543,0,-1.2049998044967651,-0.8299996256828308,-0.717702966624028,0.0,-1.7350001325867677,-0.34999987464312066,-0.7177030746314454,0.0
1759837628.0626829,0,-1.2049998044967651,-0.8299996256828308,-0.7177029901760595,0.0,-1.7350001327645501,-0.3499998746789834,-0.7177031031102125,0.0
1759837628.0734093,0,-1.2049998044967651,-0.8299996256828308,-0.7177030186888267,0.0,-1.7350001329066518,-0.3499998747076485,-0.7177031258733064,0.0
1759837628.0846736,0,-1.2049998044967651,-0.8299996256828308,-0.7177030379805558,0.0,-1.7350001330270775,-0.3499998747319411,-0.7177031451641609,0.0
1759837628.0960004,0,-1.2049998044967651,-0.8299996256828308,-0.7177030561719544,0.0,-1.735000133122537,-0.3499998747511974,-0.7177031604557025,0.0
1759837628.107498,0,-1.2049998044967651,-0.8299996256828308,-0.7177030727042144,0.0,-1.7350001331983964,-0.34999987476649996,-0.7177031726075307,0.0
1759837628.118736,0,-1.2049998044967651,-0.8299996256828308,-0.7177030928465964,0.0,-1.7350001332588603,-0.34999987477869693,-0.7177031822931774,0.0
1759837628.1300838,0,-1.2049998044967651,-0.8299996256828308,-0.717703111365875,0.0,-1.7350001333071754,-0.3499998747884432,-0.7177031900326984,0.0
1759837628.141497,0,-1.2049998044967651,-0.8299996256828308,-0.7177031288427944,0.0,-1.7350001333481482,-0.3499998747967083,-0.7177031965960764,0.0
1759837628.152555,0,-1.2049998044967651,-0.8299996256828308,-0.7177031496868658,0.0,-1.7350001333806522,-0.3499998748032651,-0.7177032018028598,0.0
1759837628.1627457,0,-1.2049998044967651,-0.8299996256828308,-0.7177031775100104,0.0,-1.735000133406529,-0.349999874808485,-0.7177032059480186,0.0
1759837628.17405,0,-1.2049998044967651,-0.8299996256828308,-0.7177031909557422,0.0,-1.7350001334271556,-0.34999987481264583,-0.7177032092521545,0.0
1759837628.1852708,0,-1.2049998044967651,-0.8299996256828308,-0.7177032047431346,0.0,-1.7350001334436422,-0.3499998748159716,-0.7177032118931526,0.0
1759837628.19662,0,-1.2049998044967651,-0.8299996256828308,-0.7177032175635762,0.0,-1.735000133457634,-0.3499998748187941,-0.7177032141344836,0.0
1759837628.2081153,0,-1.2049998044967651,-0.8299996256828308,-0.7177032294745906,0.0,-1.7350001334687286,-0.3499998748210321,-0.7177032159117281,0.0
1759837628.2190547,0,-1.2049998044967651,-0.8299996256828308,-0.7177032463969102,0.0,-1.7350001334775553,-0.34999987482281264,-0.717703217325636,0.0
1759837628.2303834,0,-1.2049998044967651,-0.8299996256828308,-0.7177032592153925,0.0,-1.7350001334845926,-0.3499998748242323,-0.7177032184529414,0.0
1759837628.2418356,0,-1.2049998044967651,-0.8299996256828308,-0.7177032708124624,0.0,-1.7350001334902176,-0.349999874825367,-0.7177032193540188,0.0
1759837628.2531927,0,-1.2049998044967651,-0.8299996256828308,-0.7177032832706907,0.0,-1.735000133495,-0.3499998748263317,-0.7177032201201056,0.0
1759837628.2639554,0,-1.2049998044967651,-0.8299996256828308,-0.7177032997239667,0.0,-1.735000133498795,-0.3499998748270972,-0.7177032207280242,0.0
1759837628.27455,0,-1.2049998044967651,-0.8299996256828308,-0.7177033157280359,0.0,-1.7350001335018148,-0.34999987482770634,-0.7177032212117503,0.0
1759837628.2846422,0,-1.2049998044967651,-0.8299996256828308,-0.7177033331040761,0.0,-1.7350001335042249,-0.3499998748281925,-0.7177032215978255,0.0
1759837628.295819,0,-1.2049998044967651,-0.8299996256828308,-0.717703341070802,0.0,-1.7350001335061507,-0.349999874828581,-0.717703221906346,0.0
1759837628.3060508,0,-1.2049998044967651,-0.8299996256828308,-0.7177033547804578,0.0,-1.735000133507783,-0.34999987482891026,-0.717703222167796,0.0
1759837628.3169,0,-1.2049998044967651,-0.8299996256828308,-0.7177033634963017,0.0,-1.735000133509078,-0.3499998748291715,-0.7177032223752422,0.0
1759837628.327818,0,-1.2049998044967651,-0.8299996256828308,-0.7177033714917957,0.0,-1.735000133510108,-0.34999987482937933,-0.7177032225402525,0.0
1759837628.3388727,0,-1.2049998044967651,-0.8299996256828308,-0.7177033788152993,0.0,-1.7350001335109293,-0.34999987482954503,-0.7177032226718284,0.0
1759837628.3501508,0,-1.2049998044967651,-0.8299996256828308,-0.7177033852172041,0.0,-1.7350001335116236,-0.3499998748296851,-0.717703222783041,0.0
1759837628.3608654,0,-1.2049998044967651,-0.8299996256828308,-0.7177033950634488,0.0,-1.7350001335121732,-0.34999987482979594,-0.7177032228710791,0.0
1759837628.3721783,0,-1.2049998044967651,-0.8299996256828308,-0.7177034014277819,0.0,-1.7350001335126093,-0.3499998748298839,-0.7177032229409075,0.0
1759837628.3829072,0,-1.2049998044967651,-0.8299996256828308,-0.7177034108575846,0.0,-1.7350001335129561,-0.3499998748299538,-0.7177032229964749,0.0
1759837628.3941905,0,-1.2049998044967651,-0.8299996256828308,-0.7177034171736771,0.0,-1.7350001335132326,-0.3499998748300096,-0.7177032230407807,0.0
1759837628.4054441,0,-1.2049998044967651,-0.8299996256828308,-0.7177034237606321,0.0,-1.7350001335134666,-0.3499998748300568,-0.7177032230782374,0.0
1759837628.4163718,0,-1.2049998044967651,-0.8299996256828308,-0.7177034319273634,0.0,-1.7350001335136516,-0.34999987483009415,-0.7177032231078901,0.0
1759837628.4270682,0,-1.2049998044967651,-0.8299996256828308,-0.7177034406659235,0.0,-1.7350001335137986,-0.34999987483012385,-0.7177032231314314,0.0
1759837628.438068,0,-1.2049998044967651,-0.8299996256828308,-0.717703447422732,0.0,-1.7350001335139156,-0.34999987483014744,-0.7177032231501627,0.0
1759837628.4488711,0,-1.2049998044967651,-0.8299996256828308,-0.7177034546427912,0.0,-1.7350001335140088,-0.34999987483016626,-0.7177032231651085,0.0
1759837628.4609475,0,-1.2049998044967651,-0.8299996256828308,-0.7177034566757712,0.0,-1.7350001335140877,-0.3499998748301822,-0.7177032231777455,0.0
1759837628.4716277,0,-1.2049998044967651,-0.8299996256828308,-0.7177034648540328,0.0,-1.7350001335141503,-0.3499998748301948,-0.7177032231877533,0.0
1759837628.4828885,0,-1.2049998044967651,-0.8299996256828308,-0.7177034705052953,0.0,-1.7350001335141998,-0.3499998748302048,-0.7177032231956944,0.0
1759837628.4936693,0,-1.2049998044967651,-0.8299996256828308,-0.7177034776090245,0.0,-1.7350001335142393,-0.3499998748302127,-0.7177032232020154,0.0
1759837628.504432,0,-1.2049998044967651,-0.8299996256828308,-0.7177034842295704,0.0,-1.7350001335142706,-0.34999987483021905,-0.7177032232070598,0.0
1759837628.5153232,0,-1.2049998044967651,-0.8299996256828308,-0.7177034898736139,0.0,-1.7350001335142957,-0.34999987483022416,-0.7177032232110953,0.0
1759837628.5262427,0,-1.2049998044967651,-0.8299996256828308,-0.7177034950956288,0.0,-1.7350001335143173,-0.34999987483022843,-0.7177032232145238,0.0
1759837628.5370798,0,-1.2049998044967651,-0.8299996256828308,-0.717703500338585,0.0,-1.7350001335143341,-0.34999987483023187,-0.717703223217245,0.0
1759837628.547286,0,-1.2049998044967651,-0.8299996256828308,-0.7177035071101479,0.0,-1.7350001335143477,-0.3499998748302346,-0.7177032232194118,0.0
1759837628.5583487,0,-1.2049998044967651,-0.8299996256828308,-0.7177035107223446,0.0,-1.7350001335143586,-0.3499998748302368,-0.7177032232211399,0.0
1759837628.5693958,0,-1.2049998044967651,-0.8299996256828308,-0.717703514356673,0.0,-1.7350001335143672,-0.3499998748302386,-0.7177032232225214,0.0
1759837628.5807588,0,-1.2049998044967651,-0.8299996256828308,-0.7177035173020112,0.0,-1.7350001335143745,-0.34999987483024003,-0.7177032232236988,0.0
1759837628.5914493,0,-1.2049998044967651,-0.8299996256828308,-0.7177035222194714,0.0,-1.7350001335143803,-0.3499998748302412,-0.7177032232246323,0.0
1759837628.6024566,0,-1.2049998044967651,-0.8299996256828308,-0.7177035260995764,0.0,-1.735000133514385,-0.34999987483024214,-0.7177032232253743,0.0
1759837628.612763,0,-1.2049998044967651,-0.8299996256828308,-0.7177035314695139,0.0,-1.7350001335143888,-0.34999987483024286,-0.7177032232259659,0.0
1759837628.6229131,0,-1.2049998044967651,-0.8299996256828308,-0.7177035366139961,0.0,-1.7350001335143916,-0.3499998748302435,-0.7177032232264389,0.0
1759837628.6341054,0,-1.2049998044967651,-0.8299996256828308,-0.7177035388259476,0.0,-1.7350001335143943,-0.349999874830244,-0.7177032232268417,0.0
1759837628.6450148,0,-1.2049998044967651,-0.8299996256828308,-0.7177035417921704,0.0,-1.7350001335143963,-0.3499998748302444,-0.7177032232271603,0.0
1759837628.656868,0,-1.2049998044967651,-0.8299996256828308,-0.7177035429393044,0.0,-1.7350001335143979,-0.34999987483024475,-0.717703223227413,0.0
1759837628.66764,0,-1.2049998044967651,-0.8299996256828308,-0.7177035467812587,0.0,-1.7350001335143992,-0.349999874830245,-0.717703223227614,0.0
1759837628.678472,0,-1.2049998044967651,-0.8299996256828308,-0.717703550380751,0.0,-1.7350001335144,-0.3499998748302452,-0.7177032232277745,0.0
1759837628.6890202,0,-1.2049998044967651,-0.8299996256828308,-0.7177035542455794,0.0,-1.735000133514401,-0.3499998748302453,-0.7177032232279029,0.0
1759837628.6999776,0,-1.2049998044967651,-0.8299996256828308,-0.7177035570235137,0.0,-1.7350001335144016,-0.3499998748302454,-0.717703223228012,0.0
1759837628.7111037,0,-1.2049998044967651,-0.8299996256828308,-0.7177035594138915,0.0,-1.735000133514402,-0.3499998748302455,-0.7177032232280987,0.0
1759837628.7220037,0,-1.2049998044967651,-0.8299996256828308,-0.7177035622231056,0.0,-1.7350001335144025,-0.34999987483024564,-0.7177032232281675,0.0
1759837628.7333796,0,-1.2049998044967651,-0.8299996256828308,-0.7177035642009741,0.0,-1.735000133514403,-0.34999987483024575,-0.7177032232282224,0.0
1759837628.744562,0,-1.2049998044967651,-0.8299996256828308,-0.7177035666000791,0.0,-1.7350001335144034,-0.34999987483024575,-0.7177032232282663,0.0
1759837628.755938,0,-1.2049998044967651,-0.8299996256828308,-0.7177035687437295,0.0,-1.7350001335144034,-0.34999987483024575,-0.7177032232283036,0.0
1759837628.7668107,0,-1.2049998044967651,-0.8299996256828308,-0.7177035716633036,0.0,-1.7350001335144034,-0.34999987483024575,-0.7177032232283331,0.0
1759837628.7775412,0,-1.2049998044967651,-0.8299996256828308,-0.7177035745919246,0.0,-1.7350001335144034,-0.34999987483024575,-0.7177032232283566,0.0
1759837628.7877855,0,-1.2049998044967651,-0.8299996256828308,-0.7177035778937154,0.0,-1.7350001335144034,-0.34999987483024575,-0.7177032232283753,0.0
1759837628.7992127,0,-1.2049998044967651,-0.8299996256828308,-0.7177035792511575,0.0,-1.7350001335144034,-0.34999987483024575,-0.7177032232283903,0.0
1759837628.8105114,0,-1.2049998044967651,-0.8299996256828308,-0.7177035808671537,0.0,-1.7350001335144034,-0.34999987483024575,-0.7177032232284031,0.0
1759837628.8208015,0,-1.2049998044967651,-0.8299996256828308,-0.7177035838064647,0.0,-1.7350001335144034,-0.34999987483024575,-0.7177032232284131,0.0
1759837628.83167,0,-1.2049998044967651,-0.8299996256828308,-0.7177035857640082,0.0,-1.7350001335144034,-0.34999987483024575,-0.7177032232284211,0.0
1759837628.8429308,0,-1.2049998044967651,-0.8299996256828308,-0.7177035871549737,0.0,-1.7350001335144034,-0.34999987483024575,-0.7177032232284275,0.0
1759837628.8539512,0,-1.2049998044967651,-0.8299996256828308,-0.7177035888813919,0.0,-1.7350001335144034,-0.34999987483024575,-0.7177032232284327,0.0
1759837628.8647177,0,-1.2049998044967651,-0.8299996256828308,-0.7177035908666642,0.0,-1.7350001335144034,-0.34999987483024575,-0.717703223228437,0.0
1759837628.8754184,0,-1.2049998044967651,-0.8299996256828308,-0.7177035927966776,0.0,-1.7350001335144034,-0.34999987483024575,-0.7177032232284405,0.0
1759837628.8861094,0,-1.2049998044967651,-0.8299996256828308,-0.7177035945918266,0.0,-1.7350001335144034,-0.34999987483024575,-0.7177032232284433,0.0
1759837628.89701,0,-1.2049998044967651,-0.8299996256828308,-0.7177035960645597,0.0,-1.7350001335144034,-0.34999987483024575,-0.7177032232284454,0.0
1759837628.9076002,0,-1.2049998044967651,-0.8299996256828308,-0.7177035977774047,0.0,-1.7350001335144034,-0.34999987483024575,-0.717703223228447,0.0
1759837628.918416,0,-1.2049998044967651,-0.8299996256828308,-0.7177035991784475,0.0,-1.7350001335144034,-0.34999987483024575,-0.7177032232284486,0.0
1759837628.9295738,0,-1.2049998044967651,-0.8299996256828308,-0.717703600236975,0.0,-1.7350001335144034,-0.34999987483024575,-0.7177032232284497,0.0
1759837628.9407032,0,-1.2049998044967651,-0.8299996256828308,-0.7177036013744651,0.0,-1.7350001335144034,-0.34999987483024575,-0.7177032232284506,0.0
1759837628.9518638,0,-1.2049998044967651,-0.8299996256828308,-0.7177036025313548,0.0,-1.7350001335144034,-0.34999987483024575,-0.7177032232284514,0.0
1759837628.9776905,0,-1.2049998044967651,-0.8299996256828308,-0.7177035930563385,0.0,-1.7350001335144034,-0.34999987483024575,-0.717703223228452,0.0
1759837628.9882805,0,-1.2049998044967651,-0.8299996256828308,-0.7177035978769837,0.0,-1.7349992209546248,-0.35000067150633407,-0.7177032129952317,0.00012113868659983851
1759837628.9991145,0,-1.2049998044967651,-0.8299996256828308,-0.7177036021792276,0.0,-1.734998319472012,-0.3500026126274166,-0.7177032056434401,0.00021892336547752063
1759837629.0101094,0,-1.2049998044967651,-0.8299996256828308,-0.7177036053700583,0.0,-1.7349973999727435,-0.35000529267400304,-0.7177032012445016,0.00030052703640107316
1759837629.0212436,0,-1.2049998044967651,-0.8299996256828308,-0.7177036077658698,0.0,-1.734995678623455,-0.3500090644890228,-0.71770319788642,0.001696091379616938
1759837629.032616,0,-1.2049998044967651,-0.8299996256828308,-0.7177036095598304,0.0,-1.7349924358076632,-0.35002703789370837,-0.7177031954026216,0.00281474282290603
1759837629.0438259,0,-1.2049998044967651,-0.8299996256828308,-0.7177036111707782,0.0,-1.7349880792988075,-0.35005371875099095,-0.7177031938326406,0.003729984302269647
1759837629.0552704,0,-1.2049998044967651,-0.8299996256828308,-0.7177036124364982,0.0,-1.7349828917738817,-0.3500858565888864,-0.7177031924766877,0.004492599523545459
1759837629.0662465,0,-1.2049998044967651,-0.8299996256828308,-0.7177036138239252,0.0,-1.734977409888259,-0.3501206204558391,-0.7177031916797707,0.005122864522322455
1759837629.0764227,0,-1.2049998044967651,-0.8299996256828308,-0.7177036154568714,0.0,-1.7349720005664082,-0.3501558112654225,-0.7177031909706946,0.005640837183917923
1759837629.0871148,0,-1.2049998044967651,-0.8299996256828308,-0.7177036165655757,0.0,-1.7349672829253227,-0.35018872594892503,-0.7177031909483875,0.006028376296820557
1759837629.097402,0,-1.2049998044967651,-0.8299996256828308,-0.7177036177194456,0.0,-1.7349627094569682,-0.35022015224683345,-0.7177031913602784,0.006354444165692266
1759837629.1076074,0,-1.2049998044967651,-0.8299996256828308,-0.7177036187606909,0.0,-1.734958437578357,-0.3502494413852146,-0.7177031916265995,0.00662726262093695
1759837629.1178074,0,-1.2049998044967651,-0.8299996256828308,-0.7177036196674287,0.0,-1.7349542535377425,-0.35027730540760227,-0.7177031918907585,0.006865486051142067
1759837629.129018,0,-1.2049998044967651,-0.8299996256828308,-0.7177036200234016,0.0,-1.7349502615726935,-0.3503034246503969,-0.7177031922339986,0.007073514154863008
1759837629.1399643,0,-1.2049998044967651,-0.8299996256828308,-0.717703620547077,0.0,-1.7349474700686898,-0.3503241934254771,-0.7177031929081722,0.007193964113675113
1759837629.1514897,0,-1.2049998044967651,-0.8299996256828308,-0.7177036208695071,0.0,-1.7349447748565212,-0.3503432674159036,-0.7177031935567928,0.007306458367634681
1759837629.1623604,0,-1.2049998044967651,-0.8299996256828308,-0.7177036215381598,0.0,-1.7349421895421986,-0.3503608729921272,-0.7177031941307546,0.007411415389857026
1759837629.172801,0,-1.2049998044967651,-0.8299996256828308,-0.7177036223650539,0.0,-1.7349396992268593,-0.35037724360870864,-0.717703194764533,0.0075101522418468255
1759837629.1837847,0,-1.2049998044967651,-0.8299996256828308,-0.7177036229092444,0.0,-1.734937270992884,-0.35039265228834443,-0.7177031954244285,0.007604892648587117
1759837629.193934,0,-1.2049998044967651,-0.8299996256828308,-0.7177036237379113,0.0,-1.7349361099088434,-0.3504025061518072,-0.7177031963421192,0.0076263061762653845
1759837629.2041755,0,-1.2049998044967651,-0.8299996256828308,-0.7177036244430361,0.0,-1.7349348815663936,-0.35041171665261306,-0.7177031971873672,0.007657569730621617
1759837629.2148411,0,-1.2049998044967651,-0.8299996256828308,-0.7177036249227946,0.0,-1.7349336091512186,-0.35042042686709923,-0.7177031979533997,0.007696461795091795
1759837629.2262259,0,-1.2049998044967651,-0.8299996256828308,-0.7177036251508486,0.0,-1.7349322359845092,-0.3504291187894361,-0.7177031986330445,0.0077431138912571916
1759837629.2374098,0,-1.2049998044967651,-0.8299996256828308,-0.7177036255107367,0.0,-1.7349307811678052,-0.3504377957333958,-0.7177031992649391,0.007795835351104895
1759837629.2477381,0,-1.2049998044967651,-0.8299996256828308,-0.717703626175112,0.0,-1.7349305618471496,-0.35044122564034924,-0.7177032001012287,0.007780695495323274
1759837629.2590773,0,-1.2049998044967651,-0.8299996256828308,-0.7177036264839849,0.0,-1.7349301134657074,-0.3504450071915323,-0.7177032008595381,0.007783979215285867
1759837629.2699862,0,-1.2049998044967651,-0.8299996256828308,-0.7177036269404606,0.0,-1.7349294877636303,-0.35044918134751374,-0.7177032015215137,0.0078008085632651075
1759837629.2813954,0,-1.2049998044967651,-0.8299996256828308,-0.7177036272582384,0.0,-1.7349286809361457,-0.35045389007271716,-0.7177032021046313,0.007829448930576004
1759837629.2921963,0,-1.2049998044967651,-0.8299996256828308,-0.7177036277658786,0.0,-1.7349277183255907,-0.35045912388964484,-0.717703202668785,0.007867074682924084
1759837629.302588,0,-1.2049998044967651,-0.8299996256828308,-0.7177036283542862,0.0,-1.734927986163793,-0.3504592544046845,-0.7177032034178733,0.00783742519644292
1759837629.3129609,0,-1.2049998044967651,-0.8299996256828308,-0.7177036288818037,0.0,-1.734927971520818,-0.35046014311400586,-0.717703204106669,0.007827775484960005
1759837629.323155,0,-1.2049998044967651,-0.8299996256828308,-0.7177036293920924,0.0,-1.7349277238933136,-0.3504617814317448,-0.7177032047386821,0.007833508155540408
1759837629.3338134,0,-1.2049998044967651,-0.8299996256828308,-0.7177036297348991,0.0,-1.7349272643454317,-0.3504642456153934,-0.7177032053082649,0.007851851429446078
1759837629.3440146,0,-1.2049998044967651,-0.8299996256828308,-0.7177036301658202,0.0,-1.734926613876443,-0.35046748703999386,-0.7177032058599282,0.007880278632653672
1759837629.354384,0,-1.2049998044967651,-0.8299996256828308,-0.7177036305240669,0.0,-1.7349271036865757,-0.3504660501861594,-0.717703206600323,0.007846187581938405
1759837629.3656628,0,-1.2049998044967651,-0.8299996256828308,-0.7177036306655573,0.0,-1.734927252898204,-0.35046572075705257,-0.717703207265364,0.007834115616613384
1759837629.3759344,0,-1.2049998044967651,-0.8299996256828308,-0.7177036310543201,0.0,-1.7349271467589586,-0.35046635452449176,-0.717703207877987,0.007837677331955128
1759837629.3866293,0,-1.2049998044967651,-0.8299996256828308,-0.7177036313386012,0.0,-1.7349267935352408,-0.3504679943426785,-0.7177032083387899,0.007854720889463335
1759837629.3971918,0,-1.2049998044967651,-0.8299996256828308,-0.7177036316408129,0.0,-1.7349262198391524,-0.3504706036370346,-0.7177032086707158,0.00788260991995899
1759837629.4074707,0,-1.2049998044967651,-0.8299996256828308,-0.7177036319856249,0.0,-1.7349268962900413,-0.3504681274642364,-0.7177032090778953,0.007841818938764029
1759837629.4188366,0,-1.2049998044967651,-0.8299996256828308,-0.7177036321087833,0.0,-1.7349272013029373,-0.3504669032323463,-0.7177032095894009,0.007824515676892947
1759837629.430275,0,-1.2049998044967651,-0.8299996256828308,-0.7177036322540022,0.0,-1.7349272068949113,-0.3504668587691542,-0.7177032100474775,0.007825172345352032
1759837629.4418607,0,-1.2049998044967651,-0.8299996256828308,-0.7177036324163311,0.0,-1.734926926042851,-0.3504680124960172,-0.7177032104577873,0.00784103267154317
1759837629.453128,0,-1.2049998044967651,-0.8299996256828308,-0.7177036326655752,0.0,-1.734926394960361,-0.35047028080641807,-0.717703210834162,0.007868936796030193
1759837629.4698596,0,-1.2049998044967651,-0.8299996256828308,-0.7177036320967183,0.0,-1.7349268878362465,-0.3504684268481652,-0.7177032112350733,0.007839868938765798
1759837629.4738915,0,-1.2049998044967651,-0.8299996256828308,-0.7177036336531302,0.0,-1.7349272126228135,-0.35046706904221697,-0.7177032116613539,0.007822183555374783
1759837629.484284,0,-1.2049998044967651,-0.8299996256828308,-0.7177036339621096,0.0,-1.7349272510317395,-0.35046682920250616,-0.7177032121724567,0.007821437163434182
1759837629.4948452,0,-1.2049998044967651,-0.8299996256828308,-0.7177036341408201,0.0,-1.7349270238204197,-0.35046770634203456,-0.7177032125604311,0.007834798528381558
1759837629.5054266,0,-1.2049998044967651,-0.8299996256828308,-0.7177036343123042,0.0,-1.7349265641416656,-0.35046963162939226,-0.7177032129553239,0.007859546179524633
1759837629.5154374,0,-1.2049998044967651,-0.8299996256828308,-0.7177036345622092,0.0,-1.734927196140845,-0.3504671446618678,-0.7177032133610275,0.00782376426114438
1759837629.52657,0,-1.2049998044967651,-0.8299996256828308,-0.7177036346485686,0.0,-1.7349274791266132,-0.35046590184056775,-0.7177032137842686,0.007809728980815921
1759837629.5380955,0,-1.2049998044967651,-0.8299996256828308,-0.717703634708176,0.0,-1.73492744290736,-0.3504659283146724,-0.71770321412645,0.00781367051538889
1759837629.548468,0,-1.2049998044967651,-0.8299996256828308,-0.7177036349434491,0.0,-1.734927158453409,-0.35046703523794503,-0.7177032144335317,0.007830439727455592
1759837629.560057,0,-1.2049998044967651,-0.8299996256828308,-0.7177036350283021,0.0,-1.7349266213045909,-0.3504692921227389,-0.7177032146610313,0.007859317648559093
1759837629.5705538,0,-1.2049998044967651,-0.8299996256828308,-0.717703635255587,0.0,-1.7349271670774655,-0.35046718336464155,-0.7177032149857453,0.007827686577282753
1759837629.581991,0,-1.2049998044967651,-0.8299996256828308,-0.717703635369805,0.0,-1.7349273553590179,-0.35046635088050404,-0.7177032153300066,0.007817765538985968
1759837629.5923467,0,-1.2049998044967651,-0.8299996256828308,-0.7177036356060142,0.0,-1.7349272762898083,-0.35046660676336155,-0.7177032155137166,0.007823160121023767
1759837629.6036398,0,-1.2049998044967651,-0.8299996256828308,-0.7177036357282756,0.0,-1.7349269282605213,-0.3504680230387769,-0.717703215644289,0.007842439584809582
1759837629.613935,0,-1.2049998044967651,-0.8299996256828308,-0.7177036359501301,0.0,-1.7349263625734268,-0.35047043792030796,-0.7177032158655724,0.00787181576789232
1759837629.6240835,0,-1.2049998044967651,-0.8299996256828308,-0.7177036361642486,0.0,-1.7349270558344485,-0.35046776234927696,-0.7177032161156041,0.007831553842531673
1759837629.6352315,0,-1.2049998044967651,-0.8299996256828308,-0.7177036362608771,0.0,-1.734927392137899,-0.350466327729287,-0.7177032164187431,0.00781398357121597
1759837629.6464505,0,-1.2049998044967651,-0.8299996256828308,-0.7177036363568304,0.0,-1.7349274105021695,-0.3504661327325028,-0.7177032166919874,0.00781469780938102
1759837629.656762,0,-1.2049998044967651,-0.8299996256828308,-0.7177036365404028,0.0,-1.7349271778484257,-0.3504670160420179,-0.7177032169428101,0.007828721880514818
1759837629.6715534,0,-1.2049998044967651,-0.8299996256828308,-0.7177036363495901,0.0,-1.7349266033554451,-0.3504694003303344,-0.7177032171462588,0.007859753319704486
1759837629.6829283,0,-1.2049998044967651,-0.8299996256828308,-0.7177036365184186,0.0,-1.7349271023921142,-0.3504674673222159,-0.7177032174074562,0.007830467400626994
1759837629.6932268,0,-1.2049998044967651,-0.8299996256828308,-0.7177036367757399,0.0,-1.7349272878861148,-0.35046665793191484,-0.7177032176392031,0.007820626148115833
1759837629.703979,0,-1.2049998044967651,-0.8299996256828308,-0.7177036369603336,0.0,-1.7349271957653185,-0.3504669763448792,-0.7177032178504549,0.007826637391844221
1759837629.7142692,0,-1.2049998044967651,-0.8299996256828308,-0.717703637149679,0.0,-1.7349268607537605,-0.3504683481136891,-0.7177032180412808,0.007845095479615673
1759837629.7243948,0,-1.2049998044967651,-0.8299996256828308,-0.7177036373223212,0.0,-1.7349263168378417,-0.350470685787208,-0.7177032182169909,0.007873402335409297
1759837629.734532,0,-1.2049998044967651,-0.8299996256828308,-0.7177036374682261,0.0,-1.7349268723726206,-0.35046858694845645,-0.7177032184011244,0.007840715620693745
1759837629.7448845,0,-1.2049998044967651,-0.8299996256828308,-0.7177036375808186,0.0,-1.734927089797837,-0.35046765965678234,-0.7177032185905464,0.007828710381230338
1759837629.7551074,0,-1.2049998044967651,-0.8299996256828308,-0.717703637690871,0.0,-1.7349270397403862,-0.35046780626569907,-0.7177032187492391,0.007832265994733053
1759837629.7652767,0,-1.2049998044967651,-0.8299996256828308,-0.7177036377948198,0.0,-1.7349267484965711,-0.3504689918511981,-0.7177032188814877,0.007848476333928522
1759837629.7761862,0,-1.2049998044967651,-0.8299996256828308,-0.7177036378476132,0.0,-1.7349262155534853,-0.35047125787871286,-0.7177032190026156,0.007876247968483263
1759837629.7867036,0,-1.2049998044967651,-0.8299996256828308,-0.7177036379279649,0.0,-1.7349268105808437,-0.3504689706322661,-0.7177032191369666,0.007841555553278225
1759837629.7968621,0,-1.2049998044967651,-0.8299996256828308,-0.7177036380277997,0.0,-1.7349270825626661,-0.3504678092242682,-0.7177032192560954,0.00782722841946732
1759837629.8072786,0,-1.2049998044967651,-0.8299996256828308,-0.7177036381062827,0.0,-1.7349270657661635,-0.35046778749253304,-0.717703219319062,0.007829433114333012
1759837629.818527,0,-1.2049998044967651,-0.8299996256828308,-0.7177036381391204,0.0,-1.7349267776117678,-0.3504689306527595,-0.7177032193888261,0.007845953872893333
1759837629.8287616,0,-1.2049998044967651,-0.8299996256828308,-0.7177036382316615,0.0,-1.7349262693993166,-0.35047108047270537,-0.7177032194680201,0.007872898938476544
1759837629.8389099,0,-1.2049998044967651,-0.8299996256828308,-0.7177036383233287,0.0,-1.7349255636029266,-0.35047416919356716,-0.7177032195526489,0.007908401429660953
1759837629.849092,0,-1.2049998044967651,-0.8299996256828308,-0.7177036384043269,0.0,-1.7349261749041456,-0.35047194275276583,-0.717703219657616,0.007871131791293794
1759837629.859975,0,-1.2049998044967651,-0.8299996256828308,-0.7177036384472437,0.0,-1.7349264225482472,-0.350470942922205,-0.7177032197884964,0.007856367902874094
1759837629.870403,0,-1.2049998044967651,-0.8299996256828308,-0.7177036385135995,0.0,-1.7349263949895937,-0.35047102759008736,-0.7177032199104515,0.007857983581819827
1759837629.8807042,0,-1.2049998044967651,-0.8299996256828308,-0.7177036385840552,0.0,-1.7349261202171824,-0.3504721619365032,-0.7177032200228142,0.007872831805643181
1759837629.8916988,0,-1.2049998044967651,-0.8299996256828308,-0.7177036386224351,0.0,-1.7349256042298502,-0.3504743737832774,-0.7177032201279336,0.007899495741553908
1759837629.9022372,0,-1.2049998044967651,-0.8299996256828308,-0.7177036386828188,0.0,-1.7349262627936561,-0.35047182265365984,-0.7177032202642873,0.00786135884038008
1759837629.9136493,0,-1.2049998044967651,-0.8299996256828308,-0.7177036387100078,0.0,-1.734926548675554,-0.35047057361881334,-0.7177032203862713,0.007846240618165268
1759837629.9238586,0,-1.2049998044967651,-0.8299996256828308,-0.7177036387882616,0.0,-1.7349265586315916,-0.35047042781669546,-0.7177032204977498,0.007847256456923612
1759837629.9351337,0,-1.2049998044967651,-0.8299996256828308,-0.7177036388234992,0.0,-1.7349262917806425,-0.35047146624980363,-0.717703220600325,0.007862887717929545
1759837629.9453208,0,-1.2049998044967651,-0.8299996256828308,-0.7177036388986622,0.0,-1.734925802217745,-0.350473521490749,-0.7177032206901568,0.007889079592627135
1759837629.9556963,0,-1.2049998044967651,-0.8299996256828308,-0.7177036389610228,0.0,-1.7349263796883474,-0.350471263929425,-0.7177032208001958,0.007856057213007427
1759837629.9670234,0,-1.2049998044967651,-0.8299996256828308,-0.7177036389874374,0.0,-1.7349265970359562,-0.3504702918514806,-0.7177032208966603,0.007844892285022411
1759837629.978222,0,-1.2049998044967651,-0.8299996256828308,-0.7173761180644717,0.005235987755982988,-1.7349265208774187,-0.35047051514226707,-0.7177032209825018,0.007850441014864103
1759837629.9884174,0,-1.2049998044967651,-0.8299996256828308,-0.7174061383121451,0.005235987755982988,-1.7349262037191417,-0.350471792148697,-0.7177032210532744,0.007868341421082874
1759837629.9987946,0,-1.2049998044967651,-0.8299996256828308,-0.7173862057750665,0.005235987755982988,-1.7349256652856822,-0.3504740867461289,-0.7177032211059738,0.007896628467054162
1759837630.0096097,0,-1.204999015624073,-0.8300003143791261,-0.7174092181895827,0.005288347633542818,-1.7349263365772765,-0.3504714765020259,-0.7177032211329528,0.00785796827950623
1759837630.0200746,0,-1.2049976671868732,-0.8300027985785886,-0.7173589650709166,0.005365205526395916,-1.7349266564215213,-0.3504700775298498,-0.7177032212108677,0.007841186069352678
1759837630.0305424,0,-1.2049924006151287,-0.8300083691760212,-0.7173373878074422,0.005967136134521518,-1.7349266898626148,-0.35046981877393185,-0.7177032212858102,0.007841197533500068
1759837630.0405436,0,-1.204987189756657,-0.830019454530047,-0.7173084646162081,0.006457555391801401,-1.7349264760376297,-0.3504706189155828,-0.7177032213536385,0.007854300248976473
1759837630.051515,0,-1.2049822996780781,-0.8300336623401656,-0.7172919945849041,0.006853696900670756,-1.7349260141006986,-0.35047253421478386,-0.7177032214192851,0.007879456393589224
1759837630.0618308,0,-1.2049822996780786,-0.8300336623401661,-0.7173071592072425,0.006853696900670756,-1.7349253488608338,-0.3504754204763996,-0.7177032214687016,0.007913580547681475
1759837630.075006,0,-1.2038980905832526,-0.8311037912523292,-0.7167480000461982,0.017905904654020467,-1.734925780335538,-0.3504738832754524,-0.7177032215295015,0.007886472736476736
1759837630.085684,0,-1.203495033328502,-0.8314799878854526,-0.7163413382411138,0.018369282214477478,-1.7349258851565206,-0.35047349780753184,-0.7177032215994106,0.007879289482206175
1759837630.096078,0,-1.2033290423826195,-0.8316379133025469,-0.7160340159184889,0.01865048944173925,-1.7349257289225488,-0.3504741671592088,-0.7177032216630327,0.00788709269548827
1759837630.1067042,0,-1.2032535822210972,-0.8317174115838956,-0.7158335919901528,0.018885881485479056,-1.7349253292145517,-0.35047588791274065,-0.7177032217195767,0.00790751090375814
1759837630.1171293,0,-1.2032157926706506,-0.8317639564837647,-0.715660446765073,0.01908343869947743,-1.734925978113577,-0.35047334149722587,-0.7177032217866969,0.007870473109844213
1759837630.127444,0,-1.2031934978196543,-0.8317966010732958,-0.7155142145911056,0.019250977772281488,-1.734926283739602,-0.3504719912521757,-0.7177032218445905,0.007854718372902043
1759837630.1378338,0,-1.2031593372261205,-0.8318388003351243,-0.7154241792831991,0.019479414218938253,-1.734926293006247,-0.350471809224061,-0.7177032218904966,0.007855858598588816
1759837630.148698,0,-1.2031309896330606,-0.8318761344084056,-0.7153438225533718,0.019670402871173394,-1.7349259886816366,-0.3504728003256158,-0.717703221928949,0.007878458934602964
1759837630.1590261,0,-1.2031100945579432,-0.8319068191382456,-0.7152817769138486,0.019832619601850583,-1.7349254484266161,-0.35047492219308846,-0.7177032219640469,0.007910731141367765
1759837630.1699748,0,-1.2030906046861414,-0.8319357791496821,-0.7152355710182624,0.01996948318069541,-1.7349259978310334,-0.35047250206208097,-0.7177032220134258,0.007963714933667921
1759837630.1802118,0,-1.2030776252116306,-0.8319568317390164,-0.715220081310387,0.020061143447643315,-1.7349261136060172,-0.35047218586142653,-0.7177032220539558,0.008019840316300108
1759837630.1916246,0,-1.2030624056270283,-0.83197929434914,-0.7151574318241806,0.020141971624702416,-1.7349258373684588,-0.35047369792848687,-0.7177032220910892,0.008081387108038912
1759837630.2019815,0,-1.2030645058469327,-0.8319774643756839,-0.7151489654446023,0.020141971624702416,-1.734925271862978,-0.35047664908257264,-0.7177032221186518,0.008145044982344543
1759837630.2129354,0,-1.2030449032099735,-0.8320114541126724,-0.7151410427022945,0.020280358764361784,-1.7349244237286257,-0.35048091968544487,-0.7177032221399586,0.008212738128917922
1759837630.224268,0,-1.2030433332928057,-0.832012815991413,-0.7151523162172799,0.020280358764361784,-1.7349248780230542,-0.3504800202596116,-0.7177032221677278,0.008200707384015427
1759837630.2349067,0,-1.2030376761693167,-0.8320254578835681,-0.7151354772105828,0.02033924886337288,-1.7349249677571077,-0.35048034202589934,-0.7177032222005184,0.00820646211222778
1759837630.2456274,0,-1.2030280850962802,-0.832043743573949,-0.7151177269408,0.020389382432805022,-1.7349247656273605,-0.3504817828378505,-0.717703222239598,0.008225848979621543
1759837630.2560046,0,-1.2030253131646382,-0.832050800379616,-0.7151379247448973,0.020416377509508834,-1.7349243071825668,-0.35048426129506466,-0.7177032222772053,0.00825603790314987
1759837630.2662196,0,-1.203026269790572,-0.832049970059343,-0.715126513338822,0.020416377509508834,-1.7349236342813326,-0.35048766714379226,-0.7177032223055978,0.008294623494293314
1759837630.277968,0,-1.1960031920831526,-0.8386051257224109,-0.7078915172947338,0.07931623801252861,-1.7349227242838414,-0.35049211844092,-0.7177032223310837,0.008342590131324655
1759837630.288282,0,-1.1933943853482933,-0.8408014903117644,-0.702175713019954,0.07934474201274559,-1.7349230537983258,-0.35049155135658233,-0.7177032223665565,0.008319917717668627
1759837630.2984107,0,-1.1922662997556777,-0.841750780505381,-0.697706881450425,0.07999032053194549,-1.7349230847284736,-0.3504919438817071,-0.717703222398488,0.008315971093654256
1759837630.3085907,0,-1.191671673782866,-0.8422621119406477,-0.6943279247582944,0.08109022149126063,-1.734921989684788,-0.35049409836615575,-0.7177032224275547,0.008440315732192439
1759837630.318679,0,-1.1913440133767224,-0.8425565153356498,-0.6917714586993675,0.08197625910288586,-1.7349206728753137,-0.35049826273348916,-0.7177032224553285,0.008554967527754235
1759837630.3288867,0,-1.1911318652851945,-0.8427583653637104,-0.6898914488197931,0.0826986510334495,-1.7349191477889507,-0.35050401128038156,-0.7177032224817258,0.008663722537172023
1759837630.3395877,0,-1.190970983318616,-0.8429193702966402,-0.688465630585666,0.0832900050240683,-1.734917998046486,-0.3505061746761301,-0.7177032225136794,0.009933592826791137
1759837630.3497956,0,-1.1908600319411942,-0.8430367530339846,-0.6874561372043237,0.08376700124099244,-1.7349151107726466,-0.3505226113425758,-0.7177032225406078,0.010967805686052379
1759837630.3599825,0,-1.1907681102847236,-0.843138444998993,-0.6866448662997868,0.08416377397180054,-1.7349108640238888,-0.3505483353795693,-0.7177032225643772,0.011830913859826705
1759837630.3707287,0,-1.190681191249937,-0.8432349747205005,-0.6860345418260035,0.08448949602954736,-1.7349057409883843,-0.3505799359509449,-0.717703222586323,0.012557513932769672
1759837630.381975,0,-1.1906042901493588,-0.8433219331572673,-0.6855598872889325,0.08475869186289087,-1.734901788849817,-0.3506085036545359,-0.7177032226128821,0.013072970760086603
1759837630.3930662,0,-1.1905502116500077,-0.8433887956573558,-0.6852202876387302,0.08498273274371242,-1.7348973919870176,-0.3506387933050223,-0.71770322263639,0.013516551888949612
1759837630.4031765,0,-1.1905263102796,-0.8434257516908636,-0.6850451519894648,0.08515180759308984,-1.734892779055799,-0.3506696440868875,-0.7177032226527638,0.013900267851937783
1759837630.413304,0,-1.1904975825146915,-0.8434659678249811,-0.6848655888355811,0.08529574590902117,-1.7348880475211257,-0.35070045091096136,-0.7177032226605099,0.014236794669422253
1759837630.4238417,0,-1.1904619051234666,-0.8435110024808424,-0.6847524273655882,0.08541983460231231,-1.734883146816361,-0.35073126510994684,-0.7177032226698196,0.014540440322145057
1759837630.4339812,0,-1.190467876336839,-0.8435060790251214,-0.6847355243440894,0.08541983460231231,-1.7348804673085678,-0.3507528216765655,-0.7177032226819166,0.014687019205029973
1759837630.4443054,0,-1.1904218924373613,-0.8435676875288926,-0.6846353584027853,0.085591692092767,-1.7348775964349286,-0.3507737183314548,-0.7177032227019746,0.014832770232341632
1759837630.454703,0,-1.1904032616711777,-0.8435919217053032,-0.6845988792713875,0.08565147527598717,-1.734874549044507,-0.3507942954055643,-0.717703222720401,0.014978529372022093
1759837630.4648883,0,-1.1904068807723178,-0.8435890284914709,-0.6846438027851746,0.08565147527598717,-1.7348714515834724,-0.35081420530618435,-0.7177032227341984,0.015121444328781493
1759837630.4832983,0,-1.180616469389511,-0.8514370612435428,-0.6713600077381213,0.11065442860088788,-1.7348678266102016,-0.3508355524580075,-0.7177032227499214,0.015286434149232975
1759837630.4939942,0,-1.1771071959884707,-0.8541337342506706,-0.6614296822006592,0.11070032025520561,-1.734866686245772,-0.35084649167010024,-0.7177032227697083,0.015306400137354488
1759837630.5046413,0,-1.1756519164148638,-0.8552451402281531,-0.6539826464726141,0.11099331163841446,-1.734865193494066,-0.350857694788928,-0.7177032227878721,0.015351502669528548
1759837630.514757,0,-1.1748873279136247,-0.8558228026073819,-0.6481722870976675,0.11147305376762727,-1.7348634629981063,-0.35086909156031176,-0.7177032228051451,0.015413928136511663
1759837630.5260267,0,-1.1743983436182701,-0.8561926063451016,-0.6436574671160964,0.11186252559687972,-1.7348601877217464,-0.35088240234992873,-0.7177032228215737,0.015657634737688098
1759837630.5362735,0,-1.1741210047732813,-0.8564049109539603,-0.6404205274060105,0.11218262698033446,-1.7348566890799393,-0.35089788291814117,-0.71770322283674,0.015882363787809425
1759837630.5473182,0,-1.1738926331141208,-0.8565814952810585,-0.6379401127797969,0.11244740616840677,-1.7348542483384537,-0.350906083272903,-0.7177032228544711,0.01775244783413353
1759837630.5585542,0,-1.1737184404542513,-0.8567187410236018,-0.6360663878733234,0.11266843074121126,-1.7348491873374692,-0.35093506183871065,-0.7177032228684568,0.019285678080014884
1759837630.5692415,0,-1.1735965396203478,-0.8568124382393687,-0.6347188639884098,0.11283397589550485,-1.7348421872337891,-0.350977316048102,-0.7177032228809053,0.020570354353697168
1759837630.5805068,0,-1.173476540454832,-0.8569056289032873,-0.633671394673361,0.11297359544683434,-1.7348338809071562,-0.35102809687355113,-0.7177032228914892,0.02165911237496461
1759837630.5917087,0,-1.1733860097970246,-0.8569778955923694,-0.6329074804848374,0.1130922638504092,-1.7348247341536076,-0.35108400333550593,-0.7177032229013038,0.022592041199942688
1759837630.602469,0,-1.1733256139185555,-0.8570287868117227,-0.6324383439264842,0.11319455284267833,-1.734818586441643,-0.35112924368552173,-0.717703222913642,0.02319397125712093
1759837630.6126695,0,-1.1732866732649014,-0.8570646956336752,-0.6321638483100644,0.11328446573576043,-1.734811962282268,-0.35117520574556277,-0.7177032229232163,0.023725189053109393
1759837630.623073,0,-1.1732405614683865,-0.8570996163884659,-0.6319200537633402,0.11333485065744636,-1.734805224478211,-0.3512205643996542,-0.7177032229319602,0.02419332225393698
1759837630.633604,0,-1.1731972647604343,-0.8571336520385653,-0.631740493319727,0.11338288355098583,-1.7347981297121964,-0.3512660601773447,-0.7177032229405453,0.02462451574059174
1759837630.6443758,0,-1.173155392437032,-0.8571675221338775,-0.6316366553336151,0.11342798847613454,-1.7347908969192296,-0.35131099610206573,-0.7177032229484842,0.02502208266679437
1759837630.6546183,0,-1.1731678320246233,-0.8571586019970379,-0.6317012369447919,0.11342798847613454,-1.734787934484871,-0.3513380688465526,-0.7177032229575501,0.0251472568182615
1759837630.6652143,0,-1.173133442532214,-0.8571879729163289,-0.6316322880601865,0.11347133749233909,-1.7347843419734408,-0.3513652372768358,-0.7177032229659434,0.02530052852239171
1759837630.675827,0,-1.1621726436599769,-0.8648786503736198,-0.6170727680049282,0.1320702068423723,-1.7347803469981635,-0.3513924724727189,-0.7177032229755108,0.025471527573250684
1759837630.687261,0,-1.1578536948852276,-0.8678185652367898,-0.6050358375701796,0.13227561461889414,-1.7347759618975855,-0.3514200388892425,-0.7177032229842072,0.025659936030369715
1759837630.6975045,0,-1.1561345682992863,-0.8689715950891422,-0.5962877813233707,0.1324494152728338,-1.7347712982192605,-0.3514478237221464,-0.7177032229923439,0.025858256166035362
1759837630.7077928,0,-1.1555245484462895,-0.8693639029950485,-0.5901268011680455,0.1324494152728338,-1.7347706961690932,-0.3514584921927156,-0.7177032230010033,0.025827588697163756
1759837630.718102,0,-1.1548524938847784,-0.869807606537829,-0.5845798336780802,0.13289372073402897,-1.734769366461996,-0.3514703163022852,-0.7177032230109769,0.02584990441561255
1759837630.7295423,0,-1.154453571682233,-0.870062615741179,-0.5803861735896376,0.1331399003180273,-1.7347662582679193,-0.3514849165914726,-0.7177032230192517,0.026062174470956233
1759837630.7398124,0,-1.1542254949197297,-0.8702079586558507,-0.5775317652658842,0.13334397555170813,-1.7347625854666437,-0.351502467471916,-0.7177032230263329,0.02628044340326987
1759837630.750145,0,-1.1540395605475766,-0.8703275774183209,-0.575404547359469,0.13351453824376666,-1.734758416462896,-0.3515225875326023,-0.7177032230329001,0.026504777516566234
1759837630.7604616,0,-1.1540351018463904,-0.8703251793644674,-0.5743053207700574,0.13351453824376666,-1.7347538853028481,-0.35154472650516055,-0.7177032230378122,0.02673268108988231
1759837630.7705946,0,-1.153893599863363,-0.87041924391059,-0.5731254665874693,0.1336588076683259,-1.7347524836574533,-0.35155114983588337,-0.7177032230443039,0.02830358283076651
1759837630.78095,0,-1.1537654836865623,-0.8704990965690197,-0.5721956557379007,0.1337569443434778,-1.7347484076802584,-0.3515766125282077,-0.7177032230500879,0.029611514954706597
1759837630.7911222,0,-1.153669549014263,-0.8705598935004061,-0.5715318494968579,0.13384241526608145,-1.7347421619102172,-0.3516151449389421,-0.7177032230553393,0.030730926715844067
1759837630.8014188,0,-1.1535837286722668,-0.8706153340255697,-0.5710704347156222,0.13391733678333528,-1.7347344448088613,-0.3516623120035822,-0.7177032230604957,0.03169892815895809
1759837630.8119445,0,-1.1535043843362711,-0.8706681411753661,-0.5707096851139807,0.13398722265190152,-1.7347254469230624,-0.35171583173841253,-0.7177032230629852,0.032557778375241334
1759837630.822314,0,-1.1535063290925684,-0.8706666267149197,-0.5706837599239013,0.13398722265190152,-1.7347216789896702,-0.35174976963291205,-0.7177032230666356,0.03298726129883164
1759837630.8330033,0,-1.153393637561572,-0.8707341843974408,-0.5703158069457541,0.13405749204248088,-1.734716737169961,-0.3517867077148475,-0.7177032230725565,0.03340290120038857
1759837630.843114,0,-1.1533724418842213,-0.8707478640412396,-0.5702955265290269,0.134091190907266,-1.7347112176908672,-0.3518247985749646,-0.7177032230782532,0.03379311818987809
1759837630.8539152,0,-1.1533205490049978,-0.8707820595447995,-0.5701835722961358,0.13412493179544083,-1.7347049385196607,-0.3518648419960149,-0.7177032230839961,0.03417646385077711
