timestamp,observer_vehicle_id,vehicle_0_x,vehicle_0_y,vehicle_0_theta,vehicle_0_velocity,vehicle_1_x,vehicle_1_y,vehicle_1_theta,vehicle_1_velocity
1759837626.9713712,1,0.0,0.0,0.0,0.0,-1.735,-0.35,-0.7801621756414646,0.0
1759837626.982795,1,0.0,0.0,0.0,0.0,-1.735,-0.35,-0.7801621756414646,0.0
1759837626.9932036,1,-0.2403915864024157,-0.1655808789235721,-0.14317837733530042,0.0,-1.735,-0.35,-0.7801621756414646,0.0
1759837627.0046127,1,-0.4306251716986818,-0.2966131031604413,-0.2564824095812565,0.0,-1.735,-0.35,-0.7801621756414646,0.0
1759837627.0154128,1,-0.5816694925412845,-0.4006518999245898,-0.3464451286913752,0.0,-1.735,-0.35,-0.7801621756414646,0.0
1759837627.0264704,1,-0.7018736121118105,-0.4834480745602668,-0.4180392765843706,0.0,-1.735,-0.35,-0.7801621756414646,0.0
1759837627.0374851,1,-0.7977889999038426,-0.549514256204053,-0.47516693979035385,0.0,-1.735,-0.35,-0.7801621756414646,0.0
1759837627.0487108,1,-0.8787709508195443,-0.6052943390690194,-0.5234001766481002,0.0,-1.735,-0.35,-0.7801621756414646,0.0
1759837627.059298,1,-0.9429572624152888,-0.6495056446639428,-0.5616298504854885,0.0,-1.735,-0.35,-0.7801621756414646,0.0
1759837627.0704265,1,-0.9939315386391756,-0.684616546779772,-0.5919903729347225,0.0,-1.735,-0.35,-0.7801621756414646,0.0
1759837627.0817893,1,-1.0345102911815338,-0.71256704875923,-0.6161592718144843,0.0,-1.735,-0.35,-0.7801621756414646,0.0
1759837627.0924664,1,-1.0669235429753656,-0.7348931825524875,-0.6354647594376348,0.0,-1.735,-0.35,-0.7801621756414646,0.0
1759837627.1032014,1,-1.0943288713674852,-0.7537698763264535,-0.6517875039573044,0.0,-1.735,-0.35,-0.7801621756414646,0.0
1759837627.1140578,1,-1.1160545023439683,-0.7687344145038975,-0.6647273935613905,0.0,-1.735,-0.35,-0.7801621756414646,0.0
1759837627.1252925,1,-1.1333153541909147,-0.7806236285257333,-0.6750080393853825,0.0,-1.735,-0.35,-0.7801621756414646,0.0
1759837627.1363702,1,-1.1470677216356935,-0.7900962108355587,-0.6831990151376123,0.0,-1.735,-0.35,-0.7801621756414646,0.0
1759837627.1474123,1,-1.1580538152755118,-0.7976633934813466,-0.6897423849956975,0.0,-1.735,-0.35,-0.7801621756414646,0.0
1759837627.1583445,1,-1.167374318453318,-0.8040833232770909,-0.6952937212172275,0.0,-1.735,-0.35,-0.7801621756414646,0.0
1759837627.1692076,1,-1.17476261378447,-0.8091723551063129,-0.6996942252141416,0.0,-1.7350001324017843,-0.34999987587332726,-0.7229994748865725,0.0
1759837627.179714,1,-1.1806365762763833,-0.8132183198038749,-0.7031927853372598,0.0,-1.7350001331424978,-0.34999987517890824,-0.7181179261404402,0.0
1759837627.1909232,1,-1.1853148274414436,-0.8164406827464747,-0.7059791740815773,0.0,-1.7350001333748908,-0.34999987496103985,-0.717655259248172,0.0
1759837627.201682,1,-1.1890523985449126,-0.8190151085723261,-0.7082052892870994,0.0,-1.7350001334612537,-0.34999987488007467,-0.7175959146225068,0.0
1759837627.2130055,1,-1.1922220104186998,-0.8211983260790723,-0.7100931252619901,0.0,-1.7350001334941103,-0.3499998748492716,-0.7175881262782653,0.0
1759837627.2230244,1,-1.194736045327404,-0.8229299844788425,-0.7115904964644498,0.0,-1.7350001335066532,-0.3499998748375127,-0.7175983366948557,0.0
1759837627.2342346,1,-1.1967324313306864,-0.8243050881338465,-0.7127795535057655,0.0,-1.7350001335114436,-0.3499998748330216,-0.7176083298587805,0.0
1759837627.2456512,1,-1.1983216265730143,-0.8253997202253595,-0.7137260857844975,0.0,-1.7350001335132734,-0.3499998748313062,-0.7176191657417359,0.0
1759837627.256906,1,-1.1995903065737903,-0.826273582546188,-0.7144817176540954,0.0,-1.7350001335139724,-0.3499998748306509,-0.717629803089892,0.0
1759837627.267695,1,-1.2006651493001232,-0.8270139304343744,-0.715121899116975,0.0,-1.7350001335142393,-0.3499998748304006,-0.7176395381136942,0.0
1759837627.27844,1,-1.2015171104308675,-0.8276007582637028,-0.7156293312367019,0.0,-1.7350001335143412,-0.34999987483030504,-0.7176474808232136,0.0
1759837627.289114,1,-1.2021941867628465,-0.8280671260589539,-0.7160326011347699,0.0,-1.7350001335143803,-0.3499998748302685,-0.7176539797544379,0.0
1759837627.3001614,1,-1.202733432626026,-0.8284385567122368,-0.7163537785471339,0.0,-1.7350001335143952,-0.3499998748302546,-0.7176589910389115,0.0
1759837627.311424,1,-1.203163929182182,-0.828735081225464,-0.7166101843526835,0.0,-1.7350001335144007,-0.34999987483024925,-0.7176631111050806,0.0
1759837627.3221512,1,-1.203528858284049,-0.8289864431068685,-0.7168275378692093,0.0,-1.735000133514403,-0.34999987483024725,-0.7176670778466666,0.0
1759837627.3334737,1,-1.2038179170528986,-0.8291855457698317,-0.7169997026529182,0.0,-1.7350001335144039,-0.34999987483024647,-0.7176700487960908,0.0
1759837627.3449547,1,-1.204047458407294,-0.8293436530471243,-0.717136418580233,0.0,-1.735000133514404,-0.34999987483024614,-0.7176725939903719,0.0
1759837627.3563063,1,-1.2042302570493306,-0.829469564108603,-0.7172452943247529,0.0,-1.7350001335144043,-0.349999874830246,-0.7176749736897072,0.0
1759837627.371287,1,-1.2043756626100466,-0.8295697189472311,-0.7173318985713922,0.0,-1.7350001335144043,-0.34999987483024597,-0.7176753988802425,0.0
1759837627.3819063,1,-1.2044992285383789,-0.8296548307239137,-0.7174054950286448,0.0,-1.7350001335144043,-0.34999987483024597,-0.7176783105125946,0.0
1759837627.3928335,1,-1.2045972372385427,-0.8297223387717542,-0.7174638694787003,0.0,-1.7350001335144043,-0.34999987483024597,-0.717680617628293,0.0
1759837627.4040983,1,-1.2046751496645618,-0.8297760045766702,-0.7175102744918651,0.0,-1.7350001335144043,-0.34999987483024597,-0.717682348721258,0.0
1759837627.4156566,1,-1.2047372325138075,-0.8298187670247991,-0.7175472513334774,0.0,-1.7350001335144043,-0.34999987483024597,-0.7176837092644366,0.0
1759837627.426555,1,-1.204786871110448,-0.8298529579155172,-0.7175768163187854,0.0,-1.7350001335144043,-0.34999987483024597,-0.7176851489319667,0.0
1759837627.4380364,1,-1.204828968827775,-0.8298819546750961,-0.7176018899203478,0.0,-1.7350001335144043,-0.34999987483024597,-0.7176861953140019,0.0
1759837627.449409,1,-1.2048623551028312,-0.829904951023889,-0.7176217749452747,0.0,-1.7350001335144043,-0.34999987483024597,-0.7176871754642082,0.0
1759837627.4604821,1,-1.2048889123269413,-0.8299232435464173,-0.7176375925548321,0.0,-1.7350001335144043,-0.34999987483024597,-0.7176881579531162,0.0
1759837627.4710882,1,-1.2049101030831015,-0.8299378396647032,-0.7176502138704404,0.0,-1.7350001335144043,-0.34999987483024597,-0.7176891607754552,0.0
1759837627.4826136,1,-1.2049270376578889,-0.8299495041402344,-0.7176603001840888,0.0,-1.7350001335144043,-0.34999987483024597,-0.7176897774634412,0.0
1759837627.493745,1,-1.2049414513109686,-0.8299594322137629,-0.7176688850247245,0.0,-1.7350001335144043,-0.34999987483024597,-0.7176904634777745,0.0
1759837627.5043833,1,-1.2049528857531107,-0.8299673082172795,-0.7176756954330924,0.0,-1.7350001335144043,-0.34999987483024597,-0.7176912195283568,0.0
1759837627.5158107,1,-1.2049619723579121,-0.8299735670386967,-0.7176811074583237,0.0,-1.7350001335144043,-0.34999987483024597,-0.7176917015218294,0.0
1759837627.526897,1,-1.2049692153055545,-0.8299785559555494,-0.7176854213925429,0.0,-1.7350001335144043,-0.34999987483024597,-0.7176922410865281,0.0
1759837627.5382357,1,-1.2049750022254093,-0.8299825419655849,-0.7176888681096555,0.0,-1.7350001335144043,-0.34999987483024597,-0.7176926953228797,0.0
1759837627.5495968,1,-1.2049798980707211,-0.8299859142066102,-0.7176917840985131,0.0,-1.7350001335144043,-0.34999987483024597,-0.7176931287792669,0.0
1759837627.560969,1,-1.204983782223978,-0.8299885895977076,-0.7176940975187496,0.0,-1.7350001335144043,-0.34999987483024597,-0.7176935472878743,0.0
1759837627.572338,1,-1.204986872067614,-0.8299907178711329,-0.7176959378443809,0.0,-1.7350001335144043,-0.34999987483024597,-0.7176939522292969,0.0
1759837627.5837255,1,-1.2049893365916549,-0.8299924154266209,-0.7176974057266738,0.0,-1.7350001335144043,-0.34999987483024597,-0.717694337867183,0.0
1759837627.5950058,1,-1.2049913078368426,-0.8299937732133706,-0.7176985798097253,0.0,-1.7350001335144043,-0.34999987483024597,-0.7176947256719046,0.0
1759837627.605847,1,-1.2049929852359065,-0.8299949285999441,-0.7176995788766215,0.0,-1.7350001335144043,-0.34999987483024597,-0.7176951622132536,0.0
1759837627.6167374,1,-1.2049943166321149,-0.8299958456609681,-0.717700371862564,0.0,-1.7350001335144043,-0.34999987483024597,-0.7176955454049718,0.0
1759837627.627658,1,-1.2049953760997294,-0.8299965754185334,-0.7177010028865368,0.0,-1.7350001335144043,-0.34999987483024597,-0.7176958850949244,0.0
1759837627.638445,1,-1.204996221476465,-0.8299971577110544,-0.7177015063969591,0.0,-1.7350001335144043,-0.34999987483024597,-0.7176962151585542,0.0
1759837627.6496031,1,-1.2049969358305785,-0.8299976497556546,-0.717701931869682,0.0,-1.7350001335144043,-0.34999987483024597,-0.7176964644471013,0.0
1759837627.6603165,1,-1.2049975016158474,-0.8299980394665571,-0.7177022688540913,0.0,-1.7350001335144043,-0.34999987483024597,-0.7176967651269965,0.0
1759837627.671294,1,-1.2049979507556572,-0.8299983488324779,-0.7177025363639079,0.0,-1.7350001335144043,-0.34999987483024597,-0.7176970079768541,0.0
1759837627.6823559,1,-1.2049983081968032,-0.8299985950366817,-0.7177027492575622,0.0,-1.7350001335144043,-0.34999987483024597,-0.7176972275199098,0.0
1759837627.6936774,1,-1.204998593327525,-0.8299987914337197,-0.7177029190827822,0.0,-1.7350001335144043,-0.34999987483024597,-0.7176974104638738,0.0
1759837627.7050695,1,-1.2049988213649803,-0.8299989485051166,-0.71770305490298,0.0,-1.7350001335144043,-0.34999987483024597,-0.717697590017174,0.0
1759837627.7163415,1,-1.2049990151744492,-0.8299990820003968,-0.7177031703368256,0.0,-1.7350001335144043,-0.34999987483024597,-0.7176977887654522,0.0
1759837627.7269769,1,-1.204999169098383,-0.8299991880226609,-0.7177032620146561,0.0,-1.7350001335144043,-0.34999987483024597,-0.7176980530955888,0.0
1759837627.7377152,1,-1.2049992916413348,-0.829999272429815,-0.7177033350018236,0.0,-1.7350001335144043,-0.34999987483024597,-0.7176982802238658,0.0
1759837627.7480743,1,-1.2049993894881104,-0.8299993398263296,-0.7177033932798305,0.0,-1.7350001335144043,-0.34999987483024597,-0.717698522108499,0.0
1759837627.7581105,1,-1.2049994722806896,-0.829999396853567,-0.7177034425914863,0.0,-1.7350001335144043,-0.34999987483024597,-0.7176987659726635,0.0
1759837627.7747126,1,-1.204999537453385,-0.8299994417442904,-0.7177034814086551,0.0,-1.7350001335144043,-0.34999987483024597,-0.7176983750757007,0.0
1759837627.7859755,1,-1.2049995892392504,-0.8299994774142121,-0.7177035122525638,0.0,-1.7350001335144043,-0.34999987483024597,-0.7176986203270735,0.0
1759837627.797249,1,-1.2049996304972965,-0.8299995058326091,-0.7177035368260531,0.0,-1.7350001335144043,-0.34999987483024597,-0.7176988728387528,0.0
1759837627.807876,1,-1.2049996634776627,-0.8299995285493693,-0.7177035564693167,0.0,-1.7350001335144043,-0.34999987483024597,-0.7176991453420332,0.0
1759837627.818792,1,-1.2049996914655723,-0.8299995478273429,-0.7177035731390493,0.0,-1.7350001335144043,-0.34999987483024597,-0.7176993520013326,0.0
1759837627.8291807,1,-1.2049997136639041,-0.8299995631174756,-0.7177035863604818,0.0,-1.7350001335144043,-0.34999987483024597,-0.7176995694327939,0.0
1759837627.8401232,1,-1.2049997313038918,-0.8299995752678371,-0.7177035968669429,0.0,-1.7350001335144043,-0.34999987483024597,-0.7176997145092194,0.0
1759837627.8502812,1,-1.2049997453694465,-0.8299995849561417,-0.7177036052444544,0.0,-1.7350001335144043,-0.34999987483024597,-0.7176999005938693,0.0
1759837627.861714,1,-1.2049997565968118,-0.8299995926895114,-0.7177036119315269,0.0,-1.7350001335144043,-0.34999987483024597,-0.7176999752987108,0.0
1759837627.8722794,1,-1.204999766114754,-0.8299995992454365,-0.7177036176004588,0.0,-1.7350001335144043,-0.34999987483024597,-0.7177001110764891,0.0
1759837627.883629,1,-1.2049997736543123,-0.8299996044386578,-0.7177036220910558,0.0,-1.7350001335144043,-0.34999987483024597,-0.7177001883266599,0.0
1759837627.895104,1,-1.2049997796420575,-0.8299996085629956,-0.7177036256573853,0.0,-1.7350001335144043,-0.34999987483024597,-0.7177002621130342,0.0
1759837627.906573,1,-1.204999784410331,-0.8299996118473657,-0.7177036284973919,0.0,-1.7350001335144043,-0.34999987483024597,-0.7177003443162953,0.0
1759837627.917043,1,-1.2049997882217705,-0.8299996144726717,-0.7177036307675033,0.0,-1.7350001335144043,-0.34999987483024597,-0.7177004882585827,0.0
1759837627.9279413,1,-1.2049997914481603,-0.8299996166949977,-0.7177036326891565,0.0,-1.7350001335144043,-0.34999987483024597,-0.717700593543114,0.0
1759837627.9379673,1,-1.2049997940087787,-0.8299996184587425,-0.7177036342142731,0.0,-1.7350001335144043,-0.34999987483024597,-0.7177007361150807,0.0
1759837627.9493127,1,-1.204999796043111,-0.8299996198599835,-0.7177036354259312,0.0,-1.7350001335144043,-0.34999987483024597,-0.7177007913691291,0.0
1759837627.960544,1,-1.204999797663859,-0.829999620976349,-0.7177036363912564,0.0,-1.7350001335144043,-0.34999987483024597,-0.7177008550840257,0.0
1759837627.97464,1,-1.2049997989546113,-0.8299996218654149,-0.7177036371600348,0.0,-1.7350001335144043,-0.34999987483024597,-0.7177007885720066,0.0
1759837627.9858835,1,-1.204999800051144,-0.8299996226207028,-0.717703637813135,0.0,-1.7350001335144043,-0.34999987483024597,-0.7177008976981938,0.0
1759837627.9974122,1,-1.2049998009204739,-0.8299996232194942,-0.7177036383309119,0.0,-1.7350001335144043,-0.34999987483024597,-0.7177009944854262,0.0
1759837628.0087876,1,-1.204999801611672,-0.829999623695589,-0.7177036387425928,0.0,-1.7350001335144043,-0.34999987483024597,-0.7177010907130246,0.0
1759837628.0190125,1,-1.2049998021633808,-0.829999624075604,-0.7177036390711933,0.0,-1.7350001335144043,-0.34999987483024597,-0.7177012258239444,0.0
1759837628.0293627,1,-1.2049998026047575,-0.8299996243796227,-0.7177036393340794,0.0,-1.7350001335144043,-0.34999987483024597,-0.7177013347445644,0.0
1759837628.0400124,1,-1.2049998029795117,-0.829999624637752,-0.7177036395572849,0.0,-1.7350001335144043,-0.34999987483024597,-0.7177014145827876,0.0
1759837628.051543,1,-1.2049998032765383,-0.8299996248423429,-0.7177036397341954,0.0,-1.7350001335144043,-0.34999987483024597,-0.717701452884052,0.0
1759837628.0621793,1,-1.2049998035128215,-0.8299996250050939,-0.7177036398749268,0.0,-1.7350001335144043,-0.34999987483024597,-0.7177015269601217,0.0
1759837628.0734093,1,-1.2049998037011413,-0.8299996251348079,-0.7177036399870907,0.0,-1.7350001335144043,-0.34999987483024597,-0.7177015758933187,0.0
1759837628.083666,1,-1.204999803851786,-0.8299996252385713,-0.7177036400768154,0.0,-1.7350001335144043,-0.34999987483024597,-0.7177016570135244,0.0
1759837628.0944295,1,-1.204999803979719,-0.829999625326691,-0.7177036401530129,0.0,-1.7350001335144043,-0.34999987483024597,-0.7177017128929961,0.0
1759837628.1059206,1,-1.2049998040810879,-0.8299996253965136,-0.7177036402133888,0.0,-1.7350001335144043,-0.34999987483024597,-0.7177017419798588,0.0
1759837628.1171968,1,-1.2049998041616454,-0.8299996254520016,-0.7177036402613693,0.0,-1.7350001335144043,-0.34999987483024597,-0.7177017822259391,0.0
1759837628.128501,1,-1.2049998042258336,-0.8299996254962142,-0.7177036402996001,0.0,-1.7350001335144043,-0.34999987483024597,-0.7177018244633188,0.0
1759837628.1398766,1,-1.2049998042771108,-0.8299996255315337,-0.717703640330141,0.0,-1.7350001335144043,-0.34999987483024597,-0.7177018660378245,0.0
1759837628.1509316,1,-1.2049998043206946,-0.829999625561554,-0.7177036403560997,0.0,-1.7350001335144043,-0.34999987483024597,-0.7177019172418824,0.0
1759837628.1617355,1,-1.2049998043552501,-0.8299996255853557,-0.717703640376681,0.0,-1.7350001335144043,-0.34999987483024597,-0.7177019726213381,0.0
1759837628.1730392,1,-1.204999804382704,-0.8299996256042657,-0.7177036403930325,0.0,-1.7350001335144043,-0.34999987483024597,-0.7177020107657128,0.0
1759837628.1837146,1,-1.2049998044045882,-0.8299996256193394,-0.7177036404060668,0.0,-1.7350001335144043,-0.34999987483024597,-0.7177020635829835,0.0
1759837628.1950884,1,-1.204999804422064,-0.8299996256313766,-0.7177036404164755,0.0,-1.7350001335144043,-0.34999987483024597,-0.7177020957243094,0.0
1759837628.2065456,1,-1.2049998044368861,-0.8299996256415862,-0.7177036404253037,0.0,-1.7350001335144043,-0.34999987483024597,-0.7177021264469127,0.0
1759837628.217321,1,-1.2049998044486383,-0.8299996256496811,-0.7177036404323034,0.0,-1.7350001335144043,-0.34999987483024597,-0.7177021736587772,0.0
1759837628.228822,1,-1.204999804457973,-0.8299996256561111,-0.7177036404378634,0.0,-1.7350001335144043,-0.34999987483024597,-0.7177022021962962,0.0
1759837628.2402565,1,-1.2049998044654087,-0.8299996256612326,-0.7177036404422921,0.0,-1.7350001335144043,-0.34999987483024597,-0.7177022328185814,0.0
1759837628.2511613,1,-1.2049998044713508,-0.8299996256653255,-0.7177036404458311,0.0,-1.7350001335144043,-0.34999987483024597,-0.7177022745896817,0.0
1759837628.2619293,1,-1.204999804476397,-0.8299996256688013,-0.7177036404488367,0.0,-1.7350001335144043,-0.34999987483024597,-0.7177023159151864,0.0
1759837628.2730029,1,-1.2049998044803962,-0.8299996256715559,-0.7177036404512186,0.0,-1.7350001335144043,-0.34999987483024597,-0.717702347637605,0.0
1759837628.283058,1,-1.2049998044835772,-0.8299996256737471,-0.7177036404531133,0.0,-1.7350001335144043,-0.34999987483024597,-0.7177023955127169,0.0
1759837628.2932909,1,-1.204999804486113,-0.8299996256754938,-0.7177036404546236,0.0,-1.7350001335144043,-0.34999987483024597,-0.7177024338697356,0.0
1759837628.3045354,1,-1.2049998044881371,-0.8299996256768881,-0.7177036404558294,0.0,-1.7350001335144043,-0.34999987483024597,-0.7177024503082361,0.0
1759837628.3153152,1,-1.2049998044898496,-0.8299996256780675,-0.7177036404568492,0.0,-1.7350001335144043,-0.34999987483024597,-0.7177024754886681,0.0
1759837628.325991,1,-1.2049998044912074,-0.8299996256790025,-0.7177036404576578,0.0,-1.7350001335144043,-0.34999987483024597,-0.7177025021111696,0.0
1759837628.337336,1,-1.2049998044922858,-0.8299996256797454,-0.7177036404583,0.0,-1.7350001335144043,-0.34999987483024597,-0.7177025174733025,0.0
1759837628.3476255,1,-1.2049998044931458,-0.8299996256803377,-0.7177036404588123,0.0,-1.7350001335144043,-0.34999987483024597,-0.7177025497182523,0.0
1759837628.3588343,1,-1.2049998044938326,-0.8299996256808108,-0.7177036404592214,0.0,-1.7350001335144043,-0.34999987483024597,-0.717702566347068,0.0
1759837628.3690693,1,-1.2049998044944152,-0.8299996256812121,-0.7177036404595684,0.0,-1.7350001335144043,-0.34999987483024597,-0.7177025965600539,0.0
1759837628.380339,1,-1.2049998044948766,-0.8299996256815301,-0.7177036404598433,0.0,-1.7350001335144043,-0.34999987483024597,-0.7177026104727098,0.0
1759837628.391078,1,-1.2049998044952437,-0.8299996256817828,-0.7177036404600617,0.0,-1.7350001335144043,-0.34999987483024597,-0.7177026319620659,0.0
1759837628.4018369,1,-1.204999804495536,-0.829999625681984,-0.7177036404602357,0.0,-1.7350001335144043,-0.34999987483024597,-0.7177026526502974,0.0
1759837628.4132545,1,-1.2049998044957693,-0.8299996256821448,-0.7177036404603747,0.0,-1.7350001335144043,-0.34999987483024597,-0.7177026646783204,0.0
1759837628.4233782,1,-1.2049998044959673,-0.8299996256822811,-0.7177036404604925,0.0,-1.7350001335144043,-0.34999987483024597,-0.7177026928191435,0.0
1759837628.4348454,1,-1.2049998044961239,-0.829999625682389,-0.7177036404605859,0.0,-1.7350001335144043,-0.34999987483024597,-0.7177027032850116,0.0
1759837628.4457462,1,-1.2049998044962484,-0.8299996256824749,-0.71770364046066,0.0,-1.7350001335144043,-0.34999987483024597,-0.7177027208399309,0.0
1759837628.4568481,1,-1.2049998044963477,-0.8299996256825433,-0.7177036404607191,0.0,-1.7350001335144043,-0.34999987483024597,-0.7177027362333224,0.0
1759837628.4680743,1,-1.204999804496427,-0.8299996256825978,-0.7177036404607663,0.0,-1.7350001335144043,-0.34999987483024597,-0.7177027503956435,0.0
1759837628.4787376,1,-1.2049998044964942,-0.8299996256826442,-0.7177036404608065,0.0,-1.7350001335144043,-0.34999987483024597,-0.7177027702212476,0.0
1759837628.490128,1,-1.2049998044965475,-0.8299996256826808,-0.7177036404608383,0.0,-1.7350001335144043,-0.34999987483024597,-0.7177027819260947,0.0
1759837628.500767,1,-1.20499980449659,-0.82999962568271,-0.7177036404608635,0.0,-1.7350001335144043,-0.34999987483024597,-0.7177028007181931,0.0
1759837628.512233,1,-1.2049998044966237,-0.8299996256827332,-0.7177036404608836,0.0,-1.7350001335144043,-0.34999987483024597,-0.7177028110897865,0.0
1759837628.5235307,1,-1.2049998044966506,-0.8299996256827518,-0.7177036404608996,0.0,-1.7350001335144043,-0.34999987483024597,-0.7177028234438296,0.0
1759837628.534546,1,-1.2049998044966734,-0.8299996256827674,-0.7177036404609132,0.0,-1.7350001335144043,-0.34999987483024597,-0.7177028384134285,0.0
1759837628.5457728,1,-1.2049998044966914,-0.8299996256827799,-0.7177036404609239,0.0,-1.7350001335144043,-0.34999987483024597,-0.7177028511117829,0.0
1759837628.55628,1,-1.2049998044967056,-0.8299996256827897,-0.7177036404609325,0.0,-1.7350001335144043,-0.34999987483024597,-0.7177028688339,0.0
1759837628.5709236,1,-1.204999804496717,-0.8299996256827976,-0.7177036404609392,0.0,-1.7350001335144043,-0.34999987483024597,-0.7177028554906179,0.0
1759837628.5792387,1,-1.204999804496726,-0.8299996256828039,-0.7177036404609446,0.0,-1.7350001335144043,-0.34999987483024597,-0.7177028926288855,0.0
1759837628.5904386,1,-1.2049998044967338,-0.8299996256828093,-0.7177036404609493,0.0,-1.7350001335144043,-0.34999987483024597,-0.7177029045103023,0.0
1759837628.6009269,1,-1.20499980449674,-0.8299996256828135,-0.7177036404609529,0.0,-1.7350001335144043,-0.34999987483024597,-0.7177029190426296,0.0
1759837628.611196,1,-1.204999804496745,-0.8299996256828169,-0.7177036404609559,0.0,-1.7350001335144043,-0.34999987483024597,-0.7177029334265725,0.0
1759837628.6213565,1,-1.2049998044967487,-0.8299996256828197,-0.7177036404609582,0.0,-1.7350001335144043,-0.34999987483024597,-0.7177029466465257,0.0
1759837628.6315572,1,-1.2049998044967518,-0.8299996256828218,-0.7177036404609601,0.0,-1.7350001335144043,-0.34999987483024597,-0.7177029579588563,0.0
1759837628.6424465,1,-1.2049998044967545,-0.8299996256828236,-0.7177036404609617,0.0,-1.7350001335144043,-0.34999987483024597,-0.7177029641585086,0.0
1759837628.6533418,1,-1.2049998044967567,-0.829999625682825,-0.7177036404609629,0.0,-1.7350001335144043,-0.34999987483024597,-0.7177029705958216,0.0
1759837628.6645668,1,-1.2049998044967585,-0.8299996256828261,-0.717703640460964,0.0,-1.7350001335144043,-0.34999987483024597,-0.7177029757563655,0.0
1759837628.675942,1,-1.2049998044967598,-0.829999625682827,-0.7177036404609648,0.0,-1.7350001335144043,-0.34999987483024597,-0.7177029809707403,0.0
1759837628.6873434,1,-1.2049998044967607,-0.8299996256828277,-0.7177036404609655,0.0,-1.7350001335144043,-0.34999987483024597,-0.7177029869340111,0.0
1759837628.6983747,1,-1.2049998044967616,-0.8299996256828284,-0.7177036404609659,0.0,-1.7350001335144043,-0.34999987483024597,-0.7177029952769889,0.0
1759837628.7095861,1,-1.2049998044967625,-0.8299996256828288,-0.7177036404609664,0.0,-1.7350001335144043,-0.34999987483024597,-0.7177030026282942,0.0
1759837628.7209957,1,-1.204999804496763,-0.8299996256828293,-0.7177036404609667,0.0,-1.7350001335144043,-0.34999987483024597,-0.7177030090250014,0.0
1759837628.7318516,1,-1.2049998044967634,-0.8299996256828295,-0.7177036404609669,0.0,-1.7350001335144043,-0.34999987483024597,-0.717703017944773,0.0
1759837628.743044,1,-1.2049998044967638,-0.8299996256828297,-0.7177036404609671,0.0,-1.7350001335144043,-0.34999987483024597,-0.7177030248864522,0.0
1759837628.753393,1,-1.2049998044967642,-0.8299996256828299,-0.7177036404609674,0.0,-1.7350001335144043,-0.34999987483024597,-0.7177030348928746,0.0
1759837628.7642708,1,-1.2049998044967642,-0.8299996256828301,-0.7177036404609676,0.0,-1.7350001335144043,-0.34999987483024597,-0.7177030417052706,0.0
1759837628.775021,1,-1.2049998044967642,-0.8299996256828304,-0.7177036404609676,0.0,-1.7350001335144043,-0.34999987483024597,-0.7177030484659443,0.0
1759837628.786268,1,-1.2049998044967642,-0.8299996256828304,-0.7177036404609676,0.0,-1.7350001335144043,-0.34999987483024597,-0.7177030530435768,0.0
1759837628.7975676,1,-1.2049998044967642,-0.8299996256828304,-0.7177036404609676,0.0,-1.7350001335144043,-0.34999987483024597,-0.7177030576217049,0.0
1759837628.8088706,1,-1.2049998044967642,-0.8299996256828304,-0.7177036404609676,0.0,-1.7350001335144043,-0.34999987483024597,-0.7177030624617267,0.0
1759837628.8202963,1,-1.2049998044967642,-0.8299996256828304,-0.7177036404609676,0.0,-1.7350001335144043,-0.34999987483024597,-0.7177030670737778,0.0
1759837628.83167,1,-1.2049998044967642,-0.8299996256828304,-0.7177036404609676,0.0,-1.7350001335144043,-0.34999987483024597,-0.7177030720274633,0.0
1759837628.8429308,1,-1.2049998044967642,-0.8299996256828304,-0.7177036404609676,0.0,-1.7350001335144043,-0.34999987483024597,-0.7177030773650621,0.0
1759837628.8544655,1,-1.2049998044967642,-0.8299996256828304,-0.7177036404609676,0.0,-1.7350001335144043,-0.34999987483024597,-0.7177030817839238,0.0
1759837628.8652246,1,-1.2049998044967642,-0.8299996256828304,-0.7177036404609676,0.0,-1.7350001335144043,-0.34999987483024597,-0.7177030883994799,0.0
1759837628.875929,1,-1.2049998044967642,-0.8299996256828304,-0.7177036404609676,0.0,-1.7350001335144043,-0.34999987483024597,-0.7177030945415623,0.0
1759837628.8861094,1,-1.2049998044967642,-0.8299996256828304,-0.7177036404609676,0.0,-1.7350001335144043,-0.34999987483024597,-0.7177031013406108,0.0
1759837628.89701,1,-1.2049998044967642,-0.8299996256828304,-0.7177036404609676,0.0,-1.7350001335144043,-0.34999987483024597,-0.7177031053811689,0.0
1759837628.9081047,1,-1.2049998044967642,-0.8299996256828304,-0.7177036404609676,0.0,-1.7350001335144043,-0.34999987483024597,-0.717703108690813,0.0
1759837628.918416,1,-1.2049998044967642,-0.8299996256828304,-0.7177036404609676,0.0,-1.7350001335144043,-0.34999987483024597,-0.7177031138895522,0.0
1759837628.9290655,1,-1.2049998044967642,-0.8299996256828304,-0.7177036404609676,0.0,-1.7350001335144043,-0.34999987483024597,-0.7177031178246088,0.0
1759837628.9401977,1,-1.2049998044967642,-0.8299996256828304,-0.7177036404609676,0.0,-1.7350001335144043,-0.34999987483024597,-0.7177031204128532,0.0
1759837628.9513505,1,-1.2049998044967642,-0.8299996256828304,-0.7177036404609676,0.0,-1.7350001335144043,-0.34999987483024597,-0.717703123100204,0.0
1759837628.9620419,1,-1.2049998044967642,-0.8299996256828304,-0.7177036404609676,0.0,-1.7350001335144043,-0.34999987483024597,-0.717703126896513,0.0
1759837628.9776905,1,-1.2049998044967642,-0.8299996256828304,-0.7177036404609676,0.0,-1.7350001335144043,-0.34999987483024597,-0.7177031208962461,0.001211386865998385
1759837628.986764,1,-1.2049998044967642,-0.8299996256828304,-0.7177036404609676,0.0,-1.7350001335144043,-0.34999987483024597,-0.7177031299821781,0.001211386865998385
1759837628.9969947,1,-1.2049998044967642,-0.8299996256828304,-0.7177036404609676,0.0,-1.7349999510024416,-0.3500000341654556,-0.717703143490392,0.0012235007346583688
1759837629.0079772,1,-1.2049998044967642,-0.8299996256828304,-0.7177036404609676,0.0,-1.7349997871911964,-0.35000029258625875,-0.7177031457240748,0.001233279202546137
1759837629.018709,1,-1.2049998044967642,-0.8299996256828304,-0.7177036404609676,0.0,-1.734999633767735,-0.35000061425807344,-0.7177031483339125,0.0012414395696384924
1759837629.0290174,1,-1.2049998044967642,-0.8299996256828304,-0.7177036404609676,0.0,-1.7349984103287113,-0.3500019092410443,-0.7177031514267698,0.0013809960039600788
1759837629.0402107,1,-1.2049998044967642,-0.8299996256828304,-0.7177036404609676,0.0,-1.7349984103287133,-0.3500019092410468,-0.7177031531898459,0.0013809960039600788
1759837629.052607,1,-1.2049998044967642,-0.8299996256828304,-0.7177036404609676,0.0,-1.7349961182275846,-0.3500077122694288,-0.7177031529370834,0.0015843852962253498
1759837629.0627224,1,-1.2049998044967642,-0.8299996256828304,-0.7177036404609676,0.0,-1.7349950249831378,-0.3500114275918214,-0.717703156585618,0.001660646818352931
1759837629.0733235,1,-1.2049998044967642,-0.8299996256828304,-0.7177036404609676,0.0,-1.7349940020044596,-0.35001531847618184,-0.7177031592773765,0.0017236733182306304
1759837629.0840714,1,-1.2049998044967642,-0.8299996256828304,-0.7177036404609676,0.0,-1.7349930708740255,-0.350019178205059,-0.7177031614562916,0.0017754705843901772
1759837629.0942354,1,-1.2049998044967642,-0.8299996256828304,-0.7177036404609676,0.0,-1.734993070874037,-0.35001917820507217,-0.7177031642394349,0.0017754705843901772
1759837629.105568,1,-1.2049998044967642,-0.8299996256828304,-0.7177036404609676,0.0,-1.7349916041899391,-0.3500260816112449,-0.7177031653777188,0.0018468312825676118
1759837629.1162233,1,-1.2049998044967642,-0.8299996256828304,-0.7177036404609676,0.0,-1.7349909714829679,-0.35002918994583115,-0.7177031673768178,0.00187411312809208
1759837629.1274836,1,-1.2049998044967642,-0.8299996256828304,-0.7177036404609676,0.0,-1.7349903736208567,-0.35003213301718356,-0.7177031686598255,0.0018979354711125918
1759837629.1383634,1,-1.2049998044967642,-0.8299996256828304,-0.7177036404609676,0.0,-1.7349898177129957,-0.35003488175243747,-0.7177031704367907,0.001918738281484686
1759837629.149855,1,-1.2049998044967642,-0.8299996256828304,-0.7177036404609676,0.0,-1.7349894478254497,-0.3500370378446098,-0.7177031716033944,0.0019307832773658965
1759837629.160292,1,-1.2049998044967642,-0.8299996256828304,-0.7177036404609676,0.0,-1.7349890935602716,-0.3500390192262058,-0.7177031739188066,0.0019420327027618533
1759837629.1707401,1,-1.2049998044967642,-0.8299996256828304,-0.7177036404609676,0.0,-1.7349887559628114,-0.35004084880947356,-0.717703176017314,0.0019525284049840877
1759837629.1817389,1,-1.2049998044967642,-0.8299996256828304,-0.7177036404609676,0.0,-1.7349884325510134,-0.3500425508060396,-0.7177031773898894,0.001962402090183068
1759837629.192406,1,-1.2049998044967642,-0.8299996256828304,-0.7177036404609676,0.0,-1.7349881183579487,-0.3500441539806261,-0.717703179031999,0.001971876130857097
1759837629.2031653,1,-1.2049998044967642,-0.8299996256828304,-0.7177036404609676,0.0,-1.7349881183579565,-0.3500441539806351,-0.7177031804505011,0.001971876130857097
1759837629.2143328,1,-1.2049998044967642,-0.8299996256828304,-0.7177036404609676,0.0,-1.7349878397327065,-0.35004609506047657,-0.7177031816458326,0.001977143839060547
1759837629.2252154,1,-1.2049998044967642,-0.8299996256828304,-0.7177036404609676,0.0,-1.7349876831930953,-0.3500469916595398,-0.7177031830193888,0.001981033045507565
1759837629.2364001,1,-1.2049998044967642,-0.8299996256828304,-0.7177036404609676,0.0,-1.7349875107325554,-0.3500478915328193,-0.7177031841349616,0.0019856982551241043
1759837629.2472334,1,-1.2049998044967642,-0.8299996256828304,-0.7177036404609676,0.0,-1.734987325534856,-0.3500487938998175,-0.7177031855358027,0.0019909704011088747
1759837629.2585688,1,-1.2049998044967642,-0.8299996256828304,-0.7177036404609676,0.0,-1.7349873150079251,-0.3500491269336992,-0.7177031865450305,0.0019894564155307124
1759837629.2699862,1,-1.2049998044967642,-0.8299996256828304,-0.7177036404609676,0.0,-1.7349872676961,-0.35004950724838224,-0.7177031875332676,0.0019897847875269717
1759837629.2808902,1,-1.2049998044967642,-0.8299996256828304,-0.7177036404609676,0.0,-1.7349871924480451,-0.3500499357319136,-0.7177031889154685,0.001991467722324896
1759837629.2921963,1,-1.2049998044967642,-0.8299996256828304,-0.7177036404609676,0.0,-1.7349870901899915,-0.35005042543995496,-0.7177031899647139,0.0019943317590559854
1759837629.3030946,1,-1.2049998044967642,-0.8299996256828304,-0.7177036404609676,0.0,-1.734986965584778,-0.35005097356646436,-0.7177031912576602,0.0019980943342907936
1759837629.3139734,1,-1.2049998044967642,-0.8299996256828304,-0.7177036404609676,0.0,-1.7349869655847847,-0.3500509735664721,-0.7177031924307746,0.0019980943342907936
1759837629.3252609,1,-1.2049998044967642,-0.8299996256828304,-0.7177036404609676,0.0,-1.7349870205091145,-0.3500510496435533,-0.717703193427436,0.0019941644144943855
1759837629.3358967,1,-1.2049998044967642,-0.8299996256828304,-0.7177036404609676,0.0,-1.734986991427846,-0.3500512172454614,-0.7177031947073473,0.001994737681552426
1759837629.346029,1,-1.2049998044967642,-0.8299996256828304,-0.7177036404609676,0.0,-1.734986931654743,-0.3500514757274029,-0.7177031961501121,0.001996572008942993
1759837629.3564658,1,-1.2049998044967642,-0.8299996256828304,-0.7177036404609676,0.0,-1.7349868451931199,-0.35005181856519574,-0.7177031972415951,0.0019994147292637524
1759837629.3666756,1,-1.2049998044967642,-0.8299996256828304,-0.7177036404609676,0.0,-1.7349869198555488,-0.3500516524596287,-0.7177031983506723,0.0019960056241922256
1759837629.3809896,1,-1.2049998044967642,-0.8299996256828304,-0.7177036404609676,0.0,-1.7349869305737073,-0.35005167729663644,-0.7177031974114491,0.001995154599193898
1759837629.3924458,1,-1.2049998044967642,-0.8299996256828304,-0.7177036404609676,0.0,-1.734986882412118,-0.3500518524872614,-0.7177031982615741,0.0019968589549447186
1759837629.4027724,1,-1.2049998044967642,-0.8299996256828304,-0.7177036404609676,0.0,-1.734986882412126,-0.35005185248727066,-0.7177031996728068,0.0019968589549447186
1759837629.414212,1,-1.2049998044967642,-0.8299996256828304,-0.7177036404609676,0.0,-1.7349868040332066,-0.3500521317581045,-0.7177032004387142,0.001999647857994284
1759837629.4256408,1,-1.2049998044967642,-0.8299996256828304,-0.7177036404609676,0.0,-1.7349869459430407,-0.3500517235116019,-0.7177032012251262,0.00199383843368768
1759837629.437113,1,-1.2049998044967642,-0.8299996256828304,-0.7177036404609676,0.0,-1.7349869460075618,-0.3500517194971492,-0.7177032019457253,0.0019939041005335883
1759837629.4485228,1,-1.2049998044967642,-0.8299996256828304,-0.7177036404609676,0.0,-1.734986905974487,-0.3500518453004817,-0.7177032026843919,0.001995490133152702
1759837629.4587946,1,-1.2049998044967642,-0.8299996256828304,-0.7177036404609676,0.0,-1.734986831845559,-0.3500520904828493,-0.7177032038290047,0.001998280545601404
1759837629.4688497,1,-1.2049998044967642,-0.8299996256828304,-0.7177036404609676,0.0,-1.734986831845565,-0.35005209048285607,-0.7177032048621943,0.001998280545601404
1759837629.4789236,1,-1.2049998044967642,-0.8299996256828304,-0.7177036404609676,0.0,-1.7349869030305047,-0.3500518859703801,-0.7177032057586739,0.001995373759874965
1759837629.4899573,1,-1.2049998044967642,-0.8299996256828304,-0.7177036404609676,0.0,-1.7349869488318852,-0.35005173855888605,-0.7177032062006561,0.0019936052215358633
1759837629.5006626,1,-1.2049998044967642,-0.8299996256828304,-0.7177036404609676,0.0,-1.7349869204485597,-0.35005181058518625,-0.7177032068028181,0.0019948667188365407
1759837629.5107157,1,-1.2049998044967642,-0.8299996256828304,-0.7177036404609676,0.0,-1.734986855837832,-0.35005201938937275,-0.7177032075553241,0.0019973414839508483
1759837629.52149,1,-1.2049998044967642,-0.8299996256828304,-0.7177036404609676,0.0,-1.7349869459929235,-0.35005174716042275,-0.7177032080067914,0.001993763292112823
1759837629.5328016,1,-1.2049998044967642,-0.8299996256828304,-0.7177036404609676,0.0,-1.7349869459929248,-0.35005174716042436,-0.7177032082483294,0.001993763292112823
1759837629.5436609,1,-1.2049998044967642,-0.8299996256828304,-0.7177036404609676,0.0,-1.734986978273381,-0.3500516188874932,-0.7177032087528941,0.001992753917537274
1759837629.5537071,1,-1.2049998044967642,-0.8299996256828304,-0.7177036404609676,0.0,-1.734986937195437,-0.350051740608201,-0.7177032094472474,0.0019944308387439443
1759837629.5637887,1,-1.2049998044967642,-0.8299996256828304,-0.7177036404609676,0.0,-1.7349868617262947,-0.35005198528842785,-0.7177032100473675,0.0019973186308542942
1759837629.574154,1,-1.2049998044967642,-0.8299996256828304,-0.7177036404609676,0.0,-1.7349868617262971,-0.3500519852884307,-0.7177032104766579,0.0019973186308542942
1759837629.589282,1,-1.2049998044967642,-0.8299996256828304,-0.7177036404609676,0.0,-1.7349869401318418,-0.35005175361024576,-0.7177032097111019,0.00199415552372666
1759837629.60055,1,-1.2049998044967642,-0.8299996256828304,-0.7177036404609676,0.0,-1.734986954462941,-0.350051692973269,-0.7177032102568008,0.0019937028781007618
1759837629.6108782,1,-1.2049998044967642,-0.8299996256828304,-0.7177036404609676,0.0,-1.7349869051364455,-0.35005184728007427,-0.7177032110252552,0.0019956308244793433
1759837629.6210382,1,-1.2049998044967642,-0.8299996256828304,-0.7177036404609676,0.0,-1.734986826438126,-0.35005210808766063,-0.7177032117282198,0.001998568442787617
1759837629.631674,1,-1.2049998044967642,-0.8299996256828304,-0.7177036404609676,0.0,-1.7349869260942725,-0.35005181405205593,-0.7177032122142254,0.0019945422502515523
1759837629.6420786,1,-1.2049998044967642,-0.8299996256828304,-0.7177036404609676,0.0,-1.7349869260942752,-0.3500518140520589,-0.7177032126666779,0.0019945422502515523
1759837629.6525657,1,-1.2049998044967642,-0.8299996256828304,-0.7177036404609676,0.0,-1.7349869742590063,-0.35005164000490935,-0.7177032131107016,0.001992856646936487
1759837629.6639667,1,-1.2049998044967642,-0.8299996256828304,-0.7177036404609676,0.0,-1.7349869404290446,-0.35005173755887925,-0.7177032133074034,0.001994259054049867
1759837629.6740894,1,-1.2049998044967642,-0.8299996256828304,-0.7177036404609676,0.0,-1.734986859603201,-0.3500519963957321,-0.7177032137712079,0.0019973621979688335
1759837629.6845253,1,-1.2049998044967642,-0.8299996256828304,-0.7177036404609676,0.0,-1.7349868596032028,-0.35005199639573437,-0.7177032141149042,0.0019973621979688335
1759837629.6947713,1,-1.2049998044967642,-0.8299996256828304,-0.7177036404609676,0.0,-1.734986931568488,-0.35005178383485863,-0.7177032144852413,0.0019944336060610844
1759837629.704988,1,-1.2049998044967642,-0.8299996256828304,-0.7177036404609676,0.0,-1.7349869315684898,-0.3500517838348607,-0.7177032148019673,0.0019944336060610844
1759837629.7152734,1,-1.2049998044967642,-0.8299996256828304,-0.7177036404609676,0.0,-1.7349869437910272,-0.3500517322182998,-0.7177032151225613,0.0019940506051828073
1759837629.7259567,1,-1.2049998044967642,-0.8299996256828304,-0.7177036404609676,0.0,-1.7349868963850588,-0.35005188153425787,-0.7177032153340196,0.0019958964139599523
1759837629.736055,1,-1.2049998044967642,-0.8299996256828304,-0.7177036404609676,0.0,-1.7349868206693986,-0.35005213391779083,-0.7177032156408808,0.0019987270995393148
1759837629.7469895,1,-1.2049998044967642,-0.8299996256828304,-0.7177036404609676,0.0,-1.7349869008463747,-0.35005190253729607,-0.717703215800474,0.0019954584280677595
1759837629.7581983,1,-1.2049998044967642,-0.8299996256828304,-0.7177036404609676,0.0,-1.7349869316326625,-0.3500518019128093,-0.717703215935592,0.001994257904121419
1759837629.768972,1,-1.2049998044967642,-0.8299996256828304,-0.7177036404609676,0.0,-1.734986882612485,-0.3500519481314535,-0.717703216173599,0.001996234499391237
1759837629.7798595,1,-1.2049998044967642,-0.8299996256828304,-0.7177036404609676,0.0,-1.7349868826124861,-0.3500519481314548,-0.7177032163715096,0.001996234499391237
1759837629.7943394,1,-1.2049998044967642,-0.8299996256828304,-0.7177036404609676,0.0,-1.734986894034462,-0.35005194145806556,-0.7177032161269791,0.0019955424213262078
1759837629.805751,1,-1.2049998044967642,-0.8299996256828304,-0.7177036404609676,0.0,-1.7349869320255364,-0.35005181589493917,-0.71770321640545,0.001994109707945117
1759837629.8170063,1,-1.2049998044967642,-0.8299996256828304,-0.7177036404609676,0.0,-1.7349869286850512,-0.35005181517169887,-0.7177032167125524,0.0019943301774316864
1759837629.8282502,1,-1.2049998044967642,-0.8299996256828304,-0.7177036404609676,0.0,-1.734986887424225,-0.3500519403527026,-0.7177032169939525,0.0019959822532877184
1759837629.8389099,1,-1.2049998044967642,-0.8299996256828304,-0.7177036404609676,0.0,-1.7349868163047732,-0.3500521730552887,-0.7177032173154084,0.0019986767598460394
1759837629.850099,1,-1.2049998044967642,-0.8299996256828304,-0.7177036404609676,0.0,-1.7349867189804624,-0.3500525052758097,-0.7177032175388176,0.0020022270089644803
1759837629.8609855,1,-1.2049998044967642,-0.8299996256828304,-0.7177036404609676,0.0,-1.7349868081864828,-0.35005225812112234,-0.7177032177778196,0.0019985000451277646
1759837629.8719988,1,-1.2049998044967642,-0.8299996256828304,-0.7177036404609676,0.0,-1.7349868440727998,-0.3500521484285048,-0.7177032179867285,0.0019970236562857945
1759837629.8828123,1,-1.2049998044967642,-0.8299996256828304,-0.7177036404609676,0.0,-1.7349868400998154,-0.3500521579578556,-0.7177032182003469,0.0019971852241803677
1759837629.8932238,1,-1.2049998044967642,-0.8299996256828304,-0.7177036404609676,0.0,-1.7349868014371381,-0.3500522811575251,-0.7177032184343858,0.001998670046562703
1759837629.9037714,1,-1.2049998044967642,-0.8299996256828304,-0.7177036404609676,0.0,-1.7349867297519774,-0.3500525198779066,-0.7177032186291408,0.0020013364401537757
1759837629.9141657,1,-1.2049998044967642,-0.8299996256828304,-0.7177036404609676,0.0,-1.7349868243375812,-0.3500522396839764,-0.7177032188215948,0.001997522750036393
1759837629.9243746,1,-1.2049998044967642,-0.8299996256828304,-0.7177036404609676,0.0,-1.734986864314604,-0.35005210483790034,-0.717703219010714,0.001996010927814912
1759837629.9351337,1,-1.2049998044967642,-0.8299996256828304,-0.7177036404609676,0.0,-1.7349868645449587,-0.350052090925762,-0.7177032191337914,0.001996112511690746
1759837629.9453208,1,-1.2049998044967642,-0.8299996256828304,-0.7177036404609676,0.0,-1.7349868260845513,-0.35005220504906953,-0.7177032192997644,0.0019976756377913397
1759837629.9556963,1,-1.2049998044967642,-0.8299996256828304,-0.7177036404609676,0.0,-1.734986757397446,-0.3500524277984138,-0.7177032194370482,0.0020002948252610987
1759837629.9660108,1,-1.2049998044967642,-0.8299996256828304,-0.7177036404609676,0.0,-1.7349868400208668,-0.3500521803249094,-0.7177032195719817,0.0019969925872991277
1759837629.9772122,1,-1.2049998044967642,-0.8299996256828304,-0.7177036404609676,0.0,-1.7349868701663715,-0.35005207577443115,-0.7177032196332989,0.0019958760945006262
1759837629.99472,1,-1.204995860133307,-0.8300030691643098,-0.7176738902460853,0.0005235987755982988,-1.7349868131700268,-0.3500522412256201,-0.7177032192796908,0.0019982210081066726
1759837630.0028446,1,-1.2049919473056452,-0.8300114728007432,-0.717647822336823,0.0009473086621034224,-1.7349867380175366,-0.35005248928851723,-0.717703219691725,0.0020010497127038013
1759837630.0133579,1,-1.2049881656041872,-0.8300228565495166,-0.7176266101331267,0.0012921777041292766,-1.7349867380175377,-0.3500524892885185,-0.7177032198865307,0.0020010497127038013
1759837630.023699,1,-1.2049808443987509,-0.8300389761650718,-0.7172925638866982,0.007311483785385292,-1.7349868342701211,-0.3500522028389972,-0.7177032200522758,0.001997183693949008
1759837630.0347056,1,-1.2049656799760344,-0.830117576963227,-0.7170169759232646,0.012215676358184121,-1.7349868822323637,-0.35005202603680335,-0.7177032201658062,0.0019955066193483918
1759837630.044724,1,-1.2049466212404119,-0.8302336025598811,-0.7167943607276609,0.016177091446877675,-1.7349868822323646,-0.3500520260368043,-0.7177032203157439,0.0019955066193483918
1759837630.0561988,1,-1.2049237656017917,-0.830373427114473,-0.7166087724125693,0.019487374145725673,-1.7349867858350774,-0.35005232274206644,-0.7177032203777293,0.0019993325053573076
1759837630.0664454,1,-1.204902203631542,-0.8305179708104761,-0.716450071119746,0.02204212749971556,-1.734986785835078,-0.3500523227420672,-0.7177032204997612,0.0019993325053573076
1759837630.0765357,1,-1.2048810399021401,-0.8306621613678469,-0.7163226324033409,0.02412114975029578,-1.734986693604746,-0.3500526338101912,-0.7177032206246038,0.0020027449207665323
1759837630.0866964,1,-1.2047439102261377,-0.8309159051239964,-0.7161622578332159,0.02693322202291347,-1.7349867571730244,-0.350052462262477,-0.7177032207315087,0.0020000341396460585
1759837630.0970895,1,-1.2045881397041902,-0.8311901898483994,-0.7159899917809573,0.029287142460311555,-1.7349867730663995,-0.35005241899157374,-0.7177032208163637,0.0019993158142190028
1759837630.107211,1,-1.2044411336406018,-0.8314552813431266,-0.7158174525823988,0.03126271460029527,-1.7349867515647,-0.3500524910585736,-0.7177032209087819,0.002000096135547212
1759837630.1176386,1,-1.2043100962211422,-0.8317022577832507,-0.7156545876443416,0.03293810532833586,-1.734986696212493,-0.35005267656208855,-0.7177032209793028,0.002002137956374199
1759837630.128962,1,-1.2040184719852645,-0.8320812006249024,-0.7153514081522306,0.03522246979490354,-1.734986696212493,-0.35005267656208866,-0.7177032210017456,0.002002137956374199
1759837630.1403522,1,-1.2037766859595282,-0.83241862598382,-0.715076162429209,0.03713235631725495,-1.7349868314345729,-0.350052252176697,-0.7177032210453742,0.002074577474287183
1759837630.1513674,1,-1.2035738957112845,-0.8327203639485704,-0.7148369910558154,0.03875452362402682,-1.7349867840445794,-0.35005234869716906,-0.7177032211124623,0.0020769515304572754
1759837630.1615648,1,-1.2034062433307393,-0.8329864701879021,-0.7146367107015236,0.04012315941247511,-1.734986705707837,-0.3500525821079339,-0.717703221210797,0.0020801787511337553
1759837630.1730506,1,-1.2032678626824833,-0.8332045861224243,-0.7144893822174428,0.041039762081954145,-1.734986705707837,-0.3500525821079341,-0.7177032212452639,0.0020801787511337553
1759837630.1839044,1,-1.203152226467719,-0.8333975414368028,-0.7143632841438918,0.04184804385254515,-1.7349866900318496,-0.35005238023109403,-0.71770322131778,0.0020910896686269897
1759837630.2003765,1,-1.203056059484777,-0.8335692757341052,-0.7142523468773349,0.042586128974481476,-1.7349866160437741,-0.3500525719144285,-0.7177032211835908,0.00209724434780087
1759837630.2104118,1,-1.2029771038404151,-0.8337193378826646,-0.7141597663047472,0.04323191524913884,-1.7349865115385914,-0.3500529088948339,-0.7177032213325181,0.0021036101352314334
1759837630.2206495,1,-1.202909531061291,-0.8338553361452992,-0.7140816088384547,0.04382081623924981,-1.7349863757306772,-0.3500533804739398,-0.7177032214607559,0.002110379449888771
1759837630.2313492,1,-1.202857742293871,-0.8339514674713742,-0.7140493959486036,0.0440624296873846,-1.7349863757306778,-0.3500533804739404,-0.7177032215472532,0.002110379449888771
1759837630.2425513,1,-1.2028140411849575,-0.8340378377444546,-0.7140199267963486,0.04432215193357123,-1.734986434861364,-0.3500533185805249,-0.7177032216104666,0.002109751848219757
1759837630.2529135,1,-1.2027764501440417,-0.8341169821488342,-0.7139915430050017,0.04459210270060932,-1.7349864000439095,-0.3500534754116142,-0.7177032216926352,0.0021116905349591332
1759837630.2641537,1,-1.2027441886700436,-0.8341900807340205,-0.7139674542635015,0.0448738942170457,-1.7349863314575646,-0.3500537431112687,-0.7177032217395678,0.002114709427311966
1759837630.2745185,1,-1.2027165496385153,-0.8342575054073549,-0.7139438125787155,0.04515893421921547,-1.7349862351002132,-0.35005410907219525,-0.7177032218087619,0.0021185679864263104
1759837630.2851498,1,-1.201443048062084,-0.8354094946937803,-0.7110476723962768,0.05161471941121444,-1.7349862351002137,-0.35005410907219564,-0.7177032218609521,0.0021185679864263104
1759837630.2958825,1,-1.1994259071705433,-0.8372969510664624,-0.7074852673447803,0.06261372900436592,-1.7349861579973143,-0.3500545141283779,-0.7177032219116939,0.003250689752464365
1759837630.3060548,1,-1.1976894621274736,-0.8390118831443448,-0.7042195546527896,0.07147410512061814,-1.7349861640633932,-0.35005455078536896,-0.7177032219712196,0.003250295090062928
1759837630.3161383,1,-1.196226577757818,-0.840529000646217,-0.7012875795335991,0.07869802442625463,-1.734985960887945,-0.3500548480098371,-0.7177032220264684,0.003262729553916746
1759837630.3263528,1,-1.1950071445427064,-0.841853755447856,-0.6986952188893081,0.08461156433244255,-1.7349857428377131,-0.3500553398480354,-0.7177032220720228,0.0032741947334729254
1759837630.3370507,1,-1.1939728593813692,-0.8429927075428312,-0.6964866242413312,0.08938152650168397,-1.7349857428377131,-0.35005533984803555,-0.7177032220995224,0.0032741947334729254
1759837630.3476913,1,-1.1931008373082619,-0.8439912782255825,-0.6944081836573596,0.09334925380976494,-1.734984436811295,-0.3500570377037801,-0.717703222134622,0.0034120572633766157
1759837630.3578942,1,-1.1923830268870905,-0.8448482052284838,-0.6926541013847214,0.09660647438723323,-1.7349833689925367,-0.3500593615269277,-0.7177032221766723,0.00351547854930274
1759837630.368189,1,-1.1917895933765477,-0.8455860750602577,-0.6911733761345805,0.0992984327206682,-1.734982294122561,-0.35006250155907215,-0.7177032222137174,0.0036017893666801725
1759837630.378404,1,-1.1912956526047833,-0.8462248074892089,-0.6899267309385319,0.10153884152888376,-1.7349812344579483,-0.3500661394692556,-0.7177032222498145,0.0036744493739744692
1759837630.3910313,1,-1.1908798931316418,-0.8467435919718204,-0.6888628184047288,0.103229590022658,-1.7349804509410793,-0.3500693352329947,-0.7177032222367965,0.0037259950567061625
1759837630.4059482,1,-1.1905355458750762,-0.847195544653177,-0.6879836845276998,0.10466897318197121,-1.7349796770970594,-0.350072655921924,-0.7177032221941337,0.003770353169592463
1759837630.417589,1,-1.1902474858697256,-0.8475922005392301,-0.6872448073865893,0.10590986011488263,-1.7349782000784721,-0.35007929535465104,-0.7177032222366992,0.0038423774476397275
1759837630.4283931,1,-1.1900059029467422,-0.8479401228068928,-0.6866393336505824,0.10697401743674309,-1.734977481266198,-0.35008257646899743,-0.7177032222945047,0.0038727420129120076
1759837630.4386916,1,-1.1898167507573405,-0.84818582722803,-0.6861150654297677,0.10762843501942951,-1.7349774812661987,-0.35008257646899815,-0.7177032223516909,0.0038727420129120076
1759837630.4500027,1,-1.1896560847430484,-0.8484075267153909,-0.6856832819843915,0.10822626685163128,-1.7349767060106125,-0.35008701404372833,-0.7177032223858609,0.003901975003931665
1759837630.4613276,1,-1.1895199613226095,-0.8486072318037126,-0.6853316474118364,0.10877036345066467,-1.7349762914685574,-0.3500891676105421,-0.7177032224155213,0.0039165509178997115
1759837630.4722364,1,-1.1894055531114796,-0.8487864592618813,-0.6850509878374246,0.10926562265670095,-1.7349758740620156,-0.3500912525895124,-0.717703222449945,0.0039308424135756515
1759837630.4832983,1,-1.18930790848952,-0.8489500338740611,-0.6848217193499806,0.10972453919987832,-1.734975874062016,-0.35009125258951274,-0.7177032224780345,0.0039308424135756515
1759837630.4939942,1,-1.1882243127055323,-0.8499003927914915,-0.6833046519438841,0.1126544530319668,-1.7349753872748537,-0.35009349581127447,-0.7177032225107819,0.0039473413956208
1759837630.504132,1,-1.1856684642001216,-0.8519498789533195,-0.6771136440180325,0.11745187432409486,-1.7349753872748541,-0.3500934958112749,-0.717703222546395,0.0039473413956208
1759837630.5142515,1,-1.1831238139562257,-0.8540069357883224,-0.670497139367856,0.1213465926166193,-1.7349750749459403,-0.3500957528370834,-0.7177032225810054,0.005588358989022496
1759837630.5244443,1,-1.1809987705650717,-0.855746142894569,-0.664669939405933,0.12454760645116675,-1.7349748548701038,-0.35009693356871774,-0.7177032226082243,0.005594601535720807
1759837630.534748,1,-1.1792325298644,-0.8572096612512493,-0.6595835891119565,0.12719539833188998,-1.7349743437538487,-0.35009842492283794,-0.7177032226309895,0.005618972195838451
1759837630.5463061,1,-1.177772962545528,-0.8584367082677244,-0.6552071324639497,0.12940564405993477,-1.7349738245971835,-0.35010012077411323,-0.7177032226370081,0.005641445100850583
1759837630.5569818,1,-1.1765214580992307,-0.8594430319437424,-0.6512489235387534,0.13106109560287074,-1.7349721717546789,-0.35010217068196453,-0.7177032226566805,0.005828453505482994
1759837630.5682302,1,-1.1754936591597953,-0.8602830389751465,-0.6479241076320779,0.13245729111616564,-1.7349705106443243,-0.35010607687692874,-0.7177032226699416,0.00598177653007113
1759837630.5789404,1,-1.1746475000088854,-0.8609867968506482,-0.6451433989740099,0.13364397515191415,-1.7349688428639327,-0.35011114717318964,-0.717703222690029,0.0061102441574393575
1759837630.5901113,1,-1.1739455550254718,-0.8615830300716258,-0.6428191438245289,0.1346668650746055,-1.7349671920500318,-0.35011694128420207,-0.7177032227045742,0.006219119959566102
1759837630.602469,1,-1.173360946003084,-0.862093482504908,-0.6408826091081792,0.13556599400542643,-1.7349655745824095,-0.3501231454768272,-0.7177032227077699,0.00631241284206391
1759837630.6137416,1,-1.1728870622774423,-0.8624577151771097,-0.6392331185869726,0.13606984322228574,-1.7349655745824097,-0.3501231454768275,-0.7177032227245644,0.00631241284206391
1759837630.62478,1,-1.1724893462677408,-0.8627758902470093,-0.6378447913759636,0.1365501721576805,-1.7349634437743697,-0.35013301093954924,-0.7177032227461625,0.006425727627380581
1759837630.6361303,1,-1.1721569094972122,-0.8630538715911504,-0.6367099180290732,0.13700122140916754,-1.7349624173407021,-0.35013785467566255,-0.7177032227623511,0.006472540947463339
1759837630.6474178,1,-1.1718721234520741,-0.8633040819219984,-0.6357697273492611,0.13743471157121306,-1.734960360264498,-0.3501474428853311,-0.7177032227793944,0.006555416988749079
1759837630.6578443,1,-1.1716574736562118,-0.8634466918407558,-0.6350020326499474,0.13755807564568365,-1.7349603602644983,-0.3501474428853316,-0.7177032228014264,0.006555416988749079
1759837630.6694362,1,-1.1714757447427326,-0.8635807441811233,-0.6343866579089598,0.13772450577805026,-1.7349594950115876,-0.35015305012445325,-0.7177032228132217,0.006583261574308812
1759837630.6804566,1,-1.1702100061132399,-0.8644847259755318,-0.6324349165333238,0.13977858354326855,-1.7349589666973624,-0.35015588610262854,-0.7177032228289155,0.00660036147939471
1759837630.691327,1,-1.1687397802226687,-0.8655413288921316,-0.6296542895131759,0.14151659008266496,-1.734958386255784,-0.35015876665227197,-0.7177032228450498,0.006619202325106613
1759837630.7015462,1,-1.1675312097378736,-0.8664269015274171,-0.6273988655607963,0.1429831479517556,-1.7349583862557845,-0.35015876665227236,-0.7177032228637884,0.006619202325106613
1759837630.7118695,1,-1.164462603175378,-0.8685240043110733,-0.6188105592182015,0.14595964469461675,-1.7349577704897836,-0.3501616755620307,-0.7177032228801192,0.006639034338673177
1759837630.7233436,1,-1.1618717880440104,-0.870298717035277,-0.6108646764424744,0.14842144053460013,-1.7349575836055828,-0.3501639193274642,-0.7177032228877556,0.00808381840367283
1759837630.7346735,1,-1.1597428165319459,-0.8717615655757963,-0.6041469928295486,0.15046219287140836,-1.7349571128792785,-0.35016551895710196,-0.7177032228962281,0.008105045409207201
1759837630.7454555,1,-1.1579952610878206,-0.8729670968014221,-0.5985156289806618,0.15216781979199365,-1.7349565811731908,-0.35016741759106407,-0.7177032229089073,0.008126872302438564
1759837630.7569091,1,-1.156555233519663,-0.8739669713922797,-0.5938103847171837,0.15361051403758624,-1.734955995277845,-0.3501695771318543,-0.7177032229169167,0.0081493057137682
1759837630.7680671,1,-1.1553574112465055,-0.8747434449173547,-0.5898363983889228,0.15459188078910502,-1.7349559952778453,-0.3501695771318545,-0.7177032229264723,0.0081493057137682
1759837630.779422,1,-1.1543721301799004,-0.875389165285386,-0.5864571825494217,0.15544659001514163,-1.7349540469245117,-0.3501736163576577,-0.7177032229360779,0.008329186245188228
1759837630.790112,1,-1.1535563331612688,-0.8759309574050019,-0.5836726560495478,0.15619580518767986,-1.7349526540377131,-0.3501770227965664,-0.7177032229488465,0.008459979457582235
1759837630.8057334,1,-1.1528684486934342,-0.8764017511698894,-0.5813428747035047,0.1568946638733424,-1.7349496852642061,-0.3501869655443478,-0.7177032229355771,0.008668720778007385
1759837630.817087,1,-1.1523180024514184,-0.8767276457212784,-0.5794033483364482,0.15725070950655456,-1.7349496852642066,-0.3501869655443482,-0.7177032229495836,0.008668720778007385
1759837630.8274188,1,-1.151858989421882,-0.8770088563715932,-0.5778200694992724,0.15759735777913586,-1.7349474381574803,-0.35019655858756416,-0.7177032229690081,0.00879755409199474
1759837630.8383906,1,-1.1514796029651129,-0.8772518575757975,-0.5765545330318207,0.15793434642698725,-1.7349474381574805,-0.3501965585875645,-0.7177032229815772,0.00879755409199474
1759837630.848679,1,-1.1511501345868298,-0.8774727683251624,-0.5754995499194853,0.15827175530873538,-1.7349457849609344,-0.3502045914585542,-0.7177032229963872,0.008878139781099387
1759837630.8597126,1,-1.1508677238994094,-0.8776736991904324,-0.5746374025078517,0.15860795298739058,-1.734944868262549,-0.3502088479103117,-0.7177032230052286,0.008916474347189288
1759837630.871186,1,-1.1506273714293567,-0.8778570453771523,-0.5739382363216903,0.158943723904436,-1.734944868262549,-0.35020884791031187,-0.7177032230108624,0.008916474347189288
1759837630.8823671,1,-1.1504603677181737,-0.877937014288583,-0.57335043353346,0.15898143222346817,-1.7349439070184456,-0.3502132174703852,-0.7177032230183863,0.008953880394668434
1759837630.8931818,1,-1.1485205033074988,-0.8790819856326587,-0.5697831622772092,0.15959140911965447,-1.7349433724107186,-0.3502173812158999,-0.7177032230277548,0.00897021857298716
1759837630.903436,1,-1.1469353618429652,-0.8800229611679042,-0.5668992316486435,0.1601415570624187,-1.734943372410719,-0.35021738121590024,-0.7177032230374623,0.00897021857298716
1759837630.913762,1,-1.1453355315331453,-0.8809696294832736,-0.5627981511395528,0.16057383054916108,-1.7349423810550653,-0.3502223759731822,-0.7177032230465751,0.009003588781485071
1759837630.9237711,1,-1.1417952942753309,-0.8829841055016266,-0.5526692919266463,0.16106612475805943,-1.7349423810550655,-0.3502223759731824,-0.717703223054775,0.009003588781485071
1759837630.9340632,1,-1.138911988346791,-0.8846051293888786,-0.5440912608290748,0.16158482151942,-1.7349417345272606,-0.35022525272626015,-0.7177032230613416,0.00952648776859591
1759837630.9449172,1,-1.136580483020699,-0.8859020617488971,-0.5369124035416049,0.16206985756527795,-1.734941807451745,-0.35022584359058717,-0.7177032230654371,0.00951976734889662
1759837630.955305,1,-1.1346287233531778,-0.8869779569704702,-0.5307525859274966,0.16252344050083362,-1.7349416223099277,-0.35022687098209754,-0.7177032230712305,0.009526096698388916
1759837630.9662828,1,-1.1330212012666927,-0.8878582406280091,-0.5255903805618842,0.16294232982679338,-1.734941301303355,-0.3502282929391099,-0.7177032230749001,0.009537531798651537
1759837630.9778762,1,-1.1316929422101885,-0.8885837182360184,-0.5212844194065183,0.16334916583250098,-1.7349408648974303,-0.3502300772892718,-0.717703223076949,0.009552983203769844
1759837630.9882064,1,-1.130585733918273,-0.8891258968549722,-0.5175091642362053,0.1632581026249195,-1.734940322778013,-0.3502322182368576,-0.7177032230834457,0.00957189781769314
1759837630.999131,1,-1.1296595019153424,-0.8895794776753975,-0.5143275789512906,0.16317027346071167,-1.7349396337641356,-0.3502336506456742,-0.7177032230882209,0.009659089420117544
1759837631.0111132,1,-1.1289035351627348,-0.8899527704466069,-0.5117887567676759,0.16316402923732443,-1.7349396337641356,-0.3502336506456742,-0.7177032230893752,0.009659089420117544
1759837631.0214193,1,-1.1282705728198026,-0.8902683789025019,-0.5096871057031929,0.16319184127349187,-1.7349383261069402,-0.3502382367310864,-0.7177032230963029,0.009740747796131589
1759837631.0318387,1,-1.127781010429702,-0.8904582457952791,-0.5079493272777459,0.16231169980683816,-1.7349383261069404,-0.35023823673108656,-0.7177032231018727,0.009740747796131589
1759837631.0430603,1,-1.1273754329220853,-0.8906187787791692,-0.5065581872915709,0.16161445424489007,-1.7349375326906709,-0.350241947704421,-0.7177032231052702,0.009783891572963294
1759837631.0534241,1,-1.127030833956439,-0.8907591056185528,-0.5054073781550718,0.16120767717510825,-1.7349373343889145,-0.3502431333484067,-0.7177032231106275,0.009794680026565784
1759837631.0637696,1,-1.1267377216864223,-0.8908850782887878,-0.5044757234777809,0.16081742993978723,-1.7349369682094726,-0.3502448115002784,-0.7177032231155762,0.00981078332972469
