timestamp,vehicle_id,x,y,theta,velocity,gps_available,dt,gps_x,gps_y,gps_theta,gps_velocity,control_steering,control_acceleration
1759837626.9713712,1,-1.735,-0.35,-0.7801621756414647,0.0,False,0.01,nan,nan,nan,nan,0.0,0.0
1759837626.982795,1,-1.735,-0.35,-0.7801621756414647,0.0,False,0.011423826217651367,nan,nan,nan,nan,0.0,0.0
1759837626.9932036,1,-1.735,-0.35,-0.7801621756414647,0.0,False,0.010408639907836914,nan,nan,nan,nan,0.0,0.0
1759837627.0046127,1,-1.735,-0.35,-0.7801621756414647,0.0,False,0.01140904426574707,nan,nan,nan,nan,0.0,0.0
1759837627.0154128,1,-1.735,-0.35,-0.7801621756414647,0.0,False,0.01080012321472168,nan,nan,nan,nan,0.0,0.0
1759837627.0264704,1,-1.735,-0.35,-0.7801621756414647,0.0,False,0.011057615280151367,nan,nan,nan,nan,0.0,0.0
1759837627.0374851,1,-1.735,-0.35,-0.7801621756414647,0.0,False,0.011014699935913086,nan,nan,nan,nan,0.0,0.0
1759837627.0487108,1,-1.735,-0.35,-0.7801621756414647,0.0,False,0.011225700378417969,nan,nan,nan,nan,0.0,0.0
1759837627.059298,1,-1.735,-0.35,-0.7801621756414647,0.0,False,0.010587215423583984,nan,nan,nan,nan,0.0,0.0
1759837627.0704265,1,-1.735,-0.35,-0.7801621756414647,0.0,False,0.011128425598144531,nan,nan,nan,nan,0.0,0.0
1759837627.0817893,1,-1.735,-0.35,-0.7801621756414647,0.0,False,0.011362791061401367,nan,nan,nan,nan,0.0,0.0
1759837627.0924664,1,-1.735,-0.35,-0.7801621756414647,0.0,False,0.010677099227905273,nan,nan,nan,nan,0.0,0.0
1759837627.1032014,1,-1.735,-0.35,-0.7801621756414647,0.0,False,0.010735034942626953,nan,nan,nan,nan,0.0,0.0
1759837627.1140578,1,-1.735,-0.35,-0.7801621756414647,0.0,False,0.010856389999389648,nan,nan,nan,nan,0.0,0.0
1759837627.1252925,1,-1.735,-0.35,-0.7801621756414647,0.0,False,0.011234760284423828,nan,nan,nan,nan,0.0,0.0
1759837627.1363702,1,-1.735,-0.35,-0.7801621756414647,0.0,False,0.011077642440795898,nan,nan,nan,nan,0.0,0.0
1759837627.1474123,1,-1.735,-0.35,-0.7801621756414647,0.0,False,0.011042118072509766,nan,nan,nan,nan,0.0,0.0
1759837627.1583445,1,-1.735,-0.35,-0.7801621756414647,0.0,False,0.010932207107543945,nan,nan,nan,nan,0.0,0.0
1759837627.1692076,1,-1.7350001324017843,-0.34999987587332726,-0.7229994748865725,0.0,True,0.010863065719604492,-1.7350001335144043,-0.34999987483024597,-0.7177032232284546,0.0,0.0,0.0
1759837627.179714,1,-1.7350001331424978,-0.34999987517890824,-0.7181179261404402,0.0,True,0.010506391525268555,-1.7350001335144043,-0.34999987483024597,-0.7177032232284546,0.0,0.0,0.0
1759837627.1909232,1,-1.7350001333748908,-0.34999987496103985,-0.717655259248172,0.0,True,0.011209249496459961,-1.7350001335144043,-0.34999987483024597,-0.7177032232284546,0.0,0.0,0.0
1759837627.201682,1,-1.7350001334612537,-0.34999987488007467,-0.7175959146225068,0.0,True,0.01075887680053711,-1.7350001335144043,-0.34999987483024597,-0.7177032232284546,0.0,0.0,0.0
1759837627.2130055,1,-1.7350001334941103,-0.3499998748492716,-0.7175881262782653,0.0,True,0.01132345199584961,-1.7350001335144043,-0.34999987483024597,-0.7177032232284546,0.0,0.0,0.0
1759837627.2230244,1,-1.7350001335066532,-0.3499998748375127,-0.7175983366948557,0.0,True,0.01001882553100586,-1.7350001335144043,-0.34999987483024597,-0.7177032232284546,0.0,0.0,0.0
1759837627.2342346,1,-1.7350001335114436,-0.3499998748330216,-0.7176083298587805,0.0,True,0.011210203170776367,-1.7350001335144043,-0.34999987483024597,-0.7177032232284546,0.0,0.0,0.0
1759837627.2456512,1,-1.7350001335132734,-0.3499998748313062,-0.7176191657417359,0.0,True,0.01141667366027832,-1.7350001335144043,-0.34999987483024597,-0.7177032232284546,0.0,0.0,0.0
1759837627.256906,1,-1.7350001335139724,-0.3499998748306509,-0.717629803089892,0.0,True,0.01125478744506836,-1.7350001335144043,-0.34999987483024597,-0.7177032232284546,0.0,0.0,0.0
1759837627.267695,1,-1.7350001335142393,-0.3499998748304006,-0.7176395381136942,0.0,True,0.010788917541503906,-1.7350001335144043,-0.34999987483024597,-0.7177032232284546,0.0,0.0,0.0
1759837627.27844,1,-1.7350001335143412,-0.34999987483030504,-0.7176474808232136,0.0,True,0.010745048522949219,-1.7350001335144043,-0.34999987483024597,-0.7177032232284546,0.0,0.0,0.0
1759837627.289114,1,-1.7350001335143803,-0.3499998748302685,-0.7176539797544379,0.0,True,0.010673999786376953,-1.7350001335144043,-0.34999987483024597,-0.7177032232284546,0.0,0.0,0.0
1759837627.3001614,1,-1.7350001335143952,-0.3499998748302546,-0.7176589910389115,0.0,True,0.01104736328125,-1.7350001335144043,-0.34999987483024597,-0.7177032232284546,0.0,0.0,0.0
1759837627.311424,1,-1.7350001335144007,-0.34999987483024925,-0.7176631111050806,0.0,True,0.011262655258178711,-1.7350001335144043,-0.34999987483024597,-0.7177032232284546,0.0,0.0,0.0
1759837627.3221512,1,-1.735000133514403,-0.34999987483024725,-0.7176670778466665,0.0,True,0.010727167129516602,-1.7350001335144043,-0.34999987483024597,-0.7177032232284546,0.0,0.0,0.0
1759837627.3334737,1,-1.7350001335144039,-0.34999987483024647,-0.7176700487960908,0.0,True,0.011322498321533203,-1.7350001335144043,-0.34999987483024597,-0.7177032232284546,0.0,0.0,0.0
1759837627.3449547,1,-1.735000133514404,-0.34999987483024614,-0.7176725939903719,0.0,True,0.011481046676635742,-1.7350001335144043,-0.34999987483024597,-0.7177032232284546,0.0,0.0,0.0
1759837627.3563063,1,-1.7350001335144043,-0.349999874830246,-0.7176749736897072,0.0,True,0.011351585388183594,-1.7350001335144043,-0.34999987483024597,-0.7177032232284546,0.0,0.0,0.0
1759837627.371287,1,-1.7350001335144043,-0.34999987483024597,-0.7176753988802425,0.0,True,0.014980792999267578,-1.7350001335144043,-0.34999987483024597,-0.7177032232284546,0.0,0.0,0.0
1759837627.3819063,1,-1.7350001335144043,-0.34999987483024597,-0.7176783105125946,0.0,True,0.010619163513183594,-1.7350001335144043,-0.34999987483024597,-0.7177032232284546,0.0,0.0,0.0
1759837627.3928335,1,-1.7350001335144043,-0.34999987483024597,-0.717680617628293,0.0,True,0.010927200317382812,-1.7350001335144043,-0.34999987483024597,-0.7177032232284546,0.0,0.0,0.0
1759837627.4040983,1,-1.7350001335144043,-0.34999987483024597,-0.717682348721258,0.0,True,0.011264801025390625,-1.7350001335144043,-0.34999987483024597,-0.7177032232284546,0.0,0.0,0.0
1759837627.4156566,1,-1.7350001335144043,-0.34999987483024597,-0.7176837092644366,0.0,True,0.011558294296264648,-1.7350001335144043,-0.34999987483024597,-0.7177032232284546,0.0,0.0,0.0
1759837627.426555,1,-1.7350001335144043,-0.34999987483024597,-0.7176851489319667,0.0,True,0.010898351669311523,-1.7350001335144043,-0.34999987483024597,-0.7177032232284546,0.0,0.0,0.0
1759837627.4380364,1,-1.7350001335144043,-0.34999987483024597,-0.7176861953140019,0.0,True,0.011481523513793945,-1.7350001335144043,-0.34999987483024597,-0.7177032232284546,0.0,0.0,0.0
1759837627.449409,1,-1.7350001335144043,-0.34999987483024597,-0.7176871754642082,0.0,True,0.011372566223144531,-1.7350001335144043,-0.34999987483024597,-0.7177032232284546,0.0,0.0,0.0
1759837627.4604821,1,-1.7350001335144043,-0.34999987483024597,-0.7176881579531162,0.0,True,0.011073112487792969,-1.7350001335144043,-0.34999987483024597,-0.7177032232284546,0.0,0.0,0.0
1759837627.4710882,1,-1.7350001335144043,-0.34999987483024597,-0.7176891607754552,0.0,True,0.010606050491333008,-1.7350001335144043,-0.34999987483024597,-0.7177032232284546,0.0,0.0,0.0
1759837627.4826136,1,-1.7350001335144043,-0.34999987483024597,-0.7176897774634412,0.0,True,0.011525392532348633,-1.7350001335144043,-0.34999987483024597,-0.7177032232284546,0.0,0.0,0.0
1759837627.493745,1,-1.7350001335144043,-0.34999987483024597,-0.7176904634777745,0.0,True,0.011131525039672852,-1.7350001335144043,-0.34999987483024597,-0.7177032232284546,0.0,0.0,0.0
1759837627.5043833,1,-1.7350001335144043,-0.34999987483024597,-0.7176912195283567,0.0,True,0.010638236999511719,-1.7350001335144043,-0.34999987483024597,-0.7177032232284546,0.0,0.0,0.0
1759837627.5158107,1,-1.7350001335144043,-0.34999987483024597,-0.7176917015218294,0.0,True,0.01142740249633789,-1.7350001335144043,-0.34999987483024597,-0.7177032232284546,0.0,0.0,0.0
1759837627.526897,1,-1.7350001335144043,-0.34999987483024597,-0.7176922410865281,0.0,True,0.011086225509643555,-1.7350001335144043,-0.34999987483024597,-0.7177032232284546,0.0,0.0,0.0
1759837627.5382357,1,-1.7350001335144043,-0.34999987483024597,-0.7176926953228797,0.0,True,0.01133871078491211,-1.7350001335144043,-0.34999987483024597,-0.7177032232284546,0.0,0.0,0.0
1759837627.5495968,1,-1.7350001335144043,-0.34999987483024597,-0.7176931287792669,0.0,True,0.011361122131347656,-1.7350001335144043,-0.34999987483024597,-0.7177032232284546,0.0,0.0,0.0
1759837627.560969,1,-1.7350001335144043,-0.34999987483024597,-0.7176935472878743,0.0,True,0.01137232780456543,-1.7350001335144043,-0.34999987483024597,-0.7177032232284546,0.0,0.0,0.0
1759837627.572338,1,-1.7350001335144043,-0.34999987483024597,-0.7176939522292969,0.0,True,0.011368989944458008,-1.7350001335144043,-0.34999987483024597,-0.7177032232284546,0.0,0.0,0.0
1759837627.5837255,1,-1.7350001335144043,-0.34999987483024597,-0.717694337867183,0.0,True,0.011387348175048828,-1.7350001335144043,-0.34999987483024597,-0.7177032232284546,0.0,0.0,0.0
1759837627.5950058,1,-1.7350001335144043,-0.34999987483024597,-0.7176947256719046,0.0,True,0.011280298233032227,-1.7350001335144043,-0.34999987483024597,-0.7177032232284546,0.0,0.0,0.0
1759837627.605847,1,-1.7350001335144043,-0.34999987483024597,-0.7176951622132535,0.0,True,0.010841131210327148,-1.7350001335144043,-0.34999987483024597,-0.7177032232284546,0.0,0.0,0.0
1759837627.6167374,1,-1.7350001335144043,-0.34999987483024597,-0.7176955454049718,0.0,True,0.010890483856201172,-1.7350001335144043,-0.34999987483024597,-0.7177032232284546,0.0,0.0,0.0
1759837627.627658,1,-1.7350001335144043,-0.34999987483024597,-0.7176958850949244,0.0,True,0.010920524597167969,-1.7350001335144043,-0.34999987483024597,-0.7177032232284546,0.0,0.0,0.0
1759837627.638445,1,-1.7350001335144043,-0.34999987483024597,-0.7176962151585542,0.0,True,0.010787010192871094,-1.7350001335144043,-0.34999987483024597,-0.7177032232284546,0.0,0.0,0.0
1759837627.6496031,1,-1.7350001335144043,-0.34999987483024597,-0.7176964644471013,0.0,True,0.011158227920532227,-1.7350001335144043,-0.34999987483024597,-0.7177032232284546,0.0,0.0,0.0
1759837627.6603165,1,-1.7350001335144043,-0.34999987483024597,-0.7176967651269965,0.0,True,0.010713338851928711,-1.7350001335144043,-0.34999987483024597,-0.7177032232284546,0.0,0.0,0.0
1759837627.671294,1,-1.7350001335144043,-0.34999987483024597,-0.7176970079768541,0.0,True,0.010977506637573242,-1.7350001335144043,-0.34999987483024597,-0.7177032232284546,0.0,0.0,0.0
1759837627.6823559,1,-1.7350001335144043,-0.34999987483024597,-0.7176972275199098,0.0,True,0.011061906814575195,-1.7350001335144043,-0.34999987483024597,-0.7177032232284546,0.0,0.0,0.0
1759837627.6936774,1,-1.7350001335144043,-0.34999987483024597,-0.7176974104638738,0.0,True,0.011321544647216797,-1.7350001335144043,-0.34999987483024597,-0.7177032232284546,0.0,0.0,0.0
1759837627.7050695,1,-1.7350001335144043,-0.34999987483024597,-0.717697590017174,0.0,True,0.01139211654663086,-1.7350001335144043,-0.34999987483024597,-0.7177032232284546,0.0,0.0,0.0
1759837627.7163415,1,-1.7350001335144043,-0.34999987483024597,-0.7176977887654523,0.0,True,0.011271953582763672,-1.7350001335144043,-0.34999987483024597,-0.7177032232284546,0.0,0.0,0.0
1759837627.7269769,1,-1.7350001335144043,-0.34999987483024597,-0.7176980530955888,0.0,True,0.0106353759765625,-1.7350001335144043,-0.34999987483024597,-0.7177032232284546,0.0,0.0,0.0
1759837627.7377152,1,-1.7350001335144043,-0.34999987483024597,-0.7176982802238658,0.0,True,0.010738372802734375,-1.7350001335144043,-0.34999987483024597,-0.7177032232284546,0.0,0.0,0.0
1759837627.7480743,1,-1.7350001335144043,-0.34999987483024597,-0.717698522108499,0.0,True,0.010359048843383789,-1.7350001335144043,-0.34999987483024597,-0.7177032232284546,0.0,0.0,0.0
1759837627.7581105,1,-1.7350001335144043,-0.34999987483024597,-0.7176987659726635,0.0,True,0.010036230087280273,-1.7350001335144043,-0.34999987483024597,-0.7177032232284546,0.0,0.0,0.0
1759837627.7747126,1,-1.7350001335144043,-0.34999987483024597,-0.7176983750757007,0.0,True,0.016602039337158203,-1.7350001335144043,-0.34999987483024597,-0.7177032232284546,0.0,0.0,0.0
1759837627.7859755,1,-1.7350001335144043,-0.34999987483024597,-0.7176986203270737,0.0,True,0.011262893676757812,-1.7350001335144043,-0.34999987483024597,-0.7177032232284546,0.0,0.0,0.0
1759837627.797249,1,-1.7350001335144043,-0.34999987483024597,-0.7176988728387528,0.0,True,0.011273622512817383,-1.7350001335144043,-0.34999987483024597,-0.7177032232284546,0.0,0.0,0.0
1759837627.807876,1,-1.7350001335144043,-0.34999987483024597,-0.7176991453420332,0.0,True,0.010627031326293945,-1.7350001335144043,-0.34999987483024597,-0.7177032232284546,0.0,0.0,0.0
1759837627.818792,1,-1.7350001335144043,-0.34999987483024597,-0.7176993520013326,0.0,True,0.010915994644165039,-1.7350001335144043,-0.34999987483024597,-0.7177032232284546,0.0,0.0,0.0
1759837627.8291807,1,-1.7350001335144043,-0.34999987483024597,-0.7176995694327939,0.0,True,0.010388612747192383,-1.7350001335144043,-0.34999987483024597,-0.7177032232284546,0.0,0.0,0.0
1759837627.8401232,1,-1.7350001335144043,-0.34999987483024597,-0.7176997145092194,0.0,True,0.010942459106445312,-1.7350001335144043,-0.34999987483024597,-0.7177032232284546,0.0,0.0,0.0
1759837627.8502812,1,-1.7350001335144043,-0.34999987483024597,-0.7176999005938693,0.0,True,0.010158061981201172,-1.7350001335144043,-0.34999987483024597,-0.7177032232284546,0.0,0.0,0.0
1759837627.861714,1,-1.7350001335144043,-0.34999987483024597,-0.7176999752987108,0.0,True,0.011432647705078125,-1.7350001335144043,-0.34999987483024597,-0.7177032232284546,0.0,0.0,0.0
1759837627.8722794,1,-1.7350001335144043,-0.34999987483024597,-0.7177001110764891,0.0,True,0.010565519332885742,-1.7350001335144043,-0.34999987483024597,-0.7177032232284546,0.0,0.0,0.0
1759837627.883629,1,-1.7350001335144043,-0.34999987483024597,-0.7177001883266598,0.0,True,0.011349678039550781,-1.7350001335144043,-0.34999987483024597,-0.7177032232284546,0.0,0.0,0.0
1759837627.895104,1,-1.7350001335144043,-0.34999987483024597,-0.7177002621130342,0.0,True,0.011474847793579102,-1.7350001335144043,-0.34999987483024597,-0.7177032232284546,0.0,0.0,0.0
1759837627.906573,1,-1.7350001335144043,-0.34999987483024597,-0.7177003443162953,0.0,True,0.011469125747680664,-1.7350001335144043,-0.34999987483024597,-0.7177032232284546,0.0,0.0,0.0
1759837627.917043,1,-1.7350001335144043,-0.34999987483024597,-0.7177004882585827,0.0,True,0.010469913482666016,-1.7350001335144043,-0.34999987483024597,-0.7177032232284546,0.0,0.0,0.0
1759837627.9279413,1,-1.7350001335144043,-0.34999987483024597,-0.717700593543114,0.0,True,0.010898351669311523,-1.7350001335144043,-0.34999987483024597,-0.7177032232284546,0.0,0.0,0.0
1759837627.9379673,1,-1.7350001335144043,-0.34999987483024597,-0.7177007361150807,0.0,True,0.010025978088378906,-1.7350001335144043,-0.34999987483024597,-0.7177032232284546,0.0,0.0,0.0
1759837627.9493127,1,-1.7350001335144043,-0.34999987483024597,-0.7177007913691291,0.0,True,0.011345386505126953,-1.7350001335144043,-0.34999987483024597,-0.7177032232284546,0.0,0.0,0.0
1759837627.960544,1,-1.7350001335144043,-0.34999987483024597,-0.7177008550840256,0.0,True,0.011231422424316406,-1.7350001335144043,-0.34999987483024597,-0.7177032232284546,0.0,0.0,0.0
1759837627.97464,1,-1.7350001335144043,-0.34999987483024597,-0.7177007885720066,0.0,True,0.014095783233642578,-1.7350001335144043,-0.34999987483024597,-0.7177032232284546,0.0,0.0,0.0
1759837627.9858835,1,-1.7350001335144043,-0.34999987483024597,-0.7177008976981938,0.0,True,0.011243581771850586,-1.7350001335144043,-0.34999987483024597,-0.7177032232284546,0.0,0.0,0.0
1759837627.9974122,1,-1.7350001335144043,-0.34999987483024597,-0.7177009944854262,0.0,True,0.011528730392456055,-1.7350001335144043,-0.34999987483024597,-0.7177032232284546,0.0,0.0,0.0
1759837628.0087876,1,-1.7350001335144043,-0.34999987483024597,-0.7177010907130246,0.0,True,0.01137542724609375,-1.7350001335144043,-0.34999987483024597,-0.7177032232284546,0.0,0.0,0.0
1759837628.0190125,1,-1.7350001335144043,-0.34999987483024597,-0.7177012258239444,0.0,True,0.01022481918334961,-1.7350001335144043,-0.34999987483024597,-0.7177032232284546,0.0,0.0,0.0
1759837628.0293627,1,-1.7350001335144043,-0.34999987483024597,-0.7177013347445644,0.0,True,0.010350227355957031,-1.7350001335144043,-0.34999987483024597,-0.7177032232284546,0.0,0.0,0.0
1759837628.0400124,1,-1.7350001335144043,-0.34999987483024597,-0.7177014145827876,0.0,True,0.010649681091308594,-1.7350001335144043,-0.34999987483024597,-0.7177032232284546,0.0,0.0,0.0
1759837628.051543,1,-1.7350001335144043,-0.34999987483024597,-0.717701452884052,0.0,True,0.011530637741088867,-1.7350001335144043,-0.34999987483024597,-0.7177032232284546,0.0,0.0,0.0
1759837628.0621793,1,-1.7350001335144043,-0.34999987483024597,-0.7177015269601217,0.0,True,0.010636329650878906,-1.7350001335144043,-0.34999987483024597,-0.7177032232284546,0.0,0.0,0.0
1759837628.0734093,1,-1.7350001335144043,-0.34999987483024597,-0.7177015758933187,0.0,True,0.011229991912841797,-1.7350001335144043,-0.34999987483024597,-0.7177032232284546,0.0,0.0,0.0
1759837628.083666,1,-1.7350001335144043,-0.34999987483024597,-0.7177016570135244,0.0,True,0.010256767272949219,-1.7350001335144043,-0.34999987483024597,-0.7177032232284546,0.0,0.0,0.0
1759837628.0944295,1,-1.7350001335144043,-0.34999987483024597,-0.7177017128929961,0.0,True,0.010763406753540039,-1.7350001335144043,-0.34999987483024597,-0.7177032232284546,0.0,0.0,0.0
1759837628.1059206,1,-1.7350001335144043,-0.34999987483024597,-0.7177017419798588,0.0,True,0.011491060256958008,-1.7350001335144043,-0.34999987483024597,-0.7177032232284546,0.0,0.0,0.0
1759837628.1171968,1,-1.7350001335144043,-0.34999987483024597,-0.7177017822259391,0.0,True,0.0112762451171875,-1.7350001335144043,-0.34999987483024597,-0.7177032232284546,0.0,0.0,0.0
1759837628.128501,1,-1.7350001335144043,-0.34999987483024597,-0.7177018244633189,0.0,True,0.011304140090942383,-1.7350001335144043,-0.34999987483024597,-0.7177032232284546,0.0,0.0,0.0
1759837628.1398766,1,-1.7350001335144043,-0.34999987483024597,-0.7177018660378245,0.0,True,0.011375665664672852,-1.7350001335144043,-0.34999987483024597,-0.7177032232284546,0.0,0.0,0.0
1759837628.1509316,1,-1.7350001335144043,-0.34999987483024597,-0.7177019172418824,0.0,True,0.01105499267578125,-1.7350001335144043,-0.34999987483024597,-0.7177032232284546,0.0,0.0,0.0
1759837628.1617355,1,-1.7350001335144043,-0.34999987483024597,-0.7177019726213381,0.0,True,0.010803937911987305,-1.7350001335144043,-0.34999987483024597,-0.7177032232284546,0.0,0.0,0.0
1759837628.1730392,1,-1.7350001335144043,-0.34999987483024597,-0.7177020107657128,0.0,True,0.01130366325378418,-1.7350001335144043,-0.34999987483024597,-0.7177032232284546,0.0,0.0,0.0
1759837628.1837146,1,-1.7350001335144043,-0.34999987483024597,-0.7177020635829834,0.0,True,0.010675430297851562,-1.7350001335144043,-0.34999987483024597,-0.7177032232284546,0.0,0.0,0.0
1759837628.1950884,1,-1.7350001335144043,-0.34999987483024597,-0.7177020957243094,0.0,True,0.011373758316040039,-1.7350001335144043,-0.34999987483024597,-0.7177032232284546,0.0,0.0,0.0
1759837628.2065456,1,-1.7350001335144043,-0.34999987483024597,-0.7177021264469126,0.0,True,0.011457204818725586,-1.7350001335144043,-0.34999987483024597,-0.7177032232284546,0.0,0.0,0.0
1759837628.217321,1,-1.7350001335144043,-0.34999987483024597,-0.7177021736587772,0.0,True,0.010775327682495117,-1.7350001335144043,-0.34999987483024597,-0.7177032232284546,0.0,0.0,0.0
1759837628.228822,1,-1.7350001335144043,-0.34999987483024597,-0.7177022021962962,0.0,True,0.011501073837280273,-1.7350001335144043,-0.34999987483024597,-0.7177032232284546,0.0,0.0,0.0
1759837628.2402565,1,-1.7350001335144043,-0.34999987483024597,-0.7177022328185814,0.0,True,0.011434555053710938,-1.7350001335144043,-0.34999987483024597,-0.7177032232284546,0.0,0.0,0.0
1759837628.2511613,1,-1.7350001335144043,-0.34999987483024597,-0.7177022745896817,0.0,True,0.010904788970947266,-1.7350001335144043,-0.34999987483024597,-0.7177032232284546,0.0,0.0,0.0
1759837628.2619293,1,-1.7350001335144043,-0.34999987483024597,-0.7177023159151865,0.0,True,0.010767936706542969,-1.7350001335144043,-0.34999987483024597,-0.7177032232284546,0.0,0.0,0.0
1759837628.2730029,1,-1.7350001335144043,-0.34999987483024597,-0.717702347637605,0.0,True,0.011073589324951172,-1.7350001335144043,-0.34999987483024597,-0.7177032232284546,0.0,0.0,0.0
1759837628.283058,1,-1.7350001335144043,-0.34999987483024597,-0.7177023955127169,0.0,True,0.010055065155029297,-1.7350001335144043,-0.34999987483024597,-0.7177032232284546,0.0,0.0,0.0
1759837628.2932909,1,-1.7350001335144043,-0.34999987483024597,-0.7177024338697358,0.0,True,0.010232925415039062,-1.7350001335144043,-0.34999987483024597,-0.7177032232284546,0.0,0.0,0.0
1759837628.3045354,1,-1.7350001335144043,-0.34999987483024597,-0.7177024503082361,0.0,True,0.011244535446166992,-1.7350001335144043,-0.34999987483024597,-0.7177032232284546,0.0,0.0,0.0
1759837628.3153152,1,-1.7350001335144043,-0.34999987483024597,-0.7177024754886681,0.0,True,0.010779857635498047,-1.7350001335144043,-0.34999987483024597,-0.7177032232284546,0.0,0.0,0.0
1759837628.325991,1,-1.7350001335144043,-0.34999987483024597,-0.7177025021111696,0.0,True,0.010675668716430664,-1.7350001335144043,-0.34999987483024597,-0.7177032232284546,0.0,0.0,0.0
1759837628.337336,1,-1.7350001335144043,-0.34999987483024597,-0.7177025174733025,0.0,True,0.011345148086547852,-1.7350001335144043,-0.34999987483024597,-0.7177032232284546,0.0,0.0,0.0
1759837628.3476255,1,-1.7350001335144043,-0.34999987483024597,-0.7177025497182523,0.0,True,0.010289430618286133,-1.7350001335144043,-0.34999987483024597,-0.7177032232284546,0.0,0.0,0.0
1759837628.3588343,1,-1.7350001335144043,-0.34999987483024597,-0.717702566347068,0.0,True,0.011208772659301758,-1.7350001335144043,-0.34999987483024597,-0.7177032232284546,0.0,0.0,0.0
1759837628.3690693,1,-1.7350001335144043,-0.34999987483024597,-0.7177025965600539,0.0,True,0.010235071182250977,-1.7350001335144043,-0.34999987483024597,-0.7177032232284546,0.0,0.0,0.0
1759837628.380339,1,-1.7350001335144043,-0.34999987483024597,-0.7177026104727098,0.0,True,0.011269569396972656,-1.7350001335144043,-0.34999987483024597,-0.7177032232284546,0.0,0.0,0.0
1759837628.391078,1,-1.7350001335144043,-0.34999987483024597,-0.7177026319620659,0.0,True,0.01073908805847168,-1.7350001335144043,-0.34999987483024597,-0.7177032232284546,0.0,0.0,0.0
1759837628.4018369,1,-1.7350001335144043,-0.34999987483024597,-0.7177026526502974,0.0,True,0.01075887680053711,-1.7350001335144043,-0.34999987483024597,-0.7177032232284546,0.0,0.0,0.0
1759837628.4132545,1,-1.7350001335144043,-0.34999987483024597,-0.7177026646783204,0.0,True,0.011417627334594727,-1.7350001335144043,-0.34999987483024597,-0.7177032232284546,0.0,0.0,0.0
1759837628.4233782,1,-1.7350001335144043,-0.34999987483024597,-0.7177026928191435,0.0,True,0.010123729705810547,-1.7350001335144043,-0.34999987483024597,-0.7177032232284546,0.0,0.0,0.0
1759837628.4348454,1,-1.7350001335144043,-0.34999987483024597,-0.7177027032850116,0.0,True,0.011467218399047852,-1.7350001335144043,-0.34999987483024597,-0.7177032232284546,0.0,0.0,0.0
1759837628.4457462,1,-1.7350001335144043,-0.34999987483024597,-0.7177027208399309,0.0,True,0.010900735855102539,-1.7350001335144043,-0.34999987483024597,-0.7177032232284546,0.0,0.0,0.0
1759837628.4568481,1,-1.7350001335144043,-0.34999987483024597,-0.7177027362333224,0.0,True,0.011101961135864258,-1.7350001335144043,-0.34999987483024597,-0.7177032232284546,0.0,0.0,0.0
1759837628.4680743,1,-1.7350001335144043,-0.34999987483024597,-0.7177027503956435,0.0,True,0.011226177215576172,-1.7350001335144043,-0.34999987483024597,-0.7177032232284546,0.0,0.0,0.0
1759837628.4787376,1,-1.7350001335144043,-0.34999987483024597,-0.7177027702212477,0.0,True,0.010663270950317383,-1.7350001335144043,-0.34999987483024597,-0.7177032232284546,0.0,0.0,0.0
1759837628.490128,1,-1.7350001335144043,-0.34999987483024597,-0.7177027819260946,0.0,True,0.011390447616577148,-1.7350001335144043,-0.34999987483024597,-0.7177032232284546,0.0,0.0,0.0
1759837628.500767,1,-1.7350001335144043,-0.34999987483024597,-0.7177028007181931,0.0,True,0.010638952255249023,-1.7350001335144043,-0.34999987483024597,-0.7177032232284546,0.0,0.0,0.0
1759837628.512233,1,-1.7350001335144043,-0.34999987483024597,-0.7177028110897865,0.0,True,0.011466026306152344,-1.7350001335144043,-0.34999987483024597,-0.7177032232284546,0.0,0.0,0.0
1759837628.5235307,1,-1.7350001335144043,-0.34999987483024597,-0.7177028234438296,0.0,True,0.01129770278930664,-1.7350001335144043,-0.34999987483024597,-0.7177032232284546,0.0,0.0,0.0
1759837628.534546,1,-1.7350001335144043,-0.34999987483024597,-0.7177028384134285,0.0,True,0.011015176773071289,-1.7350001335144043,-0.34999987483024597,-0.7177032232284546,0.0,0.0,0.0
1759837628.5457728,1,-1.7350001335144043,-0.34999987483024597,-0.7177028511117829,0.0,True,0.011226892471313477,-1.7350001335144043,-0.34999987483024597,-0.7177032232284546,0.0,0.0,0.0
1759837628.55628,1,-1.7350001335144043,-0.34999987483024597,-0.7177028688339,0.0,True,0.01050710678100586,-1.7350001335144043,-0.34999987483024597,-0.7177032232284546,0.0,0.0,0.0
1759837628.5709236,1,-1.7350001335144043,-0.34999987483024597,-0.717702855490618,0.0,True,0.014643669128417969,-1.7350001335144043,-0.34999987483024597,-0.7177032232284546,0.0,0.0,0.0
1759837628.5792387,1,-1.7350001335144043,-0.34999987483024597,-0.7177028926288855,0.0,True,0.008315086364746094,-1.7350001335144043,-0.34999987483024597,-0.7177032232284546,0.0,0.0,0.0
1759837628.5904386,1,-1.7350001335144043,-0.34999987483024597,-0.7177029045103023,0.0,True,0.011199951171875,-1.7350001335144043,-0.34999987483024597,-0.7177032232284546,0.0,0.0,0.0
1759837628.6009269,1,-1.7350001335144043,-0.34999987483024597,-0.7177029190426296,0.0,True,0.010488271713256836,-1.7350001335144043,-0.34999987483024597,-0.7177032232284546,0.0,0.0,0.0
1759837628.611196,1,-1.7350001335144043,-0.34999987483024597,-0.7177029334265725,0.0,True,0.0102691650390625,-1.7350001335144043,-0.34999987483024597,-0.7177032232284546,0.0,0.0,0.0
1759837628.6213565,1,-1.7350001335144043,-0.34999987483024597,-0.7177029466465257,0.0,True,0.010160446166992188,-1.7350001335144043,-0.34999987483024597,-0.7177032232284546,0.0,0.0,0.0
1759837628.6315572,1,-1.7350001335144043,-0.34999987483024597,-0.7177029579588563,0.0,True,0.010200738906860352,-1.7350001335144043,-0.34999987483024597,-0.7177032232284546,0.0,0.0,0.0
1759837628.6424465,1,-1.7350001335144043,-0.34999987483024597,-0.7177029641585086,0.0,True,0.010889291763305664,-1.7350001335144043,-0.34999987483024597,-0.7177032232284546,0.0,0.0,0.0
1759837628.6533418,1,-1.7350001335144043,-0.34999987483024597,-0.7177029705958216,0.0,True,0.010895252227783203,-1.7350001335144043,-0.34999987483024597,-0.7177032232284546,0.0,0.0,0.0
1759837628.6645668,1,-1.7350001335144043,-0.34999987483024597,-0.7177029757563655,0.0,True,0.011224985122680664,-1.7350001335144043,-0.34999987483024597,-0.7177032232284546,0.0,0.0,0.0
1759837628.675942,1,-1.7350001335144043,-0.34999987483024597,-0.7177029809707403,0.0,True,0.011375188827514648,-1.7350001335144043,-0.34999987483024597,-0.7177032232284546,0.0,0.0,0.0
1759837628.6873434,1,-1.7350001335144043,-0.34999987483024597,-0.717702986934011,0.0,True,0.01140141487121582,-1.7350001335144043,-0.34999987483024597,-0.7177032232284546,0.0,0.0,0.0
1759837628.6983747,1,-1.7350001335144043,-0.34999987483024597,-0.7177029952769889,0.0,True,0.011031389236450195,-1.7350001335144043,-0.34999987483024597,-0.7177032232284546,0.0,0.0,0.0
1759837628.7095861,1,-1.7350001335144043,-0.34999987483024597,-0.7177030026282942,0.0,True,0.011211395263671875,-1.7350001335144043,-0.34999987483024597,-0.7177032232284546,0.0,0.0,0.0
1759837628.7209957,1,-1.7350001335144043,-0.34999987483024597,-0.7177030090250014,0.0,True,0.011409521102905273,-1.7350001335144043,-0.34999987483024597,-0.7177032232284546,0.0,0.0,0.0
1759837628.7318516,1,-1.7350001335144043,-0.34999987483024597,-0.717703017944773,0.0,True,0.010855913162231445,-1.7350001335144043,-0.34999987483024597,-0.7177032232284546,0.0,0.0,0.0
1759837628.743044,1,-1.7350001335144043,-0.34999987483024597,-0.7177030248864522,0.0,True,0.01119232177734375,-1.7350001335144043,-0.34999987483024597,-0.7177032232284546,0.0,0.0,0.0
1759837628.753393,1,-1.7350001335144043,-0.34999987483024597,-0.7177030348928746,0.0,True,0.010349035263061523,-1.7350001335144043,-0.34999987483024597,-0.7177032232284546,0.0,0.0,0.0
1759837628.7642708,1,-1.7350001335144043,-0.34999987483024597,-0.7177030417052706,0.0,True,0.010877847671508789,-1.7350001335144043,-0.34999987483024597,-0.7177032232284546,0.0,0.0,0.0
1759837628.775021,1,-1.7350001335144043,-0.34999987483024597,-0.7177030484659443,0.0,True,0.010750293731689453,-1.7350001335144043,-0.34999987483024597,-0.7177032232284546,0.0,0.0,0.0
1759837628.786268,1,-1.7350001335144043,-0.34999987483024597,-0.7177030530435768,0.0,True,0.011246919631958008,-1.7350001335144043,-0.34999987483024597,-0.7177032232284546,0.0,0.0,0.0
1759837628.7975676,1,-1.7350001335144043,-0.34999987483024597,-0.7177030576217049,0.0,True,0.011299610137939453,-1.7350001335144043,-0.34999987483024597,-0.7177032232284546,0.0,0.0,0.0
1759837628.8088706,1,-1.7350001335144043,-0.34999987483024597,-0.7177030624617267,0.0,True,0.011302947998046875,-1.7350001335144043,-0.34999987483024597,-0.7177032232284546,0.0,0.0,0.0
1759837628.8202963,1,-1.7350001335144043,-0.34999987483024597,-0.7177030670737778,0.0,True,0.01142573356628418,-1.7350001335144043,-0.34999987483024597,-0.7177032232284546,0.0,0.0,0.0
1759837628.83167,1,-1.7350001335144043,-0.34999987483024597,-0.7177030720274633,0.0,True,0.011373758316040039,-1.7350001335144043,-0.34999987483024597,-0.7177032232284546,0.0,0.0,0.0
1759837628.8429308,1,-1.7350001335144043,-0.34999987483024597,-0.7177030773650621,0.0,True,0.011260747909545898,-1.7350001335144043,-0.34999987483024597,-0.7177032232284546,0.0,0.0,0.0
1759837628.8544655,1,-1.7350001335144043,-0.34999987483024597,-0.7177030817839238,0.0,True,0.011534690856933594,-1.7350001335144043,-0.34999987483024597,-0.7177032232284546,0.0,0.0,0.0
1759837628.8652246,1,-1.7350001335144043,-0.34999987483024597,-0.7177030883994799,0.0,True,0.010759115219116211,-1.7350001335144043,-0.34999987483024597,-0.7177032232284546,0.0,0.0,0.0
1759837628.875929,1,-1.7350001335144043,-0.34999987483024597,-0.7177030945415623,0.0,True,0.010704517364501953,-1.7350001335144043,-0.34999987483024597,-0.7177032232284546,0.0,0.0,0.0
1759837628.8861094,1,-1.7350001335144043,-0.34999987483024597,-0.7177031013406108,0.0,True,0.010180234909057617,-1.7350001335144043,-0.34999987483024597,-0.7177032232284546,0.0,0.0,0.0
1759837628.89701,1,-1.7350001335144043,-0.34999987483024597,-0.7177031053811689,0.0,True,0.010900735855102539,-1.7350001335144043,-0.34999987483024597,-0.7177032232284546,0.0,0.0,0.0
1759837628.9081047,1,-1.7350001335144043,-0.34999987483024597,-0.717703108690813,0.0,True,0.01109457015991211,-1.7350001335144043,-0.34999987483024597,-0.7177032232284546,0.0,0.0,0.0
1759837628.918416,1,-1.7350001335144043,-0.34999987483024597,-0.7177031138895522,0.0,True,0.010311365127563477,-1.7350001335144043,-0.34999987483024597,-0.7177032232284546,0.0,0.0,0.0
1759837628.9290655,1,-1.7350001335144043,-0.34999987483024597,-0.7177031178246089,0.0,True,0.010649442672729492,-1.7350001335144043,-0.34999987483024597,-0.7177032232284546,0.0,0.0,0.0
1759837628.9401977,1,-1.7350001335144043,-0.34999987483024597,-0.7177031204128532,0.0,True,0.011132240295410156,-1.7350001335144043,-0.34999987483024597,-0.7177032232284546,0.0,0.0,0.0
1759837628.9513505,1,-1.7350001335144043,-0.34999987483024597,-0.717703123100204,0.0,True,0.01115274429321289,-1.7350001335144043,-0.34999987483024597,-0.7177032232284546,0.0,0.0,0.0
1759837628.9620419,1,-1.7350001335144043,-0.34999987483024597,-0.717703126896513,0.0,True,0.010691404342651367,-1.7350001335144043,-0.34999987483024597,-0.7177032232284546,0.0,0.0,0.0
1759837628.9776905,1,-1.7350001335144043,-0.34999987483024597,-0.7177031208962461,0.0,True,0.015648603439331055,-1.7350001335144043,-0.34999987483024597,-0.7177032232284546,0.0,0.12113868659983851,0.0
1759837628.986764,1,-1.7350001335144043,-0.34999987483024597,-0.7177031299821781,0.0,True,0.009073495864868164,-1.7350001335144043,-0.34999987483024597,-0.7177032232284546,0.0,0.12113868659983851,0.0
1759837628.9969947,1,-1.7350001335144043,-0.34999987483024597,-0.717703135767632,0.0,True,0.010230779647827148,-1.7350001335144043,-0.34999987483024597,-0.7177032232284546,0.0,0.12113868659983851,0.0
1759837629.0079772,1,-1.7350001335144043,-0.34999987483024597,-0.7177031390663675,0.0,True,0.010982513427734375,-1.7350001335144043,-0.34999987483024597,-0.7177032232284546,0.0,0.12113868659983851,0.0
1759837629.018709,1,-1.7350001335144043,-0.34999987483024597,-0.7177031424549583,0.0,True,0.010731697082519531,-1.7350001335144043,-0.34999987483024597,-0.7177032232284546,0.0,0.12113868659983851,0.0
1759837629.0290174,1,-1.7350001335144043,-0.34999987483024597,-0.7177031462645864,0.0,True,0.010308504104614258,-1.7350001335144043,-0.34999987483024597,-0.7177032232284546,0.0,0.12113868659983851,0.0
1759837629.0402107,1,-1.7350001335144043,-0.34999987483024597,-0.7177031482235599,0.0,True,0.011193275451660156,-1.7350001335144043,-0.34999987483024597,-0.7177032232284546,0.0,0.12113868659983851,0.0
1759837629.052607,1,-1.7350001335144043,-0.34999987483024597,-0.7177031483931327,0.0,True,0.01239633560180664,-1.7350001335144043,-0.34999987483024597,-0.7177032232284546,0.0,0.12113868659983851,0.0
1759837629.0627224,1,-1.7350001335144043,-0.34999987483024597,-0.7177031525977213,0.0,True,0.010115385055541992,-1.7350001335144043,-0.34999987483024597,-0.7177032232284546,0.0,0.12113868659983851,0.0
1759837629.0733235,1,-1.7350001335144043,-0.34999987483024597,-0.7177031556771105,0.0,True,0.010601043701171875,-1.7350001335144043,-0.34999987483024597,-0.7177032232284546,0.0,0.12113868659983851,0.0
1759837629.0840714,1,-1.7350001335144043,-0.34999987483024597,-0.7177031581769135,0.0,True,0.010747909545898438,-1.7350001335144043,-0.34999987483024597,-0.7177032232284546,0.0,0.12113868659983851,0.0
1759837629.0942354,1,-1.7350001335144043,-0.34999987483024597,-0.717703161269295,0.0,True,0.010164022445678711,-1.7350001335144043,-0.34999987483024597,-0.7177032232284546,0.0,0.12113868659983851,0.0
1759837629.105568,1,-1.7350001335144043,-0.34999987483024597,-0.7177031624907677,0.0,True,0.011332511901855469,-1.7350001335144043,-0.34999987483024597,-0.7177032232284546,0.0,0.12113868659983851,0.0
1759837629.1162233,1,-1.7350001335144043,-0.34999987483024597,-0.7177031646823977,0.0,True,0.010655403137207031,-1.7350001335144043,-0.34999987483024597,-0.7177032232284546,0.0,0.12113868659983851,0.0
1759837629.1274836,1,-1.7350001335144043,-0.34999987483024597,-0.7177031660786106,0.0,True,0.011260271072387695,-1.7350001335144043,-0.34999987483024597,-0.7177032232284546,0.0,0.12113868659983851,0.0
1759837629.1383634,1,-1.7350001335144043,-0.34999987483024597,-0.7177031680148787,0.0,True,0.010879755020141602,-1.7350001335144043,-0.34999987483024597,-0.7177032232284546,0.0,0.12113868659983851,0.0
1759837629.149855,1,-1.7350001335144043,-0.34999987483024597,-0.7177031692361968,0.0,True,0.011491537094116211,-1.7350001335144043,-0.34999987483024597,-0.7177032232284546,0.0,0.12113868659983851,0.0
1759837629.160292,1,-1.7350001335144043,-0.34999987483024597,-0.7177031717368081,0.0,True,0.01043701171875,-1.7350001335144043,-0.34999987483024597,-0.7177032232284546,0.0,0.12113868659983851,0.0
1759837629.1707401,1,-1.7350001335144043,-0.34999987483024597,-0.7177031740047095,0.0,True,0.010448217391967773,-1.7350001335144043,-0.34999987483024597,-0.7177032232284546,0.0,0.12113868659983851,0.0
1759837629.1817389,1,-1.7350001335144043,-0.34999987483024597,-0.7177031754593735,0.0,True,0.010998725891113281,-1.7350001335144043,-0.34999987483024597,-0.7177032232284546,0.0,0.12113868659983851,0.0
1759837629.192406,1,-1.7350001335144043,-0.34999987483024597,-0.7177031772106179,0.0,True,0.010667085647583008,-1.7350001335144043,-0.34999987483024597,-0.7177032232284546,0.0,0.12113868659983851,0.0
1759837629.2031653,1,-1.7350001335144043,-0.34999987483024597,-0.7177031787867314,0.0,True,0.010759353637695312,-1.7350001335144043,-0.34999987483024597,-0.7177032232284546,0.0,0.12113868659983851,0.0
1759837629.2143328,1,-1.7350001335144043,-0.34999987483024597,-0.7177031799189955,0.0,True,0.011167526245117188,-1.7350001335144043,-0.34999987483024597,-0.7177032232284546,0.0,0.12113868659983851,0.0
1759837629.2252154,1,-1.7350001335144043,-0.34999987483024597,-0.7177031813600543,0.0,True,0.01088261604309082,-1.7350001335144043,-0.34999987483024597,-0.7177032232284546,0.0,0.12113868659983851,0.0
1759837629.2364001,1,-1.7350001335144043,-0.34999987483024597,-0.7177031825240636,0.0,True,0.0111846923828125,-1.7350001335144043,-0.34999987483024597,-0.7177032232284546,0.0,0.12113868659983851,0.0
1759837629.2472334,1,-1.7350001335144043,-0.34999987483024597,-0.7177031840103432,0.0,True,0.010833263397216797,-1.7350001335144043,-0.34999987483024597,-0.7177032232284546,0.0,0.12113868659983851,0.0
1759837629.2585688,1,-1.7350001335144043,-0.34999987483024597,-0.7177031850387863,0.0,True,0.011335372924804688,-1.7350001335144043,-0.34999987483024597,-0.7177032232284546,0.0,0.12113868659983851,0.0
1759837629.2699862,1,-1.7350001335144043,-0.34999987483024597,-0.7177031860525709,0.0,True,0.011417388916015625,-1.7350001335144043,-0.34999987483024597,-0.7177032232284546,0.0,0.12113868659983851,0.0
1759837629.2808902,1,-1.7350001335144043,-0.34999987483024597,-0.7177031875147968,0.0,True,0.010904073715209961,-1.7350001335144043,-0.34999987483024597,-0.7177032232284546,0.0,0.12113868659983851,0.0
1759837629.2921963,1,-1.7350001335144043,-0.34999987483024597,-0.7177031886158343,0.0,True,0.011306047439575195,-1.7350001335144043,-0.34999987483024597,-0.7177032232284546,0.0,0.12113868659983851,0.0
1759837629.3030946,1,-1.7350001335144043,-0.34999987483024597,-0.7177031899897575,0.0,True,0.010898351669311523,-1.7350001335144043,-0.34999987483024597,-0.7177032232284546,0.0,0.12113868659983851,0.0
1759837629.3139734,1,-1.7350001335144043,-0.34999987483024597,-0.7177031912932179,0.0,True,0.010878801345825195,-1.7350001335144043,-0.34999987483024597,-0.7177032232284546,0.0,0.12113868659983851,0.0
1759837629.3252609,1,-1.7350001335144043,-0.34999987483024597,-0.7177031922408545,0.0,True,0.011287450790405273,-1.7350001335144043,-0.34999987483024597,-0.7177032232284546,0.0,0.12113868659983851,0.0
1759837629.3358967,1,-1.7350001335144043,-0.34999987483024597,-0.7177031935927545,0.0,True,0.010635852813720703,-1.7350001335144043,-0.34999987483024597,-0.7177032232284546,0.0,0.12113868659983851,0.0
1759837629.346029,1,-1.7350001335144043,-0.34999987483024597,-0.7177031951325397,0.0,True,0.010132312774658203,-1.7350001335144043,-0.34999987483024597,-0.7177032232284546,0.0,0.12113868659983851,0.0
1759837629.3564658,1,-1.7350001335144043,-0.34999987483024597,-0.7177031962840026,0.0,True,0.010436773300170898,-1.7350001335144043,-0.34999987483024597,-0.7177032232284546,0.0,0.12113868659983851,0.0
1759837629.3666756,1,-1.7350001335144043,-0.34999987483024597,-0.7177031974340444,0.0,True,0.010209798812866211,-1.7350001335144043,-0.34999987483024597,-0.7177032232284546,0.0,0.12113868659983851,0.0
1759837629.3809896,1,-1.7350001335144043,-0.34999987483024597,-0.7177031962485003,0.0,True,0.014313936233520508,-1.7350001335144043,-0.34999987483024597,-0.7177032232284546,0.0,0.12113868659983851,0.0
1759837629.3924458,1,-1.7350001335144043,-0.34999987483024597,-0.7177031971418835,0.0,True,0.01145625114440918,-1.7350001335144043,-0.34999987483024597,-0.7177032232284546,0.0,0.12113868659983851,0.0
1759837629.4027724,1,-1.7350001335144043,-0.34999987483024597,-0.7177031987099198,0.0,True,0.010326623916625977,-1.7350001335144043,-0.34999987483024597,-0.7177032232284546,0.0,0.12113868659983851,0.0
1759837629.414212,1,-1.7350001335144043,-0.34999987483024597,-0.7177031995240473,0.0,True,0.01143956184387207,-1.7350001335144043,-0.34999987483024597,-0.7177032232284546,0.0,0.12113868659983851,0.0
1759837629.4256408,1,-1.7350001335144043,-0.34999987483024597,-0.7177032002957624,0.0,True,0.0114288330078125,-1.7350001335144043,-0.34999987483024597,-0.7177032232284546,0.0,0.12113868659983851,0.0
1759837629.437113,1,-1.7350001335144043,-0.34999987483024597,-0.7177032010455306,0.0,True,0.011472225189208984,-1.7350001335144043,-0.34999987483024597,-0.7177032232284546,0.0,0.12113868659983851,0.0
1759837629.4485228,1,-1.7350001335144043,-0.34999987483024597,-0.7177032018206813,0.0,True,0.011409759521484375,-1.7350001335144043,-0.34999987483024597,-0.7177032232284546,0.0,0.12113868659983851,0.0
1759837629.4587946,1,-1.7350001335144043,-0.34999987483024597,-0.7177032030506538,0.0,True,0.010271787643432617,-1.7350001335144043,-0.34999987483024597,-0.7177032232284546,0.0,0.12113868659983851,0.0
1759837629.4688497,1,-1.7350001335144043,-0.34999987483024597,-0.7177032041986422,0.0,True,0.010055065155029297,-1.7350001335144043,-0.34999987483024597,-0.7177032232284546,0.0,0.12113868659983851,0.0
1759837629.4789236,1,-1.7350001335144043,-0.34999987483024597,-0.717703205150185,0.0,True,0.01007390022277832,-1.7350001335144043,-0.34999987483024597,-0.7177032232284546,0.0,0.12113868659983851,0.0
1759837629.4899573,1,-1.7350001335144043,-0.34999987483024597,-0.7177032055939119,0.0,True,0.011033773422241211,-1.7350001335144043,-0.34999987483024597,-0.7177032232284546,0.0,0.12113868659983851,0.0
1759837629.5006626,1,-1.7350001335144043,-0.34999987483024597,-0.7177032061630833,0.0,True,0.010705232620239258,-1.7350001335144043,-0.34999987483024597,-0.7177032232284546,0.0,0.12113868659983851,0.0
1759837629.5107157,1,-1.7350001335144043,-0.34999987483024597,-0.7177032069553242,0.0,True,0.010053157806396484,-1.7350001335144043,-0.34999987483024597,-0.7177032232284546,0.0,0.12113868659983851,0.0
1759837629.52149,1,-1.7350001335144043,-0.34999987483024597,-0.7177032074118763,0.0,True,0.010774374008178711,-1.7350001335144043,-0.34999987483024597,-0.7177032232284546,0.0,0.12113868659983851,0.0
1759837629.5328016,1,-1.7350001335144043,-0.34999987483024597,-0.7177032076802519,0.0,True,0.011311531066894531,-1.7350001335144043,-0.34999987483024597,-0.7177032232284546,0.0,0.12113868659983851,0.0
1759837629.5436609,1,-1.7350001335144043,-0.34999987483024597,-0.7177032081558323,0.0,True,0.010859251022338867,-1.7350001335144043,-0.34999987483024597,-0.7177032232284546,0.0,0.12113868659983851,0.0
1759837629.5537071,1,-1.7350001335144043,-0.34999987483024597,-0.7177032088932158,0.0,True,0.010046243667602539,-1.7350001335144043,-0.34999987483024597,-0.7177032232284546,0.0,0.12113868659983851,0.0
1759837629.5637887,1,-1.7350001335144043,-0.34999987483024597,-0.7177032095347382,0.0,True,0.01008152961730957,-1.7350001335144043,-0.34999987483024597,-0.7177032232284546,0.0,0.12113868659983851,0.0
1759837629.574154,1,-1.7350001335144043,-0.34999987483024597,-0.7177032100117273,0.0,True,0.01036524772644043,-1.7350001335144043,-0.34999987483024597,-0.7177032232284546,0.0,0.12113868659983851,0.0
1759837629.589282,1,-1.7350001335144043,-0.34999987483024597,-0.7177032091250304,0.0,True,0.015128135681152344,-1.7350001335144043,-0.34999987483024597,-0.7177032232284546,0.0,0.12113868659983851,0.0
1759837629.60055,1,-1.7350001335144043,-0.34999987483024597,-0.717703209672699,0.0,True,0.011267900466918945,-1.7350001335144043,-0.34999987483024597,-0.7177032232284546,0.0,0.12113868659983851,0.0
1759837629.6108782,1,-1.7350001335144043,-0.34999987483024597,-0.7177032105120293,0.0,True,0.010328292846679688,-1.7350001335144043,-0.34999987483024597,-0.7177032232284546,0.0,0.12113868659983851,0.0
1759837629.6210382,1,-1.7350001335144043,-0.34999987483024597,-0.717703211268514,0.0,True,0.010159969329833984,-1.7350001335144043,-0.34999987483024597,-0.7177032232284546,0.0,0.12113868659983851,0.0
1759837629.631674,1,-1.7350001335144043,-0.34999987483024597,-0.7177032117807389,0.0,True,0.010635852813720703,-1.7350001335144043,-0.34999987483024597,-0.7177032232284546,0.0,0.12113868659983851,0.0
1759837629.6420786,1,-1.7350001335144043,-0.34999987483024597,-0.7177032122834639,0.0,True,0.010404586791992188,-1.7350001335144043,-0.34999987483024597,-0.7177032232284546,0.0,0.12113868659983851,0.0
1759837629.6525657,1,-1.7350001335144043,-0.34999987483024597,-0.7177032127127809,0.0,True,0.010487079620361328,-1.7350001335144043,-0.34999987483024597,-0.7177032232284546,0.0,0.12113868659983851,0.0
1759837629.6639667,1,-1.7350001335144043,-0.34999987483024597,-0.7177032129034693,0.0,True,0.011400938034057617,-1.7350001335144043,-0.34999987483024597,-0.7177032232284546,0.0,0.12113868659983851,0.0
1759837629.6740894,1,-1.7350001335144043,-0.34999987483024597,-0.7177032133962022,0.0,True,0.01012277603149414,-1.7350001335144043,-0.34999987483024597,-0.7177032232284546,0.0,0.12113868659983851,0.0
1759837629.6845253,1,-1.7350001335144043,-0.34999987483024597,-0.717703213778087,0.0,True,0.010435819625854492,-1.7350001335144043,-0.34999987483024597,-0.7177032232284546,0.0,0.12113868659983851,0.0
1759837629.6947713,1,-1.7350001335144043,-0.34999987483024597,-0.7177032141605508,0.0,True,0.010246038436889648,-1.7350001335144043,-0.34999987483024597,-0.7177032232284546,0.0,0.12113868659983851,0.0
1759837629.704988,1,-1.7350001335144043,-0.34999987483024597,-0.7177032145124684,0.0,True,0.010216712951660156,-1.7350001335144043,-0.34999987483024597,-0.7177032232284546,0.0,0.12113868659983851,0.0
1759837629.7152734,1,-1.7350001335144043,-0.34999987483024597,-0.717703214819462,0.0,True,0.010285377502441406,-1.7350001335144043,-0.34999987483024597,-0.7177032232284546,0.0,0.12113868659983851,0.0
1759837629.7259567,1,-1.7350001335144043,-0.34999987483024597,-0.7177032150332128,0.0,True,0.010683298110961914,-1.7350001335144043,-0.34999987483024597,-0.7177032232284546,0.0,0.12113868659983851,0.0
1759837629.736055,1,-1.7350001335144043,-0.34999987483024597,-0.7177032153546463,0.0,True,0.01009821891784668,-1.7350001335144043,-0.34999987483024597,-0.7177032232284546,0.0,0.12113868659983851,0.0
1759837629.7469895,1,-1.7350001335144043,-0.34999987483024597,-0.7177032155115128,0.0,True,0.010934591293334961,-1.7350001335144043,-0.34999987483024597,-0.7177032232284546,0.0,0.12113868659983851,0.0
1759837629.7581983,1,-1.7350001335144043,-0.34999987483024597,-0.7177032156405971,0.0,True,0.011208772659301758,-1.7350001335144043,-0.34999987483024597,-0.7177032232284546,0.0,0.12113868659983851,0.0
1759837629.768972,1,-1.7350001335144043,-0.34999987483024597,-0.7177032158727226,0.0,True,0.010773658752441406,-1.7350001335144043,-0.34999987483024597,-0.7177032232284546,0.0,0.12113868659983851,0.0
1759837629.7798595,1,-1.7350001335144043,-0.34999987483024597,-0.7177032160926231,0.0,True,0.010887622833251953,-1.7350001335144043,-0.34999987483024597,-0.7177032232284546,0.0,0.12113868659983851,0.0
1759837629.7943394,1,-1.7350001335144043,-0.34999987483024597,-0.717703215792536,0.0,True,0.014479875564575195,-1.7350001335144043,-0.34999987483024597,-0.7177032232284546,0.0,0.12113868659983851,0.0
1759837629.805751,1,-1.7350001335144043,-0.34999987483024597,-0.7177032160887116,0.0,True,0.011411666870117188,-1.7350001335144043,-0.34999987483024597,-0.7177032232284546,0.0,0.12113868659983851,0.0
1759837629.8170063,1,-1.7350001335144043,-0.34999987483024597,-0.7177032164229402,0.0,True,0.011255264282226562,-1.7350001335144043,-0.34999987483024597,-0.7177032232284546,0.0,0.12113868659983851,0.0
1759837629.8282502,1,-1.7350001335144043,-0.34999987483024597,-0.7177032167278554,0.0,True,0.011243820190429688,-1.7350001335144043,-0.34999987483024597,-0.7177032232284546,0.0,0.12113868659983851,0.0
1759837629.8389099,1,-1.7350001335144043,-0.34999987483024597,-0.7177032170762292,0.0,True,0.01065969467163086,-1.7350001335144043,-0.34999987483024597,-0.7177032232284546,0.0,0.12113868659983851,0.0
1759837629.850099,1,-1.7350001335144043,-0.34999987483024597,-0.7177032173150586,0.0,True,0.01118922233581543,-1.7350001335144043,-0.34999987483024597,-0.7177032232284546,0.0,0.12113868659983851,0.0
1759837629.8609855,1,-1.7350001335144043,-0.34999987483024597,-0.7177032175689533,0.0,True,0.010886430740356445,-1.7350001335144043,-0.34999987483024597,-0.7177032232284546,0.0,0.12113868659983851,0.0
1759837629.8719988,1,-1.7350001335144043,-0.34999987483024597,-0.7177032177865321,0.0,True,0.011013269424438477,-1.7350001335144043,-0.34999987483024597,-0.7177032232284546,0.0,0.12113868659983851,0.0
1759837629.8828123,1,-1.7350001335144043,-0.34999987483024597,-0.7177032180103353,0.0,True,0.010813474655151367,-1.7350001335144043,-0.34999987483024597,-0.7177032232284546,0.0,0.12113868659983851,0.0
1759837629.8932238,1,-1.7350001335144043,-0.34999987483024597,-0.7177032182578937,0.0,True,0.010411500930786133,-1.7350001335144043,-0.34999987483024597,-0.7177032232284546,0.0,0.12113868659983851,0.0
1759837629.9037714,1,-1.7350001335144043,-0.34999987483024597,-0.7177032184626082,0.0,True,0.010547637939453125,-1.7350001335144043,-0.34999987483024597,-0.7177032232284546,0.0,0.12113868659983851,0.0
1759837629.9141657,1,-1.7350001335144043,-0.34999987483024597,-0.7177032186612955,0.0,True,0.01039433479309082,-1.7350001335144043,-0.34999987483024597,-0.7177032232284546,0.0,0.12113868659983851,0.0
1759837629.9243746,1,-1.7350001335144043,-0.34999987483024597,-0.7177032188578742,0.0,True,0.010208845138549805,-1.7350001335144043,-0.34999987483024597,-0.7177032232284546,0.0,0.12113868659983851,0.0
1759837629.9351337,1,-1.7350001335144043,-0.34999987483024597,-0.7177032189822405,0.0,True,0.010759115219116211,-1.7350001335144043,-0.34999987483024597,-0.7177032232284546,0.0,0.12113868659983851,0.0
1759837629.9453208,1,-1.7350001335144043,-0.34999987483024597,-0.7177032191552577,0.0,True,0.010187149047851562,-1.7350001335144043,-0.34999987483024597,-0.7177032232284546,0.0,0.12113868659983851,0.0
1759837629.9556963,1,-1.7350001335144043,-0.34999987483024597,-0.7177032192978139,0.0,True,0.010375499725341797,-1.7350001335144043,-0.34999987483024597,-0.7177032232284546,0.0,0.12113868659983851,0.0
1759837629.9660108,1,-1.7350001335144043,-0.34999987483024597,-0.7177032194355135,0.0,True,0.010314464569091797,-1.7350001335144043,-0.34999987483024597,-0.7177032232284546,0.0,0.12113868659983851,0.0
1759837629.9772122,1,-1.7350001335144043,-0.34999987483024597,-0.7177032194929254,0.0,True,0.01120138168334961,-1.7350001335144043,-0.34999987483024597,-0.7177032232284546,0.0,0.12113868659983851,0.0
1759837629.99472,1,-1.7350001335144043,-0.34999987483024597,-0.717703219082626,0.0,True,0.01750779151916504,-1.7350001335144043,-0.34999987483024597,-0.7177032232284546,0.0,0.12113868659983851,0.0
1759837630.0028446,1,-1.7350001335144043,-0.34999987483024597,-0.7177032195345863,0.0,True,0.008124589920043945,-1.7350001335144043,-0.34999987483024597,-0.7177032232284546,0.0,0.12113868659983851,0.0
1759837630.0133579,1,-1.7350001335144043,-0.34999987483024597,-0.7177032197510371,0.0,True,0.0105133056640625,-1.7350001335144043,-0.34999987483024597,-0.7177032232284546,0.0,0.12113868659983851,0.0
1759837630.023699,1,-1.7350001335144043,-0.34999987483024597,-0.7177032199322007,0.0,True,0.010341167449951172,-1.7350001335144043,-0.34999987483024597,-0.7177032232284546,0.0,0.12113868659983851,0.0
1759837630.0347056,1,-1.7350001335144043,-0.34999987483024597,-0.7177032200413613,0.0,True,0.011006593704223633,-1.7350001335144043,-0.34999987483024597,-0.7177032232284546,0.0,0.12113868659983851,0.0
1759837630.044724,1,-1.7350001335144043,-0.34999987483024597,-0.7177032202079587,0.0,True,0.010018348693847656,-1.7350001335144043,-0.34999987483024597,-0.7177032232284546,0.0,0.12113868659983851,0.0
1759837630.0561988,1,-1.7350001335144043,-0.34999987483024597,-0.7177032202620008,0.0,True,0.011474847793579102,-1.7350001335144043,-0.34999987483024597,-0.7177032232284546,0.0,0.12113868659983851,0.0
1759837630.0664454,1,-1.7350001335144043,-0.34999987483024597,-0.7177032203975919,0.0,True,0.010246515274047852,-1.7350001335144043,-0.34999987483024597,-0.7177032232284546,0.0,0.12113868659983851,0.0
1759837630.0765357,1,-1.7350001335144043,-0.34999987483024597,-0.7177032205308151,0.0,True,0.010090351104736328,-1.7350001335144043,-0.34999987483024597,-0.7177032232284546,0.0,0.12113868659983851,0.0
1759837630.0866964,1,-1.7350001335144043,-0.34999987483024597,-0.7177032206428429,0.0,True,0.010160684585571289,-1.7350001335144043,-0.34999987483024597,-0.7177032232284546,0.0,0.12113868659983851,0.0
1759837630.0970895,1,-1.7350001335144043,-0.34999987483024597,-0.7177032207293585,0.0,True,0.010393142700195312,-1.7350001335144043,-0.34999987483024597,-0.7177032232284546,0.0,0.12113868659983851,0.0
1759837630.107211,1,-1.7350001335144043,-0.34999987483024597,-0.7177032208249763,0.0,True,0.010121583938598633,-1.7350001335144043,-0.34999987483024597,-0.7177032232284546,0.0,0.12113868659983851,0.0
1759837630.1176386,1,-1.7350001335144043,-0.34999987483024597,-0.7177032208970502,0.0,True,0.010427474975585938,-1.7350001335144043,-0.34999987483024597,-0.7177032232284546,0.0,0.12113868659983851,0.0
1759837630.128962,1,-1.7350001335144043,-0.34999987483024597,-0.7177032209219867,0.0,True,0.01132345199584961,-1.7350001335144043,-0.34999987483024597,-0.7177032232284546,0.0,0.12113868659983851,0.0
1759837630.1403522,1,-1.7350001335144043,-0.34999987483024597,-0.7177032209565724,0.0,True,0.011390209197998047,-1.7350001335144043,-0.34999987483024597,-0.7177032232284546,0.0,0.1289105636996979,0.0
1759837630.1513674,1,-1.7350001335144043,-0.34999987483024597,-0.7177032210217416,0.0,True,0.011015176773071289,-1.7350001335144043,-0.34999987483024597,-0.7177032232284546,0.0,0.1289105636996979,0.0
1759837630.1615648,1,-1.7350001335144043,-0.34999987483024597,-0.7177032211271026,0.0,True,0.01019740104675293,-1.7350001335144043,-0.34999987483024597,-0.7177032232284546,0.0,0.1289105636996979,0.0
1759837630.1730506,1,-1.7350001335144043,-0.34999987483024597,-0.7177032211653991,0.0,True,0.011485815048217773,-1.7350001335144043,-0.34999987483024597,-0.7177032232284546,0.0,0.1289105636996979,0.0
1759837630.1839044,1,-1.7350001335144043,-0.34999987483024597,-0.7177032212359826,0.0,True,0.010853767395019531,-1.7350001335144043,-0.34999987483024597,-0.7177032232284546,0.0,0.1289105636996979,0.0
1759837630.2003765,1,-1.7350001335144043,-0.34999987483024597,-0.7177032210827576,0.0,True,0.01647210121154785,-1.7350001335144043,-0.34999987483024597,-0.7177032232284546,0.0,0.1289105636996979,0.0
1759837630.2104118,1,-1.7350001335144043,-0.34999987483024597,-0.7177032212451699,0.0,True,0.010035276412963867,-1.7350001335144043,-0.34999987483024597,-0.7177032232284546,0.0,0.1289105636996979,0.0
1759837630.2206495,1,-1.7350001335144043,-0.34999987483024597,-0.717703221385289,0.0,True,0.010237693786621094,-1.7350001335144043,-0.34999987483024597,-0.7177032232284546,0.0,0.1289105636996979,0.0
1759837630.2313492,1,-1.7350001335144043,-0.34999987483024597,-0.717703221481397,0.0,True,0.010699748992919922,-1.7350001335144043,-0.34999987483024597,-0.7177032232284546,0.0,0.1289105636996979,0.0
1759837630.2425513,1,-1.7350001335144043,-0.34999987483024597,-0.7177032215449053,0.0,True,0.011202096939086914,-1.7350001335144043,-0.34999987483024597,-0.7177032232284546,0.0,0.1289105636996979,0.0
1759837630.2529135,1,-1.7350001335144043,-0.34999987483024597,-0.7177032216318615,0.0,True,0.01036214828491211,-1.7350001335144043,-0.34999987483024597,-0.7177032232284546,0.0,0.1289105636996979,0.0
1759837630.2641537,1,-1.7350001335144043,-0.34999987483024597,-0.7177032216798302,0.0,True,0.011240243911743164,-1.7350001335144043,-0.34999987483024597,-0.7177032232284546,0.0,0.1289105636996979,0.0
1759837630.2745185,1,-1.7350001335144043,-0.34999987483024597,-0.7177032217535579,0.0,True,0.010364770889282227,-1.7350001335144043,-0.34999987483024597,-0.7177032232284546,0.0,0.1289105636996979,0.0
1759837630.2851498,1,-1.7350001335144043,-0.34999987483024597,-0.7177032218115471,0.0,True,0.010631322860717773,-1.7350001335144043,-0.34999987483024597,-0.7177032232284546,0.0,0.1289105636996979,0.0
1759837630.2958825,1,-1.7350001335144043,-0.34999987483024597,-0.7177032218611537,0.0,True,0.010732650756835938,-1.7350001335144043,-0.34999987483024597,-0.7177032232284546,0.0,0.24186979806975017,0.0
1759837630.3060548,1,-1.7350001335144043,-0.34999987483024597,-0.7177032219237454,0.0,True,0.010172367095947266,-1.7350001335144043,-0.34999987483024597,-0.7177032232284546,0.0,0.24186979806975017,0.0
1759837630.3161383,1,-1.7350001335144043,-0.34999987483024597,-0.7177032219819033,0.0,True,0.010083436965942383,-1.7350001335144043,-0.34999987483024597,-0.7177032232284546,0.0,0.24186979806975017,0.0
1759837630.3263528,1,-1.7350001335144043,-0.34999987483024597,-0.7177032220294333,0.0,True,0.010214567184448242,-1.7350001335144043,-0.34999987483024597,-0.7177032232284546,0.0,0.24186979806975017,0.0
1759837630.3370507,1,-1.7350001335144043,-0.34999987483024597,-0.7177032220599884,0.0,True,0.01069784164428711,-1.7350001335144043,-0.34999987483024597,-0.7177032232284546,0.0,0.24186979806975017,0.0
1759837630.3476913,1,-1.7350001335144043,-0.34999987483024597,-0.7177032220925046,0.0,True,0.010640621185302734,-1.7350001335144043,-0.34999987483024597,-0.7177032232284546,0.0,0.24186979806975017,0.0
1759837630.3578942,1,-1.7350001335144043,-0.34999987483024597,-0.7177032221362349,0.0,True,0.010202884674072266,-1.7350001335144043,-0.34999987483024597,-0.7177032232284546,0.0,0.24186979806975017,0.0
1759837630.368189,1,-1.7350001335144043,-0.34999987483024597,-0.7177032221747552,0.0,True,0.010294914245605469,-1.7350001335144043,-0.34999987483024597,-0.7177032232284546,0.0,0.24186979806975017,0.0
1759837630.378404,1,-1.7350001335144043,-0.34999987483024597,-0.7177032222124247,0.0,True,0.010214805603027344,-1.7350001335144043,-0.34999987483024597,-0.7177032232284546,0.0,0.24186979806975017,0.0
1759837630.3910313,1,-1.7350001335144043,-0.34999987483024597,-0.7177032221950093,0.0,True,0.012627363204956055,-1.7350001335144043,-0.34999987483024597,-0.7177032232284546,0.0,0.24186979806975017,0.0
1759837630.4059482,1,-1.7350001335144043,-0.34999987483024597,-0.7177032221449942,0.0,True,0.01491689682006836,-1.7350001335144043,-0.34999987483024597,-0.7177032232284546,0.0,0.24186979806975017,0.0
1759837630.417589,1,-1.7350001335144043,-0.34999987483024597,-0.7177032221896091,0.0,True,0.011640787124633789,-1.7350001335144043,-0.34999987483024597,-0.7177032232284546,0.0,0.24186979806975017,0.0
1759837630.4283931,1,-1.7350001335144043,-0.34999987483024597,-0.717703222252803,0.0,True,0.010804176330566406,-1.7350001335144043,-0.34999987483024597,-0.7177032232284546,0.0,0.24186979806975017,0.0
1759837630.4386916,1,-1.7350001335144043,-0.34999987483024597,-0.7177032223163433,0.0,True,0.010298490524291992,-1.7350001335144043,-0.34999987483024597,-0.7177032232284546,0.0,0.24186979806975017,0.0
1759837630.4500027,1,-1.7350001335144043,-0.34999987483024597,-0.7177032223507371,0.0,True,0.011311054229736328,-1.7350001335144043,-0.34999987483024597,-0.7177032232284546,0.0,0.24186979806975017,0.0
1759837630.4613276,1,-1.7350001335144043,-0.34999987483024597,-0.7177032223816457,0.0,True,0.011324882507324219,-1.7350001335144043,-0.34999987483024597,-0.7177032232284546,0.0,0.24186979806975017,0.0
1759837630.4722364,1,-1.7350001335144043,-0.34999987483024597,-0.7177032224183613,0.0,True,0.010908842086791992,-1.7350001335144043,-0.34999987483024597,-0.7177032232284546,0.0,0.24186979806975017,0.0
1759837630.4832983,1,-1.7350001335144043,-0.34999987483024597,-0.7177032224495719,0.0,True,0.011061906814575195,-1.7350001335144043,-0.34999987483024597,-0.7177032232284546,0.0,0.24186979806975017,0.0
