timestamp,vehicle_id,x,y,theta,velocity,gps_available,dt,gps_x,gps_y,gps_theta,gps_velocity,control_steering,control_acceleration
1759837626.659827,0,-1.205,-0.83,-0.7801621756414647,0.0,False,0.01,nan,nan,nan,nan,0.0,0.0
1759837626.6702073,0,-1.205,-0.83,-0.7801621756414647,0.0,False,0.010380268096923828,nan,nan,nan,nan,0.0,0.0
1759837626.6812634,0,-1.205,-0.83,-0.7801621756414647,0.0,False,0.011056184768676758,nan,nan,nan,nan,0.0,0.0
1759837626.6928437,0,-1.205,-0.83,-0.7801621756414647,0.0,False,0.011580228805541992,nan,nan,nan,nan,0.0,0.0
1759837626.7036536,0,-1.205,-0.83,-0.7801621756414647,0.0,False,0.010809898376464844,nan,nan,nan,nan,0.0,0.0
1759837626.7139845,0,-1.205,-0.83,-0.7801621756414647,0.0,False,0.010330915451049805,nan,nan,nan,nan,0.0,0.0
1759837626.724907,0,-1.205,-0.83,-0.7801621756414647,0.0,False,0.010922431945800781,nan,nan,nan,nan,0.0,0.0
1759837626.7363615,0,-1.205,-0.83,-0.7801621756414647,0.0,False,0.011454582214355469,nan,nan,nan,nan,0.0,0.0
1759837626.7470834,0,-1.205,-0.83,-0.7801621756414647,0.0,False,0.010721921920776367,nan,nan,nan,nan,0.0,0.0
1759837626.758682,0,-1.205,-0.83,-0.7801621756414647,0.0,False,0.011598587036132812,nan,nan,nan,nan,0.0,0.0
1759837626.7698846,0,-1.205,-0.83,-0.7801621756414647,0.0,False,0.011202573776245117,nan,nan,nan,nan,0.0,0.0
1759837626.7799797,0,-1.205,-0.83,-0.7801621756414647,0.0,False,0.01009511947631836,nan,nan,nan,nan,0.0,0.0
1759837626.7912724,0,-1.205,-0.83,-0.7801621756414647,0.0,False,0.011292695999145508,nan,nan,nan,nan,0.0,0.0
1759837626.8015318,0,-1.205,-0.83,-0.7801621756414647,0.0,False,0.010259389877319336,nan,nan,nan,nan,0.0,0.0
1759837626.8129678,0,-1.205,-0.83,-0.7801621756414647,0.0,False,0.011435985565185547,nan,nan,nan,nan,0.0,0.0
1759837626.8244348,0,-1.205,-0.83,-0.7801621756414647,0.0,False,0.01146697998046875,nan,nan,nan,nan,0.0,0.0
1759837626.8353472,0,-1.205,-0.83,-0.7801621756414647,0.0,False,0.010912418365478516,nan,nan,nan,nan,0.0,0.0
1759837626.8460555,0,-1.205,-0.83,-0.7801621756414647,0.0,False,0.010708332061767578,nan,nan,nan,nan,0.0,0.0
1759837626.85696,0,-1.2049998061259588,-0.8299996288021405,-0.7229998720252269,0.0,True,0.010904550552368164,-1.2049998044967651,-0.8299996256828308,-0.717703640460968,0.0,0.0,0.0
1759837626.8680732,0,-1.2049998050413424,-0.829999626725497,-0.7181155720309693,0.0,True,0.011113166809082031,-1.2049998044967651,-0.8299996256828308,-0.717703640460968,0.0,0.0,0.0
1759837626.8787336,0,-1.2049998047010528,-0.8299996260739668,-0.7176573181903017,0.0,True,0.010660409927368164,-1.2049998044967651,-0.8299996256828308,-0.717703640460968,0.0,0.0,0.0
1759837626.8902612,0,-1.2049998045745929,-0.8299996258318424,-0.7175946944181675,0.0,True,0.011527538299560547,-1.2049998044967651,-0.8299996256828308,-0.717703640460968,0.0,0.0,0.0
1759837626.9017715,0,-1.2049998045264814,-0.8299996257397265,-0.7175881528855612,0.0,True,0.011510372161865234,-1.2049998044967651,-0.8299996256828308,-0.717703640460968,0.0,0.0,0.0
1759837626.9123642,0,-1.2049998045081152,-0.8299996257045619,-0.7175983914052058,0.0,True,0.01059269905090332,-1.2049998044967651,-0.8299996256828308,-0.717703640460968,0.0,0.0,0.0
1759837626.923366,0,-1.2049998045011003,-0.8299996256911313,-0.7176101372520733,0.0,True,0.011001825332641602,-1.2049998044967651,-0.8299996256828308,-0.717703640460968,0.0,0.0,0.0
1759837626.934804,0,-1.204999804498421,-0.8299996256860013,-0.7176211691516414,0.0,True,0.01143789291381836,-1.2049998044967651,-0.8299996256828308,-0.717703640460968,0.0,0.0,0.0
1759837626.9455862,0,-1.2049998044973975,-0.8299996256840418,-0.7176322482640991,0.0,True,0.010782241821289062,-1.2049998044967651,-0.8299996256828308,-0.717703640460968,0.0,0.0,0.0
1759837626.9564342,0,-1.2049998044970067,-0.8299996256832933,-0.7176413259448999,0.0,True,0.010848045349121094,-1.2049998044967651,-0.8299996256828308,-0.717703640460968,0.0,0.0,0.0
1759837626.9677968,0,-1.2049998044968575,-0.8299996256830074,-0.7176482885776387,0.0,True,0.011362552642822266,-1.2049998044967651,-0.8299996256828308,-0.717703640460968,0.0,0.0,0.0
1759837626.9789493,0,-1.2049998044968004,-0.8299996256828983,-0.7176544615638036,0.0,True,0.011152505874633789,-1.2049998044967651,-0.8299996256828308,-0.717703640460968,0.0,0.0,0.0
1759837626.9891684,0,-1.2049998044967787,-0.8299996256828566,-0.7176603980062346,0.0,True,0.010219097137451172,-1.2049998044967651,-0.8299996256828308,-0.717703640460968,0.0,0.0,0.0
1759837627.0000439,0,-1.2049998044967702,-0.8299996256828407,-0.7176646283150259,0.0,True,0.010875463485717773,-1.2049998044967651,-0.8299996256828308,-0.717703640460968,0.0,0.0,0.0
1759837627.0102503,0,-1.2049998044967671,-0.8299996256828346,-0.7176686233084872,0.0,True,0.010206460952758789,-1.2049998044967651,-0.8299996256828308,-0.717703640460968,0.0,0.0,0.0
1759837627.0212982,0,-1.2049998044967658,-0.8299996256828323,-0.7176713739692779,0.0,True,0.011047840118408203,-1.2049998044967651,-0.8299996256828308,-0.717703640460968,0.0,0.0,0.0
1759837627.0313969,0,-1.2049998044967654,-0.8299996256828314,-0.717674352181012,0.0,True,0.010098695755004883,-1.2049998044967651,-0.8299996256828308,-0.717703640460968,0.0,0.0,0.0
1759837627.0415502,0,-1.2049998044967651,-0.829999625682831,-0.7176768066731629,0.0,True,0.01015329360961914,-1.2049998044967651,-0.8299996256828308,-0.717703640460968,0.0,0.0,0.0
1759837627.052207,0,-1.2049998044967651,-0.8299996256828309,-0.7176786087785043,0.0,True,0.01065683364868164,-1.2049998044967651,-0.8299996256828308,-0.717703640460968,0.0,0.0,0.0
1759837627.0629132,0,-1.2049998044967651,-0.8299996256828308,-0.717680197686267,0.0,True,0.010706186294555664,-1.2049998044967651,-0.8299996256828308,-0.717703640460968,0.0,0.0,0.0
1759837627.0729446,0,-1.2049998044967651,-0.8299996256828308,-0.7176819515948232,0.0,True,0.010031461715698242,-1.2049998044967651,-0.8299996256828308,-0.717703640460968,0.0,0.0,0.0
1759837627.0838048,0,-1.2049998044967651,-0.8299996256828308,-0.7176831106471866,0.0,True,0.010860204696655273,-1.2049998044967651,-0.8299996256828308,-0.717703640460968,0.0,0.0,0.0
1759837627.0950677,0,-1.2049998044967651,-0.8299996256828308,-0.7176840376001596,0.0,True,0.011262893676757812,-1.2049998044967651,-0.8299996256828308,-0.717703640460968,0.0,0.0,0.0
1759837627.1058438,0,-1.2049998044967651,-0.8299996256828308,-0.7176851609387107,0.0,True,0.010776042938232422,-1.2049998044967651,-0.8299996256828308,-0.717703640460968,0.0,0.0,0.0
1759837627.1166308,0,-1.2049998044967651,-0.8299996256828308,-0.7176862050904553,0.0,True,0.010787010192871094,-1.2049998044967651,-0.8299996256828308,-0.717703640460968,0.0,0.0,0.0
1759837627.126876,0,-1.2049998044967651,-0.8299996256828308,-0.7176873441386213,0.0,True,0.010245323181152344,-1.2049998044967651,-0.8299996256828308,-0.717703640460968,0.0,0.0,0.0
1759837627.1379893,0,-1.2049998044967651,-0.8299996256828308,-0.7176880599132218,0.0,True,0.011113166809082031,-1.2049998044967651,-0.8299996256828308,-0.717703640460968,0.0,0.0,0.0
1759837627.1495156,0,-1.2049998044967651,-0.8299996256828308,-0.7176886266379281,0.0,True,0.011526346206665039,-1.2049998044967651,-0.8299996256828308,-0.717703640460968,0.0,0.0,0.0
1759837627.1598577,0,-1.2049998044967651,-0.8299996256828308,-0.7176895685742846,0.0,True,0.010342121124267578,-1.2049998044967651,-0.8299996256828308,-0.717703640460968,0.0,0.0,0.0
1759837627.1713004,0,-1.2049998044967651,-0.8299996256828308,-0.7176901047852482,0.0,True,0.01144266128540039,-1.2049998044967651,-0.8299996256828308,-0.717703640460968,0.0,0.0,0.0
1759837627.182846,0,-1.2049998044967651,-0.8299996256828308,-0.7176906141990358,0.0,True,0.011545658111572266,-1.2049998044967651,-0.8299996256828308,-0.717703640460968,0.0,0.0,0.0
1759837627.1940503,0,-1.2049998044967651,-0.8299996256828308,-0.7176912280286629,0.0,True,0.011204242706298828,-1.2049998044967651,-0.8299996256828308,-0.717703640460968,0.0,0.0,0.0
1759837627.2052093,0,-1.2049998044967651,-0.8299996256828308,-0.7176918271327075,0.0,True,0.011158943176269531,-1.2049998044967651,-0.8299996256828308,-0.717703640460968,0.0,0.0,0.0
1759837627.2162967,0,-1.2049998044967651,-0.8299996256828308,-0.7176924036715988,0.0,True,0.011087417602539062,-1.2049998044967651,-0.8299996256828308,-0.717703640460968,0.0,0.0,0.0
1759837627.2269125,0,-1.2049998044967651,-0.8299996256828308,-0.7176930385666207,0.0,True,0.010615825653076172,-1.2049998044967651,-0.8299996256828308,-0.717703640460968,0.0,0.0,0.0
1759837627.2378721,0,-1.2049998044967651,-0.8299996256828308,-0.7176935285451034,0.0,True,0.010959625244140625,-1.2049998044967651,-0.8299996256828308,-0.717703640460968,0.0,0.0,0.0
1759837627.249188,0,-1.2049998044967651,-0.8299996256828308,-0.7176939070452217,0.0,True,0.01131582260131836,-1.2049998044967651,-0.8299996256828308,-0.717703640460968,0.0,0.0,0.0
1759837627.2606359,0,-1.2049998044967651,-0.8299996256828308,-0.7176942557671175,0.0,True,0.011447906494140625,-1.2049998044967651,-0.8299996256828308,-0.717703640460968,0.0,0.0,0.0
1759837627.2718759,0,-1.2049998044967651,-0.8299996256828308,-0.7176946470884609,0.0,True,0.011240005493164062,-1.2049998044967651,-0.8299996256828308,-0.717703640460968,0.0,0.0,0.0
1759837627.2825127,0,-1.2049998044967651,-0.8299996256828308,-0.7176951294145653,0.0,True,0.01063680648803711,-1.2049998044967651,-0.8299996256828308,-0.717703640460968,0.0,0.0,0.0
1759837627.2933486,0,-1.2049998044967651,-0.8299996256828308,-0.717695525702462,0.0,True,0.010835886001586914,-1.2049998044967651,-0.8299996256828308,-0.717703640460968,0.0,0.0,0.0
1759837627.304819,0,-1.2049998044967651,-0.8299996256828308,-0.7176957820459826,0.0,True,0.011470556259155273,-1.2049998044967651,-0.8299996256828308,-0.717703640460968,0.0,0.0,0.0
1759837627.3150282,0,-1.2049998044967651,-0.8299996256828308,-0.717696236821606,0.0,True,0.010209083557128906,-1.2049998044967651,-0.8299996256828308,-0.717703640460968,0.0,0.0,0.0
1759837627.3257632,0,-1.2049998044967651,-0.8299996256828308,-0.7176965577012648,0.0,True,0.010735034942626953,-1.2049998044967651,-0.8299996256828308,-0.717703640460968,0.0,0.0,0.0
1759837627.3370788,0,-1.2049998044967651,-0.8299996256828308,-0.7176967639721603,0.0,True,0.011315584182739258,-1.2049998044967651,-0.8299996256828308,-0.717703640460968,0.0,0.0,0.0
1759837627.3481073,0,-1.2049998044967651,-0.8299996256828308,-0.7176970166094527,0.0,True,0.011028528213500977,-1.2049998044967651,-0.8299996256828308,-0.717703640460968,0.0,0.0,0.0
1759837627.36021,0,-1.2049998044967651,-0.8299996256828308,-0.7176971248085735,0.0,True,0.012102603912353516,-1.2049998044967651,-0.8299996256828308,-0.717703640460968,0.0,0.0,0.0
1759837627.370278,0,-1.2049998044967651,-0.8299996256828308,-0.7176975268323851,0.0,True,0.010067939758300781,-1.2049998044967651,-0.8299996256828308,-0.717703640460968,0.0,0.0,0.0
1759837627.3814013,0,-1.2049998044967651,-0.8299996256828308,-0.7176977507840228,0.0,True,0.011123418807983398,-1.2049998044967651,-0.8299996256828308,-0.717703640460968,0.0,0.0,0.0
1759837627.391826,0,-1.2049998044967651,-0.8299996256828308,-0.7176980405216895,0.0,True,0.010424613952636719,-1.2049998044967651,-0.8299996256828308,-0.717703640460968,0.0,0.0,0.0
1759837627.4025571,0,-1.2049998044967651,-0.8299996256828308,-0.7176982647953878,0.0,True,0.010731220245361328,-1.2049998044967651,-0.8299996256828308,-0.717703640460968,0.0,0.0,0.0
1759837627.413979,0,-1.2049998044967651,-0.8299996256828308,-0.7176983954001237,0.0,True,0.011421918869018555,-1.2049998044967651,-0.8299996256828308,-0.717703640460968,0.0,0.0,0.0
1759837627.425031,0,-1.2049998044967651,-0.8299996256828308,-0.7176985765130137,0.0,True,0.01105189323425293,-1.2049998044967651,-0.8299996256828308,-0.717703640460968,0.0,0.0,0.0
1759837627.436426,0,-1.2049998044967651,-0.8299996256828308,-0.7176987229934753,0.0,True,0.011394977569580078,-1.2049998044967651,-0.8299996256828308,-0.717703640460968,0.0,0.0,0.0
1759837627.447367,0,-1.2049998044967651,-0.8299996256828308,-0.7176989196741079,0.0,True,0.010941028594970703,-1.2049998044967651,-0.8299996256828308,-0.717703640460968,0.0,0.0,0.0
1759837627.4610014,0,-1.2049998044967651,-0.8299996256828308,-0.7176988573330245,0.0,True,0.013634443283081055,-1.2049998044967651,-0.8299996256828308,-0.717703640460968,0.0,0.0,0.0
1759837627.471593,0,-1.2049998044967651,-0.8299996256828308,-0.7176991358889389,0.0,True,0.010591506958007812,-1.2049998044967651,-0.8299996256828308,-0.717703640460968,0.0,0.0,0.0
1759837627.4826136,0,-1.2049998044967651,-0.8299996256828308,-0.7176993548363111,0.0,True,0.011020660400390625,-1.2049998044967651,-0.8299996256828308,-0.717703640460968,0.0,0.0,0.0
1759837627.4932375,0,-1.2049998044967651,-0.8299996256828308,-0.7176995796597865,0.0,True,0.010623931884765625,-1.2049998044967651,-0.8299996256828308,-0.717703640460968,0.0,0.0,0.0
1759837627.503375,0,-1.2049998044967651,-0.8299996256828308,-0.7176998140338071,0.0,True,0.010137557983398438,-1.2049998044967651,-0.8299996256828308,-0.717703640460968,0.0,0.0,0.0
1759837627.5148044,0,-1.2049998044967651,-0.8299996256828308,-0.7176999119258802,0.0,True,0.011429309844970703,-1.2049998044967651,-0.8299996256828308,-0.717703640460968,0.0,0.0,0.0
1759837627.5252645,0,-1.2049998044967651,-0.8299996256828308,-0.7177000835175793,0.0,True,0.010460138320922852,-1.2049998044967651,-0.8299996256828308,-0.717703640460968,0.0,0.0,0.0
1759837627.5355647,0,-1.2049998044967651,-0.8299996256828308,-0.7177002516393074,0.0,True,0.010300159454345703,-1.2049998044967651,-0.8299996256828308,-0.717703640460968,0.0,0.0,0.0
1759837627.5464997,0,-1.2049998044967651,-0.8299996256828308,-0.7177003548483931,0.0,True,0.010935068130493164,-1.2049998044967651,-0.8299996256828308,-0.717703640460968,0.0,0.0,0.0
1759837627.557638,0,-1.2049998044967651,-0.8299996256828308,-0.7177004414408632,0.0,True,0.011138200759887695,-1.2049998044967651,-0.8299996256828308,-0.717703640460968,0.0,0.0,0.0
1759837627.5687008,0,-1.2049998044967651,-0.8299996256828308,-0.7177005377192351,0.0,True,0.011062860488891602,-1.2049998044967651,-0.8299996256828308,-0.717703640460968,0.0,0.0,0.0
1759837627.5801125,0,-1.2049998044967651,-0.8299996256828308,-0.717700614314186,0.0,True,0.011411666870117188,-1.2049998044967651,-0.8299996256828308,-0.717703640460968,0.0,0.0,0.0
1759837627.5908935,0,-1.2049998044967651,-0.8299996256828308,-0.717700735899605,0.0,True,0.010781049728393555,-1.2049998044967651,-0.8299996256828308,-0.717703640460968,0.0,0.0,0.0
1759837627.6011589,0,-1.2049998044967651,-0.8299996256828308,-0.7177008810109733,0.0,True,0.010265350341796875,-1.2049998044967651,-0.8299996256828308,-0.717703640460968,0.0,0.0,0.0
1759837627.6120582,0,-1.2049998044967651,-0.8299996256828308,-0.7177009723518317,0.0,True,0.01089930534362793,-1.2049998044967651,-0.8299996256828308,-0.717703640460968,0.0,0.0,0.0
1759837627.623016,0,-1.2049998044967651,-0.8299996256828308,-0.717701055521534,0.0,True,0.010957956314086914,-1.2049998044967651,-0.8299996256828308,-0.717703640460968,0.0,0.0,0.0
1759837627.6343315,0,-1.2049998044967651,-0.8299996256828308,-0.7177011193859677,0.0,True,0.011315345764160156,-1.2049998044967651,-0.8299996256828308,-0.717703640460968,0.0,0.0,0.0
1759837627.6444442,0,-1.2049998044967651,-0.8299996256828308,-0.7177012494111352,0.0,True,0.010112762451171875,-1.2049998044967651,-0.8299996256828308,-0.717703640460968,0.0,0.0,0.0
1759837627.65931,0,-1.2049998044967651,-0.8299996256828308,-0.7177011333771279,0.0,True,0.014865875244140625,-1.2049998044967651,-0.8299996256828308,-0.717703640460968,0.0,0.0,0.0
1759837627.6661277,0,-1.2049998044967651,-0.8299996256828308,-0.7177014522457004,0.0,True,0.00681757926940918,-1.2049998044967651,-0.8299996256828308,-0.717703640460968,0.0,0.0,0.0
1759837627.677635,0,-1.2049998044967651,-0.8299996256828308,-0.7177014961191617,0.0,True,0.011507272720336914,-1.2049998044967651,-0.8299996256828308,-0.717703640460968,0.0,0.0,0.0
1759837627.688457,0,-1.2049998044967651,-0.8299996256828308,-0.71770156336542,0.0,True,0.010822057723999023,-1.2049998044967651,-0.8299996256828308,-0.717703640460968,0.0,0.0,0.0
1759837627.6999328,0,-1.2049998044967651,-0.8299996256828308,-0.7177016034698145,0.0,True,0.011475801467895508,-1.2049998044967651,-0.8299996256828308,-0.717703640460968,0.0,0.0,0.0
1759837627.710167,0,-1.2049998044967651,-0.8299996256828308,-0.7177017018336791,0.0,True,0.01023411750793457,-1.2049998044967651,-0.8299996256828308,-0.717703640460968,0.0,0.0,0.0
1759837627.7213812,0,-1.2049998044967651,-0.8299996256828308,-0.7177017518860307,0.0,True,0.011214256286621094,-1.2049998044967651,-0.8299996256828308,-0.717703640460968,0.0,0.0,0.0
1759837627.7321243,0,-1.2049998044967651,-0.8299996256828308,-0.7177018209229704,0.0,True,0.010743141174316406,-1.2049998044967651,-0.8299996256828308,-0.717703640460968,0.0,0.0,0.0
1759837627.7428813,0,-1.2049998044967651,-0.8299996256828308,-0.7177018867407092,0.0,True,0.010756969451904297,-1.2049998044967651,-0.8299996256828308,-0.717703640460968,0.0,0.0,0.0
1759837627.754076,0,-1.2049998044967651,-0.8299996256828308,-0.717701933310174,0.0,True,0.011194705963134766,-1.2049998044967651,-0.8299996256828308,-0.717703640460968,0.0,0.0,0.0
1759837627.7655022,0,-1.2049998044967651,-0.8299996256828308,-0.7177019737053136,0.0,True,0.011426210403442383,-1.2049998044967651,-0.8299996256828308,-0.717703640460968,0.0,0.0,0.0
1759837627.7767906,0,-1.2049998044967651,-0.8299996256828308,-0.717702023194299,0.0,True,0.01128840446472168,-1.2049998044967651,-0.8299996256828308,-0.717703640460968,0.0,0.0,0.0
1759837627.7874835,0,-1.2049998044967651,-0.8299996256828308,-0.7177020935960741,0.0,True,0.010692834854125977,-1.2049998044967651,-0.8299996256828308,-0.717703640460968,0.0,0.0,0.0
1759837627.7988505,0,-1.2049998044967651,-0.8299996256828308,-0.7177021374681729,0.0,True,0.011367082595825195,-1.2049998044967651,-0.8299996256828308,-0.717703640460968,0.0,0.0,0.0
1759837627.8094976,0,-1.2049998044967651,-0.8299996256828308,-0.7177022033062777,0.0,True,0.010647058486938477,-1.2049998044967651,-0.8299996256828308,-0.717703640460968,0.0,0.0,0.0
1759837627.820876,0,-1.2049998044967651,-0.8299996256828308,-0.7177022427126794,0.0,True,0.011378288269042969,-1.2049998044967651,-0.8299996256828308,-0.717703640460968,0.0,0.0,0.0
1759837627.8323643,0,-1.2049998044967651,-0.8299996256828308,-0.7177022798516717,0.0,True,0.01148843765258789,-1.2049998044967651,-0.8299996256828308,-0.717703640460968,0.0,0.0,0.0
1759837627.8426366,0,-1.2049998044967651,-0.8299996256828308,-0.7177023522023216,0.0,True,0.01027226448059082,-1.2049998044967651,-0.8299996256828308,-0.717703640460968,0.0,0.0,0.0
1759837627.8538213,0,-1.2049998044967651,-0.8299996256828308,-0.7177023923617831,0.0,True,0.0111846923828125,-1.2049998044967651,-0.8299996256828308,-0.717703640460968,0.0,0.0,0.0
1759837627.8647661,0,-1.2049998044967651,-0.8299996256828308,-0.7177024368845348,0.0,True,0.010944843292236328,-1.2049998044967651,-0.8299996256828308,-0.717703640460968,0.0,0.0,0.0
1759837627.8754222,0,-1.2049998044967651,-0.8299996256828308,-0.717702486710273,0.0,True,0.010656118392944336,-1.2049998044967651,-0.8299996256828308,-0.717703640460968,0.0,0.0,0.0
1759837627.8861601,0,-1.2049998044967651,-0.8299996256828308,-0.717702530524047,0.0,True,0.010737895965576172,-1.2049998044967651,-0.8299996256828308,-0.717703640460968,0.0,0.0,0.0
1759837627.8972058,0,-1.2049998044967651,-0.8299996256828308,-0.7177025641514803,0.0,True,0.011045694351196289,-1.2049998044967651,-0.8299996256828308,-0.717703640460968,0.0,0.0,0.0
1759837627.9082332,0,-1.2049998044967651,-0.8299996256828308,-0.7177025978657756,0.0,True,0.011027336120605469,-1.2049998044967651,-0.8299996256828308,-0.717703640460968,0.0,0.0,0.0
1759837627.9186518,0,-1.2049998044967651,-0.8299996256828308,-0.7177026443055041,0.0,True,0.01041865348815918,-1.2049998044967651,-0.8299996256828308,-0.717703640460968,0.0,0.0,0.0
1759837627.929717,0,-1.2049998044967651,-0.8299996256828308,-0.7177026731738678,0.0,True,0.011065244674682617,-1.2049998044967651,-0.8299996256828308,-0.717703640460968,0.0,0.0,0.0
1759837627.941136,0,-1.2049998044967651,-0.8299996256828308,-0.7177026947677199,0.0,True,0.011418819427490234,-1.2049998044967651,-0.8299996256828308,-0.717703640460968,0.0,0.0,0.0
1759837627.9518647,0,-1.2049998044967651,-0.8299996256828308,-0.7177027321063498,0.0,True,0.010728836059570312,-1.2049998044967651,-0.8299996256828308,-0.717703640460968,0.0,0.0,0.0
1759837627.9626365,0,-1.2049998044967651,-0.8299996256828308,-0.7177027667388458,0.0,True,0.010771751403808594,-1.2049998044967651,-0.8299996256828308,-0.717703640460968,0.0,0.0,0.0
1759837627.973629,0,-1.2049998044967651,-0.8299996256828308,-0.7177027950295045,0.0,True,0.01099252700805664,-1.2049998044967651,-0.8299996256828308,-0.717703640460968,0.0,0.0,0.0
1759837627.9848754,0,-1.2049998044967651,-0.8299996256828308,-0.7177028182159031,0.0,True,0.011246442794799805,-1.2049998044967651,-0.8299996256828308,-0.717703640460968,0.0,0.0,0.0
1759837627.995776,0,-1.2049998044967651,-0.8299996256828308,-0.7177028479873151,0.0,True,0.010900497436523438,-1.2049998044967651,-0.8299996256828308,-0.717703640460968,0.0,0.0,0.0
1759837628.0072358,0,-1.2049998044967651,-0.8299996256828308,-0.7177028677909778,0.0,True,0.011459827423095703,-1.2049998044967651,-0.8299996256828308,-0.717703640460968,0.0,0.0,0.0
1759837628.0180013,0,-1.2049998044967651,-0.8299996256828308,-0.7177028995896428,0.0,True,0.010765552520751953,-1.2049998044967651,-0.8299996256828308,-0.717703640460968,0.0,0.0,0.0
1759837628.0287862,0,-1.2049998044967651,-0.8299996256828308,-0.7177029291114199,0.0,True,0.01078486442565918,-1.2049998044967651,-0.8299996256828308,-0.717703640460968,0.0,0.0,0.0
1759837628.0400124,0,-1.2049998044967651,-0.8299996256828308,-0.7177029499357914,0.0,True,0.011226177215576172,-1.2049998044967651,-0.8299996256828308,-0.717703640460968,0.0,0.0,0.0
1759837628.051543,0,-1.2049998044967651,-0.8299996256828308,-0.717702966624028,0.0,True,0.011530637741088867,-1.2049998044967651,-0.8299996256828308,-0.717703640460968,0.0,0.0,0.0
1759837628.0626829,0,-1.2049998044967651,-0.8299996256828308,-0.7177029901760594,0.0,True,0.011139869689941406,-1.2049998044967651,-0.8299996256828308,-0.717703640460968,0.0,0.0,0.0
1759837628.0734093,0,-1.2049998044967651,-0.8299996256828308,-0.7177030186888267,0.0,True,0.010726451873779297,-1.2049998044967651,-0.8299996256828308,-0.717703640460968,0.0,0.0,0.0
1759837628.0846736,0,-1.2049998044967651,-0.8299996256828308,-0.7177030379805558,0.0,True,0.011264324188232422,-1.2049998044967651,-0.8299996256828308,-0.717703640460968,0.0,0.0,0.0
1759837628.0960004,0,-1.2049998044967651,-0.8299996256828308,-0.7177030561719544,0.0,True,0.011326789855957031,-1.2049998044967651,-0.8299996256828308,-0.717703640460968,0.0,0.0,0.0
1759837628.107498,0,-1.2049998044967651,-0.8299996256828308,-0.7177030727042144,0.0,True,0.01149749755859375,-1.2049998044967651,-0.8299996256828308,-0.717703640460968,0.0,0.0,0.0
1759837628.118736,0,-1.2049998044967651,-0.8299996256828308,-0.7177030928465964,0.0,True,0.01123809814453125,-1.2049998044967651,-0.8299996256828308,-0.717703640460968,0.0,0.0,0.0
1759837628.1300838,0,-1.2049998044967651,-0.8299996256828308,-0.717703111365875,0.0,True,0.011347770690917969,-1.2049998044967651,-0.8299996256828308,-0.717703640460968,0.0,0.0,0.0
1759837628.141497,0,-1.2049998044967651,-0.8299996256828308,-0.7177031288427944,0.0,True,0.011413097381591797,-1.2049998044967651,-0.8299996256828308,-0.717703640460968,0.0,0.0,0.0
1759837628.152555,0,-1.2049998044967651,-0.8299996256828308,-0.7177031496868658,0.0,True,0.01105809211730957,-1.2049998044967651,-0.8299996256828308,-0.717703640460968,0.0,0.0,0.0
1759837628.1627457,0,-1.2049998044967651,-0.8299996256828308,-0.7177031775100104,0.0,True,0.010190725326538086,-1.2049998044967651,-0.8299996256828308,-0.717703640460968,0.0,0.0,0.0
1759837628.17405,0,-1.2049998044967651,-0.8299996256828308,-0.7177031909557421,0.0,True,0.011304378509521484,-1.2049998044967651,-0.8299996256828308,-0.717703640460968,0.0,0.0,0.0
1759837628.1852708,0,-1.2049998044967651,-0.8299996256828308,-0.7177032047431346,0.0,True,0.011220693588256836,-1.2049998044967651,-0.8299996256828308,-0.717703640460968,0.0,0.0,0.0
1759837628.19662,0,-1.2049998044967651,-0.8299996256828308,-0.7177032175635762,0.0,True,0.011349201202392578,-1.2049998044967651,-0.8299996256828308,-0.717703640460968,0.0,0.0,0.0
1759837628.2081153,0,-1.2049998044967651,-0.8299996256828308,-0.7177032294745906,0.0,True,0.011495351791381836,-1.2049998044967651,-0.8299996256828308,-0.717703640460968,0.0,0.0,0.0
1759837628.2190547,0,-1.2049998044967651,-0.8299996256828308,-0.7177032463969102,0.0,True,0.010939359664916992,-1.2049998044967651,-0.8299996256828308,-0.717703640460968,0.0,0.0,0.0
1759837628.2303834,0,-1.2049998044967651,-0.8299996256828308,-0.7177032592153925,0.0,True,0.011328697204589844,-1.2049998044967651,-0.8299996256828308,-0.717703640460968,0.0,0.0,0.0
1759837628.2418356,0,-1.2049998044967651,-0.8299996256828308,-0.7177032708124624,0.0,True,0.011452198028564453,-1.2049998044967651,-0.8299996256828308,-0.717703640460968,0.0,0.0,0.0
1759837628.2531927,0,-1.2049998044967651,-0.8299996256828308,-0.7177032832706907,0.0,True,0.01135706901550293,-1.2049998044967651,-0.8299996256828308,-0.717703640460968,0.0,0.0,0.0
1759837628.2639554,0,-1.2049998044967651,-0.8299996256828308,-0.7177032997239667,0.0,True,0.010762691497802734,-1.2049998044967651,-0.8299996256828308,-0.717703640460968,0.0,0.0,0.0
1759837628.27455,0,-1.2049998044967651,-0.8299996256828308,-0.7177033157280359,0.0,True,0.010594606399536133,-1.2049998044967651,-0.8299996256828308,-0.717703640460968,0.0,0.0,0.0
1759837628.2846422,0,-1.2049998044967651,-0.8299996256828308,-0.7177033331040761,0.0,True,0.01009225845336914,-1.2049998044967651,-0.8299996256828308,-0.717703640460968,0.0,0.0,0.0
1759837628.295819,0,-1.2049998044967651,-0.8299996256828308,-0.717703341070802,0.0,True,0.011176824569702148,-1.2049998044967651,-0.8299996256828308,-0.717703640460968,0.0,0.0,0.0
1759837628.3060508,0,-1.2049998044967651,-0.8299996256828308,-0.7177033547804577,0.0,True,0.010231733322143555,-1.2049998044967651,-0.8299996256828308,-0.717703640460968,0.0,0.0,0.0
1759837628.3169,0,-1.2049998044967651,-0.8299996256828308,-0.7177033634963017,0.0,True,0.010849237442016602,-1.2049998044967651,-0.8299996256828308,-0.717703640460968,0.0,0.0,0.0
1759837628.327818,0,-1.2049998044967651,-0.8299996256828308,-0.7177033714917957,0.0,True,0.010917901992797852,-1.2049998044967651,-0.8299996256828308,-0.717703640460968,0.0,0.0,0.0
1759837628.3388727,0,-1.2049998044967651,-0.8299996256828308,-0.7177033788152993,0.0,True,0.011054754257202148,-1.2049998044967651,-0.8299996256828308,-0.717703640460968,0.0,0.0,0.0
1759837628.3501508,0,-1.2049998044967651,-0.8299996256828308,-0.7177033852172041,0.0,True,0.011278152465820312,-1.2049998044967651,-0.8299996256828308,-0.717703640460968,0.0,0.0,0.0
1759837628.3608654,0,-1.2049998044967651,-0.8299996256828308,-0.7177033950634488,0.0,True,0.010714530944824219,-1.2049998044967651,-0.8299996256828308,-0.717703640460968,0.0,0.0,0.0
1759837628.3721783,0,-1.2049998044967651,-0.8299996256828308,-0.7177034014277819,0.0,True,0.01131296157836914,-1.2049998044967651,-0.8299996256828308,-0.717703640460968,0.0,0.0,0.0
1759837628.3829072,0,-1.2049998044967651,-0.8299996256828308,-0.7177034108575846,0.0,True,0.010728836059570312,-1.2049998044967651,-0.8299996256828308,-0.717703640460968,0.0,0.0,0.0
1759837628.3941905,0,-1.2049998044967651,-0.8299996256828308,-0.7177034171736771,0.0,True,0.011283397674560547,-1.2049998044967651,-0.8299996256828308,-0.717703640460968,0.0,0.0,0.0
1759837628.4054441,0,-1.2049998044967651,-0.8299996256828308,-0.7177034237606321,0.0,True,0.011253595352172852,-1.2049998044967651,-0.8299996256828308,-0.717703640460968,0.0,0.0,0.0
1759837628.4163718,0,-1.2049998044967651,-0.8299996256828308,-0.7177034319273634,0.0,True,0.010927677154541016,-1.2049998044967651,-0.8299996256828308,-0.717703640460968,0.0,0.0,0.0
1759837628.4270682,0,-1.2049998044967651,-0.8299996256828308,-0.7177034406659235,0.0,True,0.0106964111328125,-1.2049998044967651,-0.8299996256828308,-0.717703640460968,0.0,0.0,0.0
1759837628.438068,0,-1.2049998044967651,-0.8299996256828308,-0.717703447422732,0.0,True,0.010999679565429688,-1.2049998044967651,-0.8299996256828308,-0.717703640460968,0.0,0.0,0.0
1759837628.4488711,0,-1.2049998044967651,-0.8299996256828308,-0.7177034546427912,0.0,True,0.01080322265625,-1.2049998044967651,-0.8299996256828308,-0.717703640460968,0.0,0.0,0.0
1759837628.4609475,0,-1.2049998044967651,-0.8299996256828308,-0.7177034566757712,0.0,True,0.012076377868652344,-1.2049998044967651,-0.8299996256828308,-0.717703640460968,0.0,0.0,0.0
1759837628.4716277,0,-1.2049998044967651,-0.8299996256828308,-0.7177034648540328,0.0,True,0.010680198669433594,-1.2049998044967651,-0.8299996256828308,-0.717703640460968,0.0,0.0,0.0
1759837628.4828885,0,-1.2049998044967651,-0.8299996256828308,-0.7177034705052954,0.0,True,0.011260747909545898,-1.2049998044967651,-0.8299996256828308,-0.717703640460968,0.0,0.0,0.0
1759837628.4936693,0,-1.2049998044967651,-0.8299996256828308,-0.7177034776090245,0.0,True,0.010780811309814453,-1.2049998044967651,-0.8299996256828308,-0.717703640460968,0.0,0.0,0.0
1759837628.504432,0,-1.2049998044967651,-0.8299996256828308,-0.7177034842295704,0.0,True,0.010762691497802734,-1.2049998044967651,-0.8299996256828308,-0.717703640460968,0.0,0.0,0.0
1759837628.5153232,0,-1.2049998044967651,-0.8299996256828308,-0.7177034898736139,0.0,True,0.010891199111938477,-1.2049998044967651,-0.8299996256828308,-0.717703640460968,0.0,0.0,0.0
1759837628.5262427,0,-1.2049998044967651,-0.8299996256828308,-0.7177034950956287,0.0,True,0.010919570922851562,-1.2049998044967651,-0.8299996256828308,-0.717703640460968,0.0,0.0,0.0
1759837628.5370798,0,-1.2049998044967651,-0.8299996256828308,-0.717703500338585,0.0,True,0.010837078094482422,-1.2049998044967651,-0.8299996256828308,-0.717703640460968,0.0,0.0,0.0
1759837628.547286,0,-1.2049998044967651,-0.8299996256828308,-0.7177035071101479,0.0,True,0.010206222534179688,-1.2049998044967651,-0.8299996256828308,-0.717703640460968,0.0,0.0,0.0
1759837628.5583487,0,-1.2049998044967651,-0.8299996256828308,-0.7177035107223446,0.0,True,0.0110626220703125,-1.2049998044967651,-0.8299996256828308,-0.717703640460968,0.0,0.0,0.0
1759837628.5693958,0,-1.2049998044967651,-0.8299996256828308,-0.717703514356673,0.0,True,0.011047124862670898,-1.2049998044967651,-0.8299996256828308,-0.717703640460968,0.0,0.0,0.0
1759837628.5807588,0,-1.2049998044967651,-0.8299996256828308,-0.7177035173020112,0.0,True,0.011363029479980469,-1.2049998044967651,-0.8299996256828308,-0.717703640460968,0.0,0.0,0.0
1759837628.5914493,0,-1.2049998044967651,-0.8299996256828308,-0.7177035222194714,0.0,True,0.010690450668334961,-1.2049998044967651,-0.8299996256828308,-0.717703640460968,0.0,0.0,0.0
1759837628.6024566,0,-1.2049998044967651,-0.8299996256828308,-0.7177035260995765,0.0,True,0.011007308959960938,-1.2049998044967651,-0.8299996256828308,-0.717703640460968,0.0,0.0,0.0
1759837628.612763,0,-1.2049998044967651,-0.8299996256828308,-0.7177035314695139,0.0,True,0.010306358337402344,-1.2049998044967651,-0.8299996256828308,-0.717703640460968,0.0,0.0,0.0
1759837628.6229131,0,-1.2049998044967651,-0.8299996256828308,-0.7177035366139961,0.0,True,0.01015019416809082,-1.2049998044967651,-0.8299996256828308,-0.717703640460968,0.0,0.0,0.0
1759837628.6341054,0,-1.2049998044967651,-0.8299996256828308,-0.7177035388259476,0.0,True,0.01119232177734375,-1.2049998044967651,-0.8299996256828308,-0.717703640460968,0.0,0.0,0.0
1759837628.6450148,0,-1.2049998044967651,-0.8299996256828308,-0.7177035417921704,0.0,True,0.010909318923950195,-1.2049998044967651,-0.8299996256828308,-0.717703640460968,0.0,0.0,0.0
1759837628.656868,0,-1.2049998044967651,-0.8299996256828308,-0.7177035429393044,0.0,True,0.011853218078613281,-1.2049998044967651,-0.8299996256828308,-0.717703640460968,0.0,0.0,0.0
1759837628.66764,0,-1.2049998044967651,-0.8299996256828308,-0.7177035467812587,0.0,True,0.010771989822387695,-1.2049998044967651,-0.8299996256828308,-0.717703640460968,0.0,0.0,0.0
1759837628.678472,0,-1.2049998044967651,-0.8299996256828308,-0.717703550380751,0.0,True,0.010832071304321289,-1.2049998044967651,-0.8299996256828308,-0.717703640460968,0.0,0.0,0.0
1759837628.6890202,0,-1.2049998044967651,-0.8299996256828308,-0.7177035542455794,0.0,True,0.010548114776611328,-1.2049998044967651,-0.8299996256828308,-0.717703640460968,0.0,0.0,0.0
1759837628.6999776,0,-1.2049998044967651,-0.8299996256828308,-0.7177035570235137,0.0,True,0.010957479476928711,-1.2049998044967651,-0.8299996256828308,-0.717703640460968,0.0,0.0,0.0
1759837628.7111037,0,-1.2049998044967651,-0.8299996256828308,-0.7177035594138914,0.0,True,0.011126041412353516,-1.2049998044967651,-0.8299996256828308,-0.717703640460968,0.0,0.0,0.0
1759837628.7220037,0,-1.2049998044967651,-0.8299996256828308,-0.7177035622231056,0.0,True,0.010900020599365234,-1.2049998044967651,-0.8299996256828308,-0.717703640460968,0.0,0.0,0.0
1759837628.7333796,0,-1.2049998044967651,-0.8299996256828308,-0.7177035642009741,0.0,True,0.011375904083251953,-1.2049998044967651,-0.8299996256828308,-0.717703640460968,0.0,0.0,0.0
1759837628.744562,0,-1.2049998044967651,-0.8299996256828308,-0.7177035666000791,0.0,True,0.011182308197021484,-1.2049998044967651,-0.8299996256828308,-0.717703640460968,0.0,0.0,0.0
1759837628.755938,0,-1.2049998044967651,-0.8299996256828308,-0.7177035687437296,0.0,True,0.011376142501831055,-1.2049998044967651,-0.8299996256828308,-0.717703640460968,0.0,0.0,0.0
1759837628.7668107,0,-1.2049998044967651,-0.8299996256828308,-0.7177035716633036,0.0,True,0.010872602462768555,-1.2049998044967651,-0.8299996256828308,-0.717703640460968,0.0,0.0,0.0
1759837628.7775412,0,-1.2049998044967651,-0.8299996256828308,-0.7177035745919245,0.0,True,0.010730504989624023,-1.2049998044967651,-0.8299996256828308,-0.717703640460968,0.0,0.0,0.0
1759837628.7877855,0,-1.2049998044967651,-0.8299996256828308,-0.7177035778937153,0.0,True,0.010244369506835938,-1.2049998044967651,-0.8299996256828308,-0.717703640460968,0.0,0.0,0.0
1759837628.7992127,0,-1.2049998044967651,-0.8299996256828308,-0.7177035792511575,0.0,True,0.011427164077758789,-1.2049998044967651,-0.8299996256828308,-0.717703640460968,0.0,0.0,0.0
1759837628.8105114,0,-1.2049998044967651,-0.8299996256828308,-0.7177035808671537,0.0,True,0.011298656463623047,-1.2049998044967651,-0.8299996256828308,-0.717703640460968,0.0,0.0,0.0
1759837628.8208015,0,-1.2049998044967651,-0.8299996256828308,-0.7177035838064647,0.0,True,0.010290145874023438,-1.2049998044967651,-0.8299996256828308,-0.717703640460968,0.0,0.0,0.0
1759837628.83167,0,-1.2049998044967651,-0.8299996256828308,-0.7177035857640082,0.0,True,0.010868549346923828,-1.2049998044967651,-0.8299996256828308,-0.717703640460968,0.0,0.0,0.0
1759837628.8429308,0,-1.2049998044967651,-0.8299996256828308,-0.7177035871549737,0.0,True,0.011260747909545898,-1.2049998044967651,-0.8299996256828308,-0.717703640460968,0.0,0.0,0.0
1759837628.8539512,0,-1.2049998044967651,-0.8299996256828308,-0.7177035888813919,0.0,True,0.011020421981811523,-1.2049998044967651,-0.8299996256828308,-0.717703640460968,0.0,0.0,0.0
1759837628.8647177,0,-1.2049998044967651,-0.8299996256828308,-0.7177035908666642,0.0,True,0.01076650619506836,-1.2049998044967651,-0.8299996256828308,-0.717703640460968,0.0,0.0,0.0
1759837628.8754184,0,-1.2049998044967651,-0.8299996256828308,-0.7177035927966777,0.0,True,0.010700702667236328,-1.2049998044967651,-0.8299996256828308,-0.717703640460968,0.0,0.0,0.0
1759837628.8861094,0,-1.2049998044967651,-0.8299996256828308,-0.7177035945918266,0.0,True,0.010690927505493164,-1.2049998044967651,-0.8299996256828308,-0.717703640460968,0.0,0.0,0.0
1759837628.89701,0,-1.2049998044967651,-0.8299996256828308,-0.7177035960645597,0.0,True,0.010900735855102539,-1.2049998044967651,-0.8299996256828308,-0.717703640460968,0.0,0.0,0.0
1759837628.9076002,0,-1.2049998044967651,-0.8299996256828308,-0.7177035977774047,0.0,True,0.010590076446533203,-1.2049998044967651,-0.8299996256828308,-0.717703640460968,0.0,0.0,0.0
1759837628.918416,0,-1.2049998044967651,-0.8299996256828308,-0.7177035991784475,0.0,True,0.010815858840942383,-1.2049998044967651,-0.8299996256828308,-0.717703640460968,0.0,0.0,0.0
1759837628.9295738,0,-1.2049998044967651,-0.8299996256828308,-0.717703600236975,0.0,True,0.011157751083374023,-1.2049998044967651,-0.8299996256828308,-0.717703640460968,0.0,0.0,0.0
1759837628.9407032,0,-1.2049998044967651,-0.8299996256828308,-0.7177036013744651,0.0,True,0.011129379272460938,-1.2049998044967651,-0.8299996256828308,-0.717703640460968,0.0,0.0,0.0
1759837628.9518638,0,-1.2049998044967651,-0.8299996256828308,-0.7177036025313548,0.0,True,0.011160612106323242,-1.2049998044967651,-0.8299996256828308,-0.717703640460968,0.0,0.0,0.0
1759837628.9776905,0,-1.2049998044967651,-0.8299996256828308,-0.7177035930563385,0.0,True,0.025826692581176758,-1.2049998044967651,-0.8299996256828308,-0.717703640460968,0.0,0,0
1759837628.9882805,0,-1.2049998044967651,-0.8299996256828308,-0.7177035978769837,0.0,True,0.010590076446533203,-1.2049998044967651,-0.8299996256828308,-0.717703640460968,0.0,0,0
1759837628.9991145,0,-1.2049998044967651,-0.8299996256828308,-0.7177036021792276,0.0,True,0.010833978652954102,-1.2049998044967651,-0.8299996256828308,-0.717703640460968,0.0,0,0
1759837629.0101094,0,-1.2049998044967651,-0.8299996256828308,-0.7177036053700583,0.0,True,0.010994911193847656,-1.2049998044967651,-0.8299996256828308,-0.717703640460968,0.0,0,0
1759837629.0212436,0,-1.2049998044967651,-0.8299996256828308,-0.7177036077658698,0.0,True,0.011134147644042969,-1.2049998044967651,-0.8299996256828308,-0.717703640460968,0.0,0,0
1759837629.032616,0,-1.2049998044967651,-0.8299996256828308,-0.7177036095598304,0.0,True,0.01137232780456543,-1.2049998044967651,-0.8299996256828308,-0.717703640460968,0.0,0,0
1759837629.0438259,0,-1.2049998044967651,-0.8299996256828308,-0.7177036111707782,0.0,True,0.011209964752197266,-1.2049998044967651,-0.8299996256828308,-0.717703640460968,0.0,0,0
1759837629.0552704,0,-1.2049998044967651,-0.8299996256828308,-0.7177036124364982,0.0,True,0.011444568634033203,-1.2049998044967651,-0.8299996256828308,-0.717703640460968,0.0,0,0
1759837629.0662465,0,-1.2049998044967651,-0.8299996256828308,-0.7177036138239252,0.0,True,0.010976076126098633,-1.2049998044967651,-0.8299996256828308,-0.717703640460968,0.0,0,0
1759837629.0764227,0,-1.2049998044967651,-0.8299996256828308,-0.7177036154568714,0.0,True,0.01017618179321289,-1.2049998044967651,-0.8299996256828308,-0.717703640460968,0.0,0,0
1759837629.0871148,0,-1.2049998044967651,-0.8299996256828308,-0.7177036165655757,0.0,True,0.010692119598388672,-1.2049998044967651,-0.8299996256828308,-0.717703640460968,0.0,0,0
1759837629.097402,0,-1.2049998044967651,-0.8299996256828308,-0.7177036177194456,0.0,True,0.010287284851074219,-1.2049998044967651,-0.8299996256828308,-0.717703640460968,0.0,0,0
1759837629.1076074,0,-1.2049998044967651,-0.8299996256828308,-0.7177036187606909,0.0,True,0.010205268859863281,-1.2049998044967651,-0.8299996256828308,-0.717703640460968,0.0,0,0
1759837629.1178074,0,-1.2049998044967651,-0.8299996256828308,-0.7177036196674287,0.0,True,0.010200023651123047,-1.2049998044967651,-0.8299996256828308,-0.717703640460968,0.0,0,0
1759837629.129018,0,-1.2049998044967651,-0.8299996256828308,-0.7177036200234017,0.0,True,0.01121068000793457,-1.2049998044967651,-0.8299996256828308,-0.717703640460968,0.0,0,0
1759837629.1399643,0,-1.2049998044967651,-0.8299996256828308,-0.717703620547077,0.0,True,0.010946273803710938,-1.2049998044967651,-0.8299996256828308,-0.717703640460968,0.0,0,0
1759837629.1514897,0,-1.2049998044967651,-0.8299996256828308,-0.7177036208695071,0.0,True,0.011525392532348633,-1.2049998044967651,-0.8299996256828308,-0.717703640460968,0.0,0,0
1759837629.1623604,0,-1.2049998044967651,-0.8299996256828308,-0.7177036215381598,0.0,True,0.010870695114135742,-1.2049998044967651,-0.8299996256828308,-0.717703640460968,0.0,0,0
1759837629.172801,0,-1.2049998044967651,-0.8299996256828308,-0.7177036223650539,0.0,True,0.010440587997436523,-1.2049998044967651,-0.8299996256828308,-0.717703640460968,0.0,0,0
1759837629.1837847,0,-1.2049998044967651,-0.8299996256828308,-0.7177036229092444,0.0,True,0.010983705520629883,-1.2049998044967651,-0.8299996256828308,-0.717703640460968,0.0,0,0
1759837629.193934,0,-1.2049998044967651,-0.8299996256828308,-0.7177036237379113,0.0,True,0.010149240493774414,-1.2049998044967651,-0.8299996256828308,-0.717703640460968,0.0,0,0
1759837629.2041755,0,-1.2049998044967651,-0.8299996256828308,-0.7177036244430361,0.0,True,0.010241508483886719,-1.2049998044967651,-0.8299996256828308,-0.717703640460968,0.0,0,0
1759837629.2148411,0,-1.2049998044967651,-0.8299996256828308,-0.7177036249227946,0.0,True,0.010665655136108398,-1.2049998044967651,-0.8299996256828308,-0.717703640460968,0.0,0,0
1759837629.2262259,0,-1.2049998044967651,-0.8299996256828308,-0.7177036251508486,0.0,True,0.011384725570678711,-1.2049998044967651,-0.8299996256828308,-0.717703640460968,0.0,0,0
1759837629.2374098,0,-1.2049998044967651,-0.8299996256828308,-0.7177036255107367,0.0,True,0.011183977127075195,-1.2049998044967651,-0.8299996256828308,-0.717703640460968,0.0,0,0
1759837629.2477381,0,-1.2049998044967651,-0.8299996256828308,-0.717703626175112,0.0,True,0.010328292846679688,-1.2049998044967651,-0.8299996256828308,-0.717703640460968,0.0,0,0
1759837629.2590773,0,-1.2049998044967651,-0.8299996256828308,-0.7177036264839849,0.0,True,0.011339187622070312,-1.2049998044967651,-0.8299996256828308,-0.717703640460968,0.0,0,0
1759837629.2699862,0,-1.2049998044967651,-0.8299996256828308,-0.7177036269404606,0.0,True,0.010908842086791992,-1.2049998044967651,-0.8299996256828308,-0.717703640460968,0.0,0,0
1759837629.2813954,0,-1.2049998044967651,-0.8299996256828308,-0.7177036272582384,0.0,True,0.011409282684326172,-1.2049998044967651,-0.8299996256828308,-0.717703640460968,0.0,0,0
1759837629.2921963,0,-1.2049998044967651,-0.8299996256828308,-0.7177036277658786,0.0,True,0.010800838470458984,-1.2049998044967651,-0.8299996256828308,-0.717703640460968,0.0,0,0
1759837629.302588,0,-1.2049998044967651,-0.8299996256828308,-0.7177036283542861,0.0,True,0.010391712188720703,-1.2049998044967651,-0.8299996256828308,-0.717703640460968,0.0,0,0
1759837629.3129609,0,-1.2049998044967651,-0.8299996256828308,-0.7177036288818037,0.0,True,0.01037287712097168,-1.2049998044967651,-0.8299996256828308,-0.717703640460968,0.0,0,0
1759837629.323155,0,-1.2049998044967651,-0.8299996256828308,-0.7177036293920924,0.0,True,0.010194063186645508,-1.2049998044967651,-0.8299996256828308,-0.717703640460968,0.0,0,0
1759837629.3338134,0,-1.2049998044967651,-0.8299996256828308,-0.7177036297348991,0.0,True,0.010658502578735352,-1.2049998044967651,-0.8299996256828308,-0.717703640460968,0.0,0,0
1759837629.3440146,0,-1.2049998044967651,-0.8299996256828308,-0.7177036301658202,0.0,True,0.010201215744018555,-1.2049998044967651,-0.8299996256828308,-0.717703640460968,0.0,0,0
1759837629.354384,0,-1.2049998044967651,-0.8299996256828308,-0.7177036305240669,0.0,True,0.010369300842285156,-1.2049998044967651,-0.8299996256828308,-0.717703640460968,0.0,0,0
1759837629.3656628,0,-1.2049998044967651,-0.8299996256828308,-0.7177036306655573,0.0,True,0.011278867721557617,-1.2049998044967651,-0.8299996256828308,-0.717703640460968,0.0,0,0
1759837629.3759344,0,-1.2049998044967651,-0.8299996256828308,-0.7177036310543201,0.0,True,0.010271549224853516,-1.2049998044967651,-0.8299996256828308,-0.717703640460968,0.0,0,0
1759837629.3866293,0,-1.2049998044967651,-0.8299996256828308,-0.7177036313386012,0.0,True,0.01069498062133789,-1.2049998044967651,-0.8299996256828308,-0.717703640460968,0.0,0,0
1759837629.3971918,0,-1.2049998044967651,-0.8299996256828308,-0.7177036316408127,0.0,True,0.010562419891357422,-1.2049998044967651,-0.8299996256828308,-0.717703640460968,0.0,0,0
1759837629.4074707,0,-1.2049998044967651,-0.8299996256828308,-0.7177036319856249,0.0,True,0.010278940200805664,-1.2049998044967651,-0.8299996256828308,-0.717703640460968,0.0,0,0
1759837629.4188366,0,-1.2049998044967651,-0.8299996256828308,-0.7177036321087833,0.0,True,0.011365890502929688,-1.2049998044967651,-0.8299996256828308,-0.717703640460968,0.0,0,0
1759837629.430275,0,-1.2049998044967651,-0.8299996256828308,-0.7177036322540022,0.0,True,0.011438369750976562,-1.2049998044967651,-0.8299996256828308,-0.717703640460968,0.0,0,0
1759837629.4418607,0,-1.2049998044967651,-0.8299996256828308,-0.7177036324163311,0.0,True,0.011585712432861328,-1.2049998044967651,-0.8299996256828308,-0.717703640460968,0.0,0,0
1759837629.453128,0,-1.2049998044967651,-0.8299996256828308,-0.7177036326655752,0.0,True,0.011267423629760742,-1.2049998044967651,-0.8299996256828308,-0.717703640460968,0.0,0,0
1759837629.4698596,0,-1.2049998044967651,-0.8299996256828308,-0.7177036320967183,0.0,True,0.01673150062561035,-1.2049998044967651,-0.8299996256828308,-0.717703640460968,0.0,0,0
1759837629.4738915,0,-1.2049998044967651,-0.8299996256828308,-0.7177036336531302,0.0,True,0.0040318965911865234,-1.2049998044967651,-0.8299996256828308,-0.717703640460968,0.0,0,0
1759837629.484284,0,-1.2049998044967651,-0.8299996256828308,-0.7177036339621097,0.0,True,0.010392427444458008,-1.2049998044967651,-0.8299996256828308,-0.717703640460968,0.0,0,0
1759837629.4948452,0,-1.2049998044967651,-0.8299996256828308,-0.7177036341408201,0.0,True,0.010561227798461914,-1.2049998044967651,-0.8299996256828308,-0.717703640460968,0.0,0,0
1759837629.5054266,0,-1.2049998044967651,-0.8299996256828308,-0.7177036343123042,0.0,True,0.010581493377685547,-1.2049998044967651,-0.8299996256828308,-0.717703640460968,0.0,0,0
1759837629.5154374,0,-1.2049998044967651,-0.8299996256828308,-0.7177036345622092,0.0,True,0.010010719299316406,-1.2049998044967651,-0.8299996256828308,-0.717703640460968,0.0,0,0
1759837629.52657,0,-1.2049998044967651,-0.8299996256828308,-0.7177036346485686,0.0,True,0.01113271713256836,-1.2049998044967651,-0.8299996256828308,-0.717703640460968,0.0,0,0
1759837629.5380955,0,-1.2049998044967651,-0.8299996256828308,-0.717703634708176,0.0,True,0.011525392532348633,-1.2049998044967651,-0.8299996256828308,-0.717703640460968,0.0,0,0
1759837629.548468,0,-1.2049998044967651,-0.8299996256828308,-0.7177036349434491,0.0,True,0.010372638702392578,-1.2049998044967651,-0.8299996256828308,-0.717703640460968,0.0,0,0
1759837629.560057,0,-1.2049998044967651,-0.8299996256828308,-0.7177036350283021,0.0,True,0.011588811874389648,-1.2049998044967651,-0.8299996256828308,-0.717703640460968,0.0,0,0
1759837629.5705538,0,-1.2049998044967651,-0.8299996256828308,-0.717703635255587,0.0,True,0.010496854782104492,-1.2049998044967651,-0.8299996256828308,-0.717703640460968,0.0,0,0
1759837629.581991,0,-1.2049998044967651,-0.8299996256828308,-0.717703635369805,0.0,True,0.011437177658081055,-1.2049998044967651,-0.8299996256828308,-0.717703640460968,0.0,0,0
1759837629.5923467,0,-1.2049998044967651,-0.8299996256828308,-0.7177036356060142,0.0,True,0.010355710983276367,-1.2049998044967651,-0.8299996256828308,-0.717703640460968,0.0,0,0
1759837629.6036398,0,-1.2049998044967651,-0.8299996256828308,-0.7177036357282756,0.0,True,0.011293172836303711,-1.2049998044967651,-0.8299996256828308,-0.717703640460968,0.0,0,0
1759837629.613935,0,-1.2049998044967651,-0.8299996256828308,-0.7177036359501301,0.0,True,0.01029515266418457,-1.2049998044967651,-0.8299996256828308,-0.717703640460968,0.0,0,0
1759837629.6240835,0,-1.2049998044967651,-0.8299996256828308,-0.7177036361642486,0.0,True,0.01014852523803711,-1.2049998044967651,-0.8299996256828308,-0.717703640460968,0.0,0,0
1759837629.6352315,0,-1.2049998044967651,-0.8299996256828308,-0.7177036362608771,0.0,True,0.01114797592163086,-1.2049998044967651,-0.8299996256828308,-0.717703640460968,0.0,0,0
1759837629.6464505,0,-1.2049998044967651,-0.8299996256828308,-0.7177036363568305,0.0,True,0.011219024658203125,-1.2049998044967651,-0.8299996256828308,-0.717703640460968,0.0,0,0
1759837629.656762,0,-1.2049998044967651,-0.8299996256828308,-0.7177036365404028,0.0,True,0.010311365127563477,-1.2049998044967651,-0.8299996256828308,-0.717703640460968,0.0,0,0
1759837629.6715534,0,-1.2049998044967651,-0.8299996256828308,-0.7177036363495901,0.0,True,0.014791488647460938,-1.2049998044967651,-0.8299996256828308,-0.717703640460968,0.0,0,0
1759837629.6829283,0,-1.2049998044967651,-0.8299996256828308,-0.7177036365184186,0.0,True,0.011374950408935547,-1.2049998044967651,-0.8299996256828308,-0.717703640460968,0.0,0,0
1759837629.6932268,0,-1.2049998044967651,-0.8299996256828308,-0.7177036367757399,0.0,True,0.010298490524291992,-1.2049998044967651,-0.8299996256828308,-0.717703640460968,0.0,0,0
1759837629.703979,0,-1.2049998044967651,-0.8299996256828308,-0.7177036369603336,0.0,True,0.010752201080322266,-1.2049998044967651,-0.8299996256828308,-0.717703640460968,0.0,0,0
1759837629.7142692,0,-1.2049998044967651,-0.8299996256828308,-0.717703637149679,0.0,True,0.010290145874023438,-1.2049998044967651,-0.8299996256828308,-0.717703640460968,0.0,0,0
1759837629.7243948,0,-1.2049998044967651,-0.8299996256828308,-0.7177036373223213,0.0,True,0.01012563705444336,-1.2049998044967651,-0.8299996256828308,-0.717703640460968,0.0,0,0
1759837629.734532,0,-1.2049998044967651,-0.8299996256828308,-0.717703637468226,0.0,True,0.010137319564819336,-1.2049998044967651,-0.8299996256828308,-0.717703640460968,0.0,0,0
1759837629.7448845,0,-1.2049998044967651,-0.8299996256828308,-0.7177036375808186,0.0,True,0.010352373123168945,-1.2049998044967651,-0.8299996256828308,-0.717703640460968,0.0,0,0
1759837629.7551074,0,-1.2049998044967651,-0.8299996256828308,-0.717703637690871,0.0,True,0.010222911834716797,-1.2049998044967651,-0.8299996256828308,-0.717703640460968,0.0,0,0
1759837629.7652767,0,-1.2049998044967651,-0.8299996256828308,-0.7177036377948198,0.0,True,0.010169267654418945,-1.2049998044967651,-0.8299996256828308,-0.717703640460968,0.0,0,0
1759837629.7761862,0,-1.2049998044967651,-0.8299996256828308,-0.7177036378476132,0.0,True,0.010909557342529297,-1.2049998044967651,-0.8299996256828308,-0.717703640460968,0.0,0,0
1759837629.7867036,0,-1.2049998044967651,-0.8299996256828308,-0.7177036379279649,0.0,True,0.010517358779907227,-1.2049998044967651,-0.8299996256828308,-0.717703640460968,0.0,0,0
1759837629.7968621,0,-1.2049998044967651,-0.8299996256828308,-0.7177036380277997,0.0,True,0.010158538818359375,-1.2049998044967651,-0.8299996256828308,-0.717703640460968,0.0,0,0
1759837629.8072786,0,-1.2049998044967651,-0.8299996256828308,-0.7177036381062827,0.0,True,0.010416507720947266,-1.2049998044967651,-0.8299996256828308,-0.717703640460968,0.0,0,0
1759837629.818527,0,-1.2049998044967651,-0.8299996256828308,-0.7177036381391204,0.0,True,0.011248350143432617,-1.2049998044967651,-0.8299996256828308,-0.717703640460968,0.0,0,0
1759837629.8287616,0,-1.2049998044967651,-0.8299996256828308,-0.7177036382316615,0.0,True,0.010234594345092773,-1.2049998044967651,-0.8299996256828308,-0.717703640460968,0.0,0,0
1759837629.8389099,0,-1.2049998044967651,-0.8299996256828308,-0.7177036383233286,0.0,True,0.010148286819458008,-1.2049998044967651,-0.8299996256828308,-0.717703640460968,0.0,0,0
1759837629.849092,0,-1.2049998044967651,-0.8299996256828308,-0.7177036384043269,0.0,True,0.01018214225769043,-1.2049998044967651,-0.8299996256828308,-0.717703640460968,0.0,0,0
1759837629.859975,0,-1.2049998044967651,-0.8299996256828308,-0.7177036384472437,0.0,True,0.010883092880249023,-1.2049998044967651,-0.8299996256828308,-0.717703640460968,0.0,0,0
1759837629.870403,0,-1.2049998044967651,-0.8299996256828308,-0.7177036385135995,0.0,True,0.01042795181274414,-1.2049998044967651,-0.8299996256828308,-0.717703640460968,0.0,0,0
1759837629.8807042,0,-1.2049998044967651,-0.8299996256828308,-0.7177036385840552,0.0,True,0.01030111312866211,-1.2049998044967651,-0.8299996256828308,-0.717703640460968,0.0,0,0
1759837629.8916988,0,-1.2049998044967651,-0.8299996256828308,-0.7177036386224351,0.0,True,0.010994672775268555,-1.2049998044967651,-0.8299996256828308,-0.717703640460968,0.0,0,0
1759837629.9022372,0,-1.2049998044967651,-0.8299996256828308,-0.7177036386828188,0.0,True,0.010538339614868164,-1.2049998044967651,-0.8299996256828308,-0.717703640460968,0.0,0,0
1759837629.9136493,0,-1.2049998044967651,-0.8299996256828308,-0.7177036387100078,0.0,True,0.01141214370727539,-1.2049998044967651,-0.8299996256828308,-0.717703640460968,0.0,0,0
1759837629.9238586,0,-1.2049998044967651,-0.8299996256828308,-0.7177036387882616,0.0,True,0.010209321975708008,-1.2049998044967651,-0.8299996256828308,-0.717703640460968,0.0,0,0
1759837629.9351337,0,-1.2049998044967651,-0.8299996256828308,-0.7177036388234992,0.0,True,0.011275053024291992,-1.2049998044967651,-0.8299996256828308,-0.717703640460968,0.0,0,0
1759837629.9453208,0,-1.2049998044967651,-0.8299996256828308,-0.7177036388986622,0.0,True,0.010187149047851562,-1.2049998044967651,-0.8299996256828308,-0.717703640460968,0.0,0,0
1759837629.9556963,0,-1.2049998044967651,-0.8299996256828308,-0.717703638961023,0.0,True,0.010375499725341797,-1.2049998044967651,-0.8299996256828308,-0.717703640460968,0.0,0,0
1759837629.9670234,0,-1.2049998044967651,-0.8299996256828308,-0.7177036389874374,0.0,True,0.011327028274536133,-1.2049998044967651,-0.8299996256828308,-0.717703640460968,0.0,0,0
1759837629.978222,0,-1.2049998044967651,-0.8299996256828308,-0.7177036390226874,0.0,True,0.01119852066040039,-1.2049998044967651,-0.8299996256828308,-0.717703640460968,0.0,0.5235987755982988,0.032752095821572756
1759837629.9884174,0,-1.2049998044967651,-0.8299996256828308,-0.7177036390914857,0.0,True,0.010195493698120117,-1.2049998044967651,-0.8299996256828308,-0.717703640460968,0.0,0.5235987755982988,0.029750077934068885
1759837629.9987946,0,-1.2049998044967651,-0.8299996256828308,-0.7177036391483362,0.0,True,0.010377168655395508,-1.2049998044967651,-0.8299996256828308,-0.717703640460968,0.0,0.5235987755982988,0.03174333732696906
1759837630.0096097,0,-1.2049998044967651,-0.8299996256828308,-0.7177036391871638,0.0,True,0.010815143585205078,-1.2049998044967651,-0.8299996256828308,-0.717703640460968,0.0,0.5235987755982988,0.02914461034733517
1759837630.0200746,0,-1.2049998044967651,-0.8299996256828308,-0.7177036392346157,0.0,True,0.010464906692504883,-1.2049998044967651,-0.8299996256828308,-0.717703640460968,0.0,0.5235987755982988,0.03369712535502019
1759837630.0305424,0,-1.2049998044967651,-0.8299996256828308,-0.7177036392793124,0.0,True,0.010467767715454102,-1.2049998044967651,-0.8299996256828308,-0.717703640460968,0.0,0.5235987755982988,0.032514393260878634
1759837630.0405436,0,-1.2049998044967651,-0.8299996256828308,-0.7177036393326901,0.0,True,0.010001182556152344,-1.2049998044967651,-0.8299996256828308,-0.717703640460968,0.0,0.5235987755982988,0.032650837553940215
1759837630.051515,0,-1.2049998044967651,-0.8299996256828308,-0.7177036393567899,0.0,True,0.010971546173095703,-1.2049998044967651,-0.8299996256828308,-0.717703640460968,0.0,0.5235987755982988,0.03207169089729443
1759837630.0618308,0,-1.2049998044967651,-0.8299996256828308,-0.7177036393978398,0.0,True,0.010315656661987305,-1.2049998044967651,-0.8299996256828308,-0.717703640460968,0.0,0.5235987755982988,0.03055523235793193
1759837630.075006,0,-1.203827851795833,-0.8310208863310491,-0.7171252618026376,0.011912421648294346,True,0.013175249099731445,-1.2031766176223755,-0.8315882682800293,-0.7157098054885864,0.011912421648294346,0.5235987755982988,0.032561281743260256
1759837630.085684,0,-1.2033887470983708,-0.8314034795940352,-0.7166922280473571,0.011912421648294346,True,0.01067805290222168,-1.2031766176223755,-0.8315882682800293,-0.7157098054885864,0.011912421648294346,0.5235987755982988,0.03139302418416657
1759837630.096078,0,-1.203221985487547,-0.8315487522388121,-0.7163735822030279,0.011912421648294346,True,0.010393857955932617,-1.2031766176223755,-0.8315882682800293,-0.7157098054885864,0.011912421648294346,0.5235987755982988,0.031843384755784486
1759837630.1067042,0,-1.2031574808605903,-0.8316049249397409,-0.7161405279129092,0.011912421648294346,True,0.01062631607055664,-1.2031766176223755,-0.8315882682800293,-0.7157098054885864,0.011912421648294346,0.5235987755982988,0.02918823095611232
1759837630.1171293,0,-1.2031335257206424,-0.8316257716051237,-0.7159734069029753,0.011912421648294346,True,0.010425090789794922,-1.2031766176223755,-0.8315882682800293,-0.7157098054885864,0.011912421648294346,0.5235987755982988,0.029736470584462597
1759837630.127444,0,-1.203124749524618,-0.8316333987957562,-0.7158531852268233,0.011912421648294346,True,0.010314702987670898,-1.2031766176223755,-0.8315882682800293,-0.7157098054885864,0.011912421648294346,0.5235987755982988,0.031911087746945045
1759837630.1378338,0,-1.2031211358706941,-0.8316365322416002,-0.7157660477262198,0.011912421648294346,True,0.01038980484008789,-1.2031766176223755,-0.8315882682800293,-0.7157098054885864,0.011912421648294346,0.5235987755982988,0.03004044856217738
1759837630.148698,0,-1.203118123982691,-0.8316391427770154,-0.7157008465553147,0.011912421648294346,True,0.0108642578125,-1.2031766176223755,-0.8315882682800293,-0.7157098054885864,0.011912421648294346,0.5235987755982988,0.029455558933237688
1759837630.1590261,0,-1.2031188125558658,-0.8316385365814982,-0.7156585167020051,0.011912421648294346,True,0.010328054428100586,-1.2031766176223755,-0.8315882682800293,-0.7157098054885864,0.011912421648294346,0.5235987755982988,0.029458722353741525
1759837630.1699748,0,-1.2031169433548752,-0.831640156442282,-0.7156242333324876,0.011912421648294346,True,0.010948657989501953,-1.2031766176223755,-0.8315882682800293,-0.7157098054885864,0.011912421648294346,0.5235987755982988,0.02899100511288031
1759837630.1802118,0,-1.2031186720286238,-0.8316386492166142,-0.7156056096831414,0.011912421648294346,True,0.010236978530883789,-1.2031766176223755,-0.8315882682800293,-0.7157098054885864,0.011912421648294346,0.5235987755982988,0.02739056261845452
1759837630.1916246,0,-1.2031152940225085,-0.831641583369548,-0.7155851108605713,0.011912421648294346,True,0.011412858963012695,-1.2031766176223755,-0.8315882682800293,-0.7157098054885864,0.011912421648294346,0.5235987755982988,0.030549636472280067
1759837630.2019815,0,-1.2031176290761885,-0.8316395509387731,-0.7155793960950732,0.011912421648294346,True,0.010356903076171875,-1.2031766176223755,-0.8315882682800293,-0.7157098054885864,0.011912421648294346,0.5235987755982988,0.030881945535275422
1759837630.2129354,0,-1.2031164707825752,-0.8316405566618148,-0.7155712824896732,0.011912421648294346,True,0.010953903198242188,-1.2031766176223755,-0.8315882682800293,-0.7157098054885864,0.011912421648294346,0.5235987755982988,0.02890881688860427
1759837630.224268,0,-1.2031147279984864,-0.8316420707915522,-0.7155652338136811,0.011912421648294346,True,0.011332511901855469,-1.2031766176223755,-0.8315882682800293,-0.7157098054885864,0.011912421648294346,0.5235987755982988,0.027237084550763686
1759837630.2349067,0,-1.203116444565988,-0.8316405777231198,-0.7155665657692243,0.011912421648294346,True,0.010638713836669922,-1.2031766176223755,-0.8315882682800293,-0.7157098054885864,0.011912421648294346,0.5235987755982988,0.028259286556448788
1759837630.2456274,0,-1.2031168186393297,-0.8316402523085743,-0.7155669910818325,0.011912421648294346,True,0.01072072982788086,-1.2031766176223755,-0.8315882682800293,-0.7157098054885864,0.011912421648294346,0.5235987755982988,0.029455771248419922
1759837630.2560046,0,-1.2031181412995584,-0.8316391023984622,-0.7155701402697954,0.011912421648294346,True,0.010377168655395508,-1.2031766176223755,-0.8315882682800293,-0.7157098054885864,0.011912421648294346,0.5235987755982988,0.027435579841864417
