timestamp,observer_vehicle_id,vehicle_0_x,vehicle_0_y,vehicle_0_theta,vehicle_0_velocity,vehicle_1_x,vehicle_1_y,vehicle_1_theta,vehicle_1_velocity
1759676509.9228342,0,-1.205,-0.83,-0.7801621756414646,0.0,-0.28344511151313784,-0.05717912912368775,1.7677052381027674,0.0
1759676509.9332347,0,-1.205,-0.83,-0.7801621756414646,0.0,-0.5175647064099281,-0.10440786584638317,-3.031393048476723,0.0
1759676509.9438484,0,-1.205,-0.83,-0.7801621756414646,0.0,-0.7113391312210744,-0.14349780745093715,-0.7781764162401746,0.0
1759676509.9541965,0,-1.205,-0.83,-0.7801621756414646,0.0,-0.8721526517745368,-0.17593857528592957,1.116279360423489,0.0
1759676509.965582,0,-1.205,-0.83,-0.7801621756414646,0.0,-1.005738154614757,-0.20288665943237172,2.7172989397369123,0.0
1759676509.9771173,0,-1.205,-0.83,-0.7801621756414646,0.0,-1.1169595646607546,-0.22532325511888424,-2.2048108397046855,0.0
1759676509.987125,0,-1.205,-0.83,-0.7801621756414646,0.0,-1.209981317577196,-0.244088450231711,-0.09602945219429834,0.0
1759676509.997591,0,-1.205,-0.83,-0.7801621756414646,0.0,-1.28790331368552,-0.25980758489333255,1.6966588860765628,0.0
1759676510.0091684,0,-1.205,-0.83,-0.7801621756414646,0.0,-1.3532250760672597,-0.2729848856619832,-3.0543141357958294,0.0
1759676510.0195796,0,-1.205,-0.83,-0.7801621756414646,0.0,-1.4082082403480518,-0.2840765902719412,-0.8328401550637794,0.0
1759676510.0298793,0,-1.205,-0.83,-0.7801621756414646,0.0,-1.4545995677070704,-0.2934350712953744,1.0684603180872945,0.0
1759676510.0404503,0,-1.205,-0.83,-0.7801621756414646,0.0,-1.4938123638524505,-0.3013454336301773,2.703628662733143,0.0
1759676510.0518243,0,-1.205,-0.83,-0.7801621756414646,0.0,-1.5269927653973958,-0.3080388863914054,-2.1652767271139814,0.0
1759676510.063016,0,-1.205,-0.83,-0.7801621756414646,0.0,-1.5551429220261328,-0.3137175923395656,-0.08441722105290214,0.0
1759676510.0743937,0,-1.205,-0.83,-0.7801621756414646,0.0,-1.5790741692239947,-0.3185452214572899,1.7162752712120952,0.0
1759676510.0844219,0,-1.205,-0.83,-0.7801621756414646,0.0,-1.5995084672260347,-0.3226674141378167,-3.0009306776198588,0.0
1759676510.0956924,0,-1.205,-0.83,-0.7801621756414646,0.0,-1.6169594098323616,-0.32618777719961173,-0.8219015225967794,0.0
1759676510.106091,0,-1.205,-0.83,-0.7801621756414646,0.0,-1.631917226278041,-0.3292052041483079,1.0762578719120175,0.0
1759676510.117283,0,-1.2049998061259588,-0.8299996288021405,-0.7229999301596877,0.0,-1.6447488824101824,-0.33179372267640556,2.737902756915794,0.0
1759676510.1278105,0,-1.2049998050413424,-0.829999626725497,-0.7181190935000714,0.0,-1.6557932434598364,-0.334021691764232,-2.0832021200398017,0.0
1759676510.1390665,0,-1.2049998047010528,-0.8299996260739668,-0.7176569344687761,0.0,-1.6653077555192823,-0.3359410457819877,-0.03421936856377237,0.0
1759676510.149657,0,-1.2049998045745929,-0.8299996258318424,-0.7175986296454191,0.0,-1.673531744904697,-0.33760006381362756,1.7700821861687868,0.0
1759676510.1599905,0,-1.2049998045264814,-0.8299996257397265,-0.7175930111816928,0.0,-1.6806582306953268,-0.3390376834255702,-2.9165755097891735,0.0
1759676510.1713257,0,-1.2049998045081152,-0.8299996257045619,-0.7175979039621261,0.0,-1.6868352941313518,-0.34028377691410555,-0.781672665592495,0.0
1759676510.181763,0,-1.2049998045011003,-0.8299996256911313,-0.7176101333686731,0.0,-1.6922096654262002,-0.3413679440341038,1.1104208823702744,0.0
1759676510.1931818,0,-1.204999804498421,-0.8299996256860013,-0.7176205714458384,0.0,-1.696916602229318,-0.3423174701903524,2.794282863991701,0.0
1759676510.2034547,0,-1.2049998044973975,-0.8299996256840418,-0.7176320983492133,0.0,-1.701105775984093,-0.3431625484694137,-1.9902652795448161,0.0
1759676510.21437,0,-1.2049998044970067,-0.8299996256832933,-0.7176407134959089,0.0,-1.704834140625843,-0.34391466813777816,0.03467217988727025,0.0
1759676510.2249537,0,-1.2049998044968575,-0.8299996256830074,-0.7176483219176752,0.0,-1.7081523851570004,-0.34458405464262254,1.8368665187818272,0.0
1759676510.2354352,0,-1.2049998044968004,-0.8299996256828983,-0.7176546827375638,0.0,-1.7111056227897303,-0.3451798086319341,-2.842365826781603,0.0
1759676510.2461042,0,-1.2049998044967787,-0.8299996256828566,-0.7176597531171502,0.0,-1.7111056227897303,-0.3451798086319341,-2.842365826781603,0.0
1759676510.2575908,0,-1.2049998044967702,-0.8299996256828407,-0.7176634288876347,0.0,-1.7111056227897303,-0.3451798086319341,-2.842365826781603,0.0
1759676510.2691047,0,-1.2049998044967671,-0.8299996256828346,-0.7176667965847656,0.0,-1.7111056227897303,-0.3451798086319341,-2.842365826781603,0.0
1759676510.2791061,0,-1.2049998044967658,-0.8299996256828323,-0.7176708050276552,0.0,-1.7111056227897303,-0.3451798086319341,-2.842365826781603,0.0
1759676510.2894502,0,-1.2049998044967654,-0.8299996256828314,-0.7176738377809109,0.0,-1.7111056227897303,-0.3451798086319341,-2.842365826781603,0.0
1759676510.3006475,0,-1.2049998044967651,-0.829999625682831,-0.7176758739119773,0.0,-1.7111056227897303,-0.3451798086319341,-2.842365826781603,0.0
1759676510.3106582,0,-1.2049998044967651,-0.8299996256828309,-0.7176783264403177,0.0,-1.7111056227897303,-0.3451798086319341,-2.842365826781603,0.0
1759676510.3214035,0,-1.2049998044967651,-0.8299996256828308,-0.7176800339603062,0.0,-1.7111056227897303,-0.3451798086319341,-2.842365826781603,0.0
1759676510.3327603,0,-1.2049998044967651,-0.8299996256828308,-0.7176812773640044,0.0,-1.7111056227897303,-0.3451798086319341,-2.842365826781603,0.0
1759676510.3432024,0,-1.2049998044967651,-0.8299996256828308,-0.7176828738712865,0.0,-1.7111056227897303,-0.3451798086319341,-2.842365826781603,0.0
1759676510.3534849,0,-1.2049998044967651,-0.8299996256828308,-0.7176843441657965,0.0,-1.7111056227897303,-0.3451798086319341,-2.842365826781603,0.0
1759676510.3638875,0,-1.2049998044967651,-0.8299996256828308,-0.7176855622048173,0.0,-1.7111056227897303,-0.3451798086319341,-2.842365826781603,0.0
1759676510.3740356,0,-1.2049998044967651,-0.8299996256828308,-0.7176867207087625,0.0,-1.7111056227897303,-0.3451798086319341,-2.842365826781603,0.0
1759676510.3857133,0,-1.2049998044967651,-0.8299996256828308,-0.71768721738467,0.0,-1.7111056227897303,-0.3451798086319341,-2.842365826781603,0.0
1759676510.395905,0,-1.2049998044967651,-0.8299996256828308,-0.7176882567880973,0.0,-1.7111056227897303,-0.3451798086319341,-2.842365826781603,0.0
1759676510.406164,0,-1.2049998044967651,-0.8299996256828308,-0.7176891691106029,0.0,-1.7111056227897303,-0.3451798086319341,-2.842365826781603,0.0
1759676510.4176152,0,-1.2049998044967651,-0.8299996256828308,-0.7176896227836878,0.0,-1.7111056227897303,-0.3451798086319341,-2.842365826781603,0.0
1759676510.4290257,0,-1.2049998044967651,-0.8299996256828308,-0.717690124063088,0.0,-1.7111056227897303,-0.3451798086319341,-2.842365826781603,0.0
1759676510.4394689,0,-1.2049998044967651,-0.8299996256828308,-0.717690912305418,0.0,-1.7111056227897303,-0.3451798086319341,-2.842365826781603,0.0
1759676510.449861,0,-1.2049998044967651,-0.8299996256828308,-0.7176916339766191,0.0,-1.7111056227897303,-0.3451798086319341,-2.842365826781603,0.0
1759676510.4613247,0,-1.2049998044967651,-0.8299996256828308,-0.7176920114824021,0.0,-1.7111056227897303,-0.3451798086319341,-2.842365826781603,0.0
1759676510.472816,0,-1.2049998044967651,-0.8299996256828308,-0.7176924020283053,0.0,-1.7111056227897303,-0.3451798086319341,-2.842365826781603,0.0
1759676510.484184,0,-1.2049998044967651,-0.8299996256828308,-0.7176928467428282,0.0,-1.7111056227897303,-0.3451798086319341,-2.842365826781603,0.0
1759676510.4947999,0,-1.2049998044967651,-0.8299996256828308,-0.7176934485330815,0.0,-1.7111056227897303,-0.3451798086319341,-2.842365826781603,0.0
1759676510.5062351,0,-1.2049998044967651,-0.8299996256828308,-0.717693824981767,0.0,-1.7111056227897303,-0.3451798086319341,-2.842365826781603,0.0
1759676510.5182183,0,-1.2049998044967651,-0.8299996256828308,-0.7176940918240096,0.0,-1.7111056227897303,-0.3451798086319341,-2.842365826781603,0.0
1759676510.5286014,0,-1.2049998044967651,-0.8299996256828308,-0.7176946839908105,0.0,-1.7111056227897303,-0.3451798086319341,-2.842365826781603,0.0
1759676510.5388498,0,-1.2049998044967651,-0.8299996256828308,-0.7176952281588136,0.0,-1.7111056227897303,-0.3451798086319341,-2.842365826781603,0.0
1759676510.549159,0,-1.2049998044967651,-0.8299996256828308,-0.7176956772571259,0.0,-1.7158352345880843,-0.34613388364764247,-2.4218141112265608,0.0
1759676510.5604722,0,-1.2049998044967651,-0.8299996256828308,-0.7176959020276215,0.0,-1.7195853127507041,-0.3468903634676468,-2.0883614153194543,0.0
1759676510.571771,0,-1.2049998044967651,-0.8299996256828308,-0.717696136679681,0.0,-1.7225667593498604,-0.3474917920482998,-1.8232545660538877,0.0
1759676510.5832767,0,-1.2049998044967651,-0.8299996256828308,-0.7176963549738211,0.0,-1.7249429361011632,-0.34797112332705593,-1.6119676250051178,0.0
1759676510.5944858,0,-1.2049998044967651,-0.8299996256828308,-0.7176966322558282,0.0,-1.7268424447639563,-0.34835429933273226,-1.4430654696258152,0.0
1759676510.6049232,0,-1.2049998044967651,-0.8299996256828308,-0.7176970107040201,0.0,-1.7283661589723054,-0.3486616686728062,-1.3075785308119703,0.0
1759676510.6164346,0,-1.2049998044967651,-0.8299996256828308,-0.7176972035666491,0.0,-1.7295899928459852,-0.3489085450279992,-1.1987566111547356,0.0
1759676510.627041,0,-1.2049998044967651,-0.8299996256828308,-0.7176975141485187,0.0,-1.7305765738042733,-0.349107561836018,-1.1110309515802195,0.0
1759676510.637133,0,-1.2049998044967651,-0.8299996256828308,-0.7176978605140771,0.0,-1.7313743120574958,-0.3492684845859019,-1.0400969711056833,0.0
1759676510.6475725,0,-1.2049998044967651,-0.8299996256828308,-0.7176981158776492,0.0,-1.7320206132890634,-0.34939885889228256,-0.9826285987974687,0.0
1759676510.6588392,0,-1.2049998044967651,-0.8299996256828308,-0.7176982476133382,0.0,-1.7325449941871138,-0.3495046389721019,-0.9360012442319107,0.0
1759676510.6701093,0,-1.2049998044967651,-0.8299996256828308,-0.7176983896317033,0.0,-1.7330339643324102,-0.34960327586217743,-0.8925225736291617,0.0
1759676510.6814437,0,-1.2049998044967651,-0.8299996256828308,-0.7176985383656334,0.0,-1.7334210887323958,-0.3496813680468523,-0.8580999111595168,0.0
1759676510.6928194,0,-1.2049998044967651,-0.8299996256828308,-0.7176986928727551,0.0,-1.7337283942684216,-0.3497433588711761,-0.8307746515218729,0.0
1759676510.7042162,0,-1.2049998044967651,-0.8299996256828308,-0.7176988518732657,0.0,-1.7339729905721477,-0.3497926997541637,-0.8090254256792393,0.0
1759676510.7201426,0,-1.2049998044967651,-0.8299996256828308,-0.7176985983254092,0.0,-1.7341672673902067,-0.34983189000193543,-0.7917505514166787,0.0
1759676510.7248764,0,-1.2049998044967651,-0.8299996256828308,-0.7176994766533369,0.0,-1.7343240054462685,-0.34986350778996433,-0.7778135812846806,0.0
1759676510.7364614,0,-1.2049998044967651,-0.8299996256828308,-0.7176995680395278,0.0,-1.7344496762484496,-0.349888858575119,-0.766639076123223,0.0
1759676510.7470334,0,-1.2049998044967651,-0.8299996256828308,-0.7176997156525378,0.0,-1.7345508210780762,-0.3499092618891813,-0.757645392617575,0.0
1759676510.7583644,0,-1.2049998044967651,-0.8299996256828308,-0.7176997971176995,0.0,-1.734632358861611,-0.34992570999643063,-0.7503951454070038,0.0
1759676510.7687566,0,-1.2049998044967651,-0.8299996256828308,-0.7176999633213974,0.0,-1.734698331716144,-0.34993901828787366,-0.7445289140254782,0.0
1759676510.7799184,0,-1.2049998044967651,-0.8299996256828308,-0.7177000596306549,0.0,-1.7347517928005718,-0.34994980265816444,-0.739775215047608,0.0
1759676510.7910628,0,-1.2049998044967651,-0.8299996256828308,-0.7177001603349423,0.0,-1.7348010545816352,-0.3499597399292441,-0.7353949133609611,0.0
1759676510.8012457,0,-1.2049998044967651,-0.8299996256828308,-0.7177003334544967,0.0,-1.7348401347252727,-0.3499676233222676,-0.7319199513235698,0.0
1759676510.8115067,0,-1.2049998044967651,-0.8299996256828308,-0.717700482435049,0.0,-1.7348712105470907,-0.34997389205349827,-0.7291567245017682,0.0
1759676510.8218718,0,-1.2049998044967651,-0.8299996256828308,-0.7177006064721994,0.0,-1.734895979145572,-0.3499788884680018,-0.7269543288237862,0.0
1759676510.832275,0,-1.2049998044967651,-0.8299996256828308,-0.7177007166599977,0.0,-1.7349157683537928,-0.34998288042124215,-0.7251946948788566,0.0
1759676510.8422947,0,-1.2049998044967651,-0.8299996256828308,-0.7177008430579832,0.0,-1.7349316245021047,-0.34998607898289896,-0.723784784159125,0.0
1759676510.8525782,0,-1.2049998044967651,-0.8299996256828308,-0.7177009405984266,0.0,-1.734944355666848,-0.34998864716115974,-0.7226527434331509,0.0
1759676510.8633509,0,-1.2049998044967651,-0.8299996256828308,-0.7177010027531718,0.0,-1.7349545969314508,-0.34999071306743346,-0.7217421018029866,0.0
1759676510.8739195,0,-1.2049998044967651,-0.8299996256828308,-0.7177010805743365,0.0,-1.7349628577897551,-0.3499923794787273,-0.7210075556541773,0.0
1759676510.8848293,0,-1.2049998044967651,-0.8299996256828308,-0.7177011410531762,0.0,-1.7349695350261496,-0.3499937264358751,-0.7204138233690324,0.0
1759676510.8962862,0,-1.2049998044967651,-0.8299996256828308,-0.7177011780163021,0.0,-1.7349756213013587,-0.349994954182118,-0.7198726386820714,0.0
1759676510.9068327,0,-1.2049998044967651,-0.8299996256828308,-0.7177012738664992,0.0,-1.7349804407827327,-0.3499959263859613,-0.7194440958658052,0.0
1759676510.92918,0,-1.2049998044967651,-0.8299996256828308,-0.7177008119956803,0.0,-1.7349842205656942,-0.34999668885794466,-0.719108001852881,0.0
1759676510.9407592,0,-1.2049998044967651,-0.8299996256828308,-0.7177010161071103,0.0,-1.7349872338703332,-0.34999729671304847,-0.7188400622228621,0.0
1759676510.9511209,0,-1.2049998044967651,-0.8299996256828308,-0.7177012718758711,0.0,-1.7349896457779852,-0.3499977832520984,-0.7186255981306523,0.0
1759676510.9615197,0,-1.2049998044967651,-0.8299996256828308,-0.7177014710852383,0.0,-1.7349915809492624,-0.3499981736221003,-0.7184535248960568,0.0
1759676510.9728432,0,-1.2049998044967651,-0.8299996256828308,-0.7177015891069658,0.0,-1.7349931358432156,-0.3499984872811353,-0.7183152654896965,0.0
1759676510.9832075,0,-1.2049998044967651,-0.8299996256828308,-0.7177017237718601,0.0,-1.734994389796628,-0.34999874023331673,-0.7182037653748226,0.0
1759676510.994743,0,-1.2049998044967651,-0.8299996256828308,-0.7177017922973512,0.0,-1.7349954021760794,-0.3499989444542934,-0.7181137457425273,0.0
1759676511.0061123,0,-1.2049998044967651,-0.8299996256828308,-0.7177018611427695,0.0,-1.7349962218457333,-0.34999910980112764,-0.7180408616467855,0.0
1759676511.016462,0,-1.2049998044967651,-0.8299996256828308,-0.717701961941593,0.0,-1.7349969737366406,-0.34999926147537913,-0.7179740043602925,0.0
1759676511.0280197,0,-1.2049998044967651,-0.8299996256828308,-0.7177020087222274,0.0,-1.734997569529749,-0.3499993816609976,-0.7179210271130088,0.0
1759676511.0382285,0,-1.2049998044967651,-0.8299996256828308,-0.7177020981476581,0.0,-1.7349980435867625,-0.34999947728955483,-0.7178788745011699,0.0
1759676511.0483072,0,-1.2049998044967651,-0.8299996256828308,-0.7177021803690451,0.0,-1.7349984217487555,-0.34999955357380913,-0.717845248765766,0.0
1759676511.0592012,0,-1.2049998044967651,-0.8299996256828308,-0.7177022251300471,0.0,-1.7349987238752,-0.3499996145198877,-0.7178183840250807,0.0
1759676511.0706913,0,-1.2049998044967651,-0.8299996256828308,-0.7177022501161456,0.0,-1.7349989657193121,-0.3499996633055883,-0.7177968795209855,0.0
1759676511.0815217,0,-1.2049998044967651,-0.8299996256828308,-0.7177022989593063,0.0,-1.734999159967228,-0.34999970249000584,-0.7177796072166641,0.0
1759676511.0920358,0,-1.2049998044967651,-0.8299996256828308,-0.717702355514934,0.0,-1.7349993164346946,-0.3499997340532096,-0.7177656943070365,0.0
1759676511.1021242,0,-1.2049998044967651,-0.8299996256828308,-0.7177024181856808,0.0,-1.7349994428378868,-0.3499997595517352,-0.7177544546785892,0.0
1759676511.1123147,0,-1.2049998044967651,-0.8299996256828308,-0.7177024700868984,0.0,-1.7349995451813391,-0.34999978019683986,-0.7177453544149138,0.0
1759676511.1239786,0,-1.2049998044967651,-0.8299996256828308,-0.7177024793096223,0.0,-1.7349996281018485,-0.3499997969238758,-0.7177379812172815,0.0
1759676511.134778,0,-1.2049998044967651,-0.8299996256828308,-0.717702515859159,0.0,-1.734999703983338,-0.3499998122309742,-0.7177312339213273,0.0
1759676511.1467545,0,-1.2049998044967651,-0.8299996256828308,-0.7177025263616024,0.0,-1.7349997642122665,-0.34999982438057936,-0.7177258784333359,0.0
1759676511.1570883,0,-1.2049998044967651,-0.8299996256828308,-0.7177025806041719,0.0,-1.734999812234758,-0.34999983406785634,-0.7177216083278595,0.0
1759676511.1674328,0,-1.2049998044967651,-0.8299996256828308,-0.7177026300739229,0.0,-1.734999850617972,-0.34999984181066207,-0.7177181953360193,0.0
1759676511.1781409,0,-1.2049998044967651,-0.8299996256828308,-0.7177026656959509,0.0,-1.7349998813597487,-0.34999984801200845,-0.7177154618121219,0.0
1759676511.189474,0,-1.2049998044967651,-0.8299996256828308,-0.7177026862134497,0.0,-1.7349999060266295,-0.34999985298790415,-0.7177132684610537,0.0
1759676511.200686,0,-1.2049998044967651,-0.8299996256828308,-0.7177027115549262,0.0,-1.7349999258739799,-0.34999985699158603,-0.7177115036571845,0.0
1759676511.2120762,0,-1.2049998044967651,-0.8299996256828308,-0.7177027353576156,0.0,-1.7349999418818787,-0.34999986022075935,-0.717710080252988,0.0
1759676511.2228763,0,-1.2049998044967651,-0.8299996256828308,-0.7177027716449622,0.0,-1.7349999548355743,-0.3499998628338274,-0.7177089284250524,0.0
1759676511.233434,0,-1.2049998044967651,-0.8299996256828308,-0.7177028100524936,0.0,-1.7349999653467867,-0.3499998649541886,-0.7177079937799623,0.0
1759676511.2438517,0,-1.2049998044967651,-0.8299996256828308,-0.717702846893955,0.0,-1.7349999750711296,-0.34999986691581947,-0.7177071291024254,0.0
1759676511.2542708,0,-1.2049998044967651,-0.8299996256828308,-0.7177028795837649,0.0,-1.7349999827822191,-0.3499998684713293,-0.7177064434410972,0.0
1759676511.2646127,0,-1.2049998044967651,-0.8299996256828308,-0.7177029101773229,0.0,-1.7349999889125616,-0.349999869707965,-0.7177058983379991,0.0
1759676511.2746572,0,-1.2049998044967651,-0.8299996256828308,-0.7177029424296872,0.0,-1.7349999937997083,-0.34999987069381855,-0.7177054637784522,0.0
1759676511.285609,0,-1.2049998044967651,-0.8299996256828308,-0.7177029574820342,0.0,-1.7349999977013422,-0.34999987148087075,-0.7177051168495842,0.0
1759676511.295987,0,-1.2049998044967651,-0.8299996256828308,-0.7177029817373376,0.0,-1.7350000008261364,-0.34999987211121597,-0.7177048389964191,0.0
1759676511.3071885,0,-1.2049998044967651,-0.8299996256828308,-0.7177029935900787,0.0,-1.7350000033326538,-0.34999987261684007,-0.7177046161197305,0.0
1759676511.3377595,0,-1.2049998044967651,-0.8299996256828308,-0.717702763427658,0.0,-1.7350000053059778,-0.34999987301490637,-0.7177044406540093,0.0
1759676511.3482943,0,-1.2049998044967651,-0.8299996256828308,-0.7177028631742957,0.0,-1.7350000069054519,-0.3499998733375583,-0.7177042984305966,0.0
1759676511.3593693,0,-1.2049998044967651,-0.8299996256828308,-0.7177029495150223,0.0,-1.735000008204251,-0.34999987359955687,-0.7177041829428634,0.0
1759676511.3706748,0,-1.2049998044967651,-0.8299996256828308,-0.7177030120592711,0.0,-1.7350000094071805,-0.3499998738422163,-0.7177040759797318,0.0
1759676511.3810077,0,-1.2049998044967651,-0.8299996256828308,-0.7177030701460758,0.0,-1.7350000103628023,-0.3499998740349879,-0.7177039910069382,0.0
1759676511.3913412,0,-1.2049998044967651,-0.8299996256828308,-0.7177031151207629,0.0,-1.7350000111238277,-0.3499998741885048,-0.7177039233374141,0.0
1759676511.4017599,0,-1.2049998044967651,-0.8299996256828308,-0.717703149392543,0.0,-1.7350000117313156,-0.34999987431104956,-0.7177038693202784,0.0
1759676511.4125478,0,-1.2049998044967651,-0.8299996256828308,-0.7177031734462195,0.0,-1.7350000122172464,-0.3499998744090733,-0.7177038261118586,0.0
1759676511.4225779,0,-1.2049998044967651,-0.8299996256828308,-0.717703200860834,0.0,-1.7350000126072456,-0.34999987448774544,-0.7177037914335641,0.0
1759676511.4337962,0,-1.2049998044967651,-0.8299996256828308,-0.7177032132069758,0.0,-1.7350000129205863,-0.3499998745509537,-0.7177037635716651,0.0
1759676511.4444835,0,-1.2049998044967651,-0.8299996256828308,-0.7177032295977241,0.0,-1.7350000131731407,-0.34999987460189996,-0.7177037411148078,0.0
1759676511.4549363,0,-1.2049998044967651,-0.8299996256828308,-0.7177032469035325,0.0,-1.7350000133772598,-0.34999987464307564,-0.7177037229647705,0.0
1759676511.4664633,0,-1.2049998044967651,-0.8299996256828308,-0.71770325375552,0.0,-1.7350000135424328,-0.34999987467639493,-0.7177037082777779,0.0
1759676511.477311,0,-1.2049998044967651,-0.8299996256828308,-0.7177032670714993,0.0,-1.7350000136765475,-0.34999987470344907,-0.7177036963524337,0.0
1759676511.4873576,0,-1.2049998044967651,-0.8299996256828308,-0.7177032862246691,0.0,-1.7350000138014752,-0.3499998747286499,-0.7177036852440172,0.0
1759676511.497588,0,-1.2049998044967651,-0.8299996256828308,-0.7177033015347565,0.0,-1.735000013900543,-0.3499998747486342,-0.7177036764350246,0.0
1759676511.5079727,0,-1.2049998044967651,-0.8299996256828308,-0.7177033137849804,0.0,-1.7350000139792836,-0.34999987476451805,-0.7177036694335105,0.0
1759676511.5208373,0,-1.2049998044967651,-0.8299996256828308,-0.7177033079094848,0.0,-1.7350000140418607,-0.34999987477714134,-0.7177036638692225,0.0
1759676511.5324247,0,-1.2049998044967651,-0.8299996256828308,-0.7177033150997829,0.0,-1.7350000140918096,-0.3499998747872172,-0.7177036594278253,0.0
1759676511.5438185,0,-1.2049998044967651,-0.8299996256828308,-0.7177033254028569,0.0,-1.7350000141317952,-0.34999987479528333,-0.7177036558723436,0.0
1759676511.5538895,0,-1.2049998044967651,-0.8299996256828308,-0.7177033440411796,0.0,-1.7350000141639361,-0.3499998748017669,-0.7177036530144058,0.0
1759676511.5641468,0,-1.2049998044967651,-0.8299996256828308,-0.7177033589157453,0.0,-1.7350000141898272,-0.34999987480698974,-0.7177036507122062,0.0
1759676511.5743287,0,-1.2049998044967651,-0.8299996256828308,-0.7177033719557979,0.0,-1.7350000142107354,-0.3499998748112074,-0.717703648853087,0.0
1759676511.5847733,0,-1.2049998044967651,-0.8299996256828308,-0.717703381770443,0.0,-1.7350000142276545,-0.3499998748146204,-0.71770364734866,0.0
1759676511.595433,0,-1.2049998044967651,-0.8299996256828308,-0.7177033895428,0.0,-1.7350000142413753,-0.34999987481738826,-0.7177036461286107,0.0
1759676511.605642,0,-1.2049998044967651,-0.8299996256828308,-0.7177033994982516,0.0,-1.7350000142539537,-0.34999987481992556,-0.7177036450101594,0.0
1759676511.6159692,0,-1.2049998044967651,-0.8299996256828308,-0.717703408037,0.0,-1.7350000142639441,-0.3499998748219409,-0.717703644121819,0.0
1759676511.6268685,0,-1.2049998044967651,-0.8299996256828308,-0.717703413103397,0.0,-1.735000014271894,-0.34999987482354455,-0.7177036434149289,0.0
1759676511.6372452,0,-1.2049998044967651,-0.8299996256828308,-0.7177034210696184,0.0,-1.7350000142782398,-0.34999987482482464,-0.7177036428506658,0.0
1759676511.6472783,0,-1.2049998044967651,-0.8299996256828308,-0.717703430325713,0.0,-1.7350000142833195,-0.3499998748258493,-0.717703642398983,0.0
1759676511.658628,0,-1.2049998044967651,-0.8299996256828308,-0.7177034327091505,0.0,-1.7350000142873896,-0.34999987482667033,-0.717703642037073,0.0
1759676511.669995,0,-1.2049998044967651,-0.8299996256828308,-0.717703435970762,0.0,-1.7350000142906594,-0.3499998748273299,-0.7177036417463303,0.0
1759676511.6813002,0,-1.2049998044967651,-0.8299996256828308,-0.7177034406092506,0.0,-1.7350000142932933,-0.3499998748278612,-0.7177036415121268,0.0
1759676511.691594,0,-1.2049998044967651,-0.8299996256828308,-0.7177034500011459,0.0,-1.735000014295423,-0.3499998748282908,-0.7177036413227612,0.0
1759676511.702527,0,-1.2049998044967651,-0.8299996256828308,-0.7177034560066532,0.0,-1.7350000142971478,-0.34999987482863876,-0.7177036411693941,0.0
1759676511.7139523,0,-1.2049998044967651,-0.8299996256828308,-0.7177034599139311,0.0,-1.7350000142987265,-0.3499998748289572,-0.717703641029017,0.0
1759676511.745111,0,-1.2049998044967651,-0.8299996256828308,-0.7177033971916327,0.0,-1.7350000142999527,-0.3499998748292046,-0.7177036409199959,0.0
1759676511.7564774,0,-1.2049998044967651,-0.8299996256828308,-0.7177034235163884,0.0,-1.7350000143009316,-0.3499998748294021,-0.7177036408329418,0.0
1759676511.7677648,0,-1.2049998044967651,-0.8299996256828308,-0.7177034484517577,0.0,-1.7350000143017155,-0.34999987482956024,-0.7177036407632372,0.0
1759676511.7793179,0,-1.2049998044967651,-0.8299996256828308,-0.7177034665106419,0.0,-1.7350000143023445,-0.34999987482968714,-0.7177036407072931,0.0
1759676511.7907553,0,-1.2049998044967651,-0.8299996256828308,-0.7177034806255183,0.0,-1.735000014302851,-0.3499998748297893,-0.7177036406622666,0.0
1759676511.800757,0,-1.2049998044967651,-0.8299996256828308,-0.7177034956033097,0.0,-1.7350000143032605,-0.3499998748298719,-0.7177036406258731,0.0
1759676511.8113644,0,-1.2049998044967651,-0.8299996256828308,-0.7177035056709364,0.0,-1.7350000143035917,-0.3499998748299387,-0.7177036405964093,0.0
1759676511.8214848,0,-1.2049998044967651,-0.8299996256828308,-0.7177035148380888,0.0,-1.7350000143038953,-0.34999987483,-0.7177036405694082,0.0
1759676511.8328242,0,-1.2049998044967651,-0.8299996256828308,-0.7177035192265038,0.0,-1.7350000143041355,-0.34999987483004846,-0.7177036405480357,0.0
1759676511.8442593,0,-1.2049998044967651,-0.8299996256828308,-0.7177035229490444,0.0,-1.7350000143043263,-0.34999987483008693,-0.7177036405310747,0.0
1759676511.8546069,0,-1.2049998044967651,-0.8299996256828308,-0.7177035291457123,0.0,-1.7350000143044781,-0.34999987483011763,-0.717703640517563,0.0
1759676511.8663363,0,-1.2049998044967651,-0.8299996256828308,-0.7177035314849931,0.0,-1.7350000143045994,-0.34999987483014205,-0.7177036405067879,0.0
1759676511.8769457,0,-1.2049998044967651,-0.8299996256828308,-0.717703536397531,0.0,-1.7350000143046964,-0.3499998748301616,-0.7177036404981616,0.0
1759676511.8885386,0,-1.2049998044967651,-0.8299996256828308,-0.7177035388453668,0.0,-1.7350000143047741,-0.3499998748301773,-0.7177036404912455,0.0
1759676511.898893,0,-1.2049998044967651,-0.8299996256828308,-0.7177035439092876,0.0,-1.7350000143048367,-0.34999987483018996,-0.7177036404856781,0.0
1759676511.9103098,0,-1.2049998044967651,-0.8299996256828308,-0.7177035463530714,0.0,-1.7350000143048872,-0.3499998748302001,-0.717703640481191,0.0
1759676511.9326458,0,-1.2049998044967651,-0.8299996256828308,-0.7177035289637228,0.0,-1.7350000143049276,-0.3499998748302083,-0.717703640477609,0.0
1759676511.9395382,0,-1.2049998044967651,-0.8299996256828308,-0.7177035452522347,0.0,-1.7350000143049604,-0.3499998748302149,-0.7177036404746844,0.0
1759676511.949722,0,-1.2049998044967651,-0.8299996256828308,-0.717703553337536,0.0,-1.7350532386984427,-0.34995483631644897,-0.7182073882642466,0.0016327453105770121
1759676511.9611316,0,-1.2049998044967651,-0.8299996256828308,-0.7177035572322108,0.0,-1.7350766222127176,-0.3499525597555794,-0.7186743066208021,0.003059587441229245
1759676511.9717374,0,-1.2049998044967651,-0.8299996256828308,-0.7177035617940799,0.0,-1.7350931057601382,-0.3499663983016847,-0.7190509667853259,0.0042067737304345605
1759676511.9825702,0,-1.2049998044967651,-0.8299996256828308,-0.7177035653621218,0.0,-1.7351044505668591,-0.34999029956474936,-0.7193567501550063,0.005134186828935668
1759676511.9928763,0,-1.2049998044967651,-0.8299996256828308,-0.7177035692615695,0.0,-1.735111993084185,-0.35002006064143176,-0.7196066121335892,0.005888308491078512
1759676512.0038037,0,-1.2049998044967651,-0.8299996256828308,-0.7177035717134395,0.0,-1.73511668259049,-0.35005287380193256,-0.7198125337055383,0.006505946651596429
1759676512.014521,0,-1.2049998044967651,-0.8299996256828308,-0.7177035742660873,0.0,-1.73511925495866,-0.3500868404435466,-0.7199836923877082,0.007015592915925242
1759676512.0253556,0,-1.2049998044967651,-0.8299996256828308,-0.7177035764876738,0.0,-1.735120245097709,-0.35012074944121124,-0.7201274029442255,0.007439830225060004
1759676512.0362384,0,-1.2049998044967651,-0.8299996256828308,-0.7177035785384049,0.0,-1.7351200523852048,-0.35015385331782295,-0.7202494090634117,0.007796412340771371
1759676512.0469847,0,-1.2049998044967651,-0.8299996256828308,-0.7177035807006202,0.0,-1.7351189801135651,-0.3501857121040704,-0.7203541655447387,0.008099177441708108
1759676512.0577705,0,-1.2049998044967651,-0.8299996256828308,-0.7177035827079639,0.0,-1.7351172465267592,-0.35021611867246916,-0.7204452717463066,0.00835923542669408
1759676512.0686092,0,-1.2049998044967651,-0.8299996256828308,-0.7177035845629511,0.0,-1.7351231892730758,-0.3502337870687305,-0.7204903244117817,0.008525006904074248
1759676512.079531,0,-1.2049998044967651,-0.8299996256828308,-0.7177035862666621,0.0,-1.7351273094343234,-0.3502508355542655,-0.7205319558982731,0.008670620503286583
1759676512.0905836,0,-1.2049998044967651,-0.8299996256828308,-0.7177035878054419,0.0,-1.7351300012890478,-0.3502672633279449,-0.7205710922214164,0.008800857829505848
1759676512.101678,0,-1.2049998044967651,-0.8299996256828308,-0.7177035893235361,0.0,-1.735131570087775,-0.35028310797076506,-0.7206084165115371,0.008919355262358007
1759676512.1126435,0,-1.2049998044967651,-0.8299996256828308,-0.7177035910025307,0.0,-1.735132256534757,-0.3502984157992001,-0.7206443772760328,0.009028751502693513
1759676512.1230245,0,-1.2049998044967651,-0.8299996256828308,-0.7177035932335459,0.0,-1.7351322638388909,-0.35031319517179577,-0.7206790809050637,0.009130531411306347
1759676512.1533477,0,-1.2049998044967651,-0.8299996256828308,-0.7177035769760352,0.0,-1.7351309407328794,-0.35032986988229625,-0.7207236981894369,0.009252079379475038
1759676512.1647477,0,-1.2049998044967651,-0.8299996256828308,-0.7177035834202493,0.0,-1.7351292388515593,-0.35034622309574515,-0.7207665094159093,0.00936649477651718
1759676512.1756852,0,-1.2049998044967651,-0.8299996256828308,-0.7177035899512489,0.0,-1.7351272436660048,-0.35036225633035756,-0.7208077783600096,0.009474976499937778
1759676512.1859567,0,-1.2049998044967651,-0.8299996256828308,-0.7177035954182838,0.0,-1.7351250309249244,-0.3503779507294543,-0.7208475837945992,0.009578161491688317
1759676512.197451,0,-1.2049998044967651,-0.8299996256828308,-0.7177035985954241,0.0,-1.7363054415364108,-0.349454291771424,-0.7198190429850287,0.018932358260084527
1759676512.2083416,0,-1.2049998044967651,-0.8299996256828308,-0.7177036015243878,0.0,-1.7372233336902776,-0.3488278712240783,-0.7190138328697427,0.026363261912161953
1759676512.2189004,0,-1.2049998044967651,-0.8299996256828308,-0.7177036041383076,0.0,-1.7379371449275578,-0.3484163700112052,-0.7183837378264003,0.032285239417959424
1759676512.2295885,0,-1.2049998044967651,-0.8299996256828308,-0.7177036061716571,0.0,-1.7384913754264786,-0.34816017450322345,-0.7178920576611935,0.037017799812934044
1759676512.2408228,0,-1.2049998044967651,-0.8299996256828308,-0.7177036074978673,0.0,-1.7389200796945168,-0.3480161579609399,-0.7175107112822097,0.04080948884365525
1759676512.2518058,0,-1.2049998044967651,-0.8299996256828308,-0.7177036088552597,0.0,-1.7392506364513547,-0.3479519771445998,-0.7172165359047562,0.04385791619841126
1759676512.2628174,0,-1.2049998044967651,-0.8299996256828308,-0.7177036100761001,0.0,-1.7395039854912406,-0.34794441704110335,-0.7169917991205058,0.04631691891271759
1759676512.2739708,0,-1.2049998044967651,-0.8299996256828308,-0.7177036111145618,0.0,-1.7396963185714187,-0.3479767758417986,-0.7168227179556743,0.04830726390063323
1759676512.2848182,0,-1.2049998044967651,-0.8299996256828308,-0.7177036122819356,0.0,-1.7398406754897053,-0.3480365248704071,-0.7166978841171864,0.0499246385702259
1759676512.295514,0,-1.2049998044967651,-0.8299996256828308,-0.7177036134444794,0.0,-1.7399470866019178,-0.3481148031542896,-0.7166085020254497,0.051244179050450395
1759676512.3061,0,-1.2049998044967651,-0.8299996256828308,-0.7177036145563208,0.0,-1.7401199598891144,-0.34807868359248834,-0.716414008561263,0.05244774973602456
1759676512.3161926,0,-1.2049998044967651,-0.8299996256828308,-0.7177036158189019,0.0,-1.7404339674685476,-0.3479298830705368,-0.7160272874269993,0.05382381348327042
1759676512.3264372,0,-1.2049998044967651,-0.8299996256828308,-0.7177036168355073,0.0,-1.7406762043606956,-0.34783604371136595,-0.7157275343721468,0.05493143566733639
1759676512.3477929,0,-1.2049998044967651,-0.8299996256828308,-0.7177036123281441,0.0,-1.7408541281118393,-0.3477951874062794,-0.71550774386178,0.0558322338780603
1759676512.3585136,0,-1.2049998044967651,-0.8299996256828308,-0.71770361444527,0.0,-1.7409893704566763,-0.34778313588872684,-0.7153401531073631,0.05656799341882772
1759676512.3689132,0,-1.2049998044967651,-0.8299996256828308,-0.7177036166572712,0.0,-1.741091091142701,-0.34779229602797423,-0.7152138218261191,0.057173001519977985
1759676512.379294,0,-1.2049998044967651,-0.8299996256828308,-0.7177036184145749,0.0,-1.7411662303718358,-0.34781733391232966,-0.7151204549208889,0.05767432632723855
1759676512.3901947,0,-1.2049998044967651,-0.8299996256828308,-0.7177036195876525,0.0,-1.7412198784968638,-0.347854881052822,-0.7150540051777912,0.05809380488097438
1759676512.4010296,0,-1.2049998044967651,-0.8299996256828308,-0.717703620591017,0.0,-1.741256391417481,-0.34790187673198736,-0.7150091791268646,0.05844823691009049
1759676512.4121242,0,-1.2049998044967651,-0.8299996256828308,-0.7177036213613484,0.0,-1.7412789860775795,-0.34795641509024794,-0.7149820833101067,0.05875125283910682
1759676512.4233472,0,-1.2049998044967651,-0.8299996256828308,-0.7177036220167103,0.0,-1.7422466719343397,-0.34712623925062747,-0.7141379824441851,0.05867793631240192
1759676512.4340684,0,-1.2049998044967651,-0.8299996256828308,-0.7177036228260113,0.0,-1.7435661432109395,-0.34600881312488624,-0.7130824320662812,0.058546819214188445
1759676512.4454696,0,-1.2049998044967651,-0.8299996256828308,-0.7177036233191139,0.0,-1.7446027427536408,-0.34513521610041104,-0.7122571347495055,0.058458752943013004
1759676512.4567864,0,-1.2049998044967651,-0.8299996256828308,-0.7177036238414036,0.0,-1.7454172568704263,-0.34445381568563427,-0.711612804775793,0.05840472680588188
1759676512.4679308,0,-1.2049998044967651,-0.8299996256828308,-0.7177036244251731,0.0,-1.746057030391339,-0.34392421330121636,-0.7111109928084522,0.05837761091909805
1759676512.4783778,0,-1.2049998044967651,-0.8299996256828308,-0.7177036252096887,0.0,-1.74655965525382,-0.3435139111729156,-0.7107209399223609,0.05837107469110655
1759676512.4894862,0,-1.2049998044967651,-0.8299996256828308,-0.717703625698956,0.0,-1.746952527948547,-0.3431999247163163,-0.710420729829173,0.058382150325477555
1759676512.5004854,0,-1.2049998044967651,-0.8299996256828308,-0.7177036261958349,0.0,-1.7472582466617386,-0.34296278417921927,-0.7101919662831515,0.05840741143405695
1759676512.510648,0,-1.2049998044967651,-0.8299996256828308,-0.7177036269169808,0.0,-1.747495408824585,-0.3427859775997556,-0.7100192065766152,0.058443091299216356
1759676512.5210333,0,-1.2049998044967651,-0.8299996256828308,-0.7177036274858999,0.0,-1.7476773601034008,-0.3426581962626332,-0.7098917551623144,0.05848775195524602
1759676512.537177,0,-1.2049998044967651,-0.8299996256828308,-0.7177036264516055,0.0,-1.7482033196475089,-0.34217386617243484,-0.7093366844625787,0.05847910017128465
1759676512.5484107,0,-1.2049998044967651,-0.8299996256828308,-0.7177036271174124,0.0,-1.7486132966404389,-0.34180167479750045,-0.7089050780779113,0.0584887924455546
1759676512.5590954,0,-1.2049998044967651,-0.8299996256828308,-0.7177036279413258,0.0,-1.7489327070400973,-0.3415172253936278,-0.7085699276893204,0.05851242513900144
1759676512.5696037,0,-1.2049998044967651,-0.8299996256828308,-0.7177036286802085,0.0,-1.7491808766642931,-0.3413020799020629,-0.7083107262551666,0.05854710687179726
1759676512.5808797,0,-1.2049998044967651,-0.8299996256828308,-0.717703629119077,0.0,-1.7493720850848178,-0.34114306653390986,-0.7081124392214422,0.0585919902124597
1759676512.5922444,0,-1.2049998044967651,-0.8299996256828308,-0.717703629499205,0.0,-1.7495180828340693,-0.3410289670956813,-0.7079625862564284,0.05864545631657377
1759676512.6035028,0,-1.2049998044967651,-0.8299996256828308,-0.7177036298918704,0.0,-1.749628205028302,-0.34095074417280896,-0.7078512168847587,0.05870596220887264
1759676512.6145024,0,-1.2049998044967651,-0.8299996256828308,-0.7177036303228128,0.0,-1.7497098693001456,-0.3409011123047599,-0.7077703961525844,0.0587720687529203
1759676512.6253066,0,-1.2049998044967651,-0.8299996256828308,-0.7177036307603277,0.0,-1.749768850719483,-0.34087440774024136,-0.7077139486040354,0.05884273083652921
1759676512.6359587,0,-1.2049998044967651,-0.8299996256828308,-0.7177036311847297,0.0,-1.749809665921065,-0.3408662065563502,-0.7076770457104837,0.058917185672244334
1759676512.6471593,0,-1.2049998044967651,-0.8299996256828308,-0.7177036314614789,0.0,-1.7498354036941635,-0.34087385424061295,-0.7076564812178103,0.05899592629797602
1759676512.6582582,0,-1.2049998044967651,-0.8299996256828308,-0.7177036317514904,0.0,-1.751344097429232,-0.33956269678845147,-0.7063504665809534,0.0593036162200473
1759676512.669056,0,-1.2049998044967651,-0.8299996256828308,-0.7177036320903127,0.0,-1.7525311078429366,-0.33853835023669054,-0.7053245763564111,0.05956380842876642
1759676512.6797245,0,-1.2049998044967651,-0.8299996256828308,-0.7177036324285204,0.0,-1.75346549373352,-0.3377392635049847,-0.7045189615322875,0.05978681787032438
1759676512.6905165,0,-1.2049998044967651,-0.8299996256828308,-0.7177036327172691,0.0,-1.754200508735948,-0.33711812577141287,-0.7038874934265942,0.05998100085223899
1759676512.7013037,0,-1.2049998044967651,-0.8299996256828308,-0.7177036329880764,0.0,-1.7547779537415755,-0.3366377536956167,-0.7033938878139688,0.06015274280386681
1759676512.7122657,0,-1.2049998044967651,-0.8299996256828308,-0.7177036332182265,0.0,-1.7552302553802406,-0.3362694169848731,-0.7030100196401285,0.06030730148347539
1759676512.723066,0,-1.2049998044967651,-0.8299996256828308,-0.7177036334686342,0.0,-1.7555833141609425,-0.3359899966132726,-0.7027133027725514,0.06044836232312621
1759676512.7410727,0,-1.2049998044967651,-0.8299996256828308,-0.7177036327008395,0.0,-1.755848134610813,-0.335793863610822,-0.7024962765183589,0.06058944107220326
1759676512.752089,0,-1.2049998044967651,-0.8299996256828308,-0.7177036331908706,0.0,-1.7560513893508276,-0.335652747592501,-0.7023332758134805,0.06072127114965642
1759676512.7629905,0,-1.2049998044967651,-0.8299996256828308,-0.7177036336855025,0.0,-1.7562052800685783,-0.33555584969549185,-0.7022136854352442,0.06084592978963174
1759676512.773733,0,-1.2049998044967651,-0.8299996256828308,-0.7177036341131177,0.0,-1.7567326679509316,-0.33506541297447695,-0.7016095274846177,0.060900296026655906
1759676512.7843363,0,-1.2049998044967651,-0.8299996256828308,-0.7177036344822092,0.0,-1.7571438421597134,-0.3346884672114855,-0.7011375757676115,0.0609599549083878
1759676512.7957654,0,-1.2049998044967651,-0.8299996256828308,-0.7177036346944554,0.0,-1.7574629227017922,-0.33440222954653287,-0.7007705107623158,0.061025371427282364
1759676512.8059905,0,-1.2049998044967651,-0.8299996256828308,-0.7177036350257904,0.0,-1.7577105930124808,-0.334186060737881,-0.7004848738289811,0.061093860590872635
1759676512.816546,0,-1.2049998044967651,-0.8299996256828308,-0.7177036352745336,0.0,-1.75790150607352,-0.33402601489736683,-0.7002640266252194,0.06116562055051485
1759676512.8272724,0,-1.2049998044967651,-0.8299996256828308,-0.7177036354717679,0.0,-1.7580472745228712,-0.33391094732076043,-0.7000947653713183,0.061240595144572973
1759676512.8378868,0,-1.2049998044967651,-0.8299996256828308,-0.7177036356633337,0.0,-1.7581572176839746,-0.3338317537606174,-0.6999664817058244,0.06131831886242872
1759676512.8485088,0,-1.2049998044967651,-0.8299996256828308,-0.7177036358390758,0.0,-1.7582385495528363,-0.3337814339192215,-0.6998709528441747,0.06139861835506229
1759676512.8588731,0,-1.2049998044967651,-0.8299996256828308,-0.7177036360270606,0.0,-1.7582971358749475,-0.3337541446679998,-0.6998014871760845,0.06148094093740228
1759676512.868925,0,-1.2049998044967651,-0.8299996256828308,-0.717703636226677,0.0,-1.7583376344085249,-0.33374519952075116,-0.6997527663136216,0.06156474747322113
1759676512.8791654,0,-1.2049998044967651,-0.8299996256828308,-0.7177036363853572,0.0,-1.7583633674201444,-0.33375150299933853,-0.6997209861834465,0.06165041650926011
1759676512.8894522,0,-1.2049998044967651,-0.8299996256828308,-0.7177036365247247,0.0,-1.7583770648631707,-0.33377043806162165,-0.6997030178020053,0.06173804263169655
1759676512.8998258,0,-1.2049998044967651,-0.8299996256828308,-0.7177036366475419,0.0,-1.7600199355424806,-0.3323502013240552,-0.698246476438066,0.06098273898385363
1759676512.9108894,0,-1.2049998044967651,-0.8299996256828308,-0.717703636709107,0.0,-1.7613125201074278,-0.33123026640816244,-0.6971027293220801,0.060401470529522286
1759676512.9217484,0,-1.2049998044967651,-0.8299996256828308,-0.7177036368004828,0.0,-1.7623303513582738,-0.33034776013096623,-0.6962043986394253,0.05995678895503732
1759676512.9396021,0,-1.2049796253501859,-0.8300192173254602,-0.7174119077166111,0.00544812998394139,-1.7631191831093649,-0.3296687939731714,-0.6955121891840169,0.059634111599057245
1759676512.9426105,0,-1.2049730517523687,-0.8300249385403796,-0.7174124596781651,0.00544812998394139,-1.7637531421109913,-0.3291210108932295,-0.6949564977153412,0.059378595066358016
1759676512.9529154,0,-1.2049700954612264,-0.8300275126875482,-0.7173962461572028,0.00544812998394139,-1.7642514952063149,-0.328693308046171,-0.6945220833623323,0.05919101781287698
1759676512.9635458,0,-1.204968946392996,-0.8300285132672582,-0.717370962455355,0.00544812998394139,-1.7646415288553783,-0.3283625429112051,-0.6941846679342282,0.05905834638414169
1759676512.974079,0,-1.2049685134258998,-0.8300288902708746,-0.7173959442915465,0.00544812998394139,-1.76494532205039,-0.32810961203601924,-0.6939245116189522,0.05896955403825529
1759676512.9848778,0,-1.2049683318198805,-0.8300290484400298,-0.7173956758313954,0.00544812998394139,-1.765179789617306,-0.327919983840551,-0.6937265704650151,0.05891662373715224
1759676512.99623,0,-1.204968228688128,-0.8300291383319397,-0.717379915040792,0.00544812998394139,-1.7653579620357178,-0.3277825660436805,-0.6935793247001155,0.05889375981574905
1759676513.006551,0,-1.204968252225246,-0.8300291177291887,-0.7173703332686885,0.00544812998394139,-1.7656253758332447,-0.3275038972686687,-0.6933264706180516,0.05879965416888464
1759676513.0179183,0,-1.2038970344886197,-0.829295861505546,-0.7166976487279668,0.006055321374430836,-1.766128540261159,-0.32704290380368056,-0.692740622050265,0.05872675904550935
1759676513.0284333,0,-1.203897062452167,-0.8292958370862841,-0.7167178993082314,0.006055321374430836,-1.7665213945372369,-0.32668697816974845,-0.6922818726426269,0.0586865908075965
1759676513.0398128,0,-1.2038970256386945,-0.829295869221691,-0.7167082643061772,0.006055321374430836,-1.766826568385897,-0.3264155395807157,-0.6919241439471121,0.058674038177014116
1759676513.0506651,0,-1.2038970405376705,-0.8292958562139139,-0.7166996728939786,0.006055321374430836,-1.7670630513639312,-0.3262105292708934,-0.6916456224880302,0.05868274771090755
1759676513.0615077,0,-1.2038970467655603,-0.8292958507765222,-0.7166720300020252,0.006055321374430836,-1.7672451447816848,-0.32605851763732807,-0.691429837118507,0.058708645658483105
1759676513.0725665,0,-1.2038970372642184,-0.8292958590710356,-0.716704670625362,0.006055321374430836,-1.767383850013485,-0.3259492419922358,-0.6912640909305152,0.05874894858580929
1759676513.083394,0,-1.2038970463404242,-0.8292958511474627,-0.7167085530824592,0.006055321374430836,-1.7674881471819415,-0.3258740667199052,-0.6911380422126239,0.058800718180867836
1759676513.0942903,0,-1.2038970460348883,-0.8292958514141504,-0.7166861517326459,0.006055321374430836,-1.7675648525303034,-0.3258265503250466,-0.6910438148281467,0.058862166551367896
1759676513.105153,0,-1.2038970477519548,-0.8292958499151402,-0.7167233283205142,0.006055321374430836,-1.7676194086037045,-0.32580148056758584,-0.6909751215928016,0.058931722771753424
1759676513.1159437,0,-1.203897052376606,-0.8292958458778057,-0.7167306002125567,0.006055321374430836,-1.7676561360881828,-0.3257946841229925,-0.6909269700178605,0.05900808687293748
1759676513.1268349,0,-1.2038970486155658,-0.8292958491611856,-0.7167127319914451,0.006055321374430836,-1.7686490407085849,-0.3249401385804257,-0.6899442631895052,0.05898371959225693
1759676513.1490936,0,-1.200004740963912,-0.8333426160749569,-0.7133645479590462,0.04304583387254013,-1.7699990365342753,-0.3238132131515071,-0.6886753871000613,0.05909707774734452
1759676513.1593857,0,-1.1986034880671714,-0.8345468987467157,-0.71094210634187,0.04304583387254013,-1.7710642169840145,-0.32292912975392474,-0.6876741430957123,0.05920494541316694
1759676513.1699393,0,-1.1980645385384416,-0.8350086225445377,-0.7091131270663003,0.04304583387254013,-1.771904095638147,-0.32223769858749685,-0.686884889037438,0.05930925937853533
1759676513.1806254,0,-1.19785659776351,-0.8351857132352463,-0.7077897453427581,0.04304583387254013,-1.772565520187064,-0.32169930238586675,-0.6862637618503578,0.059411361809770795
1759676513.1914027,0,-1.1977757180609603,-0.8352538363588519,-0.7068734199179507,0.04304583387254013,-1.7730852733360438,-0.3212827809122546,-0.6857762814371743,0.05951226169676232
1759676513.2022324,0,-1.1977439173872868,-0.8352800819838265,-0.7061847120361531,0.04304583387254013,-1.7734922840591087,-0.3209635815211098,-0.6853952973178004,0.05961270871965405
1759676513.2125056,0,-1.1977374644727046,-0.8352848759409583,-0.705722714547309,0.04304583387254013,-1.7738101190266464,-0.3207213432460929,-0.6850985924714834,0.059712270709975056
1759676513.2233272,0,-1.1977289698988811,-0.8352915577935366,-0.7053585454764988,0.04304583387254013,-1.7741822154256326,-0.32037879880851244,-0.6847385925869172,0.060212513362954634
1759676513.233844,0,-1.1977443689293317,-0.8355419061006198,-0.7049835434343271,0.04420444553822794,-1.7747498053426318,-0.31989197185060486,-0.684054199469318,0.060690227846277485
1759676513.244498,0,-1.197742773348236,-0.8355429694543758,-0.7048002298725337,0.04420444553822794,-1.7751922430268947,-0.31952153340877604,-0.6835166798745153,0.06109318497089299
1759676513.2557926,0,-1.1977352550818892,-0.8355491363514547,-0.7046743848690683,0.04420444553822794,-1.7755357040759143,-0.31924318407114943,-0.6830954436707221,0.06143905600591822
1759676513.2666066,0,-1.1977374785798942,-0.8355471035886838,-0.7045996787970794,0.04420444553822794,-1.7758017000306996,-0.31903653736909704,-0.6827654668307583,0.06173958675724025
1759676513.277544,0,-1.1977369825284234,-0.8355474272497571,-0.7045489573078019,0.04420444553822794,-1.7760063679209204,-0.31888663119225247,-0.6825078412988815,0.06200506612066022
1759676513.2883143,0,-1.1977385655310224,-0.8355460252538641,-0.7045173574645208,0.04420444553822794,-1.7761625624735615,-0.3187814649718164,-0.6823075166659675,0.06224298654684922
1759676513.2990437,0,-1.197739602806986,-0.8355451132415588,-0.7044881602015421,0.04420444553822794,-1.7762802247742795,-0.3187118578039519,-0.6821528043011564,0.06245947691478826
1759676513.3097916,0,-1.1977397998538963,-0.8355449323306189,-0.7045106932563104,0.04420444553822794,-1.7763671018770355,-0.31867072112660455,-0.6820345602506096,0.06265949744360101
1759676513.3206086,0,-1.1977391391032814,-0.8355454911194796,-0.7044743132104052,0.04420444553822794,-1.7764292437552744,-0.3186525782991001,-0.6819456131524928,0.06284709285099284
1759676513.3315823,0,-1.1977372174977388,-0.8355471267623793,-0.7045109331096521,0.04420444553822794,-1.7764713483178565,-0.3186532549191889,-0.6818803583497655,0.06302568811402609
1759676513.342621,0,-1.1886772401955341,-0.8434892002937715,-0.693630786963702,0.1038522969376298,-1.7774298083720161,-0.31784731533476335,-0.6807531332322484,0.0629291010116608
1759676513.353265,0,-1.1852839270898088,-0.8464358465745934,-0.6848496729017213,0.10479414329869187,-1.7787542868474309,-0.3167587887555256,-0.6792932826409984,0.06291408323378922
1759676513.3641572,0,-1.1839684023654058,-0.8474784605033798,-0.6784113260387092,0.10479414329869187,-1.779794363268618,-0.3159080782290846,-0.6781450938106163,0.06292658640952882
1759676513.3747594,0,-1.1834682087056958,-0.8478652199404242,-0.6738078474109956,0.10479414329869187,-1.7806114394738315,-0.315244449292966,-0.6772415356977192,0.06296058320902248
1759676513.3850157,0,-1.1832828681143726,-0.8480016190508634,-0.6704998719870442,0.10479414329869187,-1.7812532403497325,-0.31472830369805654,-0.676530453040444,0.06301124264797756
1759676513.3954353,0,-1.183204273791473,-0.848054968055166,-0.6681024255736818,0.10479414329869187,-1.7817561281363858,-0.31432965553013836,-0.6759720642262947,0.06307592957912957
1759676513.4060035,0,-1.183167720732068,-0.8480769122731304,-0.6663714633926296,0.10479414329869187,-1.7821486290639097,-0.3140249121014463,-0.6755351244158134,0.06315257605440758
1759676513.4169207,0,-1.1831419834857078,-0.8480918563760838,-0.6650713307667981,0.10479414329869187,-1.782452877335452,-0.31379583983633125,-0.675195359247029,0.06324005207950101
1759676513.4283504,0,-1.1831160213801972,-0.8481081309439714,-0.664130768075736,0.10479414329869187,-1.7826861043399247,-0.3136283197968111,-0.6749338445879787,0.06333790740579293
1759676513.438881,0,-1.1831315694338194,-0.8480934638172742,-0.6635505231911852,0.10479414329869187,-1.7828636199278771,-0.3135089551216087,-0.6747337711784009,0.06344257068735117
1759676513.448886,0,-1.1831523829194246,-0.8480756659598228,-0.6632222938359288,0.10479414329869187,-1.7829969835726913,-0.31342775495830555,-0.6745824347977529,0.06355200206427082
1759676513.4591994,0,-1.1831510105922607,-0.8480755394959105,-0.6629449895233718,0.10479414329869187,-1.7830943622399489,-0.31337808248434396,-0.6744708354269742,0.0636665158028041
1759676513.4697049,0,-1.1831446682604871,-0.8480796198537888,-0.6627322878887264,0.10479414329869187,-1.783300696763685,-0.31316461756989983,-0.6742412597560343,0.06501528634646173
1759676513.48098,0,-1.1828060639713829,-0.8485589801070467,-0.6616139283295931,0.1068190733845405,-1.7837263646356512,-0.3128009653535769,-0.6735980949018959,0.06626736932682613
1759676513.4921148,0,-1.1828004898438027,-0.8485628822637377,-0.6615350182153489,0.1068190733845405,-1.7840539717648838,-0.3125371023961818,-0.6730928442441608,0.06730305440187558
1759676513.5030963,0,-1.1828028207288281,-0.8485609076486842,-0.6615107996295958,0.1068190733845405,-1.784304921131239,-0.3123499274404591,-0.6726960300854251,0.06816901203896451
1759676513.513938,0,-1.1828078320731636,-0.8485570313899072,-0.6615315491023364,0.1068190733845405,-1.784495756121192,-0.31222188229547865,-0.6723847358924034,0.06890157461451808
1759676513.5246375,0,-1.1828139636807793,-0.8485524091288187,-0.6615907549097141,0.1068190733845405,-1.7846393101322409,-0.312139571969354,-0.6721410822481966,0.06952907337521855
1759676513.5500176,0,-1.172167762744745,-0.8562636482468892,-0.6458817292023473,0.10434994723118532,-1.7847333127792904,-0.3121120459818604,-0.671962221620289,0.07012257808102845
1759676513.5535343,0,-1.1687104526322203,-0.8587349167724206,-0.6361063383494944,0.10434994723118532,-1.7848057906351213,-0.3121001226946817,-0.6718185321347981,0.0706197500685971
1759676513.5636969,0,-1.1671886260450886,-0.8598122565705815,-0.6281133839716956,0.10434994723118532,-1.784855738149831,-0.312108572720244,-0.6717079561582109,0.07106225661078966
1759676513.57447,0,-1.1665826560452572,-0.8602301806138508,-0.6222977471376346,0.10434994723118532,-1.784887119806866,-0.31213398426093003,-0.671624427982866,0.07146404033994118
1759676513.5845528,0,-1.1663666649391917,-0.8603710434810439,-0.6182045107627697,0.10434994723118532,-1.7859493017082524,-0.31127701011985626,-0.6698132013782028,0.07165033612240473
1759676513.5947025,0,-1.165678449636101,-0.8610605518478402,-0.6135282922025619,0.10594082161739707,-1.7873956365419996,-0.3101328270214208,-0.6675621262151868,0.07214296342181618
1759676513.60587,0,-1.1656121896885432,-0.8610986735346189,-0.6112925859975239,0.10594082161739707,-1.7885283226504125,-0.30924463193166296,-0.6657910434802,0.07257530979396003
1759676513.615974,0,-1.1656166833429835,-0.8610899921745359,-0.6098485658592608,0.10594082161739707,-1.7894170613239972,-0.3085552878815372,-0.664394288481212,0.07295759293239745
1759676513.6267893,0,-1.1655960518776247,-0.8610998840408155,-0.6087445825405086,0.10594082161739707,-1.7901122824935372,-0.3080244343253243,-0.6632950061215048,0.07330359499540388
1759676513.6380239,0,-1.1655748039112181,-0.8611112274980046,-0.6079150822297738,0.10594082161739707,-1.7906540716563675,-0.3076198365247906,-0.6624319847427219,0.07362330212292499
1759676513.649473,0,-1.1655596695946258,-0.8611192487819286,-0.6073439994780798,0.10594082161739707,-1.7910741429136157,-0.3073158774219694,-0.6617567034324274,0.07392394478382787
1759676513.6600645,0,-1.1655790767929097,-0.861104716299435,-0.6071176150296234,0.10594082161739707,-1.7913988901849847,-0.3070905487768205,-0.6612288967413976,0.0742073549045998
1759676513.6709187,0,-1.1655785090072406,-0.8611042823533502,-0.6069076370462365,0.10594082161739707,-1.791647289550658,-0.3069286433145642,-0.6608193484907773,0.07447892272861988
1759676513.6817133,0,-1.165579999613187,-0.8611028392065773,-0.6068388315953988,0.10594082161739707,-1.791834724548036,-0.30681763569421683,-0.660504378024131,0.07474178456723966
1759676513.691808,0,-1.1656014614544576,-0.8610882566595817,-0.6069252034599282,0.10594082161739707,-1.7919741482302225,-0.3067465503180166,-0.6602641496539376,0.07499598166248979
1759676513.7026627,0,-1.1650937990819359,-0.8616298972237729,-0.6054051785688328,0.10722751969451212,-1.7925176850707012,-0.30627896802057253,-0.6591819044790994,0.07663157645871667
1759676513.714141,0,-1.1650697950776625,-0.8616461818229532,-0.6053393644350176,0.10722751969451212,-1.7929347492068306,-0.3059385756925617,-0.6583319591401423,0.07798738828587246
1759676513.7248664,0,-1.1650831250303746,-0.8616373472296348,-0.6054559193202246,0.10722751969451212,-1.7932540179188523,-0.3056947491863715,-0.6576632863881909,0.07912202682588804
1759676513.7428176,0,-1.1516170407525805,-0.8704413247533905,-0.5869908286081409,0.14420629722051384,-1.7934892397685676,-0.30553632938929215,-0.6571462809396902,0.08011557354055364
1759676513.7461417,0,-1.1471271989605314,-0.8732213607461825,-0.5749796119381039,0.14420629722051384,-1.7936733376569056,-0.30542267038991533,-0.6567314504400057,0.08093520897273711
1759676513.7563047,0,-1.1451094725879898,-0.8744528126482074,-0.5648970711315647,0.14420629722051384,-1.793810291919787,-0.3053533890733747,-0.6564058630027505,0.08164774428888502
1759676513.7673843,0,-1.1442885387149626,-0.8749349122407838,-0.5573926944107431,0.14420629722051384,-1.793909096636618,-0.305320103806664,-0.6561521476584782,0.08228090060330533
1759676513.7783833,0,-1.143970306653917,-0.8751077823150494,-0.5520330244744497,0.14420629722051384,-1.7939776832222423,-0.30531505817687393,-0.6559556124024949,0.08285198100614717
1759676513.7898765,0,-1.1438215639765725,-0.8751796877089458,-0.5480556657865345,0.14420629722051384,-1.7940217194474397,-0.305333130329465,-0.6558052188945569,0.08337756031941176
1759676513.80093,0,-1.1437796375584226,-0.8751912323886888,-0.545347982373696,0.14420629722051384,-1.794046450383251,-0.3053691181508494,-0.6556914431060508,0.08386608586941531
1759676513.811707,0,-1.1437728444088853,-0.8751854633123383,-0.5434872782114121,0.14420629722051384,-1.794055846574676,-0.305419200683049,-0.6556069244084514,0.08432494494953707
1759676513.822703,0,-1.142909602763143,-0.8759079595861251,-0.5396589624453175,0.14600213457248817,-1.7957147486307414,-0.3041345305416651,-0.6517302505204654,0.08502151474224579
1759676513.8336067,0,-1.1429069720472733,-0.875904530410512,-0.5387473856415155,0.14600213457248817,-1.7970111827935809,-0.3031370015554239,-0.6486773677452501,0.08564344353591768
1759676513.8448055,0,-1.1428922967298518,-0.8759095479691457,-0.5381318179384484,0.14600213457248817,-1.7980232926710287,-0.3023658806712927,-0.646272779748915,0.08621001241455685
1759676513.8556316,0,-1.142902405883794,-0.8759015839430239,-0.5377969931215002,0.14600213457248817,-1.7988130883670994,-0.30177240065103295,-0.644377024187415,0.08673236259469151
1759676513.8664556,0,-1.1429061427203153,-0.875898208062154,-0.5376086871947211,0.14600213457248817,-1.799427874362296,-0.3013194955530417,-0.6428831594691633,0.08722132222625911
1759676513.877049,0,-1.1429176114220727,-0.8758911603364463,-0.5376208976334224,0.14567288302844378,-1.7999048661451404,-0.30097776627939293,-0.6417068680916485,0.08768396856049904
1759676513.887651,0,-1.142921641569639,-0.8758887081694716,-0.5376113235492332,0.14600213457248817,-1.8002726758373964,-0.3007247028388786,-0.6407829503304887,0.08812730803841841
1759676513.8983977,0,-1.1429171405273377,-0.8758916002191708,-0.5377308924772153,0.14526886744234432,-1.800553489523686,-0.30054290909478,-0.6400605559695944,0.0885577760776949
1759676513.9089985,0,-1.1429219149625716,-0.8758892453690262,-0.5378333465998529,0.14536151762826638,-1.8007651465740073,-0.30041816319807907,-0.6394988179234361,0.08897865605547317
1759676513.919664,0,-1.1429210730894208,-0.8758901234103362,-0.5378907954910802,0.14591518241343684,-1.8009213538873747,-0.3003396523908271,-0.6390660702644723,0.08939391809161223
1759676513.9305327,0,-1.1429121718032507,-0.8758957831062313,-0.5379996330871152,0.14579919748130413,-1.801032714759645,-0.30029910793697134,-0.6387375972363585,0.08980771548241176
1759676513.9427283,0,-1.128454161613147,-0.8837842713864851,-0.5181174375975923,0.14083061969674007,-1.8015658442418274,-0.29984673776353093,-0.6372047988329624,0.08949004295424548
1759676513.9542415,0,-1.1231912035450289,-0.8865519962148708,-0.5038601727678151,0.14045758820833207,-1.8019777266732324,-0.2994994985588028,-0.6359992239821014,0.0893126252329653
1759676513.9651003,0,-1.1211946997122053,-0.8875762427809887,-0.4935653997133186,0.14004600843391674,-1.8022951022166154,-0.2992355730404815,-0.6350493963854346,0.08924252986554716
1759676513.9759107,0,-1.120424560060318,-0.8879533706394162,-0.4860777748031443,0.14043698266712856,-1.8025379429658759,-0.29903873955613536,-0.6343011217673298,0.08925815209533677
1759676513.986838,0,-1.120118623120726,-0.8880905086507044,-0.48067010057830556,0.14071868883670174,-1.8027216224968694,-0.29889639341071383,-0.6337123837213025,0.08934377317151226
1759676513.9974625,0,-1.1200100792668353,-0.888129988941515,-0.4770000762051527,0.13968641060719747,-1.802858584685031,-0.2987978618392233,-0.6332496948377567,0.0894843596198562
1759676514.0081203,0,-1.1199638544084394,-0.8881410791094462,-0.47430380065195027,0.13991320755142378,-1.8029582177922403,-0.29873515972065995,-0.6328873164759137,0.08967034817040474
1759676514.0188184,0,-1.1199421245452645,-0.8881428225553775,-0.47236594467110626,0.14041365746355033,-1.8030278821958403,-0.29870193239017623,-0.6326050137478956,0.08989432233745079
1759676514.0289154,0,-1.1199582427970745,-0.8881291115648908,-0.47130010021194085,0.13925015364374063,-1.8030739876302257,-0.2986921317354044,-0.6323860850500432,0.09014613430159396
1759676514.039317,0,-1.119950313038412,-0.8881286892060208,-0.4704111431698665,0.13963484343589355,-1.8031007257778673,-0.29870224522605976,-0.632218421329003,0.0904238070242575
1759676514.0509934,0,-1.1198918672392493,-0.8881536174373172,-0.46965079684242383,0.13896716897024192,-1.803110468524623,-0.29873097588063524,-0.6320934671434341,0.09073264071280958
1759676514.0618808,0,-1.1188870380114644,-0.8888726654593563,-0.4663098501988767,0.13991145771487531,-1.8048137331762695,-0.29746453931287903,-0.6265739018653802,0.09033972459752412
1759676514.07273,0,-1.1188926692685615,-0.8888687220234234,-0.4660867771303336,0.14025256845929138,-1.806145870908849,-0.29646822999378536,-0.6222229535848751,0.090098196161214
