timestamp,observer_vehicle_id,vehicle_0_x,vehicle_0_y,vehicle_0_theta,vehicle_0_velocity,vehicle_1_x,vehicle_1_y,vehicle_1_theta,vehicle_1_velocity
1759676509.7386713,1,0.0,0.0,0.0,0.0,-1.735,-0.35,-0.7801621756414646,0.0
1759676509.749513,1,0.0,0.0,0.0,0.0,-1.735,-0.35,-0.7801621756414646,0.0
1759676510.5372598,1,-0.23665394448219673,-0.16300640431939256,-0.1409522199509837,0.0,-1.7350000141675657,-0.3499998760338013,-0.7230012395177585,0.0
1759676510.664453,1,-0.4230775793320616,-0.2914143480936573,-0.25198702750897395,0.0,-1.7350000142591175,-0.3499998752327211,-0.7180961326110413,0.0
1759676510.7828548,1,-0.5722068191175835,-0.3941340437636831,-0.34080911519216994,0.0,-1.7350000142878588,-0.3499998749812348,-0.7176961669199518,0.0
1759676510.8947146,1,-0.6921964630943596,-0.4767824883649931,-0.41227552039686793,0.0,-1.7350000142985407,-0.34999987488776885,-0.7176726462818905,0.0
1759676511.0077593,1,-0.7889482510943358,-0.5434247795292324,-0.4699013475626159,0.0,-1.7350000143026045,-0.34999987485220946,-0.7176773893583678,0.0
1759676511.1171815,1,-0.871841179307965,-0.6005211368334554,-0.5192727716287275,0.0,-1.735000014304156,-0.3499998748386348,-0.7176825332095937,0.0
1759676511.235944,1,-0.9376021794651919,-0.6458170823691656,-0.5584403374964303,0.0,-1.7350000143047486,-0.3499998748334502,-0.7176865469268989,0.0
1759676511.356543,1,-0.9900771681054974,-0.6819616699173383,-0.5896946914305569,0.0,-1.7350000143049749,-0.3499998748314699,-0.717689733535984,0.0
1759676511.4794855,1,-1.0315571512531412,-0.7105329363668399,-0.6144003675644683,0.0,-1.7350000143050612,-0.3499998748307135,-0.7176923510828191,0.0
1759676511.5918348,1,-1.0649469659898028,-0.7335317232791929,-0.6342875007419106,0.0,-1.7350000143050943,-0.34999987483042455,-0.7176945477017806,0.0
1759676511.7037144,1,-1.091694638484806,-0.7519554259851124,-0.6502185422672978,0.0,-1.735000014305107,-0.3499998748303142,-0.7176964053556745,0.0
1759676511.8182707,1,-1.113223188402831,-0.7667842154228977,-0.663041049451409,0.0,-1.7350000143051119,-0.349999874830272,-0.717697971348791,0.0
1759676511.9430609,1,-1.1313873395130893,-0.7792956187991472,-0.6738597046321538,0.0,-1.7351287384762952,-0.34990195266393553,-0.718101720203147,0.002729283098368067
1759676512.0582955,1,-1.1457925075056323,-0.7892178478294681,-0.6824394915093953,0.0,-1.735168094846531,-0.3498965582408623,-0.7183160515181191,0.0033898734435613164
1759676512.1843886,1,-1.1572783197396779,-0.7971292348847567,-0.6892804961496145,0.0,-1.7388653194998258,-0.3471983390501183,-0.7155324887951643,0.048667777291700756
1759676512.297978,1,-1.1664918331507648,-0.8034754705056161,-0.6947681087549415,0.0,-1.740753201722881,-0.345732758347596,-0.7131078873620176,0.05279075302836866
1759676512.4187932,1,-1.1738092716839361,-0.8085156964216906,-0.699126410104459,0.0,-1.746436094603119,-0.3409618094893895,-0.7090800623605591,0.05190201762319674
1759676512.5270772,1,-1.179749870091098,-0.8126075597032251,-0.7026646588970532,0.0,-1.749186729480831,-0.3386125138184597,-0.7057855515722644,0.05195526010670712
1759676512.64244,1,-1.1845490109756633,-0.8159131910592833,-0.7055230501358603,0.0,-1.7549745310096991,-0.3337406603079455,-0.7011453510806395,0.0539418900873878
1759676512.7649271,1,-1.1885907720013917,-0.8186971418333292,-0.7079303423123513,0.0,-1.7577215809069873,-0.3314112021797203,-0.6975277193540902,0.05420809208383818
1759676512.8894522,1,-1.19177222384378,-0.8208885146687903,-0.7098252302291065,0.0,-1.7640463598831575,-0.3261191996721528,-0.6924100666055203,0.05121321618030119
1759676513.0026891,1,-1.1943029157585388,-0.8226536609132391,-0.7109456865529686,0.0062840561328528655,-1.7670654341665404,-0.32357841036387974,-0.6884364137417512,0.05103759017422532
1759676513.1190476,1,-1.1962132156993082,-0.8240617922500204,-0.7117859203712006,0.01142126461232421,-1.773143721479793,-0.31860423308562213,-0.6831091492123367,0.05201383040545195
1759676513.2194011,1,-1.1964570247663844,-0.8264937311768727,-0.7102054494282466,0.023007381269202338,-1.7759861692362728,-0.3162605724068826,-0.6790154707153434,0.052603595040290094
1759676513.3393106,1,-1.196631724200073,-0.8285837718597093,-0.7088631643184067,0.032425844879822946,-1.7818124813658625,-0.3115858329100371,-0.6731789080952542,0.05298643696734329
1759676513.461805,1,-1.1936629143341109,-0.833074784699789,-0.6993127445184106,0.052675145738309254,-1.7845814932164232,-0.30934706266366324,-0.6684549191650458,0.054428348835792464
1759676513.5798795,1,-1.187800471063252,-0.8393740755962068,-0.6820636181848785,0.06858388960042676,-1.7908460084606816,-0.3044790559308079,-0.6600746584213268,0.057537382238801824
1759676513.6950223,1,-1.1829826756815696,-0.8446334437521599,-0.6667710813652578,0.08145087037157728,-1.7938517206955067,-0.30211275251540043,-0.6530160259346279,0.059360599676045664
1759676513.8132157,1,-1.1746636422620576,-0.8517887876256731,-0.6416805472849693,0.09940924389132066,-1.8002131232127827,-0.2973199107034493,-0.6402561937301482,0.05930921007075808
1759676513.9305327,1,-1.167837466112479,-0.8577422376275012,-0.6210427923607328,0.11398594385013222,-1.803223144108969,-0.2950233210236532,-0.6301375016536414,0.059816107384965594
1759676514.0490508,1,-1.1577795150200654,-0.8650038057183662,-0.5912405333480119,0.12316281468074747,-1.8096999710519615,-0.29041133809655817,-0.6118858212069422,0.060395746157309194
1759676514.163897,1,-1.1451851125854757,-0.8729425813055437,-0.5571715585239827,0.12914680093096645,-1.812734238833927,-0.28818662788584815,-0.5973068452109631,0.06041025559924962
1759676514.27996,1,-1.1341608121745028,-0.8796733390075935,-0.5256207871105879,0.13230341610583643,-1.8192880366165192,-0.28379545355227714,-0.5765917792273159,0.059278136337349165
1759676514.3971279,1,-1.118542112810769,-0.887572257253103,-0.4891652776941126,0.1449524765081519,-1.8223851697295739,-0.28166296920731554,-0.5603003126733018,0.05918279295660688
1759676514.5162144,1,-1.1057914310750276,-0.8939865211631645,-0.45912937479960675,0.1542050446609571,-1.8277983220997076,-0.278136520545697,-0.5430380611759733,0.04545606321052197
1759676514.6289933,1,-1.0894103157284456,-0.9010545584577402,-0.4292792666606446,0.1539243884971428,-1.8303118050095695,-0.2764793264610443,-0.5300339106607503,0.04419855223719633
1759676514.7541783,1,-1.0740333859017754,-0.9073602060303739,-0.4051842016894554,0.15775145023885828,-1.831222802688368,-0.2756976394636537,-0.525493557038847,0.020621980846291584
1759676514.8661213,1,-1.0566842133240664,-0.9139423209035111,-0.3849337105751963,0.16526005764539,-1.8315149245563596,-0.27543241575178284,-0.523689359725813,0.018414756263358173
1759676514.9882526,1,-1.0354450274829465,-0.9215047352219813,-0.3700537055871634,0.1655623867267359,-1.8238275617817536,-0.2804406275437366,-0.5359412624791565,0.06113841872222167
1759676515.0916927,1,-1.0178904172052226,-0.9277030653365488,-0.3585191675845869,0.1660771579767289,-1.8200905229712838,-0.2829072291430783,-0.5493307242205128,0.06489355050289727
1759676515.2174935,1,-0.9963667940859643,-0.9351947845103783,-0.35266642039261525,0.1761733647621011,-1.8088271204504442,-0.2909712317053179,-0.5775598818639495,0.09448216759205694
1759676515.3236687,1,-0.9786995826264658,-0.9413655278960766,-0.3481328889555603,0.1848435634317235,-1.8035535546623795,-0.2948906143838783,-0.6030936545346018,0.09604937728176201
1759676515.4506323,1,-0.9569272675404522,-0.9490071867017595,-0.34707486171717555,0.18684694002929644,-1.789318369093659,-0.3065381909457452,-0.6433597627638062,0.11838548541205743
1759676515.5572386,1,-0.9366999836395702,-0.9561589508428041,-0.3462851839308749,0.19448764742781013,-1.7827033977862787,-0.31222515510515814,-0.6769121046083132,0.11867826481620848
1759676515.6703236,1,-0.9148120908394209,-0.9639959406498954,-0.3460688908524718,0.20680966825253175,-1.7685362149539279,-0.32529177898021605,-0.7135304547651652,0.1295409068206754
1759676515.7838044,1,-0.8936459068589493,-0.9715979760779734,-0.34538018275462934,0.21157952448501802,-1.7619377846628679,-0.3316643486209661,-0.7413341466648469,0.12929797579978788
1759676515.8977735,1,-0.8724428573474442,-0.9791943163936426,-0.343745559428341,0.21048470365100228,-1.7469801432638723,-0.34645072999860493,-0.7662587025335824,0.13447664179293592
1759676516.000646,1,-0.846213232808091,-0.9884246404484385,-0.3394042080023915,0.2160436858372915,-1.7401221511501244,-0.3533933084426688,-0.7830655682737234,0.1337976300252967
1759676516.1145425,1,-0.8243781359012013,-0.9960988005620885,-0.33488671052870517,0.2207433301675776,-1.7216895029185255,-0.37242638812736506,-0.7941330601575199,0.1673685280933694
1759676516.2166164,1,-0.7982296287056894,-1.0049691112981942,-0.32689565880179705,0.23035064733453775,-1.7131071220437428,-0.38128587898101984,-0.8000342781140941,0.16978115719077388
1759676516.3280184,1,-0.7769302557783693,-1.012190014196161,-0.3200472753497897,0.23820775087595805,-1.6943134399632171,-0.4004262885374282,-0.8000592429037496,0.18520767950884362
1759676516.4343653,1,-0.7511955062171756,-1.0203938375857635,-0.3089114409004281,0.2383892229972313,-1.6854276098471999,-0.40937865012444197,-0.7978694311863523,0.1864652414012257
1759676516.5426543,1,-0.7302411736440871,-1.0270205885436086,-0.2996525128195133,0.23860737820182526,-1.6669533515098485,-0.427346405726559,-0.7913486835544489,0.17622583722448912
1759676516.661813,1,-0.7040819415644668,-1.0345787676803522,-0.2849127671316482,0.2430269742597053,-1.6580481930543192,-0.4359249463616865,-0.7847799962432237,0.17529085774054487
1759676516.7749321,1,-0.6751804272477596,-1.042182241228617,-0.26717395659856324,0.24602979878107772,-1.6373425881729908,-0.4556519969005515,-0.7752060025947618,0.18126088121780679
1759676516.9105613,1,-0.6505422087841418,-1.0484825539109222,-0.25009903646163395,0.24852894544034557,-1.6271629943666024,-0.46525561290000483,-0.766914468468133,0.18188305162217525
1759676517.0253115,1,-0.6219122163461321,-1.054779333656739,-0.22748861695495223,0.25209367254311893,-1.6028942924784437,-0.48784217875547253,-0.7559993720340651,0.19533796774824833
1759676517.1532362,1,-0.5975475524330304,-1.060005708005115,-0.20775719166868664,0.25415387447447557,-1.591036108110328,-0.49872946800679535,-0.7476364098266233,0.19679670085376114
1759676517.270153,1,-0.5675620256681815,-1.0650585512243982,-0.18132011895020658,0.25790897401341095,-1.563709265420686,-0.5234721503921447,-0.737106710495364,0.2140697600189785
1759676517.3910754,1,-0.5354649222866081,-1.0693835677838104,-0.15504545984325863,0.25000104851833554,-1.5505901631918992,-0.5351578208660601,-0.7290770623039609,0.2154155660702049
1759676517.5118697,1,-0.5089969589694245,-1.0727573357710467,-0.13242153958860928,0.24343063660290923,-1.5205004370032493,-0.561658416228642,-0.7177358765230546,0.24129734572464115
1759676517.6290705,1,-0.4774281721171391,-1.0756178023953409,-0.11061933163757129,0.2518894113578645,-1.5059622917834379,-0.5742215925775406,-0.7092644975076773,0.2434516839281246
1759676517.7499108,1,-0.4518703022368557,-1.0778483418903888,-0.09297384809052807,0.2589874478263346,-1.4789016752057431,-0.5966441277647625,-0.6965039252036413,0.22370741097093877
1759676517.8667405,1,-0.41951031251838566,-1.0797987461908596,-0.07696330438568329,0.26137282934640704,-1.4658726372885598,-0.6072480205082164,-0.6868096944133384,0.2215319505627911
1759676517.9873002,1,-0.3841386390126372,-1.0814126014006704,-0.06425100291418727,0.2626045428106502,-1.438470616262641,-0.6287448534406919,-0.6699242250203752,0.208314349795127
1759676518.1084073,1,-0.3549707763289385,-1.0826650871350871,-0.0541183279382641,0.2637729701054714,-1.4251270869778974,-0.6389726575845444,-0.6563062792438684,0.2072041608418344
1759676518.2306118,1,-0.3214330048365633,-1.0837506592372477,-0.04564265587273665,0.2654269104567574,-1.3912764570529084,-0.663667883477208,-0.6297870348669471,0.250445053228797
1759676518.3532662,1,-0.29431478891730417,-1.084590924559031,-0.038800804600559166,0.26670685550625567,-1.3747023610655689,-0.675233826632185,-0.6072036537371377,0.25512301798184206
1759676518.4778962,1,-0.26101582684402724,-1.0853323448331362,-0.031699937393930844,0.26468555523434245,-1.3397513148077151,-0.697290527904813,-0.5753607149450806,0.24500920505540727
1759676518.6125002,1,-0.2251448047853803,-1.0858773316076133,-0.024528728737222973,0.2654464482338365,-1.322705066203311,-0.7075332698032216,-0.5497469684761087,0.24446004096616902
1759676518.7386127,1,-0.19621425106172288,-1.0862779796624653,-0.0185012680074166,0.26572634611022966,-1.283709802830342,-0.7293725489046038,-0.5176670330054448,0.24817118553526238
1759676518.8609612,1,-0.16034597116545052,-1.086461235736607,-0.01177263044933499,0.27331720849679064,-1.2648273013178255,-0.739468241308493,-0.49334283492615205,0.248913505491201
1759676518.9866369,1,-0.12238366393416088,-1.0864353662624637,-0.006130921765078667,0.27740480671429996,-1.2274753120036836,-0.7584779002909183,-0.46875593730391135,0.25572512948203346
1759676519.1033328,1,-0.08973657286572706,-1.0863555990900817,-0.001486009685038596,0.2807641709196105,-1.2094714006736207,-0.7672941935220994,-0.4515857487915173,0.25632934400707513
1759676519.234631,1,-0.05400235248058484,-1.0861517102019096,0.0013207475426962978,0.27830859117481466,-1.1733764499551325,-0.78430264124856,-0.43283750291565176,0.23877392456648328
1759676519.355613,1,-0.02357061914765269,-1.085963387344146,0.003653280656327954,0.2762877007027527,-1.1561925180042079,-0.7921622311445201,-0.4200220318419548,0.23742436114259047
1759676519.4775214,1,0.011463356681101568,-1.0857434026828623,0.004162677021822485,0.27413430905869063,-1.1159910508488953,-0.8096362919523384,-0.39954482967332366,0.2536768479368296
1759676519.604542,1,0.043556870805940756,-1.085567670192992,0.004220367963153073,0.27187993024100826,-1.0964937528490175,-0.8177834719646448,-0.38364727268572096,0.2556496343372576
1759676519.7285202,1,0.07581091962901505,-1.085422934058577,0.0035525470608639524,0.2693664573395535,-1.0556669185853236,-0.8334481508760736,-0.3612562247504602,0.2563173480037153
1759676519.8495004,1,0.11373587398734604,-1.08537164375686,0.0023861011142249453,0.2782735263828197,-1.0360456503920357,-0.8406365092872059,-0.3438035487100021,0.25645120605885136
1759676519.9730148,1,0.14718720503762125,-1.0853500904995463,0.0015432872580536335,0.28341563060114233,-0.992407737692697,-0.855424888252441,-0.32061470017517923,0.26764582062096937
1759676520.0941143,1,0.18115255480994338,-1.085365563988364,0.0012507806797419736,0.28578379879155164,-0.9713189088443773,-0.8622154731877586,-0.3031280420140455,0.26910927493447623
1759676520.2231133,1,0.21991379690493554,-1.0853744014130302,0.0019144489457174358,0.2806081337706448,-0.9287798448572092,-0.874919707346144,-0.284147716209734,0.26347474412494065
1759676520.3367374,1,0.25150299005245536,-1.0853759392997406,0.002667959915062636,0.27612179358336364,-0.9082208904222328,-0.8807973780109358,-0.2704806492798637,0.2632506577252474
1759676520.4708421,1,0.28714420962351217,-1.0852993934961177,0.004343512593704742,0.280903766819997,-0.8666644846737334,-0.8922377189956777,-0.25706411433689796,0.26587579755398205
1759676520.5911503,1,0.32094953250685404,-1.0851789996192596,0.00580498080213855,0.285348419967087,-0.8467757612947767,-0.8975319631012613,-0.2486173546104493,0.26630771656935215
1759676520.7156763,1,0.3566188416315209,-1.0849996593033346,0.007307673359676347,0.28995184163929205,-0.8032189013815448,-0.9086916396637743,-0.23798531005774426,0.26738614086721735
1759676520.839242,1,0.39571779160480236,-1.0847656188943418,0.007766154986061262,0.28834411612786875,-0.7822563733380801,-0.9139064030978076,-0.23049707339820688,0.2673290183275444
1759676520.9735022,1,0.426779482835802,-1.0845773274436161,0.008106214882446762,0.2872613071488793,-0.7316647513277289,-0.9257233413883353,-0.21724554527352574,0.28757816704611916
1759676521.0989428,1,0.4642156982594461,-1.0843978861570256,0.007147354151747125,0.28773869603071633,-0.7073595376493361,-0.9311725575215064,-0.20722285572179372,0.28961043000834014
1759676521.2217855,1,0.5037504824553969,-1.0842934372177797,0.0056880208970236735,0.2838027648450264,-0.6599640597120044,-0.940856065483884,-0.19344158235020628,0.28322779522102415
1759676521.336958,1,0.5360413843493039,-1.0842188186825499,0.004371337811462647,0.2808258112779689,-0.6372361124445094,-0.945283619881386,-0.18341120175584055,0.28297907744213124
1759676521.475586,1,0.5754225436420248,-1.0842564314311236,0.002512686156433895,0.2879780777532431,-0.5883138772139436,-0.9539942504086036,-0.169732541217538,0.2904255883807365
1759676521.5894907,1,0.610664631152183,-1.0843243841307753,0.0010415277418370074,0.293560670239218,-0.5650469185730032,-0.9579122893139944,-0.1598194247418606,0.29142302546359183
1759676521.7099106,1,0.6465847303060851,-1.084451004053851,-4.953257370899104e-05,0.29754147988467944,-0.5201735997969041,-0.9649087757307822,-0.14857026187058134,0.28300340886190056
1759676521.8239996,1,0.6857841808661962,-1.0846102853674147,-0.00030248022170378374,0.2910020809317658,-0.49919895357231775,-0.968023597123557,-0.14053485823535958,0.2824374386770693
1759676521.948836,1,0.7178454308033488,-1.0847402523691263,-0.0002383069788407326,0.28556046995109946,-0.45040747103965145,-0.9749768221143668,-0.1320962821432367,0.3031829219188068
1759676522.0778613,1,0.7551998642204976,-1.0848331143832628,0.0008971785851749664,0.29047373611532884,-0.4271883258552409,-0.9781599861695852,-0.12655498598673576,0.3051943314502975
1759676522.2039866,1,0.7969735229679166,-1.0848552917689545,0.002325152827601602,0.2934931059243416,-0.37855957899690706,-0.9846026878063782,-0.12140235532662938,0.2945254191002218
1759676522.315764,1,0.8316044666666309,-1.0848601249260847,0.003642132402522264,0.29586354907184903,-0.35537584168310016,-0.9876040334978917,-0.11837894250320588,0.29357532980318285
1759676522.4450893,1,0.8699779469661467,-1.0847891288297147,0.004794313406849149,0.28767193635350113,-0.311005895380021,-0.9932278858538623,-0.11485405953034532,0.2696251927783331
1759676522.5678837,1,0.9010708659210716,-1.0847246303818925,0.005736032508331861,0.28107246620426257,-0.28961596779104476,-0.9958974650839468,-0.11326802186873045,0.26735904542703637
1759676522.6918623,1,0.9386776223707088,-1.0846071202641125,0.006155350782312203,0.2864953197879169,-0.239790554064465,-1.0018803219158485,-0.1090710180009925,0.2928447831998135
1759676522.81066,1,0.9794422249513084,-1.0844914984163567,0.005874483720198898,0.29322440846406966,-0.21579464352880037,-1.0046830497394093,-0.10597637703404104,0.29502825590558124
1759676522.932796,1,1.0130027899676377,-1.0844001005554742,0.0054553293899571205,0.29875506859239054,-0.1630253560343108,-1.0103391076946897,-0.09919612812956363,0.32382335388520206
1759676523.052845,1,1.0501245294343304,-1.0843534798645766,0.004463689139938842,0.2985791929012726,-0.13776751288307354,-1.0129081023722053,-0.09385491746320285,0.3266320279047597
1759676523.1807668,1,1.0815653727941474,-1.0843209844545367,0.003582895591877266,0.29940376096037924,-0.09042835964827757,-1.0171678379890272,-0.08656049820839161,0.2900347225592397
1759676523.3001149,1,1.1185514757682011,-1.084324840722319,0.003649639099960761,0.30287643278335286,-0.06779890924128497,-1.0190929024468283,-0.08082080112438143,0.286810783230422
1759676523.4249818,1,1.15714055902758,-1.0842021773698305,0.007010147201447625,0.29502568296536946,-0.022491354988430343,-1.0227194153488675,-0.07483212836453072,0.2729674631285439
1759676523.549813,1,1.1881553910362048,-1.0840796259378487,0.010215877925089253,0.2890571647386383,-0.0007552798734233794,-1.024387462518684,-0.07153656789462118,0.27185377972541347
1759676523.6749115,1,1.2276794088449625,-1.083274570615958,0.021999868664022346,0.30036462530675695,0.0495742852293774,-1.0283903269898504,-0.07014447464426804,0.29548094361280614
1759676523.7900503,1,1.2596646214045537,-1.0825513301074599,0.03189099995670623,0.3092551509466959,0.0737773169364189,-1.0303082798925645,-0.0711117532314057,0.2977862730614704
1759676523.9228249,1,1.2954877829509133,-1.0807484164825265,0.050393154805743766,0.30798993475295094,0.12339614025783918,-1.034846355114777,-0.07739054779611211,0.3082455530496981
1759676524.046129,1,1.3354816464077521,-1.0773603021191458,0.07591330529718003,0.30345854677861944,0.14663048121283515,-1.0370956771688122,-0.08379935020451117,0.3093351917186985
1759676524.1660836,1,1.367945959871264,-1.0744269367502084,0.09839530350939685,0.29954169193828095,0.19558777403819932,-1.0428522019753148,-0.09913245385495027,0.29621070863906035
1759676524.2834883,1,1.4046048224911656,-1.0694157741902475,0.12804711520625664,0.30377818171314236,0.21872597895776336,-1.0458350998256183,-0.11260946380793303,0.2946940853142101
1759676524.4158623,1,1.4458072579320151,-1.0618116172933139,0.16260061394022868,0.3068882757445885,0.2660161990608551,-1.0528641855251273,-0.1291044999435873,0.28498763745515954
1759676524.5351155,1,1.479774512523777,-1.05520737259575,0.19357924031199272,0.30936439715659997,0.2884866292634968,-1.0564477133445522,-0.14218526442763652,0.2836947286940352
1759676524.6643333,1,1.5167620974742697,-1.0459645327381109,0.22850859967513137,0.3117206139425624,0.33420020737405737,-1.0640551944290202,-0.15265142385551866,0.27584627134007494
1759676524.7898607,1,1.5481781723180215,-1.037919610856194,0.2586269742250114,0.31369810014521043,0.3560608750317687,-1.0678199659563068,-0.160666013639325,0.2748675151054589
1759676524.9117506,1,1.5835187946714238,-1.0267129325172857,0.2932716269722884,0.3131874807889191,0.40489485689469445,-1.0760822073318583,-0.16388695151306104,0.28988863981295426
1759676525.037568,1,1.6201398765228663,-1.0133358194801785,0.3284434271256867,0.302070520032319,0.4282784335306623,-1.080044400580462,-0.16530274342811418,0.2909593405414784
1759676525.1606393,1,1.6497001758846035,-1.0023096209423323,0.3581599740111914,0.29354296975201555,0.4793449942900872,-1.0880692160495598,-0.15945381694794203,0.3021698026354574
1759676525.274673,1,1.6844154548218795,-0.9868977377259943,0.3932775248478297,0.30681513127196497,0.5037209517313871,-1.0917614119255532,-0.15349904867579067,0.30315906028370154
1759676525.3854265,1,1.712744906260525,-0.9740419509397212,0.4222238712029334,0.31814927439271723,0.5468425260970879,-1.0975659345507147,-0.14278779851054077,0.2882986735381063
1759676525.4994714,1,1.7446011452455668,-0.9575472420132705,0.45684844884226966,0.3128828007804755,0.5671875897528912,-1.10013559192485,-0.13373124946519702,0.2870427888167344
1759676525.5990357,1,1.7707785529157514,-0.943804506129069,0.4857101366594037,0.3087574092417114,0.6058841061959507,-1.1045232973065022,-0.121836194391687,0.26685786216991814
1759676525.7054172,1,1.8006894369643012,-0.925770147386796,0.5220664905883997,0.3130617285043533,0.6243371232646592,-1.10646392691119,-0.11247016554313127,0.26507137649628626
1759676525.820807,1,1.8281361361925397,-0.9079895168652481,0.5549457287420294,0.31582011796653836,0.6653540489485752,-1.1104534377748378,-0.10065561969393076,0.27466931031516495
1759676525.9318774,1,1.8546945811141637,-0.8893974720601768,0.5916805675866109,0.3172111320599868,0.6849107874895919,-1.1121900040118737,-0.09179437869192152,0.2754771524682447
1759676526.0392675,1,1.8844901467353676,-0.8661078860667963,0.6349269942795701,0.31167280825875604,0.7237666898829044,-1.115287381789428,-0.0807637325880863,0.2645309246905682
1759676526.147617,1,1.9085824907173923,-0.8469270402767408,0.6722533968880033,0.3068940263030306,0.7422844102767272,-1.1166202141967854,-0.0726246793905212,0.26351495018371973
1759676526.2703404,1,1.935338663436953,-0.8221401021897798,0.7163306629652701,0.31096797758840883,0.7827093728870503,-1.1191518710409212,-0.061029346716843104,0.25777523163524085
1759676526.403881,1,1.9563747490077117,-0.8021886392686699,0.7521697514293433,0.31413981612717407,0.802091982601097,-1.120211222009888,-0.05229834586451563,0.25731421598624343
1759676526.5251725,1,1.9791115805642512,-0.7775641009242112,0.7935848407898801,0.3113357597292425,0.8509135426032866,-1.1218585090170434,-0.03478690186771089,0.2846391114232484
1759676526.632607,1,1.9998294569078199,-0.7536429483682019,0.830608296603984,0.30779761358873475,0.8738458733718335,-1.122351444817411,-0.02039105894104395,0.2873772957667889
1759676526.750452,1,2.0193717128204307,-0.7293558211322112,0.869053509863501,0.30407338890504215,0.9150372885413737,-1.1221972788572767,-0.000995752833900495,0.2699756219904145
1759676526.8474936,1,2.040816326946278,-0.6991163776783227,0.9113573400011077,0.30470433192265106,0.9332585200566013,-1.1218692816996474,0.01332902425020138,0.26840001699146804
1759676526.9451003,1,2.05862966896808,-0.6733893012247303,0.9493455725221122,0.30528502135345637,0.9410255235077541,-1.121553071055333,0.022171923006436015,0.26770222873821525
1759676527.0662687,1,2.077068488900587,-0.6426177037147044,0.9908976517951416,0.3141706262471466,0.9910743221525902,-1.1190655714150959,0.04765991073593197,0.2578440789712406
1759676527.1808302,1,2.091708652010223,-0.6175048069335165,1.0249620384198537,0.3214674052226581,1.0156387289424378,-1.1174887507151798,0.06948790060843284,0.2577125358906694
1759676527.2930226,1,2.1071634837464694,-0.5873841519023306,1.0639455704879028,0.3126596016920566,1.0603931433183602,-1.112729119867887,0.09916963095068985,0.28039464955583593
1759676527.3882751,1,2.119741417246541,-0.562661853466687,1.0963189648305258,0.3053570124586278,1.0809210183824294,-1.11008945385557,0.12251380490009989,0.2830891065415771
1759676527.4821455,1,2.1325613715639644,-0.5324023336342636,1.1333579577283555,0.30785862694624044,1.088317820274944,-1.1088632062193597,0.13498900180775078,0.28312124580198295
1759676527.5856225,1,2.142859698021944,-0.507483808712742,1.1645012513069284,0.31010929918915264,1.1308452016062487,-1.1019669386580138,0.16083871873296474,0.24948334730701155
1759676527.7008178,1,2.1534055312987412,-0.4768627931731418,1.2013617038979922,0.30963506261432455,1.1513385825635525,-1.0983179636118863,0.18078561973777538,0.24682904005153197
1759676527.8282058,1,2.1639114565993807,-0.44052909589928624,1.2426219003686778,0.31325380285133914,1.1932614754657827,-1.0895678391241943,0.2075400235251256,0.2580496498011172
1759676527.9466326,1,2.1721082622391976,-0.41056224241745304,1.2788720251659291,0.3155513492939505,1.2130405163838929,-1.0850660453311436,0.2272360889923162,0.2590688895977335
1759676528.0630062,1,2.1797039284514055,-0.3754491420606031,1.317155882649665,0.306597256109665,1.2493595885762478,-1.0759069002508845,0.25127967167926646,0.23767852566298633
1759676528.1765745,1,2.18571497142229,-0.3469864733459562,1.3492723265800035,0.2987421130850867,1.2667247920882674,-1.071226875694771,0.26951946817457284,0.2360035294519628
1759676528.2969863,1,2.190889809869616,-0.3140500174084419,1.3803707377391903,0.3022149872253222,1.3052375037230048,-1.0593616472401346,0.29852831525742035,0.24796251639733197
1759676528.4131467,1,2.1949444625984893,-0.28371512028155577,1.4059920569524473,0.3075164714732146,1.3235731323838795,-1.0533007824720821,0.3220808365670278,0.24970806737207973
1759676528.5403228,1,2.1986467990442344,-0.24971270203658041,1.429981192768022,0.3145589572941611,1.359392296016638,-1.0399575718084828,0.35418561268090487,0.22886305870406928
1759676528.6534653,1,2.2020082728996586,-0.21200510428656866,1.4498750471508308,0.30592113485889694,1.3761255278566333,-1.033318987664089,0.37889756234763167,0.22656966893714536
1759676528.777532,1,2.204635130417186,-0.18164738840424946,1.46578439867653,0.2993159004036948,1.4148604270972422,-1.0158361155353224,0.4190974846290155,0.2554814404633053
1759676528.8864686,1,2.2070704189948303,-0.14623365280657674,1.47892904634907,0.30116560223511574,1.4329981498138429,-1.0070528423755793,0.45061207896405236,0.25841687786289574
1759676529.0077913,1,2.208868567827823,-0.11767051445000846,1.4894935327986127,0.3028770367945442,1.4667058943426152,-0.9888630519197222,0.49124311424985345,0.24002435692240642
1759676529.1220477,1,2.2109871710087696,-0.08067440711125927,1.4992567756028436,0.3066065486874162,1.482380669497419,-0.9798357934778001,0.5214672502182387,0.2385084015580295
1759676529.2554414,1,2.2128854403293974,-0.041746729373701504,1.507855355644062,0.2994024876047298,1.5160656744408263,-0.9587687332668413,0.5597843908637806,0.23393812957081556
1759676529.3659084,1,2.214476172594671,-0.010084423965408248,1.5149339959370844,0.29350233270986265,1.5318506775471266,-0.9483834498371425,0.5887693894849381,0.23423361617538993
1759676529.5015135,1,2.21602844532808,0.02897544373024266,1.522439722139977,0.3037534228398828,1.5678187471594296,-0.9218736387238053,0.6299038229522304,0.26815393079475197
1759676529.6236613,1,2.217308998471746,0.06979440273427386,1.5292326659607491,0.30421491811475493,1.5845596094344927,-0.908841458221859,0.662610203610528,0.27217697528215434
1759676529.7546165,1,2.2182001776298503,0.10424574645636081,1.5350527519653054,0.3046197715220217,1.6169283621891621,-0.8813612485962864,0.7043763027201012,0.24253220068914738
1759676529.8803172,1,2.218932421651075,0.14260177168551236,1.5405576415632476,0.3029185855073823,1.6320257166316672,-0.8678565839044445,0.7363125209688606,0.23981438993338036
1759676530.0084467,1,2.219733175584712,0.17511985899034857,1.5452601452190236,0.3014498206761887,1.666270588035437,-0.8339733333070596,0.77876910495028,0.2742663301032434
1759676530.1317842,1,2.2203396092021355,0.21236626562802474,1.5498699634811397,0.3010793930380223,1.6823162516584282,-0.8172395102948704,0.8110078011307481,0.2780320615874458
1759676530.2582295,1,2.2209560584910117,0.25180835889895564,1.554293401253321,0.2910008086234711,1.7120863530158976,-0.7841108552304745,0.847257584103656,0.26371258134839004
1759676530.3773162,1,2.2215319931337945,0.28383762858535444,1.5579998337320957,0.2825614744809089,1.7260521998611231,-0.7678384213153127,0.8741370399582739,0.2631068939039884
1759676530.501386,1,2.22169640793818,0.32184598157376026,1.5621995236847175,0.294420120549204,1.7543119060011112,-0.7322418988337457,0.9061016580880678,0.2792541654813676
1759676530.6275885,1,2.2218539080590105,0.35765464667218777,1.5659082565379738,0.300082701765374,1.7675408972756494,-0.7148318328624607,0.9301956529481205,0.281403351125978
1759676530.758702,1,2.221774166522879,0.394002528416437,1.5695054807106832,0.2998651754692301,1.7940087182969413,-0.678213382506118,0.9592539409960509,0.2590644240289189
1759676530.8823307,1,2.221731241970468,0.4345745464934684,1.5724978103421303,0.2920084583097786,1.806092623340214,-0.6608390827741522,0.9803475570542077,0.2571079928320654
1759676531.0139484,1,2.2216945057611435,0.46715447961122697,1.5748931519267042,0.2856247517766373,1.8335016943821232,-0.6177340152516918,1.0110740522987205,0.2900627009257935
1759676531.136779,1,2.2215940901146203,0.5064083591651439,1.5762917699265204,0.29613613469972067,1.846180454779327,-0.5969605405547903,1.0339518260360205,0.2934162147718135
1759676531.2613177,1,2.2214874949899626,0.5474135358282386,1.5765699359300793,0.2895220798394707,1.8691786048911834,-0.5571238814546348,1.0614384763081475,0.27301125853470454
1759676531.3774083,1,2.221454633631264,0.5805087613989837,1.5766697150829363,0.28430606228972466,1.8797903001526464,-0.5380150612642547,1.081599795548358,0.2716973436338622
1759676531.5064478,1,2.2212342160605325,0.6187491905274801,1.575474102145362,0.29071025087271735,1.901117512345308,-0.4961909948856623,1.1081582455862957,0.2755365160987902
1759676531.6272397,1,2.2211514311067897,0.6514373567827739,1.5743980870272334,0.2963274591038077,1.9109780889705075,-0.47604788749940186,1.1282990509472433,0.2764440039262533
1759676531.7557485,1,2.2210229320281494,0.6885554481571335,1.572593079331754,0.29992078555911317,1.9302944846595596,-0.4333979498206633,1.1532961355886713,0.2754589829093872
1759676531.880014,1,2.2211743043929943,0.7290730640449256,1.5707945102562861,0.2910238967880915,1.9390085469436977,-0.4133934039748203,1.1716507017058293,0.27543402275682005
1759676532.0030894,1,2.2213750693935257,0.7618780539053764,1.56927084659027,0.2838856543299177,1.9578716724661693,-0.36601175737602554,1.1968134264171253,0.29421846419376346
1759676532.1296859,1,2.2217794240113786,0.8009166308829448,1.5680826457205195,0.28938588413011224,1.9664662217122957,-0.3434858394401635,1.2153003074106505,0.2963061803030842
1759676532.252814,1,2.2221447756042907,0.8415694482350853,1.5674317773178785,0.2879569617258847,1.9825121020630185,-0.2994416070061836,1.2357468511227512,0.27875160099171564
1759676532.3831275,1,2.222356880681848,0.8742506391502816,1.5670329455471084,0.2869386084194608,1.9899064869394945,-0.2782932696060572,1.2500285500143864,0.2775191254840519
1759676532.5086918,1,2.222663471425999,0.9148717751213034,1.5674512728164396,0.2954695268289836,2.005492334015235,-0.22976972957723843,1.2672724901396235,0.2979221203161052
1759676532.6366801,1,2.2226793120010306,0.9473252819390029,1.567818233826788,0.3022720628613229,2.012756194260875,-0.206365903724131,1.2795904962995936,0.30016813473286325
1759676532.7684813,1,2.2228282756663025,0.9860859418971049,1.5690199840377261,0.3021963093654582,2.0269942712626383,-0.15921970585508272,1.293721280753167,0.2802068914655355
1759676532.888198,1,2.2228251738589035,1.0284099890151657,1.5704052156576296,0.305156013346667,2.0336109730646132,-0.13669979611673277,1.3037055872185035,0.2783349746691741
1759676533.0212066,1,2.2226295796428,1.0619446003045774,1.5715401894318977,0.30742568801348713,2.0471507944383562,-0.08634732215175142,1.3164928210117517,0.3008799024504249
1759676533.1461732,1,2.2224147565184067,1.099710955484402,1.5724820160284827,0.3048052670251983,2.053463275512618,-0.06223908799618331,1.3253539738651798,0.30306337637879655
1759676533.2690008,1,2.2226220760262905,1.1415421474774452,1.5730159199749219,0.2935609544219749,2.065212404780816,-0.0168505768911849,1.3359173495280914,0.28120157079080016
1759676533.3959439,1,2.2228747848148553,1.1751098168488454,1.5734096864288027,0.2846310898126817,2.070679975408163,0.005067505859901414,1.3432804388018493,0.2792001440637811
1759676533.5197642,1,2.2229215829184725,1.2130483652098842,1.5732566780879171,0.2906159320680455,2.0811991102951857,0.048978264153918025,1.3526542544882647,0.26929260947329164
1759676533.6339798,1,2.2228483754091655,1.2440522222394188,1.5731107548353906,0.2956044738667381,2.086066443931634,0.06988320998295666,1.3588165876393963,0.26852997264453216
1759676533.7650268,1,2.2228927347176524,1.283043529266239,1.5725314454897026,0.302242003842101,2.095903323974864,0.11831414481199716,1.369918530748425,0.29966293476809625
1759676533.8822994,1,2.222988845379793,1.3246509623490446,1.572107759758583,0.2961213826953434,2.1004529786736534,0.14126385346195008,1.3785376026631926,0.3024806590149724
1759676534.000691,1,2.2231037999411103,1.3583913796383733,1.5717932694414232,0.291316958101821,2.109427697770126,0.19064540154617238,1.3922474275211936,0.31211567665876266
1759676534.1257226,1,2.2233926592463114,1.3978185191408967,1.571859907826222,0.2932667312633851,2.1135182066169205,0.21430671563888432,1.403030335067414,0.3133689803547247
1759676534.249341,1,2.2234700531583127,1.4330644578944993,1.5720177479444999,0.2972270238293633,2.121478877537337,0.26160495060753847,1.414634910292216,0.29128888452404084
1759676534.371236,1,2.223356277167583,1.4700309347146527,1.5724830664279332,0.30295565390474183,2.1251304785622835,0.28429045078667853,1.423009800676636,0.2893598905415247
1759676534.4956338,1,2.2233330894278986,1.510699244713308,1.5728201418772478,0.29682945653948384,2.1322782427673204,0.3309545639327522,1.4309603738798247,0.28215897279697627
1759676534.6160922,1,2.223370882057674,1.543735534253078,1.5730907015646185,0.2918902362519431,2.135601113164524,0.3533871341663647,1.4355641044520688,0.2815428060062703
1759676534.7373042,1,2.2235554490916765,1.5832069562270463,1.5728351947166994,0.2966819206161534,2.1424061472962896,0.403837267542928,1.4420593435028861,0.29802450576683187
1759676534.8569055,1,2.2235399120595742,1.6251007510877682,1.572205506807546,0.3060958765558804,2.1455973678075733,0.4281043500595149,1.4462316629650058,0.2996637055871032
1759676534.9755745,1,2.2233450813233824,1.6610657660257258,1.5714858661829965,0.31369538504059413,2.1516081205370035,0.4757002444046879,1.4525856327237585,0.298931061608385
1759676535.0932124,1,2.2233393584235532,1.700392064258396,1.5709555041717007,0.30527205449380895,2.1543347020747183,0.4979260287079342,1.4572663701312023,0.2988827487641138
1759676535.2130747,1,2.223410407193663,1.732291058411485,1.5705429513723226,0.2984102671338743,2.1598550285530154,0.5484878335055327,1.4644992228763716,0.3136519952226962
1759676535.3304274,1,2.2234564222199666,1.7684554095289453,1.5705538084647974,0.2993856495428508,2.1623930670608806,0.5726611546010151,1.469871320908528,0.31519112771991753
1759676535.4478648,1,2.2234311909123092,1.7978587379772575,1.5705828011700382,0.3000906041161327,2.1673481058067643,0.6189460986451618,1.4757850264334198,0.2980080979141519
1759676535.5693827,1,2.223601348974589,1.8357873597831373,1.5711765598139589,0.30533118072685955,2.1695907846524465,0.6411698997062668,1.4801199911831775,0.2965215748306837
1759676535.6815405,1,2.2238758680700017,1.8761531833903384,1.5720228743370517,0.29580614550862194,2.17403666545614,0.6854626893686943,1.484014875405806,0.2850148606092495
1759676535.8066344,1,2.2241457855679445,1.9089344297002022,1.5727953564884456,0.2881670495643244,2.1760787154286167,0.7069626905344337,1.4864707567121034,0.28390506748550637
1759676535.929421,1,2.2240838995164864,1.9474469878490892,1.5737069573398959,0.29903646249343074,2.18038086163389,0.7543337717102498,1.4896197191250096,0.2852627344270872
1759676536.0372272,1,2.2238554664960026,1.9790350746602934,1.5744346805353846,0.30787017155899543,2.1824212215205465,0.7770014073420765,1.490893060758284,0.28539384870177853
1759676536.1631951,1,2.223694137646707,2.01610168230778,1.5749929667013822,0.3034953854270565,2.1862468813514386,0.8266680952341344,1.494228695188251,0.3054761189596357
1759676536.2797256,1,2.2235813019674113,2.05071928638938,1.5753485186177643,0.2999253591645949,2.1881060761216125,0.8503698579359839,1.496092272095074,0.30737507123773133
1759676536.4112403,1,2.223725373332499,2.0854366651542637,1.5754402486081547,0.29704271243410496,2.1919987146688293,0.8993563626942928,1.5000607432397233,0.29485027700150995
1759676536.532604,1,2.2237157125155487,2.1260003212254537,1.5750400255488692,0.30276830266617805,2.1937937023955505,0.9228693676324164,1.5033111316010803,0.29366974517454986
1759676536.658439,1,2.223529703344224,2.1584715916179538,1.574724300654489,0.3072632817006619,2.196910062489411,0.9753190630402844,1.5081897289042345,0.3230356843307059
1759676536.7792318,1,2.223316753082567,2.195353711644967,1.5740923215048175,0.3086580453285452,2.198354827394229,1.0004632324369076,1.5117611995568856,0.3258016169598041
1759676536.9011977,1,2.22313855080469,2.230028614528491,1.5734912260364793,0.30571645889777826,2.201651389469811,1.0473675625666594,1.5162586450510815,0.28866452661188663
1759676537.0206573,1,2.223381938828892,2.265472811697507,1.5728024667352682,0.29882112973157277,2.2031133095713398,1.0698716692295536,1.519695779998983,0.28541088038329804
1759676537.1459556,1,2.2235375165058264,2.3065830929262834,1.5727075301958455,0.30350205108480444,2.2058114402895628,1.1159327185745331,1.5239329718985486,0.2756429519031908
1759676537.2705476,1,2.2235174911990803,2.342802761628194,1.572720695578842,0.30628200037533543,2.2070374643443325,1.1380320190776039,1.526145450436885,0.2747624786505705
1759676537.3919122,1,2.223395493353296,2.3794621027957854,1.5733149109965254,0.30772864932042,2.208799247378444,1.1919040048646627,1.5292360845800492,0.3254923130448881
1759676537.5066364,1,2.2234667132226207,2.420343257772899,1.5740647595446948,0.30055316175245594,2.2097362960464286,1.2172561167289944,1.5310779879603063,0.32986504223870483
1759676537.6245341,1,2.2236031917457217,2.4537376145657226,1.574745562598543,0.29473762115199836,2.2119260586547616,1.268363416856404,1.5328437046825556,0.32073016770591284
1759676537.7418897,1,2.223567207402741,2.491115562493346,1.5752585430094774,0.29982171263331187,2.2130103033904627,1.2926015120408159,1.5338076996825158,0.31992775191236517
1759676537.8584747,1,2.2234030328860905,2.5214325713276273,1.575681867699435,0.30389857827894184,2.215394742230969,1.339030021244144,1.534864302482629,0.2984460362777484
1759676537.9736128,1,2.223425972068375,2.5600224013277946,1.5756942441483979,0.3077429469709767,2.216489974948559,1.3611610997479975,1.5355156229993607,0.29643684728411
1759676538.0985544,1,2.223517484276954,2.600552643168675,1.5754728823840998,0.2994322605455941,2.218711784575124,1.4071098696317368,1.5368432609916187,0.2790530497081277
1759676538.2229311,1,2.2236319049987032,2.6331067725145734,1.5752318733987787,0.29275238732925996,2.2197286566451435,1.4292658001383614,1.5376773277883566,0.2773748093181546
1759676538.3441832,1,2.2236670815148307,2.6714306596092743,1.574778072732912,0.29415599847612184,2.2212156979927444,1.4775469772097434,1.540158592586026,0.29813543038719265
1759676538.4534783,1,2.2236787146926615,2.7028158623653655,1.5743912542215037,0.29533178545143973,2.2219388611679056,1.5006932260092425,1.5412508146839778,0.3000434416103884
1759676538.578718,1,2.223582334669478,2.738639965908336,1.5739062682611706,0.2982756547280692,2.2232560634708447,1.5499858087473353,1.5441711638219995,0.30817473577325755
1759676538.6881275,1,2.2235336815169866,2.7720155633332526,1.5735222951344578,0.29626019662489905,2.2239044210877856,1.5732893246345068,1.545854549938559,0.3089938114343644
1759676538.818332,1,2.2238055732341864,2.8059488222057505,1.5731860393753372,0.29000583279260017,2.2255545842093247,1.6190515683997873,1.5485942197331992,0.2784224014206622
1759676538.929655,1,2.2239683986395367,2.845508207182371,1.5728632950521217,0.29479241962265473,2.2263074748425367,1.6407954629028898,1.5507992321001882,0.2756421449832031
1759676539.0528278,1,2.2239632787286188,2.87740782386927,1.5726024082853174,0.2987666940081683,2.227017194329464,1.6909673938962217,1.5527146431905232,0.308007428747229
1759676539.1710203,1,2.224051528254983,2.91508519841931,1.5722535080316755,0.29681202956613567,2.2273917067971354,1.7147206443604852,1.5537238859179887,0.3108009688850868
1759676539.2937624,1,2.2240079887348236,2.950561027174602,1.57204990802476,0.3002107973741484,2.2283462048288305,1.7642698801973915,1.554796715995034,0.3092487417270996
1759676539.412208,1,2.223802378422376,2.985041800402744,1.5720235681919699,0.3080042258588819,2.2288580759409085,1.7877343410349242,1.5553890503162566,0.3091538676383637
1759676539.536426,1,2.2238445731455516,3.0256434512351804,1.5722877743313781,0.30682303357795865,2.230268992343921,1.833784923054863,1.5567002219173236,0.2809044260893367
1759676539.6590986,1,2.223827902112455,3.0582941656197806,1.5725069630342696,0.30594626507298767,2.2308995420128435,1.855908264893228,1.5568721484862973,0.2782583325530704
1759676539.7788374,1,2.22388886807413,3.0958898424617076,1.5730803571085787,0.3006982356105388,2.231353448441398,1.9072336229423204,1.55761429131358,0.3156027317253684
1759676539.886297,1,2.224031383912104,3.1303939425091443,1.5736585621176318,0.2953011161933651,2.231624164805539,1.9320672456265429,1.5571589998404889,0.3189955573407189
1759676540.0130367,1,2.224134108278623,3.163236456700316,1.5743517048168976,0.28988174588236126,2.232816874931236,1.9779930921064737,1.5573050377776412,0.29323130523912616
1759676540.125548,1,2.22429072154865,3.203402659486917,1.574911456688896,0.2909170644743534,2.2333820112433385,1.999398387958279,1.5575524432909909,0.291078654357482
1759676540.2456284,1,2.224332707667627,3.2360571293304536,1.5753751866730887,0.2918641607797132,2.234156279990564,2.048463015631527,1.5578646372472786,0.3050140030034214
1759676540.3896818,1,2.2243828160562282,3.274074520289189,1.5753777321139444,0.2980395756988585,2.2344849304965053,2.072079697984824,1.5577704804801635,0.30626579263012893
1759676540.517739,1,2.2244071318883845,3.314779507115502,1.5751628766537127,0.2948100672071709,2.2354704669473504,2.1252611515630395,1.5589901656823602,0.303464670713655
1759676540.6351159,1,2.224434092187495,3.3478923756848524,1.5749493575918845,0.2921689997363868,2.23592534367185,2.1508609061596036,1.5591412417724775,0.3032436397266057
1759676540.760106,1,2.224291173089597,3.3867576468396146,1.5748663678493129,0.2984440719428156,2.2365722771799814,2.203865084593008,1.5610187604098305,0.3091283241873038
1759676540.8794303,1,2.2240036927563853,3.4181927245614965,1.5748083434264384,0.3034789434072442,2.2369066186760773,2.229106328440922,1.5618583990913681,0.3097289907752827
1759676541.0006704,1,2.2240109128421666,3.4565473415972128,1.574869245723404,0.30237376473305505,2.2375198471780506,2.277861569852288,1.5635540039171747,0.3049889823414486
1759676541.1249316,1,2.2239749422940283,3.4972100463692235,1.574892180266935,0.29895305220382673,2.237785832023281,2.300871857890593,1.5647854250046969,0.30460230532289334
1759676541.252419,1,2.2239000974661125,3.530020559019231,1.5749753418654489,0.29687835746867786,2.238209387379039,2.3531805283372167,1.5656499986071726,0.3098191782915708
1759676541.375612,1,2.2238981417413037,3.5700706748584095,1.576753904017705,0.3050879267392083,2.2384456093247787,2.3780628477370405,1.5660919304531626,0.3103896993448672
1759676541.5065064,1,2.2233639845848434,3.612989307234895,1.583213908742163,0.307900658416601,2.2393490756293377,2.4280674614274083,1.5664055987675078,0.2856488727012106
1759676541.6332207,1,2.22272922949294,3.647587721624944,1.5895618782536298,0.3108623823047319,2.2397837904665105,2.451853492356139,1.5653361334760452,0.28350627298610276
1759676541.7552836,1,2.221530654338109,3.6880476839141014,1.604657225585671,0.31013856822144814,2.240419564957443,2.5069789725330467,1.559979771694762,0.31816967898282844
1759676541.8786395,1,2.220408240564651,3.720238293322032,1.617104306068788,0.3101269847050253,2.240832125665532,2.5335740865681404,1.5533173070559805,0.3213268813225234
1759676542.000893,1,2.2175452751629514,3.7576957142495533,1.6420020525746206,0.31409201106589063,2.243103113509015,2.582338260623353,1.5414337635281574,0.30794792046964836
1759676542.123163,1,2.2131040065729,3.7970120095725695,1.6740649951224877,0.3077419625429221,2.2444057087147957,2.605576155574564,1.5309815753717984,0.30705542739493613
1759676542.2459388,1,2.209314510747696,3.828570886320166,1.7021798157372898,0.3023065980383947,2.2484968539820986,2.6551368138551306,1.509274623329572,0.2993194044865946
1759676542.3708043,1,2.2026049934527157,3.8658537319251605,1.7426729207641722,0.3081977673787902,2.2508463206330935,2.6789665509273886,1.4906617269820102,0.2981715277452532
1759676542.492874,1,2.195420344368214,3.898888295190296,1.77794377799894,0.31319534552979306,2.2569011582625538,2.7267200290270903,1.467660203788522,0.2881424047019351
1759676542.6069682,1,2.186009042562575,3.9328872933025867,1.8219336107592716,0.3173017802611776,2.260149043252553,2.7496425795430874,1.4495562227731242,0.2867269380099053
1759676542.7292466,1,2.1738147474127767,3.968629304028939,1.8701967921834675,0.3076543275957076,2.266936405440207,2.794225814976293,1.433863038790993,0.282560165925514
1759676542.8445978,1,2.1638285556215786,3.9973530456128556,1.9110697924125402,0.2998318792213292,2.270393102378354,2.815509014491349,1.422011898565352,0.28181446480583944
1759676542.9775672,1,2.1484126993113657,4.031911814054328,1.9626712642086432,0.30785222590810113,2.277972334672718,2.8638557507570117,1.4146642546333104,0.29006685716880737
1759676543.0927396,1,2.1337520879664775,4.061820809126281,2.006291426336926,0.31249026600298246,2.2817344489104143,2.8871414677966287,1.4099292556903884,0.2906184051629132
1759676543.2206824,1,2.1172459002359503,4.0910727478662166,2.053421646906162,0.3143334068435071,2.288819723716176,2.933328943805844,1.4116183345838054,0.2903710979649708
1759676543.3389456,1,2.0968810343500413,4.122214915844135,2.104174496451562,0.30899414557703825,2.2921138594510158,2.954988351878423,1.414562508869825,0.29002520068653875
1759676543.45604,1,2.080205312522285,4.147122308306169,2.147401963871564,0.3047798136773891,2.2984306674242934,3.000015653152019,1.4258649948321955,0.27242322729273943
1759676543.568176,1,2.0580391525720816,4.17463139749271,2.1975512776907173,0.31346876073955776,2.301174757260034,3.021132288086711,1.4360423189749596,0.27088794232383095
1759676543.6899238,1,2.0391341840882293,4.1977326262633365,2.2413265062892225,0.3204778120849339,2.3056760357193147,3.066223569593922,1.4523871883342574,0.29301262737999073
1759676543.8102708,1,2.0153714544785464,4.2223317083104455,2.291888612870979,0.3223040944881494,2.3075491798602403,3.0877299191181504,1.4656535651369562,0.29504009246024865
1759676543.9251614,1,1.9888633239309133,4.246878207101364,2.344100543756007,0.3095762383538979,2.311233146218907,3.127485647584248,1.4834701778960502,0.24985214935261985
1759676544.0444632,1,1.9675697510595946,4.266345627241157,2.38853112737558,0.29962758148137264,2.312719629793798,3.1466438243183976,1.4976627148454869,0.2459015551711798
1759676544.160134,1,1.9393321422781449,4.287268524565242,2.4411963662129677,0.3130184470243802,2.3144115162770347,3.1902433303612066,1.5183575270727154,0.26795140717415733
1759676544.2861724,1,1.915343578306455,4.304561448340995,2.487058774275597,0.324543966213336,2.314905610036136,3.2113095733362003,1.5352969078291325,0.2703056075536201
1759676544.400688,1,1.885871012877583,4.322568771698085,2.540510606719333,0.3195024422148114,2.315055975912412,3.2538248147806352,1.5586035278870827,0.26834941513966254
1759676544.5252724,1,1.854610623914778,4.33918814773408,2.594479035643737,0.3110779809112252,2.314743636418193,3.2744922609120755,1.577402858454797,0.26807635947254166
1759676544.6509295,1,1.8296596664993212,4.35206563585614,2.6398755741060804,0.30399851874912787,2.3131363831778735,3.317540894680564,1.6051624222209473,0.25854496864364723
1759676544.775303,1,1.7966187535632085,4.365614168444318,2.6964438310341974,0.31038724732774664,2.3120065346592686,3.3380612274735917,1.6266643046684803,0.257719165140367
1759676544.892095,1,1.7701225820938051,4.375823883382813,2.74297419329011,0.3148369056521798,2.3087560322003746,3.3777844252697875,1.6534959204181807,0.24910685354465836
1759676545.006965,1,1.7375796102587429,4.385312159075896,2.795011904955071,0.3141627678901162,2.3068634838770885,3.3966437559089435,1.6732045233744217,0.24815657509036518
1759676545.1287968,1,1.7030266445658044,4.393476285045916,2.843148701811059,0.30602440857344454,2.302858433397861,3.4323470348752547,1.6985306952971542,0.21839720849128788
1759676545.2448823,1,1.6752942393264927,4.399802286067869,2.8832934365249283,0.29880030845556804,2.3006572615238987,3.449312748149667,1.7177933695842933,0.21600383616139154
1759676545.3701458,1,1.638932038878283,4.40587597391036,2.9232785958380396,0.3026998632175248,2.2933370056865625,3.488004476643751,1.7475680073129969,0.23914023386738528
1759676545.4886682,1,1.6099253443736745,4.410261672507133,2.9556287739544183,0.30602925246418433,2.2895360740989017,3.506329014254332,1.7718908330046674,0.2417363820421143
