timestamp,vehicle_id,x,y,theta,velocity,gps_available,dt,gps_x,gps_y,gps_theta,gps_velocity,control_steering,control_acceleration
1759676509.9228342,0,-1.205,-0.83,-0.7801621756414647,0.0,False,0.01,nan,nan,nan,nan,0.0,0.0
1759676509.9332347,0,-1.205,-0.83,-0.7801621756414647,0.0,False,0.010400533676147461,nan,nan,nan,nan,0.0,0.0
1759676509.9438484,0,-1.205,-0.83,-0.7801621756414647,0.0,False,0.010613679885864258,nan,nan,nan,nan,0.0,0.0
1759676509.9541965,0,-1.205,-0.83,-0.7801621756414647,0.0,False,0.010348081588745117,nan,nan,nan,nan,0.0,0.0
1759676509.965582,0,-1.205,-0.83,-0.7801621756414647,0.0,False,0.011385440826416016,nan,nan,nan,nan,0.0,0.0
1759676509.9771173,0,-1.205,-0.83,-0.7801621756414647,0.0,False,0.011535406112670898,nan,nan,nan,nan,0.0,0.0
1759676509.987125,0,-1.205,-0.83,-0.7801621756414647,0.0,False,0.010007619857788086,nan,nan,nan,nan,0.0,0.0
1759676509.997591,0,-1.205,-0.83,-0.7801621756414647,0.0,False,0.01046609878540039,nan,nan,nan,nan,0.0,0.0
1759676510.0091684,0,-1.205,-0.83,-0.7801621756414647,0.0,False,0.011577367782592773,nan,nan,nan,nan,0.0,0.0
1759676510.0195796,0,-1.205,-0.83,-0.7801621756414647,0.0,False,0.010411262512207031,nan,nan,nan,nan,0.0,0.0
1759676510.0298793,0,-1.205,-0.83,-0.7801621756414647,0.0,False,0.0102996826171875,nan,nan,nan,nan,0.0,0.0
1759676510.0404503,0,-1.205,-0.83,-0.7801621756414647,0.0,False,0.010571002960205078,nan,nan,nan,nan,0.0,0.0
1759676510.0518243,0,-1.205,-0.83,-0.7801621756414647,0.0,False,0.01137399673461914,nan,nan,nan,nan,0.0,0.0
1759676510.063016,0,-1.205,-0.83,-0.7801621756414647,0.0,False,0.011191606521606445,nan,nan,nan,nan,0.0,0.0
1759676510.0743937,0,-1.205,-0.83,-0.7801621756414647,0.0,False,0.011377811431884766,nan,nan,nan,nan,0.0,0.0
1759676510.0844219,0,-1.205,-0.83,-0.7801621756414647,0.0,False,0.01002812385559082,nan,nan,nan,nan,0.0,0.0
1759676510.0956924,0,-1.205,-0.83,-0.7801621756414647,0.0,False,0.011270523071289062,nan,nan,nan,nan,0.0,0.0
1759676510.106091,0,-1.205,-0.83,-0.7801621756414647,0.0,False,0.010398626327514648,nan,nan,nan,nan,0.0,0.0
1759676510.117283,0,-1.2049998061259588,-0.8299996288021405,-0.7229999301596877,0.0,True,0.011192083358764648,-1.2049998044967651,-0.8299996256828308,-0.717703640460968,0.0,0.0,0.0
1759676510.1278105,0,-1.2049998050413424,-0.829999626725497,-0.7181190935000714,0.0,True,0.010527372360229492,-1.2049998044967651,-0.8299996256828308,-0.717703640460968,0.0,0.0,0.0
1759676510.1390665,0,-1.2049998047010528,-0.8299996260739668,-0.717656934468776,0.0,True,0.011255979537963867,-1.2049998044967651,-0.8299996256828308,-0.717703640460968,0.0,0.0,0.0
1759676510.149657,0,-1.2049998045745929,-0.8299996258318424,-0.7175986296454191,0.0,True,0.010590553283691406,-1.2049998044967651,-0.8299996256828308,-0.717703640460968,0.0,0.0,0.0
1759676510.1599905,0,-1.2049998045264814,-0.8299996257397265,-0.7175930111816928,0.0,True,0.010333538055419922,-1.2049998044967651,-0.8299996256828308,-0.717703640460968,0.0,0.0,0.0
1759676510.1713257,0,-1.2049998045081152,-0.8299996257045619,-0.7175979039621261,0.0,True,0.011335134506225586,-1.2049998044967651,-0.8299996256828308,-0.717703640460968,0.0,0.0,0.0
1759676510.181763,0,-1.2049998045011003,-0.8299996256911313,-0.7176101333686731,0.0,True,0.010437250137329102,-1.2049998044967651,-0.8299996256828308,-0.717703640460968,0.0,0.0,0.0
1759676510.1931818,0,-1.204999804498421,-0.8299996256860013,-0.7176205714458384,0.0,True,0.011418819427490234,-1.2049998044967651,-0.8299996256828308,-0.717703640460968,0.0,0.0,0.0
1759676510.2034547,0,-1.2049998044973975,-0.8299996256840418,-0.7176320983492133,0.0,True,0.010272979736328125,-1.2049998044967651,-0.8299996256828308,-0.717703640460968,0.0,0.0,0.0
1759676510.21437,0,-1.2049998044970067,-0.8299996256832933,-0.7176407134959089,0.0,True,0.010915279388427734,-1.2049998044967651,-0.8299996256828308,-0.717703640460968,0.0,0.0,0.0
1759676510.2249537,0,-1.2049998044968575,-0.8299996256830074,-0.7176483219176752,0.0,True,0.010583639144897461,-1.2049998044967651,-0.8299996256828308,-0.717703640460968,0.0,0.0,0.0
1759676510.2354352,0,-1.2049998044968004,-0.8299996256828983,-0.7176546827375638,0.0,True,0.010481595993041992,-1.2049998044967651,-0.8299996256828308,-0.717703640460968,0.0,0.0,0.0
1759676510.2461042,0,-1.2049998044967787,-0.8299996256828566,-0.7176597531171502,0.0,True,0.01066899299621582,-1.2049998044967651,-0.8299996256828308,-0.717703640460968,0.0,0.0,0.0
1759676510.2575908,0,-1.2049998044967702,-0.8299996256828407,-0.7176634288876347,0.0,True,0.011486530303955078,-1.2049998044967651,-0.8299996256828308,-0.717703640460968,0.0,0.0,0.0
1759676510.2691047,0,-1.2049998044967671,-0.8299996256828346,-0.7176667965847656,0.0,True,0.011513948440551758,-1.2049998044967651,-0.8299996256828308,-0.717703640460968,0.0,0.0,0.0
1759676510.2791061,0,-1.2049998044967658,-0.8299996256828323,-0.7176708050276552,0.0,True,0.010001420974731445,-1.2049998044967651,-0.8299996256828308,-0.717703640460968,0.0,0.0,0.0
1759676510.2894502,0,-1.2049998044967654,-0.8299996256828314,-0.7176738377809109,0.0,True,0.01034402847290039,-1.2049998044967651,-0.8299996256828308,-0.717703640460968,0.0,0.0,0.0
1759676510.3006475,0,-1.2049998044967651,-0.829999625682831,-0.7176758739119773,0.0,True,0.011197328567504883,-1.2049998044967651,-0.8299996256828308,-0.717703640460968,0.0,0.0,0.0
1759676510.3106582,0,-1.2049998044967651,-0.8299996256828309,-0.7176783264403177,0.0,True,0.010010719299316406,-1.2049998044967651,-0.8299996256828308,-0.717703640460968,0.0,0.0,0.0
1759676510.3214035,0,-1.2049998044967651,-0.8299996256828308,-0.7176800339603062,0.0,True,0.01074528694152832,-1.2049998044967651,-0.8299996256828308,-0.717703640460968,0.0,0.0,0.0
1759676510.3327603,0,-1.2049998044967651,-0.8299996256828308,-0.7176812773640044,0.0,True,0.011356830596923828,-1.2049998044967651,-0.8299996256828308,-0.717703640460968,0.0,0.0,0.0
1759676510.3432024,0,-1.2049998044967651,-0.8299996256828308,-0.7176828738712864,0.0,True,0.010442018508911133,-1.2049998044967651,-0.8299996256828308,-0.717703640460968,0.0,0.0,0.0
1759676510.3534849,0,-1.2049998044967651,-0.8299996256828308,-0.7176843441657965,0.0,True,0.010282516479492188,-1.2049998044967651,-0.8299996256828308,-0.717703640460968,0.0,0.0,0.0
1759676510.3638875,0,-1.2049998044967651,-0.8299996256828308,-0.7176855622048173,0.0,True,0.010402679443359375,-1.2049998044967651,-0.8299996256828308,-0.717703640460968,0.0,0.0,0.0
1759676510.3740356,0,-1.2049998044967651,-0.8299996256828308,-0.7176867207087625,0.0,True,0.010148048400878906,-1.2049998044967651,-0.8299996256828308,-0.717703640460968,0.0,0.0,0.0
1759676510.3857133,0,-1.2049998044967651,-0.8299996256828308,-0.71768721738467,0.0,True,0.011677742004394531,-1.2049998044967651,-0.8299996256828308,-0.717703640460968,0.0,0.0,0.0
1759676510.395905,0,-1.2049998044967651,-0.8299996256828308,-0.7176882567880973,0.0,True,0.010191679000854492,-1.2049998044967651,-0.8299996256828308,-0.717703640460968,0.0,0.0,0.0
1759676510.406164,0,-1.2049998044967651,-0.8299996256828308,-0.7176891691106029,0.0,True,0.010258913040161133,-1.2049998044967651,-0.8299996256828308,-0.717703640460968,0.0,0.0,0.0
1759676510.4176152,0,-1.2049998044967651,-0.8299996256828308,-0.7176896227836878,0.0,True,0.011451244354248047,-1.2049998044967651,-0.8299996256828308,-0.717703640460968,0.0,0.0,0.0
1759676510.4290257,0,-1.2049998044967651,-0.8299996256828308,-0.717690124063088,0.0,True,0.01141047477722168,-1.2049998044967651,-0.8299996256828308,-0.717703640460968,0.0,0.0,0.0
1759676510.4394689,0,-1.2049998044967651,-0.8299996256828308,-0.717690912305418,0.0,True,0.01044321060180664,-1.2049998044967651,-0.8299996256828308,-0.717703640460968,0.0,0.0,0.0
1759676510.449861,0,-1.2049998044967651,-0.8299996256828308,-0.7176916339766191,0.0,True,0.010392189025878906,-1.2049998044967651,-0.8299996256828308,-0.717703640460968,0.0,0.0,0.0
1759676510.4613247,0,-1.2049998044967651,-0.8299996256828308,-0.7176920114824021,0.0,True,0.011463642120361328,-1.2049998044967651,-0.8299996256828308,-0.717703640460968,0.0,0.0,0.0
1759676510.472816,0,-1.2049998044967651,-0.8299996256828308,-0.7176924020283053,0.0,True,0.01149129867553711,-1.2049998044967651,-0.8299996256828308,-0.717703640460968,0.0,0.0,0.0
1759676510.484184,0,-1.2049998044967651,-0.8299996256828308,-0.7176928467428283,0.0,True,0.011368036270141602,-1.2049998044967651,-0.8299996256828308,-0.717703640460968,0.0,0.0,0.0
1759676510.4947999,0,-1.2049998044967651,-0.8299996256828308,-0.7176934485330815,0.0,True,0.010615825653076172,-1.2049998044967651,-0.8299996256828308,-0.717703640460968,0.0,0.0,0.0
1759676510.5062351,0,-1.2049998044967651,-0.8299996256828308,-0.717693824981767,0.0,True,0.011435270309448242,-1.2049998044967651,-0.8299996256828308,-0.717703640460968,0.0,0.0,0.0
1759676510.5182183,0,-1.2049998044967651,-0.8299996256828308,-0.7176940918240096,0.0,True,0.011983156204223633,-1.2049998044967651,-0.8299996256828308,-0.717703640460968,0.0,0.0,0.0
1759676510.5286014,0,-1.2049998044967651,-0.8299996256828308,-0.7176946839908105,0.0,True,0.010383129119873047,-1.2049998044967651,-0.8299996256828308,-0.717703640460968,0.0,0.0,0.0
1759676510.5388498,0,-1.2049998044967651,-0.8299996256828308,-0.7176952281588136,0.0,True,0.010248422622680664,-1.2049998044967651,-0.8299996256828308,-0.717703640460968,0.0,0.0,0.0
1759676510.549159,0,-1.2049998044967651,-0.8299996256828308,-0.7176956772571259,0.0,True,0.010309219360351562,-1.2049998044967651,-0.8299996256828308,-0.717703640460968,0.0,0.0,0.0
1759676510.5604722,0,-1.2049998044967651,-0.8299996256828308,-0.7176959020276215,0.0,True,0.011313199996948242,-1.2049998044967651,-0.8299996256828308,-0.717703640460968,0.0,0.0,0.0
1759676510.571771,0,-1.2049998044967651,-0.8299996256828308,-0.717696136679681,0.0,True,0.011298656463623047,-1.2049998044967651,-0.8299996256828308,-0.717703640460968,0.0,0.0,0.0
1759676510.5832767,0,-1.2049998044967651,-0.8299996256828308,-0.7176963549738211,0.0,True,0.011505842208862305,-1.2049998044967651,-0.8299996256828308,-0.717703640460968,0.0,0.0,0.0
1759676510.5944858,0,-1.2049998044967651,-0.8299996256828308,-0.7176966322558282,0.0,True,0.01120901107788086,-1.2049998044967651,-0.8299996256828308,-0.717703640460968,0.0,0.0,0.0
1759676510.6049232,0,-1.2049998044967651,-0.8299996256828308,-0.7176970107040201,0.0,True,0.010437488555908203,-1.2049998044967651,-0.8299996256828308,-0.717703640460968,0.0,0.0,0.0
1759676510.6164346,0,-1.2049998044967651,-0.8299996256828308,-0.7176972035666491,0.0,True,0.01151132583618164,-1.2049998044967651,-0.8299996256828308,-0.717703640460968,0.0,0.0,0.0
1759676510.627041,0,-1.2049998044967651,-0.8299996256828308,-0.7176975141485187,0.0,True,0.010606527328491211,-1.2049998044967651,-0.8299996256828308,-0.717703640460968,0.0,0.0,0.0
1759676510.637133,0,-1.2049998044967651,-0.8299996256828308,-0.7176978605140771,0.0,True,0.010091781616210938,-1.2049998044967651,-0.8299996256828308,-0.717703640460968,0.0,0.0,0.0
1759676510.6475725,0,-1.2049998044967651,-0.8299996256828308,-0.7176981158776492,0.0,True,0.010439634323120117,-1.2049998044967651,-0.8299996256828308,-0.717703640460968,0.0,0.0,0.0
1759676510.6588392,0,-1.2049998044967651,-0.8299996256828308,-0.7176982476133382,0.0,True,0.011266708374023438,-1.2049998044967651,-0.8299996256828308,-0.717703640460968,0.0,0.0,0.0
1759676510.6701093,0,-1.2049998044967651,-0.8299996256828308,-0.7176983896317033,0.0,True,0.01127004623413086,-1.2049998044967651,-0.8299996256828308,-0.717703640460968,0.0,0.0,0.0
1759676510.6814437,0,-1.2049998044967651,-0.8299996256828308,-0.7176985383656334,0.0,True,0.011334419250488281,-1.2049998044967651,-0.8299996256828308,-0.717703640460968,0.0,0.0,0.0
1759676510.6928194,0,-1.2049998044967651,-0.8299996256828308,-0.7176986928727551,0.0,True,0.011375665664672852,-1.2049998044967651,-0.8299996256828308,-0.717703640460968,0.0,0.0,0.0
1759676510.7042162,0,-1.2049998044967651,-0.8299996256828308,-0.7176988518732657,0.0,True,0.01139688491821289,-1.2049998044967651,-0.8299996256828308,-0.717703640460968,0.0,0.0,0.0
1759676510.7201426,0,-1.2049998044967651,-0.8299996256828308,-0.7176985983254092,0.0,True,0.015926361083984375,-1.2049998044967651,-0.8299996256828308,-0.717703640460968,0.0,0.0,0.0
1759676510.7248764,0,-1.2049998044967651,-0.8299996256828308,-0.7176994766533369,0.0,True,0.0047338008880615234,-1.2049998044967651,-0.8299996256828308,-0.717703640460968,0.0,0.0,0.0
1759676510.7364614,0,-1.2049998044967651,-0.8299996256828308,-0.717699568039528,0.0,True,0.011584997177124023,-1.2049998044967651,-0.8299996256828308,-0.717703640460968,0.0,0.0,0.0
1759676510.7470334,0,-1.2049998044967651,-0.8299996256828308,-0.7176997156525378,0.0,True,0.010571956634521484,-1.2049998044967651,-0.8299996256828308,-0.717703640460968,0.0,0.0,0.0
1759676510.7583644,0,-1.2049998044967651,-0.8299996256828308,-0.7176997971176995,0.0,True,0.01133108139038086,-1.2049998044967651,-0.8299996256828308,-0.717703640460968,0.0,0.0,0.0
1759676510.7687566,0,-1.2049998044967651,-0.8299996256828308,-0.7176999633213974,0.0,True,0.010392189025878906,-1.2049998044967651,-0.8299996256828308,-0.717703640460968,0.0,0.0,0.0
1759676510.7799184,0,-1.2049998044967651,-0.8299996256828308,-0.7177000596306549,0.0,True,0.01116180419921875,-1.2049998044967651,-0.8299996256828308,-0.717703640460968,0.0,0.0,0.0
1759676510.7910628,0,-1.2049998044967651,-0.8299996256828308,-0.7177001603349424,0.0,True,0.011144399642944336,-1.2049998044967651,-0.8299996256828308,-0.717703640460968,0.0,0.0,0.0
1759676510.8012457,0,-1.2049998044967651,-0.8299996256828308,-0.7177003334544967,0.0,True,0.010182857513427734,-1.2049998044967651,-0.8299996256828308,-0.717703640460968,0.0,0.0,0.0
1759676510.8115067,0,-1.2049998044967651,-0.8299996256828308,-0.717700482435049,0.0,True,0.010261058807373047,-1.2049998044967651,-0.8299996256828308,-0.717703640460968,0.0,0.0,0.0
1759676510.8218718,0,-1.2049998044967651,-0.8299996256828308,-0.7177006064721994,0.0,True,0.010365009307861328,-1.2049998044967651,-0.8299996256828308,-0.717703640460968,0.0,0.0,0.0
1759676510.832275,0,-1.2049998044967651,-0.8299996256828308,-0.7177007166599978,0.0,True,0.010403156280517578,-1.2049998044967651,-0.8299996256828308,-0.717703640460968,0.0,0.0,0.0
1759676510.8422947,0,-1.2049998044967651,-0.8299996256828308,-0.7177008430579832,0.0,True,0.010019779205322266,-1.2049998044967651,-0.8299996256828308,-0.717703640460968,0.0,0.0,0.0
1759676510.8525782,0,-1.2049998044967651,-0.8299996256828308,-0.7177009405984265,0.0,True,0.010283470153808594,-1.2049998044967651,-0.8299996256828308,-0.717703640460968,0.0,0.0,0.0
1759676510.8633509,0,-1.2049998044967651,-0.8299996256828308,-0.7177010027531718,0.0,True,0.010772705078125,-1.2049998044967651,-0.8299996256828308,-0.717703640460968,0.0,0.0,0.0
1759676510.8739195,0,-1.2049998044967651,-0.8299996256828308,-0.7177010805743365,0.0,True,0.010568618774414062,-1.2049998044967651,-0.8299996256828308,-0.717703640460968,0.0,0.0,0.0
1759676510.8848293,0,-1.2049998044967651,-0.8299996256828308,-0.7177011410531762,0.0,True,0.010909795761108398,-1.2049998044967651,-0.8299996256828308,-0.717703640460968,0.0,0.0,0.0
1759676510.8962862,0,-1.2049998044967651,-0.8299996256828308,-0.7177011780163021,0.0,True,0.011456966400146484,-1.2049998044967651,-0.8299996256828308,-0.717703640460968,0.0,0.0,0.0
1759676510.9068327,0,-1.2049998044967651,-0.8299996256828308,-0.7177012738664992,0.0,True,0.010546445846557617,-1.2049998044967651,-0.8299996256828308,-0.717703640460968,0.0,0.0,0.0
1759676510.92918,0,-1.2049998044967651,-0.8299996256828308,-0.7177008119956803,0.0,True,0.022347211837768555,-1.2049998044967651,-0.8299996256828308,-0.717703640460968,0.0,0.0,0.0
1759676510.9407592,0,-1.2049998044967651,-0.8299996256828308,-0.7177010161071102,0.0,True,0.011579275131225586,-1.2049998044967651,-0.8299996256828308,-0.717703640460968,0.0,0.0,0.0
1759676510.9511209,0,-1.2049998044967651,-0.8299996256828308,-0.7177012718758711,0.0,True,0.010361671447753906,-1.2049998044967651,-0.8299996256828308,-0.717703640460968,0.0,0.0,0.0
1759676510.9615197,0,-1.2049998044967651,-0.8299996256828308,-0.7177014710852383,0.0,True,0.01039886474609375,-1.2049998044967651,-0.8299996256828308,-0.717703640460968,0.0,0.0,0.0
1759676510.9728432,0,-1.2049998044967651,-0.8299996256828308,-0.7177015891069658,0.0,True,0.01132345199584961,-1.2049998044967651,-0.8299996256828308,-0.717703640460968,0.0,0.0,0.0
1759676510.9832075,0,-1.2049998044967651,-0.8299996256828308,-0.7177017237718601,0.0,True,0.010364294052124023,-1.2049998044967651,-0.8299996256828308,-0.717703640460968,0.0,0.0,0.0
1759676510.994743,0,-1.2049998044967651,-0.8299996256828308,-0.7177017922973512,0.0,True,0.01153564453125,-1.2049998044967651,-0.8299996256828308,-0.717703640460968,0.0,0.0,0.0
1759676511.0061123,0,-1.2049998044967651,-0.8299996256828308,-0.7177018611427695,0.0,True,0.01136922836303711,-1.2049998044967651,-0.8299996256828308,-0.717703640460968,0.0,0.0,0.0
1759676511.016462,0,-1.2049998044967651,-0.8299996256828308,-0.717701961941593,0.0,True,0.010349750518798828,-1.2049998044967651,-0.8299996256828308,-0.717703640460968,0.0,0.0,0.0
1759676511.0280197,0,-1.2049998044967651,-0.8299996256828308,-0.7177020087222274,0.0,True,0.011557579040527344,-1.2049998044967651,-0.8299996256828308,-0.717703640460968,0.0,0.0,0.0
1759676511.0382285,0,-1.2049998044967651,-0.8299996256828308,-0.7177020981476581,0.0,True,0.010208845138549805,-1.2049998044967651,-0.8299996256828308,-0.717703640460968,0.0,0.0,0.0
1759676511.0483072,0,-1.2049998044967651,-0.8299996256828308,-0.7177021803690451,0.0,True,0.010078668594360352,-1.2049998044967651,-0.8299996256828308,-0.717703640460968,0.0,0.0,0.0
1759676511.0592012,0,-1.2049998044967651,-0.8299996256828308,-0.7177022251300471,0.0,True,0.010894060134887695,-1.2049998044967651,-0.8299996256828308,-0.717703640460968,0.0,0.0,0.0
1759676511.0706913,0,-1.2049998044967651,-0.8299996256828308,-0.7177022501161456,0.0,True,0.011490106582641602,-1.2049998044967651,-0.8299996256828308,-0.717703640460968,0.0,0.0,0.0
1759676511.0815217,0,-1.2049998044967651,-0.8299996256828308,-0.7177022989593063,0.0,True,0.010830402374267578,-1.2049998044967651,-0.8299996256828308,-0.717703640460968,0.0,0.0,0.0
1759676511.0920358,0,-1.2049998044967651,-0.8299996256828308,-0.717702355514934,0.0,True,0.010514020919799805,-1.2049998044967651,-0.8299996256828308,-0.717703640460968,0.0,0.0,0.0
1759676511.1021242,0,-1.2049998044967651,-0.8299996256828308,-0.7177024181856808,0.0,True,0.010088443756103516,-1.2049998044967651,-0.8299996256828308,-0.717703640460968,0.0,0.0,0.0
1759676511.1123147,0,-1.2049998044967651,-0.8299996256828308,-0.7177024700868984,0.0,True,0.010190486907958984,-1.2049998044967651,-0.8299996256828308,-0.717703640460968,0.0,0.0,0.0
1759676511.1239786,0,-1.2049998044967651,-0.8299996256828308,-0.7177024793096223,0.0,True,0.01166391372680664,-1.2049998044967651,-0.8299996256828308,-0.717703640460968,0.0,0.0,0.0
1759676511.134778,0,-1.2049998044967651,-0.8299996256828308,-0.717702515859159,0.0,True,0.010799407958984375,-1.2049998044967651,-0.8299996256828308,-0.717703640460968,0.0,0.0,0.0
1759676511.1467545,0,-1.2049998044967651,-0.8299996256828308,-0.7177025263616024,0.0,True,0.011976480484008789,-1.2049998044967651,-0.8299996256828308,-0.717703640460968,0.0,0.0,0.0
1759676511.1570883,0,-1.2049998044967651,-0.8299996256828308,-0.7177025806041719,0.0,True,0.010333776473999023,-1.2049998044967651,-0.8299996256828308,-0.717703640460968,0.0,0.0,0.0
1759676511.1674328,0,-1.2049998044967651,-0.8299996256828308,-0.7177026300739229,0.0,True,0.010344505310058594,-1.2049998044967651,-0.8299996256828308,-0.717703640460968,0.0,0.0,0.0
1759676511.1781409,0,-1.2049998044967651,-0.8299996256828308,-0.7177026656959509,0.0,True,0.010708093643188477,-1.2049998044967651,-0.8299996256828308,-0.717703640460968,0.0,0.0,0.0
1759676511.189474,0,-1.2049998044967651,-0.8299996256828308,-0.7177026862134497,0.0,True,0.011333227157592773,-1.2049998044967651,-0.8299996256828308,-0.717703640460968,0.0,0.0,0.0
1759676511.200686,0,-1.2049998044967651,-0.8299996256828308,-0.7177027115549262,0.0,True,0.011211872100830078,-1.2049998044967651,-0.8299996256828308,-0.717703640460968,0.0,0.0,0.0
1759676511.2120762,0,-1.2049998044967651,-0.8299996256828308,-0.7177027353576158,0.0,True,0.011390209197998047,-1.2049998044967651,-0.8299996256828308,-0.717703640460968,0.0,0.0,0.0
1759676511.2228763,0,-1.2049998044967651,-0.8299996256828308,-0.7177027716449622,0.0,True,0.01080012321472168,-1.2049998044967651,-0.8299996256828308,-0.717703640460968,0.0,0.0,0.0
1759676511.233434,0,-1.2049998044967651,-0.8299996256828308,-0.7177028100524936,0.0,True,0.01055765151977539,-1.2049998044967651,-0.8299996256828308,-0.717703640460968,0.0,0.0,0.0
1759676511.2438517,0,-1.2049998044967651,-0.8299996256828308,-0.717702846893955,0.0,True,0.010417699813842773,-1.2049998044967651,-0.8299996256828308,-0.717703640460968,0.0,0.0,0.0
1759676511.2542708,0,-1.2049998044967651,-0.8299996256828308,-0.717702879583765,0.0,True,0.010419130325317383,-1.2049998044967651,-0.8299996256828308,-0.717703640460968,0.0,0.0,0.0
1759676511.2646127,0,-1.2049998044967651,-0.8299996256828308,-0.7177029101773229,0.0,True,0.010341882705688477,-1.2049998044967651,-0.8299996256828308,-0.717703640460968,0.0,0.0,0.0
1759676511.2746572,0,-1.2049998044967651,-0.8299996256828308,-0.7177029424296872,0.0,True,0.010044574737548828,-1.2049998044967651,-0.8299996256828308,-0.717703640460968,0.0,0.0,0.0
1759676511.285609,0,-1.2049998044967651,-0.8299996256828308,-0.7177029574820342,0.0,True,0.010951757431030273,-1.2049998044967651,-0.8299996256828308,-0.717703640460968,0.0,0.0,0.0
1759676511.295987,0,-1.2049998044967651,-0.8299996256828308,-0.7177029817373377,0.0,True,0.010377883911132812,-1.2049998044967651,-0.8299996256828308,-0.717703640460968,0.0,0.0,0.0
1759676511.3071885,0,-1.2049998044967651,-0.8299996256828308,-0.7177029935900787,0.0,True,0.011201620101928711,-1.2049998044967651,-0.8299996256828308,-0.717703640460968,0.0,0.0,0.0
1759676511.3377595,0,-1.2049998044967651,-0.8299996256828308,-0.717702763427658,0.0,True,0.03057098388671875,-1.2049998044967651,-0.8299996256828308,-0.717703640460968,0.0,0.0,0.0
1759676511.3482943,0,-1.2049998044967651,-0.8299996256828308,-0.7177028631742957,0.0,True,0.01053476333618164,-1.2049998044967651,-0.8299996256828308,-0.717703640460968,0.0,0.0,0.0
1759676511.3593693,0,-1.2049998044967651,-0.8299996256828308,-0.7177029495150222,0.0,True,0.011075019836425781,-1.2049998044967651,-0.8299996256828308,-0.717703640460968,0.0,0.0,0.0
1759676511.3706748,0,-1.2049998044967651,-0.8299996256828308,-0.7177030120592711,0.0,True,0.011305570602416992,-1.2049998044967651,-0.8299996256828308,-0.717703640460968,0.0,0.0,0.0
1759676511.3810077,0,-1.2049998044967651,-0.8299996256828308,-0.7177030701460758,0.0,True,0.010332822799682617,-1.2049998044967651,-0.8299996256828308,-0.717703640460968,0.0,0.0,0.0
1759676511.3913412,0,-1.2049998044967651,-0.8299996256828308,-0.7177031151207629,0.0,True,0.010333538055419922,-1.2049998044967651,-0.8299996256828308,-0.717703640460968,0.0,0.0,0.0
1759676511.4017599,0,-1.2049998044967651,-0.8299996256828308,-0.717703149392543,0.0,True,0.01041865348815918,-1.2049998044967651,-0.8299996256828308,-0.717703640460968,0.0,0.0,0.0
1759676511.4125478,0,-1.2049998044967651,-0.8299996256828308,-0.7177031734462194,0.0,True,0.0107879638671875,-1.2049998044967651,-0.8299996256828308,-0.717703640460968,0.0,0.0,0.0
1759676511.4225779,0,-1.2049998044967651,-0.8299996256828308,-0.717703200860834,0.0,True,0.010030031204223633,-1.2049998044967651,-0.8299996256828308,-0.717703640460968,0.0,0.0,0.0
1759676511.4337962,0,-1.2049998044967651,-0.8299996256828308,-0.7177032132069758,0.0,True,0.01121830940246582,-1.2049998044967651,-0.8299996256828308,-0.717703640460968,0.0,0.0,0.0
1759676511.4444835,0,-1.2049998044967651,-0.8299996256828308,-0.7177032295977241,0.0,True,0.01068735122680664,-1.2049998044967651,-0.8299996256828308,-0.717703640460968,0.0,0.0,0.0
1759676511.4549363,0,-1.2049998044967651,-0.8299996256828308,-0.7177032469035325,0.0,True,0.010452747344970703,-1.2049998044967651,-0.8299996256828308,-0.717703640460968,0.0,0.0,0.0
1759676511.4664633,0,-1.2049998044967651,-0.8299996256828308,-0.7177032537555199,0.0,True,0.011527061462402344,-1.2049998044967651,-0.8299996256828308,-0.717703640460968,0.0,0.0,0.0
1759676511.477311,0,-1.2049998044967651,-0.8299996256828308,-0.7177032670714993,0.0,True,0.01084756851196289,-1.2049998044967651,-0.8299996256828308,-0.717703640460968,0.0,0.0,0.0
1759676511.4873576,0,-1.2049998044967651,-0.8299996256828308,-0.7177032862246691,0.0,True,0.010046720504760742,-1.2049998044967651,-0.8299996256828308,-0.717703640460968,0.0,0.0,0.0
1759676511.497588,0,-1.2049998044967651,-0.8299996256828308,-0.7177033015347565,0.0,True,0.010230302810668945,-1.2049998044967651,-0.8299996256828308,-0.717703640460968,0.0,0.0,0.0
1759676511.5079727,0,-1.2049998044967651,-0.8299996256828308,-0.7177033137849804,0.0,True,0.010384798049926758,-1.2049998044967651,-0.8299996256828308,-0.717703640460968,0.0,0.0,0.0
1759676511.5208373,0,-1.2049998044967651,-0.8299996256828308,-0.7177033079094848,0.0,True,0.01286458969116211,-1.2049998044967651,-0.8299996256828308,-0.717703640460968,0.0,0.0,0.0
1759676511.5324247,0,-1.2049998044967651,-0.8299996256828308,-0.7177033150997829,0.0,True,0.011587381362915039,-1.2049998044967651,-0.8299996256828308,-0.717703640460968,0.0,0.0,0.0
1759676511.5438185,0,-1.2049998044967651,-0.8299996256828308,-0.7177033254028569,0.0,True,0.01139378547668457,-1.2049998044967651,-0.8299996256828308,-0.717703640460968,0.0,0.0,0.0
1759676511.5538895,0,-1.2049998044967651,-0.8299996256828308,-0.7177033440411797,0.0,True,0.010071039199829102,-1.2049998044967651,-0.8299996256828308,-0.717703640460968,0.0,0.0,0.0
1759676511.5641468,0,-1.2049998044967651,-0.8299996256828308,-0.7177033589157453,0.0,True,0.010257244110107422,-1.2049998044967651,-0.8299996256828308,-0.717703640460968,0.0,0.0,0.0
1759676511.5743287,0,-1.2049998044967651,-0.8299996256828308,-0.7177033719557979,0.0,True,0.010181903839111328,-1.2049998044967651,-0.8299996256828308,-0.717703640460968,0.0,0.0,0.0
1759676511.5847733,0,-1.2049998044967651,-0.8299996256828308,-0.717703381770443,0.0,True,0.01044464111328125,-1.2049998044967651,-0.8299996256828308,-0.717703640460968,0.0,0.0,0.0
1759676511.595433,0,-1.2049998044967651,-0.8299996256828308,-0.7177033895428,0.0,True,0.01065969467163086,-1.2049998044967651,-0.8299996256828308,-0.717703640460968,0.0,0.0,0.0
1759676511.605642,0,-1.2049998044967651,-0.8299996256828308,-0.7177033994982516,0.0,True,0.010209083557128906,-1.2049998044967651,-0.8299996256828308,-0.717703640460968,0.0,0.0,0.0
1759676511.6159692,0,-1.2049998044967651,-0.8299996256828308,-0.717703408037,0.0,True,0.01032710075378418,-1.2049998044967651,-0.8299996256828308,-0.717703640460968,0.0,0.0,0.0
1759676511.6268685,0,-1.2049998044967651,-0.8299996256828308,-0.717703413103397,0.0,True,0.01089930534362793,-1.2049998044967651,-0.8299996256828308,-0.717703640460968,0.0,0.0,0.0
1759676511.6372452,0,-1.2049998044967651,-0.8299996256828308,-0.7177034210696185,0.0,True,0.010376691818237305,-1.2049998044967651,-0.8299996256828308,-0.717703640460968,0.0,0.0,0.0
1759676511.6472783,0,-1.2049998044967651,-0.8299996256828308,-0.717703430325713,0.0,True,0.010033130645751953,-1.2049998044967651,-0.8299996256828308,-0.717703640460968,0.0,0.0,0.0
1759676511.658628,0,-1.2049998044967651,-0.8299996256828308,-0.7177034327091505,0.0,True,0.011349678039550781,-1.2049998044967651,-0.8299996256828308,-0.717703640460968,0.0,0.0,0.0
1759676511.669995,0,-1.2049998044967651,-0.8299996256828308,-0.7177034359707619,0.0,True,0.011367082595825195,-1.2049998044967651,-0.8299996256828308,-0.717703640460968,0.0,0.0,0.0
1759676511.6813002,0,-1.2049998044967651,-0.8299996256828308,-0.7177034406092506,0.0,True,0.011305093765258789,-1.2049998044967651,-0.8299996256828308,-0.717703640460968,0.0,0.0,0.0
1759676511.691594,0,-1.2049998044967651,-0.8299996256828308,-0.7177034500011459,0.0,True,0.010293722152709961,-1.2049998044967651,-0.8299996256828308,-0.717703640460968,0.0,0.0,0.0
1759676511.702527,0,-1.2049998044967651,-0.8299996256828308,-0.7177034560066531,0.0,True,0.010933160781860352,-1.2049998044967651,-0.8299996256828308,-0.717703640460968,0.0,0.0,0.0
1759676511.7139523,0,-1.2049998044967651,-0.8299996256828308,-0.7177034599139311,0.0,True,0.011425256729125977,-1.2049998044967651,-0.8299996256828308,-0.717703640460968,0.0,0.0,0.0
1759676511.745111,0,-1.2049998044967651,-0.8299996256828308,-0.7177033971916327,0.0,True,0.0311586856842041,-1.2049998044967651,-0.8299996256828308,-0.717703640460968,0.0,0.0,0.0
1759676511.7564774,0,-1.2049998044967651,-0.8299996256828308,-0.7177034235163884,0.0,True,0.01136636734008789,-1.2049998044967651,-0.8299996256828308,-0.717703640460968,0.0,0.0,0.0
1759676511.7677648,0,-1.2049998044967651,-0.8299996256828308,-0.7177034484517577,0.0,True,0.011287450790405273,-1.2049998044967651,-0.8299996256828308,-0.717703640460968,0.0,0.0,0.0
1759676511.7793179,0,-1.2049998044967651,-0.8299996256828308,-0.7177034665106419,0.0,True,0.011553049087524414,-1.2049998044967651,-0.8299996256828308,-0.717703640460968,0.0,0.0,0.0
1759676511.7907553,0,-1.2049998044967651,-0.8299996256828308,-0.7177034806255183,0.0,True,0.011437416076660156,-1.2049998044967651,-0.8299996256828308,-0.717703640460968,0.0,0.0,0.0
1759676511.800757,0,-1.2049998044967651,-0.8299996256828308,-0.7177034956033097,0.0,True,0.010001659393310547,-1.2049998044967651,-0.8299996256828308,-0.717703640460968,0.0,0.0,0.0
1759676511.8113644,0,-1.2049998044967651,-0.8299996256828308,-0.7177035056709364,0.0,True,0.010607481002807617,-1.2049998044967651,-0.8299996256828308,-0.717703640460968,0.0,0.0,0.0
1759676511.8214848,0,-1.2049998044967651,-0.8299996256828308,-0.7177035148380888,0.0,True,0.010120391845703125,-1.2049998044967651,-0.8299996256828308,-0.717703640460968,0.0,0.0,0.0
1759676511.8328242,0,-1.2049998044967651,-0.8299996256828308,-0.7177035192265038,0.0,True,0.011339426040649414,-1.2049998044967651,-0.8299996256828308,-0.717703640460968,0.0,0.0,0.0
1759676511.8442593,0,-1.2049998044967651,-0.8299996256828308,-0.7177035229490443,0.0,True,0.01143503189086914,-1.2049998044967651,-0.8299996256828308,-0.717703640460968,0.0,0.0,0.0
1759676511.8546069,0,-1.2049998044967651,-0.8299996256828308,-0.7177035291457123,0.0,True,0.010347604751586914,-1.2049998044967651,-0.8299996256828308,-0.717703640460968,0.0,0.0,0.0
1759676511.8663363,0,-1.2049998044967651,-0.8299996256828308,-0.7177035314849931,0.0,True,0.01172947883605957,-1.2049998044967651,-0.8299996256828308,-0.717703640460968,0.0,0.0,0.0
1759676511.8769457,0,-1.2049998044967651,-0.8299996256828308,-0.717703536397531,0.0,True,0.01060938835144043,-1.2049998044967651,-0.8299996256828308,-0.717703640460968,0.0,0.0,0.0
1759676511.8885386,0,-1.2049998044967651,-0.8299996256828308,-0.7177035388453668,0.0,True,0.011592864990234375,-1.2049998044967651,-0.8299996256828308,-0.717703640460968,0.0,0.0,0.0
1759676511.898893,0,-1.2049998044967651,-0.8299996256828308,-0.7177035439092876,0.0,True,0.01035451889038086,-1.2049998044967651,-0.8299996256828308,-0.717703640460968,0.0,0.0,0.0
1759676511.9103098,0,-1.2049998044967651,-0.8299996256828308,-0.7177035463530714,0.0,True,0.01141667366027832,-1.2049998044967651,-0.8299996256828308,-0.717703640460968,0.0,0.0,0.0
1759676511.9326458,0,-1.2049998044967651,-0.8299996256828308,-0.7177035289637228,0.0,True,0.02233600616455078,-1.2049998044967651,-0.8299996256828308,-0.717703640460968,0.0,0,0
1759676511.9395382,0,-1.2049998044967651,-0.8299996256828308,-0.7177035452522347,0.0,True,0.00689244270324707,-1.2049998044967651,-0.8299996256828308,-0.717703640460968,0.0,0,0
1759676511.949722,0,-1.2049998044967651,-0.8299996256828308,-0.717703553337536,0.0,True,0.01018381118774414,-1.2049998044967651,-0.8299996256828308,-0.717703640460968,0.0,0,0
1759676511.9611316,0,-1.2049998044967651,-0.8299996256828308,-0.7177035572322108,0.0,True,0.011409521102905273,-1.2049998044967651,-0.8299996256828308,-0.717703640460968,0.0,0,0
1759676511.9717374,0,-1.2049998044967651,-0.8299996256828308,-0.7177035617940799,0.0,True,0.010605812072753906,-1.2049998044967651,-0.8299996256828308,-0.717703640460968,0.0,0,0
1759676511.9825702,0,-1.2049998044967651,-0.8299996256828308,-0.7177035653621218,0.0,True,0.010832786560058594,-1.2049998044967651,-0.8299996256828308,-0.717703640460968,0.0,0,0
1759676511.9928763,0,-1.2049998044967651,-0.8299996256828308,-0.7177035692615696,0.0,True,0.010306119918823242,-1.2049998044967651,-0.8299996256828308,-0.717703640460968,0.0,0,0
1759676512.0038037,0,-1.2049998044967651,-0.8299996256828308,-0.7177035717134395,0.0,True,0.010927438735961914,-1.2049998044967651,-0.8299996256828308,-0.717703640460968,0.0,0,0
1759676512.014521,0,-1.2049998044967651,-0.8299996256828308,-0.7177035742660873,0.0,True,0.010717153549194336,-1.2049998044967651,-0.8299996256828308,-0.717703640460968,0.0,0,0
1759676512.0253556,0,-1.2049998044967651,-0.8299996256828308,-0.7177035764876738,0.0,True,0.010834693908691406,-1.2049998044967651,-0.8299996256828308,-0.717703640460968,0.0,0,0
1759676512.0362384,0,-1.2049998044967651,-0.8299996256828308,-0.7177035785384049,0.0,True,0.010882854461669922,-1.2049998044967651,-0.8299996256828308,-0.717703640460968,0.0,0,0
1759676512.0469847,0,-1.2049998044967651,-0.8299996256828308,-0.7177035807006202,0.0,True,0.010746240615844727,-1.2049998044967651,-0.8299996256828308,-0.717703640460968,0.0,0,0
1759676512.0577705,0,-1.2049998044967651,-0.8299996256828308,-0.7177035827079639,0.0,True,0.010785818099975586,-1.2049998044967651,-0.8299996256828308,-0.717703640460968,0.0,0,0
1759676512.0686092,0,-1.2049998044967651,-0.8299996256828308,-0.7177035845629511,0.0,True,0.010838747024536133,-1.2049998044967651,-0.8299996256828308,-0.717703640460968,0.0,0,0
1759676512.079531,0,-1.2049998044967651,-0.8299996256828308,-0.7177035862666621,0.0,True,0.010921716690063477,-1.2049998044967651,-0.8299996256828308,-0.717703640460968,0.0,0,0
1759676512.0905836,0,-1.2049998044967651,-0.8299996256828308,-0.7177035878054419,0.0,True,0.011052608489990234,-1.2049998044967651,-0.8299996256828308,-0.717703640460968,0.0,0,0
1759676512.101678,0,-1.2049998044967651,-0.8299996256828308,-0.717703589323536,0.0,True,0.011094331741333008,-1.2049998044967651,-0.8299996256828308,-0.717703640460968,0.0,0,0
1759676512.1126435,0,-1.2049998044967651,-0.8299996256828308,-0.7177035910025307,0.0,True,0.010965585708618164,-1.2049998044967651,-0.8299996256828308,-0.717703640460968,0.0,0,0
1759676512.1230245,0,-1.2049998044967651,-0.8299996256828308,-0.717703593233546,0.0,True,0.010380983352661133,-1.2049998044967651,-0.8299996256828308,-0.717703640460968,0.0,0,0
1759676512.1533477,0,-1.2049998044967651,-0.8299996256828308,-0.7177035769760352,0.0,True,0.030323266983032227,-1.2049998044967651,-0.8299996256828308,-0.717703640460968,0.0,0,0
1759676512.1647477,0,-1.2049998044967651,-0.8299996256828308,-0.7177035834202492,0.0,True,0.011399984359741211,-1.2049998044967651,-0.8299996256828308,-0.717703640460968,0.0,0,0
1759676512.1756852,0,-1.2049998044967651,-0.8299996256828308,-0.7177035899512489,0.0,True,0.01093745231628418,-1.2049998044967651,-0.8299996256828308,-0.717703640460968,0.0,0,0
1759676512.1859567,0,-1.2049998044967651,-0.8299996256828308,-0.7177035954182838,0.0,True,0.010271549224853516,-1.2049998044967651,-0.8299996256828308,-0.717703640460968,0.0,0,0
1759676512.197451,0,-1.2049998044967651,-0.8299996256828308,-0.7177035985954241,0.0,True,0.01149439811706543,-1.2049998044967651,-0.8299996256828308,-0.717703640460968,0.0,0,0
1759676512.2083416,0,-1.2049998044967651,-0.8299996256828308,-0.7177036015243878,0.0,True,0.010890483856201172,-1.2049998044967651,-0.8299996256828308,-0.717703640460968,0.0,0,0
1759676512.2189004,0,-1.2049998044967651,-0.8299996256828308,-0.7177036041383076,0.0,True,0.010558843612670898,-1.2049998044967651,-0.8299996256828308,-0.717703640460968,0.0,0,0
1759676512.2295885,0,-1.2049998044967651,-0.8299996256828308,-0.7177036061716571,0.0,True,0.010688066482543945,-1.2049998044967651,-0.8299996256828308,-0.717703640460968,0.0,0,0
1759676512.2408228,0,-1.2049998044967651,-0.8299996256828308,-0.7177036074978673,0.0,True,0.011234283447265625,-1.2049998044967651,-0.8299996256828308,-0.717703640460968,0.0,0,0
1759676512.2518058,0,-1.2049998044967651,-0.8299996256828308,-0.7177036088552597,0.0,True,0.010982990264892578,-1.2049998044967651,-0.8299996256828308,-0.717703640460968,0.0,0,0
1759676512.2628174,0,-1.2049998044967651,-0.8299996256828308,-0.7177036100761001,0.0,True,0.011011600494384766,-1.2049998044967651,-0.8299996256828308,-0.717703640460968,0.0,0,0
1759676512.2739708,0,-1.2049998044967651,-0.8299996256828308,-0.7177036111145618,0.0,True,0.011153459548950195,-1.2049998044967651,-0.8299996256828308,-0.717703640460968,0.0,0,0
1759676512.2848182,0,-1.2049998044967651,-0.8299996256828308,-0.7177036122819356,0.0,True,0.010847330093383789,-1.2049998044967651,-0.8299996256828308,-0.717703640460968,0.0,0,0
1759676512.295514,0,-1.2049998044967651,-0.8299996256828308,-0.7177036134444794,0.0,True,0.010695934295654297,-1.2049998044967651,-0.8299996256828308,-0.717703640460968,0.0,0,0
1759676512.3061,0,-1.2049998044967651,-0.8299996256828308,-0.7177036145563207,0.0,True,0.010585784912109375,-1.2049998044967651,-0.8299996256828308,-0.717703640460968,0.0,0,0
1759676512.3161926,0,-1.2049998044967651,-0.8299996256828308,-0.7177036158189019,0.0,True,0.010092735290527344,-1.2049998044967651,-0.8299996256828308,-0.717703640460968,0.0,0,0
1759676512.3264372,0,-1.2049998044967651,-0.8299996256828308,-0.7177036168355073,0.0,True,0.010244607925415039,-1.2049998044967651,-0.8299996256828308,-0.717703640460968,0.0,0,0
1759676512.3477929,0,-1.2049998044967651,-0.8299996256828308,-0.717703612328144,0.0,True,0.021355628967285156,-1.2049998044967651,-0.8299996256828308,-0.717703640460968,0.0,0,0
1759676512.3585136,0,-1.2049998044967651,-0.8299996256828308,-0.71770361444527,0.0,True,0.01072072982788086,-1.2049998044967651,-0.8299996256828308,-0.717703640460968,0.0,0,0
1759676512.3689132,0,-1.2049998044967651,-0.8299996256828308,-0.7177036166572712,0.0,True,0.010399580001831055,-1.2049998044967651,-0.8299996256828308,-0.717703640460968,0.0,0,0
1759676512.379294,0,-1.2049998044967651,-0.8299996256828308,-0.7177036184145749,0.0,True,0.010380744934082031,-1.2049998044967651,-0.8299996256828308,-0.717703640460968,0.0,0,0
1759676512.3901947,0,-1.2049998044967651,-0.8299996256828308,-0.7177036195876525,0.0,True,0.010900735855102539,-1.2049998044967651,-0.8299996256828308,-0.717703640460968,0.0,0,0
1759676512.4010296,0,-1.2049998044967651,-0.8299996256828308,-0.717703620591017,0.0,True,0.010834932327270508,-1.2049998044967651,-0.8299996256828308,-0.717703640460968,0.0,0,0
1759676512.4121242,0,-1.2049998044967651,-0.8299996256828308,-0.7177036213613484,0.0,True,0.01109457015991211,-1.2049998044967651,-0.8299996256828308,-0.717703640460968,0.0,0,0
1759676512.4233472,0,-1.2049998044967651,-0.8299996256828308,-0.7177036220167103,0.0,True,0.011223077774047852,-1.2049998044967651,-0.8299996256828308,-0.717703640460968,0.0,0,0
1759676512.4340684,0,-1.2049998044967651,-0.8299996256828308,-0.7177036228260114,0.0,True,0.010721206665039062,-1.2049998044967651,-0.8299996256828308,-0.717703640460968,0.0,0,0
1759676512.4454696,0,-1.2049998044967651,-0.8299996256828308,-0.7177036233191139,0.0,True,0.011401176452636719,-1.2049998044967651,-0.8299996256828308,-0.717703640460968,0.0,0,0
1759676512.4567864,0,-1.2049998044967651,-0.8299996256828308,-0.7177036238414036,0.0,True,0.011316776275634766,-1.2049998044967651,-0.8299996256828308,-0.717703640460968,0.0,0,0
1759676512.4679308,0,-1.2049998044967651,-0.8299996256828308,-0.7177036244251731,0.0,True,0.011144399642944336,-1.2049998044967651,-0.8299996256828308,-0.717703640460968,0.0,0,0
1759676512.4783778,0,-1.2049998044967651,-0.8299996256828308,-0.7177036252096887,0.0,True,0.010447025299072266,-1.2049998044967651,-0.8299996256828308,-0.717703640460968,0.0,0,0
1759676512.4894862,0,-1.2049998044967651,-0.8299996256828308,-0.717703625698956,0.0,True,0.0111083984375,-1.2049998044967651,-0.8299996256828308,-0.717703640460968,0.0,0,0
1759676512.5004854,0,-1.2049998044967651,-0.8299996256828308,-0.7177036261958349,0.0,True,0.010999202728271484,-1.2049998044967651,-0.8299996256828308,-0.717703640460968,0.0,0,0
1759676512.510648,0,-1.2049998044967651,-0.8299996256828308,-0.7177036269169808,0.0,True,0.010162591934204102,-1.2049998044967651,-0.8299996256828308,-0.717703640460968,0.0,0,0
1759676512.5210333,0,-1.2049998044967651,-0.8299996256828308,-0.7177036274858999,0.0,True,0.010385274887084961,-1.2049998044967651,-0.8299996256828308,-0.717703640460968,0.0,0,0
1759676512.537177,0,-1.2049998044967651,-0.8299996256828308,-0.7177036264516055,0.0,True,0.016143798828125,-1.2049998044967651,-0.8299996256828308,-0.717703640460968,0.0,0,0
1759676512.5484107,0,-1.2049998044967651,-0.8299996256828308,-0.7177036271174124,0.0,True,0.01123356819152832,-1.2049998044967651,-0.8299996256828308,-0.717703640460968,0.0,0,0
1759676512.5590954,0,-1.2049998044967651,-0.8299996256828308,-0.7177036279413258,0.0,True,0.010684728622436523,-1.2049998044967651,-0.8299996256828308,-0.717703640460968,0.0,0,0
1759676512.5696037,0,-1.2049998044967651,-0.8299996256828308,-0.7177036286802085,0.0,True,0.010508298873901367,-1.2049998044967651,-0.8299996256828308,-0.717703640460968,0.0,0,0
1759676512.5808797,0,-1.2049998044967651,-0.8299996256828308,-0.717703629119077,0.0,True,0.011276006698608398,-1.2049998044967651,-0.8299996256828308,-0.717703640460968,0.0,0,0
1759676512.5922444,0,-1.2049998044967651,-0.8299996256828308,-0.717703629499205,0.0,True,0.01136469841003418,-1.2049998044967651,-0.8299996256828308,-0.717703640460968,0.0,0,0
1759676512.6035028,0,-1.2049998044967651,-0.8299996256828308,-0.7177036298918704,0.0,True,0.011258363723754883,-1.2049998044967651,-0.8299996256828308,-0.717703640460968,0.0,0,0
1759676512.6145024,0,-1.2049998044967651,-0.8299996256828308,-0.7177036303228128,0.0,True,0.010999679565429688,-1.2049998044967651,-0.8299996256828308,-0.717703640460968,0.0,0,0
1759676512.6253066,0,-1.2049998044967651,-0.8299996256828308,-0.7177036307603277,0.0,True,0.010804176330566406,-1.2049998044967651,-0.8299996256828308,-0.717703640460968,0.0,0,0
1759676512.6359587,0,-1.2049998044967651,-0.8299996256828308,-0.7177036311847296,0.0,True,0.01065206527709961,-1.2049998044967651,-0.8299996256828308,-0.717703640460968,0.0,0,0
1759676512.6471593,0,-1.2049998044967651,-0.8299996256828308,-0.7177036314614789,0.0,True,0.011200666427612305,-1.2049998044967651,-0.8299996256828308,-0.717703640460968,0.0,0,0
1759676512.6582582,0,-1.2049998044967651,-0.8299996256828308,-0.7177036317514904,0.0,True,0.011098861694335938,-1.2049998044967651,-0.8299996256828308,-0.717703640460968,0.0,0,0
1759676512.669056,0,-1.2049998044967651,-0.8299996256828308,-0.7177036320903127,0.0,True,0.010797739028930664,-1.2049998044967651,-0.8299996256828308,-0.717703640460968,0.0,0,0
1759676512.6797245,0,-1.2049998044967651,-0.8299996256828308,-0.7177036324285204,0.0,True,0.010668516159057617,-1.2049998044967651,-0.8299996256828308,-0.717703640460968,0.0,0,0
1759676512.6905165,0,-1.2049998044967651,-0.8299996256828308,-0.717703632717269,0.0,True,0.010792016983032227,-1.2049998044967651,-0.8299996256828308,-0.717703640460968,0.0,0,0
1759676512.7013037,0,-1.2049998044967651,-0.8299996256828308,-0.7177036329880764,0.0,True,0.010787248611450195,-1.2049998044967651,-0.8299996256828308,-0.717703640460968,0.0,0,0
1759676512.7122657,0,-1.2049998044967651,-0.8299996256828308,-0.7177036332182265,0.0,True,0.01096200942993164,-1.2049998044967651,-0.8299996256828308,-0.717703640460968,0.0,0,0
1759676512.723066,0,-1.2049998044967651,-0.8299996256828308,-0.7177036334686342,0.0,True,0.010800361633300781,-1.2049998044967651,-0.8299996256828308,-0.717703640460968,0.0,0,0
1759676512.7410727,0,-1.2049998044967651,-0.8299996256828308,-0.7177036327008395,0.0,True,0.018006563186645508,-1.2049998044967651,-0.8299996256828308,-0.717703640460968,0.0,0,0
1759676512.752089,0,-1.2049998044967651,-0.8299996256828308,-0.7177036331908706,0.0,True,0.011016368865966797,-1.2049998044967651,-0.8299996256828308,-0.717703640460968,0.0,0,0
1759676512.7629905,0,-1.2049998044967651,-0.8299996256828308,-0.7177036336855025,0.0,True,0.010901451110839844,-1.2049998044967651,-0.8299996256828308,-0.717703640460968,0.0,0,0
1759676512.773733,0,-1.2049998044967651,-0.8299996256828308,-0.7177036341131178,0.0,True,0.010742425918579102,-1.2049998044967651,-0.8299996256828308,-0.717703640460968,0.0,0,0
1759676512.7843363,0,-1.2049998044967651,-0.8299996256828308,-0.7177036344822092,0.0,True,0.01060342788696289,-1.2049998044967651,-0.8299996256828308,-0.717703640460968,0.0,0,0
1759676512.7957654,0,-1.2049998044967651,-0.8299996256828308,-0.7177036346944554,0.0,True,0.011429071426391602,-1.2049998044967651,-0.8299996256828308,-0.717703640460968,0.0,0,0
1759676512.8059905,0,-1.2049998044967651,-0.8299996256828308,-0.7177036350257904,0.0,True,0.010225057601928711,-1.2049998044967651,-0.8299996256828308,-0.717703640460968,0.0,0,0
1759676512.816546,0,-1.2049998044967651,-0.8299996256828308,-0.7177036352745336,0.0,True,0.010555505752563477,-1.2049998044967651,-0.8299996256828308,-0.717703640460968,0.0,0,0
1759676512.8272724,0,-1.2049998044967651,-0.8299996256828308,-0.7177036354717679,0.0,True,0.010726451873779297,-1.2049998044967651,-0.8299996256828308,-0.717703640460968,0.0,0,0
1759676512.8378868,0,-1.2049998044967651,-0.8299996256828308,-0.7177036356633337,0.0,True,0.010614395141601562,-1.2049998044967651,-0.8299996256828308,-0.717703640460968,0.0,0,0
1759676512.8485088,0,-1.2049998044967651,-0.8299996256828308,-0.7177036358390758,0.0,True,0.010622024536132812,-1.2049998044967651,-0.8299996256828308,-0.717703640460968,0.0,0,0
1759676512.8588731,0,-1.2049998044967651,-0.8299996256828308,-0.7177036360270606,0.0,True,0.010364294052124023,-1.2049998044967651,-0.8299996256828308,-0.717703640460968,0.0,0,0
1759676512.868925,0,-1.2049998044967651,-0.8299996256828308,-0.7177036362266769,0.0,True,0.010051965713500977,-1.2049998044967651,-0.8299996256828308,-0.717703640460968,0.0,0,0
1759676512.8791654,0,-1.2049998044967651,-0.8299996256828308,-0.7177036363853571,0.0,True,0.010240316390991211,-1.2049998044967651,-0.8299996256828308,-0.717703640460968,0.0,0,0
1759676512.8894522,0,-1.2049998044967651,-0.8299996256828308,-0.7177036365247247,0.0,True,0.010286808013916016,-1.2049998044967651,-0.8299996256828308,-0.717703640460968,0.0,0,0
1759676512.8998258,0,-1.2049998044967651,-0.8299996256828308,-0.717703636647542,0.0,True,0.010373592376708984,-1.2049998044967651,-0.8299996256828308,-0.717703640460968,0.0,0,0
1759676512.9108894,0,-1.2049998044967651,-0.8299996256828308,-0.717703636709107,0.0,True,0.011063575744628906,-1.2049998044967651,-0.8299996256828308,-0.717703640460968,0.0,0,0
1759676512.9217484,0,-1.2049998044967651,-0.8299996256828308,-0.7177036368004828,0.0,True,0.010859012603759766,-1.2049998044967651,-0.8299996256828308,-0.717703640460968,0.0,0,0
1759676512.9396021,0,-1.2049802221426826,-0.8300166751942,-0.7177027188209024,0.00021214222795840139,True,0.017853736877441406,-1.204969882965088,-0.8300256729125977,-0.717703640460968,0.00021214222795840139,0.5235987755982988,0.029081110429132462
1759676512.9426105,0,-1.2049736485421614,-0.830022396407612,-0.7177034055888107,0.00021214222795840139,True,0.0030083656311035156,-1.204969882965088,-0.8300256729125977,-0.717703640460968,0.00021214222795840139,0.5235987755982988,0.029094591064559885
1759676512.9529154,0,-1.2049706922522685,-0.830024970555477,-0.7177030882933995,0.00021214222795840139,True,0.010304927825927734,-1.204969882965088,-0.8300256729125977,-0.717703640460968,0.00021214222795840139,0.5235987755982988,0.0306842136196724
1759676512.9635458,0,-1.2049695431842087,-0.8300259711352821,-0.7177030449862478,0.00021214222795840139,True,0.010630369186401367,-1.204969882965088,-0.8300256729125977,-0.717703640460968,0.00021214222795840139,0.5235987755982988,0.033208253089283435
1759676512.974079,0,-1.2049691102171067,-0.8300263481388953,-0.7177030464157497,0.00021214222795840139,True,0.01053309440612793,-1.204969882965088,-0.8300256729125977,-0.717703640460968,0.00021214222795840139,0.5235987755982988,0.03071021242031971
1759676512.9848778,0,-1.2049689286111405,-0.8300265063080801,-0.7177030329264369,0.00021214222795840139,True,0.010798931121826172,-1.204969882965088,-0.8300256729125977,-0.717703640460968,0.00021214222795840139,0.5235987755982988,0.030735709504153403
1759676512.99623,0,-1.2049688254795043,-0.8300265962000548,-0.7177030033954601,0.00021214222795840139,True,0.011352062225341797,-1.204969882965088,-0.8300256729125977,-0.717703640460968,0.00021214222795840139,0.5235987755982988,0.032308835466809654
1759676513.006551,0,-1.204968849016423,-0.8300265755971927,-0.717703054009629,0.00021214222795840139,True,0.01032114028930664,-1.204969882965088,-0.8300256729125977,-0.717703640460968,0.00021214222795840139,0.5235987755982988,0.03327207409404601
1759676513.0179183,0,-1.2049687941456093,-0.8300266234793049,-0.7177030045284098,0.00021214222795840139,True,0.011367321014404297,-1.204969882965088,-0.8300256729125977,-0.717703640460968,0.00021214222795840139,0.5235987755982988,0.03296240028989387
1759676513.0284333,0,-1.2049688252158732,-0.8300265963464997,-0.717703044281496,0.00021214222795840139,True,0.010514974594116211,-1.204969882965088,-0.8300256729125977,-0.717703640460968,0.00021214222795840139,0.5235987755982988,0.03094092004118504
1759676513.0398128,0,-1.2049687843123702,-0.8300266320528088,-0.7177030032327334,0.00021214222795840139,True,0.011379480361938477,-1.204969882965088,-0.8300256729125977,-0.717703640460968,0.00021214222795840139,0.5235987755982988,0.03190072585796655
1759676513.0506651,0,-1.2049688008665824,-0.8300266175995489,-0.7177030269632709,0.00021214222795840139,True,0.010852336883544922,-1.204969882965088,-0.8300256729125977,-0.717703640460968,0.00021214222795840139,0.5235987755982988,0.0327620028262041
1759676513.0615077,0,-1.204968807786438,-0.8300266115579837,-0.7177030295377094,0.00021214222795840139,True,0.010842561721801758,-1.204969882965088,-0.8300256729125977,-0.717703640460968,0.00021214222795840139,0.5235987755982988,0.03552652372100545
1759676513.0725665,0,-1.2049687972294851,-0.8300266207741893,-0.7177030187066293,0.00021214222795840139,True,0.011058807373046875,-1.204969882965088,-0.8300256729125977,-0.717703640460968,0.00021214222795840139,0.5235987755982988,0.032261486590121305
1759676513.083394,0,-1.2049688073140623,-0.830026611970138,-0.7177030297614202,0.00021214222795840139,True,0.01082754135131836,-1.204969882965088,-0.8300256729125977,-0.717703640460968,0.00021214222795840139,0.5235987755982988,0.031874235811595354
1759676513.0942903,0,-1.2049688069746003,-0.8300266122664763,-0.7177030272310301,0.00021214222795840139,True,0.01089620590209961,-1.204969882965088,-0.8300256729125977,-0.717703640460968,0.00021214222795840139,0.5235987755982988,0.034114143057795816
1759676513.105153,0,-1.2049688088824384,-0.8300266106008979,-0.7177030288038537,0.00021214222795840139,True,0.01086282730102539,-1.204969882965088,-0.8300256729125977,-0.717703640460968,0.00021214222795840139,0.5235987755982988,0.03039662582510002
1759676513.1159437,0,-1.2049688140209056,-0.8300266061149421,-0.7177030327183775,0.00021214222795840139,True,0.010790586471557617,-1.204969882965088,-0.8300256729125977,-0.717703640460968,0.00021214222795840139,0.5235987755982988,0.02966978892799019
1759676513.1268349,0,-1.2049688098420135,-0.8300266097631771,-0.7177030279379117,0.00021214222795840139,True,0.010891199111938477,-1.204969882965088,-0.8300256729125977,-0.717703640460968,0.00021214222795840139,0.5235987755982988,0.03145618079722903
1759676513.1490936,0,-1.2005319968353443,-0.833854548704042,-0.7139026155673385,0.040741910728138576,True,0.022258758544921875,-1.1982121467590332,-0.835851788520813,-0.705051600933075,0.040741910728138576,0.5235987755982988,0.03263980886784542
1759676513.1593857,0,-1.1989771816499117,-0.8351937687476656,-0.7111862957801982,0.040741910728138576,True,0.01029205322265625,-1.1982121467590332,-0.835851788520813,-0.705051600933075,0.040741910728138576,0.5235987755982988,0.03041518974283306
1759676513.1699393,0,-1.1983799340566847,-0.8357076407245115,-0.7091626396633757,0.040741910728138576,True,0.010553598403930664,-1.1982121467590332,-0.835851788520813,-0.705051600933075,0.040741910728138576,0.5235987755982988,0.031184066785793895
1759676513.1806254,0,-1.1981500289187632,-0.8359050199550159,-0.7077047662480922,0.040741910728138576,True,0.010686159133911133,-1.1982121467590332,-0.835851788520813,-0.705051600933075,0.040741910728138576,0.5235987755982988,0.032313631764487497
1759676513.1914027,0,-1.1980609822135215,-0.8359811540075252,-0.7066555190835437,0.040741910728138576,True,0.01077723503112793,-1.1982121467590332,-0.835851788520813,-0.705051600933075,0.040741910728138576,0.5235987755982988,0.02951392943586755
1759676513.2022324,0,-1.1980262371327857,-0.8360106342011085,-0.7059008745619675,0.040741910728138576,True,0.010829687118530273,-1.1982121467590332,-0.835851788520813,-0.705051600933075,0.040741910728138576,0.5235987755982988,0.030466710673771134
1759676513.2125056,0,-1.1980194747383022,-0.8360161815829343,-0.7053784477391449,0.040741910728138576,True,0.010273218154907227,-1.1982121467590332,-0.835851788520813,-0.705051600933075,0.040741910728138576,0.5235987755982988,0.029648045504143884
1759676513.2233272,0,-1.1980103424868158,-0.8360237719822033,-0.7049857781599762,0.040741910728138576,True,0.01082158088684082,-1.1982121467590332,-0.835851788520813,-0.705051600933075,0.040741910728138576,0.5235987755982988,0.0307246904599805
1759676513.233844,0,-1.1980104234323583,-0.8360235488801462,-0.704719513946948,0.040741910728138576,True,0.010516881942749023,-1.1982121467590332,-0.835851788520813,-0.705051600933075,0.040741910728138576,0.5235987755982988,0.028456406075076175
1759676513.244498,0,-1.198008801842172,-0.836024813648771,-0.7045274330574038,0.040741910728138576,True,0.010653972625732422,-1.1982121467590332,-0.835851788520813,-0.705051600933075,0.040741910728138576,0.5235987755982988,0.02950048219544295
1759676513.2557926,0,-1.1980005675915002,-0.83603173150163,-0.7043758305975096,0.040741910728138576,True,0.01129460334777832,-1.1982121467590332,-0.835851788520813,-0.705051600933075,0.040741910728138576,0.5235987755982988,0.028440761151506976
1759676513.2666066,0,-1.198003104587046,-0.83602950948238,-0.704291444240674,0.040741910728138576,True,0.01081395149230957,-1.1982121467590332,-0.835851788520813,-0.705051600933075,0.040741910728138576,0.5235987755982988,0.02831659623517891
1759676513.277544,0,-1.1980026002809983,-0.8360298949306116,-0.7042319217774562,0.040741910728138576,True,0.01093745231628418,-1.1982121467590332,-0.835851788520813,-0.705051600933075,0.040741910728138576,0.5235987755982988,0.02803172347333558
1759676513.2883143,0,-1.1980043831831975,-0.8360283503910497,-0.7042014234505558,0.040741910728138576,True,0.010770320892333984,-1.1982121467590332,-0.835851788520813,-0.705051600933075,0.040741910728138576,0.5235987755982988,0.02844685838040069
1759676513.2990437,0,-1.1980055473014024,-0.8360273434321529,-0.7041867021956278,0.040741910728138576,True,0.010729312896728516,-1.1982121467590332,-0.835851788520813,-0.705051600933075,0.040741910728138576,0.5235987755982988,0.030041671734762562
1759676513.3097916,0,-1.1980057699322015,-0.8360271444538926,-0.7041820152400611,0.040741910728138576,True,0.010747909545898438,-1.1982121467590332,-0.835851788520813,-0.705051600933075,0.040741910728138576,0.5235987755982988,0.027366540256922527
1759676513.3206086,0,-1.1980050346221212,-0.836027764700502,-0.7041834667965023,0.040741910728138576,True,0.01081705093383789,-1.1982121467590332,-0.835851788520813,-0.705051600933075,0.040741910728138576,0.5235987755982988,0.03113518492715287
1759676513.3315823,0,-1.1980028964550673,-0.8360295804003968,-0.7041873407837826,0.040741910728138576,True,0.010973691940307617,-1.1982121467590332,-0.835851788520813,-0.705051600933075,0.040741910728138576,0.5235987755982988,0.027821853857701466
1759676513.342621,0,-1.1881298497401551,-0.8440430532808304,-0.6921167623035753,0.10701730117191843,True,0.011038780212402344,-1.1825847625732422,-0.8485233783721924,-0.6607595086097717,0.10701730117191843,0.5235987755982988,0.029484405234045302
1759676513.353265,0,-1.1843676677537238,-0.847089524421398,-0.6824774553494848,0.10701730117191843,True,0.010643959045410156,-1.1825847625732422,-0.8485233783721924,-0.6607595086097717,0.10701730117191843,0.5235987755982988,0.026635334465572848
1759676513.3641572,0,-1.1829201702518706,-0.8482564024621305,-0.6753709949880893,0.10701730117191843,True,0.010892152786254883,-1.1825847625732422,-0.8485233783721924,-0.6607595086097717,0.10701730117191843,0.5235987755982988,0.030888588241171782
1759676513.3747594,0,-1.1823745853007421,-0.8486922962701796,-0.6702404089755856,0.10701730117191843,True,0.010602235794067383,-1.1825847625732422,-0.8485233783721924,-0.6607595086097717,0.10701730117191843,0.5235987755982988,0.02948370988719687
1759676513.3850157,0,-1.1821759189211931,-0.8488483097017732,-0.6665630282204269,0.10701730117191843,True,0.010256290435791016,-1.1825847625732422,-0.8485233783721924,-0.6607595086097717,0.10701730117191843,0.5235987755982988,0.02931698431807333
1759676513.3954353,0,-1.1820938567021326,-0.8489108495410738,-0.6638902236834756,0.10701730117191843,True,0.010419607162475586,-1.1825847625732422,-0.8485233783721924,-0.6607595086097717,0.10701730117191843,0.5235987755982988,0.02850921732868341
1759676513.4060035,0,-1.1820570452226984,-0.8489376065802857,-0.6619548461160498,0.10701730117191843,True,0.01056814193725586,-1.1825847625732422,-0.8485233783721924,-0.6607595086097717,0.10701730117191843,0.5235987755982988,0.02742145436558204
1759676513.4169207,0,-1.182031231298778,-0.8489559581441616,-0.6605360477143929,0.10701730117191843,True,0.010917186737060547,-1.1825847625732422,-0.8485233783721924,-0.6607595086097717,0.10701730117191843,0.5235987755982988,0.029742860799596316
1759676513.4283504,0,-1.1820044512246748,-0.8489753434666429,-0.6594810444056556,0.10701730117191843,True,0.011429786682128906,-1.1825847625732422,-0.8485233783721924,-0.6607595086097717,0.10701730117191843,0.5235987755982988,0.02884883211946819
1759676513.438881,0,-1.1820229713030181,-0.8489598330474469,-0.6588452061663777,0.10701730117191843,True,0.010530471801757812,-1.1825847625732422,-0.8485233783721924,-0.6607595086097717,0.10701730117191843,0.5235987755982988,0.02964787903953056
1759676513.448886,0,-1.18204686051255,-0.848940540655778,-0.6584550922300494,0.10701730117191843,True,0.010004997253417969,-1.1825847625732422,-0.8485233783721924,-0.6607595086097717,0.10701730117191843,0.5235987755982988,0.027360560295631796
1759676513.4591994,0,-1.182045918921457,-0.8489407696849669,-0.6581568348250215,0.10701730117191843,True,0.01031351089477539,-1.1825847625732422,-0.8485233783721924,-0.6607595086097717,0.10701730117191843,0.5235987755982988,0.02824782509883001
1759676513.4697049,0,-1.1820392802630053,-0.8489455623846909,-0.6579479341841346,0.10701730117191843,True,0.010505437850952148,-1.1825847625732422,-0.8485233783721924,-0.6607595086097717,0.10701730117191843,0.5235987755982988,0.030716930883532993
1759676513.48098,0,-1.1820118083151334,-0.8489665736319908,-0.657749507359128,0.10701730117191843,True,0.011275053024291992,-1.1825847625732422,-0.8485233783721924,-0.6607595086097717,0.10701730117191843,0.5235987755982988,0.029190274546314034
