timestamp,vehicle_id,x,y,theta,velocity,gps_available,dt,gps_x,gps_y,gps_theta,gps_velocity,control_steering,control_acceleration
1759830043.3538985,3,24.0,6.0,-0.05483113549895435,0.0,False,0.01,nan,nan,nan,nan,0.0,0.0
1759830043.3654544,3,24.0,6.0,-0.05483113549895435,0.0,False,0.011555910110473633,nan,nan,nan,nan,0.0,0.0
1759830043.375613,3,24.0,6.0,-0.05483113549895435,0.0,False,0.010158538818359375,nan,nan,nan,nan,0.0,0.0
1759830043.3861537,3,24.0,6.0,-0.05483113549895435,0.0,False,0.01054072380065918,nan,nan,nan,nan,0.0,0.0
1759830043.3974218,3,24.0,6.0,-0.05483113549895435,0.0,False,0.011268138885498047,nan,nan,nan,nan,0.0,0.0
1759830043.4082253,3,24.0,6.0,-0.05483113549895435,0.0,False,0.010803461074829102,nan,nan,nan,nan,0.0,0.0
1759830043.4193158,3,24.0,6.0,-0.05483113549895435,0.0,False,0.011090517044067383,nan,nan,nan,nan,0.0,0.0
1759830043.4308352,3,24.0,6.0,-0.05483113549895435,0.0,False,0.011519432067871094,nan,nan,nan,nan,0.0,0.0
1759830043.442349,3,24.0,6.0,-0.05483113549895435,0.0,False,0.011513710021972656,nan,nan,nan,nan,0.0,0.0
1759830043.4532838,3,24.0,6.0,-0.05483113549895435,0.0,False,0.010934829711914062,nan,nan,nan,nan,0.0,0.0
1759830043.4636958,3,24.0,6.0,-0.05483113549895435,0.0,False,0.010411977767944336,nan,nan,nan,nan,0.0,0.0
1759830043.474464,3,24.0,6.0,-0.05483113549895435,0.0,False,0.01076817512512207,nan,nan,nan,nan,0.0,0.0
1759830043.485223,3,24.0,6.0,-0.05483113549895435,0.0,False,0.010759115219116211,nan,nan,nan,nan,0.0,0.0
1759830043.496741,3,24.0,6.0,-0.05483113549895435,0.0,False,0.011518001556396484,nan,nan,nan,nan,0.0,0.0
1759830043.5074532,3,24.0,6.0,-0.05483113549895435,0.0,False,0.010712146759033203,nan,nan,nan,nan,0.0,0.0
1759830043.5184386,3,24.0,6.0,-0.05483113549895435,0.0,False,0.010985374450683594,nan,nan,nan,nan,0.0,0.0
1759830043.5285697,3,24.0,6.0,-0.05483113549895435,0.0,False,0.010131120681762695,nan,nan,nan,nan,0.0,0.0
1759830043.5400865,3,24.0,6.0,-0.05483113549895435,0.0,False,0.011516809463500977,nan,nan,nan,nan,0.0,0.0
1759830043.550347,3,0.1999999999999993,0.04999999999999982,-0.004649472029974788,0.0,True,0.010260581970214844,0.0,0.0,0.0,0.0,0.0,0.0
1759830043.5615895,3,0.06685236768802214,0.016713091922005534,-0.0003612444767817635,0.0,True,0.011242389678955078,0.0,0.0,0.0,0.0,0.0,0.0
1759830043.5731342,3,0.025078369905956056,0.006269592476489014,4.4137778131059235e-05,0.0,True,0.01154470443725586,0.0,0.0,0.0,0.0,0.0,0.0
1759830043.5840452,3,0.009554140127388514,0.0023885350318471285,9.43498410554966e-05,0.0,True,0.010910987854003906,0.0,0.0,0.0,0.0,0.0,0.0
1759830043.5943015,3,0.0036479708162334614,0.0009119927040583654,9.73501953520639e-05,0.0,True,0.010256290435791016,0.0,0.0,0.0,0.0,0.0,0.0
1759830043.6058779,3,0.0013933236574745975,0.00034833091436864937,9.288912058913468e-05,0.0,True,0.011576414108276367,0.0,0.0,0.0,0.0,0.0,0.0
1759830043.6171746,3,0.0005321979776476837,0.00013304949441192093,8.297431997927873e-05,0.0,True,0.011296749114990234,0.0,0.0,0.0,0.0,0.0,0.0
1759830043.6276734,3,0.00020328129896749988,5.082032474187497e-05,7.16000799805272e-05,0.0,True,0.010498762130737305,0.0,0.0,0.0,0.0,0.0,0.0
1759830043.6380484,3,7.764653356756685e-05,1.9411633391891712e-05,6.196016899906454e-05,0.0,True,0.010375022888183594,0.0,0.0,0.0,0.0,0.0,0.0
1759830043.6493235,3,2.9658335969629788e-05,7.414583992407447e-06,5.5027689635167576e-05,0.0,True,0.011275053024291992,0.0,0.0,0.0,0.0,0.0,0.0
1759830043.6600711,3,1.1328476249141483e-05,2.8321190622853708e-06,4.847452808931507e-05,0.0,True,0.010747671127319336,0.0,0.0,0.0,0.0,0.0,0.0
1759830043.6708164,3,4.327092884113769e-06,1.0817732210284422e-06,4.3012531522279573e-05,0.0,True,0.01074528694152832,0.0,0.0,0.0,0.0,0.0,0.0
1759830043.6822186,3,1.6528024091247864e-06,4.132006022811966e-07,3.893112026442935e-05,0.0,True,0.011402130126953125,0.0,0.0,0.0,0.0,0.0,0.0
1759830043.6927755,3,6.313143435907778e-07,1.5782858589769444e-07,3.478165585502069e-05,0.0,True,0.010556936264038086,0.0,0.0,0.0,0.0,0.0,0.0
1759830043.7042558,3,2.4114062166594755e-07,6.028515541648689e-08,3.18809971586731e-05,0.0,True,0.011480331420898438,0.0,0.0,0.0,0.0,0.0,0.0
1759830043.7146554,3,9.210752140809039e-08,2.3026880352022598e-08,2.8705343636303837e-05,0.0,True,0.010399580001831055,0.0,0.0,0.0,0.0,0.0,0.0
1759830043.725401,3,3.518194255838072e-08,8.79548563959518e-09,2.6245644444422567e-05,0.0,True,0.010745525360107422,0.0,0.0,0.0,0.0,0.0,0.0
1759830043.736756,3,1.3438306267054932e-08,3.359576566763733e-09,2.443720895417556e-05,0.0,True,0.011355161666870117,0.0,0.0,0.0,0.0,0.0,0.0
1759830043.7485685,3,5.132976242784257e-09,1.2832440606960643e-09,2.2969222349900065e-05,0.0,True,0.011812448501586914,0.0,0.0,0.0,0.0,0.0,0.0
1759830043.759649,3,1.960622461297854e-09,4.901556153244635e-10,2.124413718007645e-05,0.0,True,0.011080503463745117,0.0,0.0,0.0,0.0,0.0,0.0
1759830043.7700539,3,7.488911411093048e-10,1.872227852773262e-10,1.9456108626414448e-05,0.0,True,0.010404825210571289,0.0,0.0,0.0,0.0,0.0,0.0
1759830043.7814498,3,2.8605096203006076e-10,7.151274050751519e-11,1.8311780669577615e-05,0.0,True,0.011395931243896484,0.0,0.0,0.0,0.0,0.0,0.0
1759830043.7928283,3,1.0926174498087759e-10,2.7315436245219397e-11,1.7256189156711343e-05,0.0,True,0.01137852668762207,0.0,0.0,0.0,0.0,0.0,0.0
1759830043.8042583,3,4.1734272912572e-11,1.0433568228143e-11,1.628076851378779e-05,0.0,True,0.011430025100708008,0.0,0.0,0.0,0.0,0.0,0.0
1759830043.8145301,3,1.594107375683843e-11,3.985268439209608e-12,1.5023717908846379e-05,0.0,True,0.010271787643432617,0.0,0.0,0.0,0.0,0.0,0.0
1759830043.8258512,3,6.088948357943303e-12,1.5222370894858257e-12,1.4256460788786285e-05,0.0,True,0.011321067810058594,0.0,0.0,0.0,0.0,0.0,0.0
1759830043.83664,3,2.3257713169914805e-12,5.814428292478701e-13,1.3407490582650894e-05,0.0,True,0.010788679122924805,0.0,0.0,0.0,0.0,0.0,0.0
1759830043.8510375,3,8.883655930311395e-13,2.2209139825778488e-13,1.3547243037592693e-05,0.0,True,0.014397621154785156,0.0,0.0,0.0,0.0,0.0,0.0
1759830043.862298,3,3.3932546210193855e-13,8.483136552548464e-14,1.2677263490523671e-05,0.0,True,0.011260509490966797,0.0,0.0,0.0,0.0,0.0,0.0
1759830043.8736315,3,1.2961079327467616e-13,3.240269831866904e-14,1.1876247232756043e-05,0.0,True,0.011333465576171875,0.0,0.0,0.0,0.0,0.0,0.0
1759830043.8840275,3,4.9506917722090003e-14,1.2376729430522501e-14,1.0976071872725868e-05,0.0,True,0.010396003723144531,0.0,0.0,0.0,0.0,0.0,0.0
1759830043.8940492,3,1.8909959891593857e-14,4.727489972898464e-15,1.0152657438311508e-05,0.0,True,0.010021686553955078,0.0,0.0,0.0,0.0,0.0,0.0
1759830043.9051526,3,7.222961952691576e-15,1.805740488172894e-15,9.696633366473861e-06,0.0,True,0.011103391647338867,0.0,0.0,0.0,0.0,0.0,0.0
1759830043.915694,3,2.7589259664808718e-15,6.897314916202179e-16,9.178746086746514e-06,0.0,True,0.010541439056396484,0.0,0.0,0.0,0.0,0.0,0.0
1759830043.9265418,3,1.0538159467510397e-15,2.634539866877599e-16,8.771666907492204e-06,0.0,True,0.010847806930541992,0.0,0.0,0.0,0.0,0.0,0.0
1759830043.9368057,3,4.025218737722478e-16,1.0063046844306195e-16,8.294862473334774e-06,0.0,True,0.010263919830322266,0.0,0.0,0.0,0.0,0.0,0.0
1759830043.947223,3,1.5374967456570376e-16,3.843741864142594e-17,7.900623081091851e-06,0.0,True,0.01041722297668457,0.0,0.0,0.0,0.0,0.0,0.0
1759830043.9580808,3,5.87271499248636e-17,1.46817874812159e-17,7.620291943233326e-06,0.0,True,0.010857820510864258,0.0,0.0,0.0,0.0,0.0,0.0
1759830043.968324,3,2.243177520888706e-17,5.607943802221765e-18,7.2530335488707465e-06,0.0,True,0.01024317741394043,0.0,0.0,0.0,0.0,0.0,0.0
1759830043.9784966,3,8.568175701797583e-18,2.1420439254493957e-18,6.909964321621942e-06,0.0,True,0.010172605514526367,0.0,0.0,0.0,0.0,0.0,0.0
1759830043.9896915,3,3.2727518965056928e-18,8.181879741264232e-19,6.752339762883253e-06,0.0,True,0.011194944381713867,0.0,0.0,0.0,0.0,0.0,0.0
1759830044.0005867,3,1.2500799877194962e-18,3.1251999692987405e-19,6.536008476665245e-06,0.0,True,0.010895252227783203,0.0,0.0,0.0,0.0,0.0,0.0
1759830044.0119884,3,4.774880666527964e-19,1.193720166631991e-19,6.37944981374261e-06,0.0,True,0.011401653289794922,0.0,0.0,0.0,0.0,0.0,0.0
1759830044.0224376,3,1.8238421223889297e-19,4.5596053059723243e-20,6.07992177670269e-06,0.0,True,0.01044917106628418,0.0,0.0,0.0,0.0,0.0,0.0
1759830044.032833,3,6.966457006388255e-20,1.7416142515970637e-20,5.796618697928579e-06,0.0,True,0.010395526885986328,0.0,0.0,0.0,0.0,0.0,0.0
1759830044.043221,3,2.6609497952754694e-20,6.6523744881886735e-21,5.542751338794005e-06,0.0,True,0.010387897491455078,0.0,0.0,0.0,0.0,0.0,0.0
1759830044.0537307,3,1.0163923794381549e-20,2.5409809485953873e-21,5.327791884113253e-06,0.0,True,0.010509729385375977,0.0,0.0,0.0,0.0,0.0,0.0
1759830044.064509,3,3.8822734303899535e-21,9.705683575974884e-22,5.157639511921275e-06,0.0,True,0.010778188705444336,0.0,0.0,0.0,0.0,0.0,0.0
1759830044.075207,3,1.4828964967883132e-21,3.707241241970783e-22,4.980833428369635e-06,0.0,True,0.010698080062866211,0.0,0.0,0.0,0.0,0.0,0.0
1759830044.0867507,3,5.664160599749863e-22,1.4160401499374658e-22,4.8941683035153005e-06,0.0,True,0.011543750762939453,0.0,0.0,0.0,0.0,0.0,0.0
1759830044.096891,3,2.1635168313664584e-22,5.408792078416146e-23,4.646011444009446e-06,0.0,True,0.010140180587768555,0.0,0.0,0.0,0.0,0.0,0.0
1759830044.1076393,3,8.263898943495123e-23,2.0659747358737808e-23,4.479310380389734e-06,0.0,True,0.01074838638305664,0.0,0.0,0.0,0.0,0.0,0.0
1759830044.118288,3,3.1565285168207896e-23,7.891321292051974e-24,4.314062274524133e-06,0.0,True,0.010648727416992188,0.0,0.0,0.0,0.0,0.0,0.0
1759830044.128347,3,1.2056866069672474e-23,3.0142165174181185e-24,4.104372416158242e-06,0.0,True,0.010058879852294922,0.0,0.0,0.0,0.0,0.0,0.0
1759830044.1397994,3,4.605313040809526e-24,1.1513282602023815e-24,4.038395638339409e-06,0.0,True,0.011452436447143555,0.0,0.0,0.0,0.0,0.0,0.0
1759830044.1502576,3,1.759073052756107e-24,4.397682631890268e-25,3.87495156850548e-06,0.0,True,0.010458230972290039,0.0,0.0,0.0,0.0,0.0,0.0
1759830044.1607575,3,6.71906117458796e-25,1.67976529364699e-25,3.7222046325169345e-06,0.0,True,0.010499954223632812,0.0,0.0,0.0,0.0,0.0,0.0
1759830044.1713173,3,2.5664529962028093e-25,6.416132490507023e-26,3.5856578515236492e-06,0.0,True,0.010559797286987305,0.0,0.0,0.0,0.0,0.0,0.0
1759830044.1819236,3,9.802978140204683e-26,2.4507445350511707e-26,3.4606835210837517e-06,0.0,True,0.01060628890991211,0.0,0.0,0.0,0.0,0.0,0.0
1759830044.1923907,3,3.744404458585956e-26,9.36101114646489e-27,3.3310864004931773e-06,0.0,True,0.010467052459716797,0.0,0.0,0.0,0.0,0.0,0.0
1759830044.2032373,3,1.4302352355531868e-26,3.575588088882967e-27,3.235640411602958e-06,0.0,True,0.010846614837646484,0.0,0.0,0.0,0.0,0.0,0.0
1759830044.2141373,3,5.4630124807360525e-27,1.3657531201840131e-27,3.1428052338355883e-06,0.0,True,0.010900020599365234,0.0,0.0,0.0,0.0,0.0,0.0
1759830044.2251918,3,2.0866850866762913e-27,5.216712716690728e-28,3.057120104621447e-06,0.0,True,0.011054515838623047,0.0,0.0,0.0,0.0,0.0,0.0
1759830044.2361233,3,7.970427792928227e-28,1.9926069482320569e-28,2.959288474713162e-06,0.0,True,0.01093149185180664,0.0,0.0,0.0,0.0,0.0,0.0
1759830044.2469947,3,3.044432512021774e-28,7.611081280054435e-29,2.8574433068584426e-06,0.0,True,0.010871410369873047,0.0,0.0,0.0,0.0,0.0,0.0
1759830044.2578237,3,1.1628697431370948e-28,2.907174357842737e-29,2.755688544020529e-06,0.0,True,0.010828971862792969,0.0,0.0,0.0,0.0,0.0,0.0
1759830044.269217,3,4.441767173895104e-29,1.110441793473776e-29,2.6894124776077888e-06,0.0,True,0.011393308639526367,0.0,0.0,0.0,0.0,0.0,0.0
1759830044.2792795,3,1.6966040903143648e-29,4.241510225785912e-30,2.545345981985747e-06,0.0,True,0.010062456130981445,0.0,0.0,0.0,0.0,0.0,0.0
1759830044.2905226,3,6.48045097047991e-30,1.6201127426199775e-30,2.479730675020164e-06,0.0,True,0.011243104934692383,0.0,0.0,0.0,0.0,0.0,0.0
1759830044.301503,3,2.4753120082960835e-30,6.188280020740209e-31,2.399889743820438e-06,0.0,True,0.010980367660522461,0.0,0.0,0.0,0.0,0.0,0.0
1759830044.312804,3,9.454850544083421e-31,2.3637126360208553e-31,2.3352343214710913e-06,0.0,True,0.011301040649414062,0.0,0.0,0.0,0.0,0.0,0.0
1759830044.3242788,3,3.6114315492894307e-31,9.028578873223577e-32,2.2750758041922836e-06,0.0,True,0.011474847793579102,0.0,0.0,0.0,0.0,0.0,0.0
1759830044.3357184,3,1.3794441037848712e-31,3.448610259462178e-32,2.2078775252509786e-06,0.0,True,0.01143956184387207,0.0,0.0,0.0,0.0,0.0,0.0
1759830044.35277,3,5.269007620651833e-32,1.3172519051629583e-32,2.3752412179334215e-06,0.0,True,0.01705169677734375,0.0,0.0,0.0,0.0,0.0,0.0
1759830044.3643467,3,2.0125818241067878e-32,5.0314545602669694e-33,2.2386557958498088e-06,0.0,True,0.011576652526855469,0.0,0.0,0.0,0.0,0.0,0.0
1759830044.3750596,3,7.687378516685304e-33,1.921844629171326e-33,2.070121035480099e-06,0.0,True,0.010712862014770508,0.0,0.0,0.0,0.0,0.0,0.0
1759830044.3861008,3,2.936317308988035e-33,7.340793272470088e-34,1.9442099103983423e-06,0.0,True,0.01104116439819336,0.0,0.0,0.0,0.0,0.0,0.0
1759830044.396538,3,1.1215734102788022e-33,2.8039335256970056e-34,1.8182361216645404e-06,0.0,True,0.010437250137329102,0.0,0.0,0.0,0.0,0.0,0.0
1759830044.4079394,3,4.284029218483717e-34,1.0710073046209293e-34,1.7478182092744987e-06,0.0,True,0.01140141487121582,0.0,0.0,0.0,0.0,0.0,0.0
1759830044.4186199,3,1.6363535526631304e-34,4.090883881657826e-35,1.6598700760539487e-06,0.0,True,0.010680437088012695,0.0,0.0,0.0,0.0,0.0,0.0
1759830044.42995,3,6.250314395056746e-35,1.5625785987641866e-35,1.6033761172096206e-06,0.0,True,0.011330127716064453,0.0,0.0,0.0,0.0,0.0,0.0
1759830044.4405847,3,2.3874076585389392e-35,5.968519146347348e-36,1.5278553986419752e-06,0.0,True,0.010634660720825195,0.0,0.0,0.0,0.0,0.0,0.0
1759830044.4517474,3,9.119085805600715e-36,2.279771451400179e-36,1.4761501656579412e-06,0.0,True,0.011162757873535156,0.0,0.0,0.0,0.0,0.0,0.0
1759830044.4619823,3,3.4831808314127565e-36,8.707952078531891e-37,1.399731989870645e-06,0.0,True,0.010234832763671875,0.0,0.0,0.0,0.0,0.0,0.0
1759830044.4728408,3,1.3304566886375555e-36,3.3261417215938888e-37,1.35058859296322e-06,0.0,True,0.010858535766601562,0.0,0.0,0.0,0.0,0.0,0.0
1759830044.4841356,3,5.081892344999102e-37,1.2704730862497754e-37,1.317162870329014e-06,0.0,True,0.011294841766357422,0.0,0.0,0.0,0.0,0.0,0.0
1759830044.4941998,3,1.94111014862175e-37,4.852775371554375e-38,1.2489820804262308e-06,0.0,True,0.010064125061035156,0.0,0.0,0.0,0.0,0.0,0.0
1759830044.5044928,3,7.414381008661485e-38,1.8535952521653713e-38,1.1946760816172741e-06,0.0,True,0.010293006896972656,0.0,0.0,0.0,0.0,0.0,0.0
1759830044.5154543,3,2.8320415397669584e-38,7.080103849417396e-39,1.1638133630142988e-06,0.0,True,0.010961532592773438,0.0,0.0,0.0,0.0,0.0,0.0
1759830044.5266604,3,1.0817436106393909e-38,2.7043590265984772e-39,1.1384644347245398e-06,0.0,True,0.01120615005493164,0.0,0.0,0.0,0.0,0.0,0.0
1759830044.5366883,3,4.131892921512149e-39,1.0329732303780372e-39,1.0824730480862854e-06,0.0,True,0.010027885437011719,0.0,0.0,0.0,0.0,0.0,0.0
1759830044.5473,3,1.578242658142539e-39,3.945606645356348e-40,1.04565871872353e-06,0.0,True,0.010611772537231445,0.0,0.0,0.0,0.0,0.0,0.0
1759830044.5578616,3,6.028350529154689e-40,1.5070876322886723e-40,1.010424964142942e-06,0.0,True,0.010561466217041016,0.0,0.0,0.0,0.0,0.0,0.0
1759830044.5688941,3,2.3026250060386767e-40,5.756562515096692e-41,9.867331582924521e-07,0.0,True,0.011032581329345703,0.0,0.0,0.0,0.0,0.0,0.0
1759830044.5794375,3,8.795244889613426e-41,2.1988112224033564e-41,9.513724306131621e-07,0.0,True,0.010543346405029297,0.0,0.0,0.0,0.0,0.0,0.0
1759830044.5902677,3,3.359484608453511e-41,8.398711521133777e-42,9.230670228177473e-07,0.0,True,0.010830163955688477,0.0,0.0,0.0,0.0,0.0,0.0
1759830044.601608,3,1.2832089357471087e-41,3.208022339367772e-42,9.047561331243514e-07,0.0,True,0.01134037971496582,0.0,0.0,0.0,0.0,0.0,0.0
1759830044.6136508,3,4.901421987878155e-42,1.2253554969695387e-42,8.9630686606057e-07,0.0,True,0.012042760848999023,0.0,0.0,0.0,0.0,0.0,0.0
1759830044.624198,3,1.8721766061633795e-42,4.680441515408449e-43,8.547060366126402e-07,0.0,True,0.010547161102294922,0.0,0.0,0.0,0.0,0.0,0.0
1759830044.6348946,3,7.151078306119851e-43,1.7877695765299627e-43,8.185532314186617e-07,0.0,True,0.010696649551391602,0.0,0.0,0.0,0.0,0.0,0.0
1759830044.6455972,3,2.7314688567257575e-43,6.828672141814394e-44,7.861217330429326e-07,0.0,True,0.01070261001586914,0.0,0.0,0.0,0.0,0.0,0.0
1759830044.6562514,3,1.0433282640574223e-43,2.608320660143556e-44,7.556213104109588e-07,0.0,True,0.010654211044311523,0.0,0.0,0.0,0.0,0.0,0.0
1759830044.6668375,3,3.9851593544651e-44,9.96289838616275e-45,7.264163297548976e-07,0.0,True,0.010586023330688477,0.0,0.0,0.0,0.0,0.0,0.0
1759830044.6772056,3,1.5221954228210778e-44,3.8054885570526946e-45,6.961986445119805e-07,0.0,True,0.010368108749389648,0.0,0.0,0.0,0.0,0.0,0.0
1759830044.687558,3,5.814269139981343e-45,1.4535672849953356e-45,6.686261002641913e-07,0.0,True,0.010352373123168945,0.0,0.0,0.0,0.0,0.0,0.0
1759830044.6990752,3,2.2208531917332524e-45,5.552132979333131e-46,6.599370969695428e-07,0.0,True,0.01151728630065918,0.0,0.0,0.0,0.0,0.0,0.0
1759830044.7090905,3,8.482904352184153e-46,2.1207260880460383e-46,6.278674442583565e-07,0.0,True,0.010015249252319336,0.0,0.0,0.0,0.0,0.0,0.0
1759830044.7194865,3,3.2401811392199377e-46,8.100452848049844e-47,6.037977087203217e-07,0.0,True,0.010396003723144531,0.0,0.0,0.0,0.0,0.0,0.0
1759830044.729936,3,1.237639065475661e-46,3.0940976636891525e-47,5.827368676492028e-07,0.0,True,0.010449409484863281,0.0,0.0,0.0,0.0,0.0,0.0
1759830044.7402225,3,4.727360572070459e-47,1.1818401430176146e-47,5.609647404369866e-07,0.0,True,0.010286569595336914,0.0,0.0,0.0,0.0,0.0,0.0
1759830044.750232,3,1.8056910614547678e-47,4.5142276536369196e-48,5.374726779194816e-07,0.0,True,0.010009527206420898,0.0,0.0,0.0,0.0,0.0,0.0
1759830044.7607775,3,6.89712612293846e-48,1.724281530734615e-48,5.226074399899971e-07,0.0,True,0.010545492172241211,0.0,0.0,0.0,0.0,0.0,0.0
1759830044.7712975,3,2.6344677542677052e-48,6.586169385669263e-49,5.076925271296773e-07,0.0,True,0.010519981384277344,0.0,0.0,0.0,0.0,0.0,0.0
1759830044.7814083,3,1.0062771398646575e-48,2.5156928496616436e-49,4.882347415247068e-07,0.0,True,0.010110855102539062,0.0,0.0,0.0,0.0,0.0,0.0
1759830044.7915342,3,3.8436366532626735e-49,9.609091633156684e-50,4.703298630559516e-07,0.0,True,0.010125875473022461,0.0,0.0,0.0,0.0,0.0,0.0
1759830044.8027105,3,1.4681385611414468e-49,3.670346402853617e-50,4.645421745053113e-07,0.0,True,0.011176347732543945,0.0,0.0,0.0,0.0,0.0,0.0
1759830044.8132415,3,5.60779030161667e-50,1.4019475754041674e-50,4.502760484470514e-07,0.0,True,0.010530948638916016,0.0,0.0,0.0,0.0,0.0,0.0
1759830044.8246644,3,2.141985293435543e-50,5.354963233588857e-51,4.441685854672528e-07,0.0,True,0.011422872543334961,0.0,0.0,0.0,0.0,0.0,0.0
1759830044.8354485,3,8.181655786899603e-51,2.0454139467249007e-51,4.2997636651165294e-07,0.0,True,0.010784149169921875,0.0,0.0,0.0,0.0,0.0,0.0
1759830044.8465455,3,3.125114426343381e-51,7.812786065858453e-52,4.182849124845234e-07,0.0,True,0.011096954345703125,0.0,0.0,0.0,0.0,0.0,0.0
1759830044.8580177,3,1.1936874921305416e-51,2.984218730326354e-52,4.0931191858106786e-07,0.0,True,0.011472225189208984,0.0,0.0,0.0,0.0,0.0,0.0
1759830044.8692183,3,4.559480500482441e-52,1.1398701251206103e-52,3.9672963048076326e-07,0.0,True,0.011200666427612305,0.0,0.0,0.0,0.0,0.0,0.0
1759830044.8793385,3,1.741566580141911e-52,4.353916450354777e-53,3.7523039253528623e-07,0.0,True,0.010120153427124023,0.0,0.0,0.0,0.0,0.0,0.0
1759830044.8902798,3,6.652192399432923e-53,1.6630480998582307e-53,3.627367624048361e-07,0.0,True,0.010941267013549805,0.0,0.0,0.0,0.0,0.0,0.0
1759830044.90055,3,2.5409113968796594e-53,6.352278492199148e-54,3.4605997267789235e-07,0.0,True,0.010270118713378906,0.0,0.0,0.0,0.0,0.0,0.0
1759830044.9115388,3,9.705417912060561e-54,2.4263544780151403e-54,3.362596432410214e-07,0.0,True,0.010988950729370117,0.0,0.0,0.0,0.0,0.0,0.0
1759830044.9229412,3,3.7071397673850956e-54,9.267849418462739e-55,3.293961681194446e-07,0.0,True,0.011402368545532227,0.0,0.0,0.0,0.0,0.0,0.0
1759830044.9332106,3,1.4160013900947273e-54,3.540003475236818e-55,3.138647226563762e-07,0.0,True,0.010269403457641602,0.0,0.0,0.0,0.0,0.0,0.0
1759830044.9446628,3,5.408644028990871e-55,1.3521610072477177e-55,3.0736484646354256e-07,0.0,True,0.011452198028564453,0.0,0.0,0.0,0.0,0.0,0.0
1759830044.954877,3,2.065918186025341e-55,5.164795465063352e-56,2.9249502553341244e-07,0.0,True,0.010214090347290039,0.0,0.0,0.0,0.0,0.0,0.0
1759830044.9651985,3,7.891105290851521e-56,1.9727763227128803e-56,2.797139009302896e-07,0.0,True,0.010321617126464844,0.0,0.0,0.0,0.0,0.0,0.0
1759830044.975848,3,3.014134012301156e-56,7.53533503075289e-57,2.703300356898808e-07,0.0,True,0.010649442672729492,0.0,0.0,0.0,0.0,0.0,0.0
1759830044.986961,3,1.1512967460519477e-56,2.8782418651298693e-57,2.640761094241384e-07,0.0,True,0.01111292839050293,0.0,0.0,0.0,0.0,0.0,0.0
1759830044.9983683,3,4.397562258546877e-57,1.0993905646367192e-57,2.5888632482207186e-07,0.0,True,0.01140737533569336,0.0,0.0,0.0,0.0,0.0,0.0
1759830045.0091386,3,1.679719315121154e-57,4.199298287802885e-58,2.4934621745131835e-07,0.0,True,0.010770320892333984,0.0,0.0,0.0,0.0,0.0,0.0
1759830045.0194836,3,6.415956868165856e-58,1.603989217041464e-58,2.3793368342239773e-07,0.0,True,0.010344982147216797,0.0,0.0,0.0,0.0,0.0,0.0
1759830045.029697,3,2.4506774532860282e-58,6.1266936332150705e-59,2.270871677367836e-07,0.0,True,0.010213375091552734,0.0,0.0,0.0,0.0,0.0,0.0
1759830045.0405755,3,9.3607549169223e-59,2.340188729230575e-59,2.2071111160926193e-07,0.0,True,0.010878562927246094,0.0,0.0,0.0,0.0,0.0,0.0
1759830045.0513654,3,3.57549021790662e-59,8.93872554476655e-60,2.1400484051525837e-07,0.0,True,0.010789871215820312,0.0,0.0,0.0,0.0,0.0,0.0
1759830045.0616302,3,1.3657157367975608e-59,3.414289341993902e-60,2.0495873798154207e-07,0.0,True,0.010264873504638672,0.0,0.0,0.0,0.0,0.0,0.0
1759830045.071998,3,5.216569924860627e-60,1.3041424812151567e-60,1.9714036092466358e-07,0.0,True,0.010367631912231445,0.0,0.0,0.0,0.0,0.0,0.0
1759830045.0822594,3,1.9925524066062742e-60,4.9813810165156855e-61,1.8954732539100405e-07,0.0,True,0.01026153564453125,0.0,0.0,0.0,0.0,0.0,0.0
1759830045.0930598,3,7.610872949581961e-61,1.9027182373954904e-61,1.8475813057250434e-07,0.0,True,0.010800361633300781,0.0,0.0,0.0,0.0,0.0,0.0
1759830045.1034212,3,2.907094782683144e-61,7.26773695670786e-62,1.7812436503561457e-07,0.0,True,0.010361433029174805,0.0,0.0,0.0,0.0,0.0,0.0
1759830045.1149032,3,1.1104113984674717e-61,2.7760284961686794e-62,1.7600997193056855e-07,0.0,True,0.011482000350952148,0.0,0.0,0.0,0.0,0.0,0.0
1759830045.1258574,3,4.2413941271927125e-62,1.0603485317981781e-62,1.710649977226808e-07,0.0,True,0.010954141616821289,0.0,0.0,0.0,0.0,0.0,0.0
1759830045.1372795,3,1.6200683969034213e-62,4.050170992258553e-63,1.674284035857454e-07,0.0,True,0.011422157287597656,0.0,0.0,0.0,0.0,0.0,0.0
1759830045.1485445,3,6.18811063517552e-63,1.54702765879388e-63,1.6271115921284718e-07,0.0,True,0.011265039443969727,0.0,0.0,0.0,0.0,0.0,0.0
1759830045.1595514,3,2.3636479364923475e-63,5.909119841230869e-64,1.568775651605847e-07,0.0,True,0.011006832122802734,0.0,0.0,0.0,0.0,0.0,0.0
1759830045.170335,3,9.028331743015236e-64,2.257082935753809e-64,1.5051353852157945e-07,0.0,True,0.010783672332763672,0.0,0.0,0.0,0.0,0.0,0.0
1759830045.1817293,3,3.4485158641222385e-64,8.621289660305596e-65,1.4645917989497548e-07,0.0,True,0.011394262313842773,0.0,0.0,0.0,0.0,0.0,0.0
1759830045.192692,3,1.3172158493514808e-64,3.293039623378702e-65,1.410063186213506e-07,0.0,True,0.010962724685668945,0.0,0.0,0.0,0.0,0.0,0.0
1759830045.2033877,3,5.0313168393220445e-65,1.2578292098305111e-65,1.350064229299619e-07,0.0,True,0.010695695877075195,0.0,0.0,0.0,0.0,0.0,0.0
1759830045.213812,3,1.921792024451327e-65,4.804480061128318e-66,1.2878846789021736e-07,0.0,True,0.010424375534057617,0.0,0.0,0.0,0.0,0.0,0.0
1759830045.224402,3,7.340592340319379e-66,1.8351480850798447e-66,1.2371066659966345e-07,0.0,True,0.010589838027954102,0.0,0.0,0.0,0.0,0.0,0.0
1759830045.236015,3,2.803856776444867e-66,7.009641941112167e-67,1.2169389496108352e-07,0.0,True,0.011613130569458008,0.0,0.0,0.0,0.0,0.0,0.0
1759830045.247578,3,1.0709779890152234e-66,2.6774449725380586e-67,1.1906235464209658e-07,0.0,True,0.011562824249267578,0.0,0.0,0.0,0.0,0.0,0.0
1759830045.258562,3,4.090771906008037e-67,1.0226929765020093e-67,1.1458835036393111e-07,0.0,True,0.010984182357788086,0.0,0.0,0.0,0.0,0.0,0.0
1759830045.26948,3,1.56253582787188e-67,3.9063395696797e-68,1.1010153322388305e-07,0.0,True,0.010917901992797852,0.0,0.0,0.0,0.0,0.0,0.0
1759830045.2810695,3,5.968355776076028e-68,1.492088944019007e-68,1.0738482725258791e-07,0.0,True,0.011589527130126953,0.0,0.0,0.0,0.0,0.0,0.0
1759830045.2923963,3,2.279709049509286e-68,5.699272623773215e-69,1.0391340943272098e-07,0.0,True,0.011326789855957031,0.0,0.0,0.0,0.0,0.0,0.0
1759830045.3028264,3,8.707713724518302e-69,2.1769284311295756e-69,9.85738459746699e-08,0.0,True,0.010430097579956055,0.0,0.0,0.0,0.0,0.0,0.0
1759830045.3133028,3,3.3260506784620524e-69,8.315126696155131e-70,9.394658562200675e-08,0.0,True,0.010476350784301758,0.0,0.0,0.0,0.0,0.0,0.0
1759830045.3242805,3,1.2704383108678561e-69,3.1760957771696403e-70,9.08660302556541e-08,0.0,True,0.010977745056152344,0.0,0.0,0.0,0.0,0.0,0.0
1759830045.334792,3,4.852642541415161e-70,1.2131606353537903e-70,8.707103305027886e-08,0.0,True,0.010511398315429688,0.0,0.0,0.0,0.0,0.0,0.0
1759830045.3448007,3,1.8535445155669217e-70,4.633861288917304e-71,8.26933757025472e-08,0.0,True,0.010008811950683594,0.0,0.0,0.0,0.0,0.0,0.0
1759830045.3581555,3,7.079910052856055e-71,1.7699775132140137e-71,8.466715417654314e-08,0.0,True,0.013354778289794922,0.0,0.0,0.0,0.0,0.0,0.0
1759830045.3688784,3,2.704285002898948e-71,6.76071250724737e-72,8.098427084490822e-08,0.0,True,0.010722875595092773,0.0,0.0,0.0,0.0,0.0,0.0
1759830045.3786647,3,1.03294495584079e-71,2.582362389601975e-72,7.583994232618352e-08,0.0,True,0.009786367416381836,0.0,0.0,0.0,0.0,0.0,0.0
1759830045.3897514,3,3.9454986462342247e-72,9.863746615585562e-73,7.355667985819991e-08,0.0,True,0.011086702346801758,0.0,0.0,0.0,0.0,0.0,0.0
1759830045.4004297,3,1.5070463802947763e-72,3.767615950736941e-73,7.079897290651616e-08,0.0,True,0.010678291320800781,0.0,0.0,0.0,0.0,0.0,0.0
1759830045.4111798,3,5.756404946501047e-73,1.439101236625262e-73,6.829672205554971e-08,0.0,True,0.010750055313110352,0.0,0.0,0.0,0.0,0.0,0.0
1759830045.4219773,3,2.19875103655538e-73,5.49687759138845e-74,6.599416657593338e-08,0.0,True,0.010797500610351562,0.0,0.0,0.0,0.0,0.0,0.0
1759830045.4321613,3,8.398481631650925e-74,2.0996204079127312e-74,6.294814713925234e-08,0.0,True,0.010184049606323242,0.0,0.0,0.0,0.0,0.0,0.0
1759830045.4434144,3,3.2079345293989785e-74,8.019836323497446e-75,6.163456589547422e-08,0.0,True,0.011253118515014648,0.0,0.0,0.0,0.0,0.0,0.0
1759830045.4541013,3,1.2253219565460107e-74,3.0633048913650267e-75,5.948908921027396e-08,0.0,True,0.010686874389648438,0.0,0.0,0.0,0.0,0.0,0.0
1759830045.4652557,3,4.680313402390543e-75,1.1700783505976357e-75,5.7964473221261414e-08,0.0,True,0.011154413223266602,0.0,0.0,0.0,0.0,0.0,0.0
1759830045.476557,3,1.7877206417115239e-75,4.4693016042788097e-76,5.6538262072081125e-08,0.0,True,0.011301279067993164,0.0,0.0,0.0,0.0,0.0,0.0
1759830045.4879973,3,6.82848522744029e-76,1.7071213068600726e-76,5.5138201560112066e-08,0.0,True,0.011440277099609375,0.0,0.0,0.0,0.0,0.0,0.0
1759830045.4992883,3,2.6082492652056342e-76,6.5206231630140855e-77,5.3435179836469615e-08,0.0,True,0.011291027069091797,0.0,0.0,0.0,0.0,0.0,0.0
1759830045.5105374,3,9.962625681766136e-77,2.490656420441534e-77,5.1648607168885974e-08,0.0,True,0.011249065399169922,0.0,0.0,0.0,0.0,0.0,0.0
1759830045.5207407,3,3.80538439324207e-77,9.513460983105176e-78,4.8817542008805503e-08,0.0,True,0.010203361511230469,0.0,0.0,0.0,0.0,0.0,0.0
1759830045.5316699,3,1.453527497960075e-77,3.6338187449001876e-78,4.707258050018481e-08,0.0,True,0.010929107666015625,0.0,0.0,0.0,0.0,0.0,0.0
1759830045.5429678,3,5.551981006381551e-78,1.3879952515953877e-78,4.581746271270504e-08,0.0,True,0.011297941207885742,0.0,0.0,0.0,0.0,0.0,0.0
1759830045.5543706,3,2.120668039543905e-78,5.3016700988597626e-79,4.460668456829353e-08,0.0,True,0.01140284538269043,0.0,0.0,0.0,0.0,0.0,0.0
1759830045.5658147,3,8.100231122501656e-79,2.025057780625414e-79,4.334743142209163e-08,0.0,True,0.011444091796875,0.0,0.0,0.0,0.0,0.0,0.0
1759830045.5759664,3,3.094012972065919e-79,7.735032430164798e-80,4.092210392769857e-08,0.0,True,0.01015162467956543,0.0,0.0,0.0,0.0,0.0,0.0
1759830045.58692,3,1.181807793696102e-79,2.954519484240255e-80,3.9472068280588246e-08,0.0,True,0.010953664779663086,0.0,0.0,0.0,0.0,0.0,0.0
1759830045.5979,3,4.5141040902238716e-80,1.1285260225559679e-80,3.815874549673026e-08,0.0,True,0.010979890823364258,0.0,0.0,0.0,0.0,0.0,0.0
1759830045.608238,3,1.724234333710597e-80,4.310585834276492e-81,3.63889434140674e-08,0.0,True,0.010338068008422852,0.0,0.0,0.0,0.0,0.0,0.0
1759830045.6192877,3,6.585989109079193e-81,1.6464972772697982e-81,3.533704262537185e-08,0.0,True,0.011049747467041016,0.0,0.0,0.0,0.0,0.0,0.0
1759830045.630053,3,2.5156239901316126e-81,6.289059975329032e-82,3.4097250356524e-08,0.0,True,0.010765314102172852,0.0,0.0,0.0,0.0,0.0,0.0
1759830045.6413937,3,9.608828613156457e-82,2.4022071532891143e-82,3.3303233060166804e-08,0.0,True,0.011340618133544922,0.0,0.0,0.0,0.0,0.0,0.0
1759830045.6527774,3,3.670245938153251e-82,9.175614845383128e-83,3.246862156913721e-08,0.0,True,0.011383771896362305,0.0,0.0,0.0,0.0,0.0,0.0
1759830045.6635833,3,1.401909201303297e-82,3.504773003258243e-83,3.118186775452614e-08,0.0,True,0.010805845260620117,0.0,0.0,0.0,0.0,0.0,0.0
1759830045.674091,3,5.35481665756641e-83,1.3387041643916024e-83,2.9778419730064343e-08,0.0,True,0.010507822036743164,0.0,0.0,0.0,0.0,0.0,0.0
1759830045.6856122,3,2.0453579596662614e-83,5.113394899165654e-84,2.9135160950488626e-08,0.0,True,0.011521100997924805,0.0,0.0,0.0,0.0,0.0,0.0
1759830045.6963956,3,7.8125722143237525e-84,1.9531430535809381e-84,2.8000608054412623e-08,0.0,True,0.01078343391418457,0.0,0.0,0.0,0.0,0.0,0.0
1759830045.706458,3,2.984137046308645e-84,7.460342615771612e-85,2.6511599138245856e-08,0.0,True,0.010062456130981445,0.0,0.0,0.0,0.0,0.0,0.0
1759830045.7177346,3,1.1398389246021832e-84,2.849597311505458e-85,2.5888847510202595e-08,0.0,True,0.011276483535766602,0.0,0.0,0.0,0.0,0.0,0.0
1759830045.7292109,3,4.3537972749790514e-85,1.0884493187447629e-85,2.535090626309966e-08,0.0,True,0.011476278305053711,0.0,0.0,0.0,0.0,0.0,0.0
1759830045.74048,3,1.6630025789153255e-85,4.157506447288314e-86,2.4616089611129155e-08,0.0,True,0.011269092559814453,0.0,0.0,0.0,0.0,0.0,0.0
1759830045.7508407,3,6.35210461766925e-86,1.5880261544173126e-86,2.3402066950950484e-08,0.0,True,0.0103607177734375,0.0,0.0,0.0,0.0,0.0,0.0
1759830045.7622752,3,2.4262880638544975e-86,6.065720159636244e-87,2.2828084311754537e-08,0.0,True,0.011434555053710938,0.0,0.0,0.0,0.0,0.0,0.0
1759830045.7735848,3,9.267595738942427e-87,2.316898934735607e-87,2.2174627467563823e-08,0.0,True,0.011309623718261719,0.0,0.0,0.0,0.0,0.0,0.0
1759830045.7846453,3,3.5399065782823093e-87,8.849766445705773e-88,2.1382356329979757e-08,0.0,True,0.011060476303100586,0.0,0.0,0.0,0.0,0.0,0.0
1759830045.7956889,3,1.3521239959045015e-87,3.3803099897612536e-88,2.0606748307727685e-08,0.0,True,0.011043548583984375,0.0,0.0,0.0,0.0,0.0,0.0
1759830045.8059905,3,5.164654094311958e-88,1.2911635235779895e-88,1.9562441444520573e-08,0.0,True,0.010301589965820312,0.0,0.0,0.0,0.0,0.0,0.0
1759830045.8172066,3,1.9727223238908626e-88,4.9318058097271564e-89,1.9009284812909755e-08,0.0,True,0.011216163635253906,0.0,0.0,0.0,0.0,0.0,0.0
1759830045.8275907,3,7.535128773606307e-89,1.8837821934015768e-89,1.8144539204456578e-08,0.0,True,0.010384082794189453,0.0,0.0,0.0,0.0,0.0,0.0
1759830045.8379862,3,2.8781630819102973e-89,7.195407704775743e-90,1.7366040161448382e-08,0.0,True,0.010395526885986328,0.0,0.0,0.0,0.0,0.0,0.0
1759830045.848039,3,1.0993604721245857e-89,2.748401180311464e-90,1.654923131866326e-08,0.0,True,0.010052680969238281,0.0,0.0,0.0,0.0,0.0,0.0
1759830045.8611097,3,4.199183344634603e-90,1.0497958361586508e-90,1.688468564964296e-08,0.0,True,0.013070821762084961,0.0,0.0,0.0,0.0,0.0,0.0
1759830045.871422,3,1.6039453126579549e-90,4.009863281644887e-91,1.605792387948668e-08,0.0,True,0.010312318801879883,0.0,0.0,0.0,0.0,0.0,0.0
1759830045.8827307,3,6.126525933392618e-91,1.5316314833481545e-91,1.559477880164195e-08,0.0,True,0.011308670043945312,0.0,0.0,0.0,0.0,0.0,0.0
1759830045.8935153,3,2.3401246735983054e-91,5.8503116839957635e-92,1.4972870054918985e-08,0.0,True,0.010784626007080078,0.0,0.0,0.0,0.0,0.0,0.0
1759830045.9037154,3,8.938480874022989e-92,2.2346202185057472e-92,1.4213259902362552e-08,0.0,True,0.010200023651123047,0.0,0.0,0.0,0.0,0.0,0.0
1759830045.914186,3,3.4141958860859144e-92,8.535489715214786e-93,1.3630480744097895e-08,0.0,True,0.01047062873840332,0.0,0.0,0.0,0.0,0.0,0.0
1759830045.9245143,3,1.304106784234755e-92,3.2602669605868875e-93,1.3070880378052152e-08,0.0,True,0.010328292846679688,0.0,0.0,0.0,0.0,0.0,0.0
1759830045.9352536,3,4.981244666183508e-93,1.245311166545877e-93,1.2678815330957605e-08,0.0,True,0.010739326477050781,0.0,0.0,0.0,0.0,0.0,0.0
1759830045.9466612,3,1.9026661562029756e-93,4.756665390507439e-94,1.2473617694297445e-08,0.0,True,0.011407613754272461,0.0,0.0,0.0,0.0,0.0,0.0
1759830045.9573572,3,7.2675380242542e-94,1.81688450606355e-94,1.203359634160961e-08,0.0,True,0.010695934295654297,0.0,0.0,0.0,0.0,0.0,0.0
1759830045.9687812,3,2.7759525107328465e-94,6.939881276832116e-95,1.1780680431172641e-08,0.0,True,0.011424064636230469,0.0,0.0,0.0,0.0,0.0,0.0
1759830045.978991,3,1.0603195079443399e-94,2.6507987698608497e-95,1.1206509498151718e-08,0.0,True,0.010209798812866211,0.0,0.0,0.0,0.0,0.0,0.0
1759830045.9904866,3,4.050060131001736e-95,1.012515032750434e-95,1.0985293563692267e-08,0.0,True,0.011495590209960938,0.0,0.0,0.0,0.0,0.0,0.0
1759830046.001775,3,1.5469853135618113e-95,3.867463283904528e-96,1.0692232876863272e-08,0.0,True,0.01128840446472168,0.0,0.0,0.0,0.0,0.0,0.0
1759830046.012485,3,5.908958096836982e-96,1.4772395242092454e-96,1.0252983351222156e-08,0.0,True,0.010710000991821289,0.0,0.0,0.0,0.0,0.0,0.0
1759830046.0239284,3,2.257021154892834e-96,5.642552887232085e-97,9.9938102238184e-09,0.0,True,0.011443376541137695,0.0,0.0,0.0,0.0,0.0,0.0
1759830046.0352073,3,8.621053678415215e-97,2.1552634196038037e-97,9.688293722831531e-09,0.0,True,0.011278867721557617,0.0,0.0,0.0,0.0,0.0,0.0
1759830046.0464175,3,3.2929494863173064e-97,8.232373715793266e-98,9.36226118852801e-09,0.0,True,0.011210203170776367,0.0,0.0,0.0,0.0,0.0,0.0
1759830046.057815,3,1.257794780536704e-97,3.14448695134176e-98,9.075174389749918e-09,0.0,True,0.011397600173950195,0.0,0.0,0.0,0.0,0.0,0.0
1759830046.0686786,3,4.804348552928062e-98,1.2010871382320154e-98,8.689871044964548e-09,0.0,True,0.010863542556762695,0.0,0.0,0.0,0.0,0.0,0.0
1759830046.0791383,3,1.8350978534171463e-98,4.587744633542866e-99,8.263512540906959e-09,0.0,True,0.010459661483764648,0.0,0.0,0.0,0.0,0.0,0.0
1759830046.0907788,3,7.009450073233775e-99,1.7523625183084438e-99,8.085689451320377e-09,0.0,True,0.011640548706054688,0.0,0.0,0.0,0.0,0.0,0.0
1759830046.1011338,3,2.677371685529862e-99,6.693429213824655e-100,7.685370562171556e-09,0.0,True,0.010354995727539062,0.0,0.0,0.0,0.0,0.0,0.0
1759830046.1118808,3,1.0226649833558122e-99,2.5566624583895304e-100,7.386078415549946e-09,0.0,True,0.010746955871582031,0.0,0.0,0.0,0.0,0.0,0.0
1759830046.1222653,3,3.9062326453757465e-100,9.765581613439366e-101,7.059657747277015e-09,0.0,True,0.010384559631347656,0.0,0.0,0.0,0.0,0.0,0.0
1759830046.1329923,3,1.4920481025691202e-100,3.7301202564228005e-101,6.817332476316551e-09,0.0,True,0.0107269287109375,0.0,0.0,0.0,0.0,0.0,0.0
1759830046.1441011,3,5.6991166233161456e-101,1.4247791558290364e-101,6.643473327017091e-09,0.0,True,0.011108875274658203,0.0,0.0,0.0,0.0,0.0,0.0
1759830046.1553102,3,2.176868844257236e-101,5.44217211064309e-102,6.474935254630054e-09,0.0,True,0.01120901107788086,0.0,0.0,0.0,0.0,0.0,0.0
1759830046.16606,3,8.314899094555626e-102,2.0787247736389065e-102,6.233582539039162e-09,0.0,True,0.01074981689453125,0.0,0.0,0.0,0.0,0.0,0.0
1759830046.1769822,3,3.1760088410945227e-102,7.940022102736307e-103,6.024639453983127e-09,0.0,True,0.01092219352722168,0.0,0.0,0.0,0.0,0.0,0.0
1759830046.1872828,3,1.2131274287279439e-102,3.0328185718198597e-103,5.747144982137797e-09,0.0,True,0.010300636291503906,0.0,0.0,0.0,0.0,0.0,0.0
1759830046.1988218,3,4.633734450893089e-103,1.1584336127232722e-103,5.645449441260553e-09,0.0,True,0.011538982391357422,0.0,0.0,0.0,0.0,0.0,0.0
1759830046.209081,3,1.769929065399829e-103,4.4248226634995726e-104,5.3804134481083565e-09,0.0,True,0.010259151458740234,0.0,0.0,0.0,0.0,0.0,0.0
1759830046.2195203,3,6.760527453063991e-104,1.6901318632659978e-104,5.15885734131416e-09,0.0,True,0.010439395904541016,0.0,0.0,0.0,0.0,0.0,0.0
1759830046.229774,3,2.5822917051936845e-104,6.455729262984211e-105,4.940465814229356e-09,0.0,True,0.010253667831420898,0.0,0.0,0.0,0.0,0.0,0.0
1759830046.2403445,3,9.863476625170641e-105,2.4658691562926602e-105,4.777851003723299e-09,0.0,True,0.010570526123046875,0.0,0.0,0.0,0.0,0.0,0.0
1759830046.2507236,3,3.767512823575078e-105,9.418782058937695e-106,4.604803649499445e-09,0.0,True,0.01037907600402832,0.0,0.0,0.0,0.0,0.0,0.0
1759830046.2611148,3,1.4390618455545936e-105,3.597654613886484e-106,4.443656997921153e-09,0.0,True,0.0103912353515625,0.0,0.0,0.0,0.0,0.0,0.0
1759830046.271936,3,5.49672713088703e-106,1.3741817827217574e-106,4.332788350325245e-09,0.0,True,0.010821104049682617,0.0,0.0,0.0,0.0,0.0,0.0
1759830046.2829084,3,2.0995629371151533e-106,5.248907342787883e-107,4.231304195911889e-09,0.0,True,0.01097249984741211,0.0,0.0,0.0,0.0,0.0,0.0
1759830046.293785,3,8.019616804584305e-107,2.004904201146076e-107,4.111919693627897e-09,0.0,True,0.010876655578613281,0.0,0.0,0.0,0.0,0.0,0.0
1759830046.3051445,3,3.06322104260138e-107,7.65805260650345e-108,4.02930577791949e-09,0.0,True,0.011359453201293945,0.0,0.0,0.0,0.0,0.0,0.0
1759830046.316572,3,1.1700463232198375e-107,2.9251158080495937e-108,3.938363413169554e-09,0.0,True,0.01142740249633789,0.0,0.0,0.0,0.0,0.0,0.0
1759830046.3274794,3,4.469179270581326e-108,1.1172948176453315e-108,3.793154235154361e-09,0.0,True,0.010907411575317383,0.0,0.0,0.0,0.0,0.0,0.0
1759830046.3379903,3,1.707074579545603e-108,4.267686448864008e-109,3.6221914356815432e-09,0.0,True,0.010510921478271484,0.0,0.0,0.0,0.0,0.0,0.0
1759830046.3493943,3,6.520444680554843e-109,1.6301111701387108e-109,3.5340024240326784e-09,0.0,True,0.011404037475585938,0.0,0.0,0.0,0.0,0.0,0.0
1759830046.3639772,3,2.490588246208499e-109,6.226470615521248e-110,3.663441106027676e-09,0.0,True,0.01458287239074707,0.0,0.0,0.0,0.0,0.0,0.0
1759830046.3742466,3,9.513200580706552e-110,2.378300145176638e-110,3.42284067755827e-09,0.0,True,0.010269403457641602,0.0,0.0,0.0,0.0,0.0,0.0
1759830046.385531,3,3.6337192800346653e-110,9.084298200086663e-111,3.2701716889960153e-09,0.0,True,0.011284351348876953,0.0,0.0,0.0,0.0,0.0,0.0
1759830046.3968966,3,1.3879572593974446e-110,3.4698931484936116e-111,3.14093284714545e-09,0.0,True,0.011365652084350586,0.0,0.0,0.0,0.0,0.0,0.0
1759830046.407648,3,5.301524981576693e-111,1.3253812453941733e-111,2.9833566728143524e-09,0.0,True,0.010751485824584961,0.0,0.0,0.0,0.0,0.0,0.0
1759830046.4189525,3,2.0250023507556365e-111,5.062505876889091e-112,2.876189952871755e-09,0.0,True,0.011304378509521484,0.0,0.0,0.0,0.0,0.0,0.0
1759830046.430308,3,7.734820706902168e-112,1.933705176725542e-112,2.778383745294377e-09,0.0,True,0.01135563850402832,0.0,0.0,0.0,0.0,0.0,0.0
1759830046.4416595,3,2.9544386131501394e-112,7.386096532875349e-113,2.682492450389873e-09,0.0,True,0.011351346969604492,0.0,0.0,0.0,0.0,0.0,0.0
1759830046.4529188,3,1.128495132548251e-112,2.8212378313706275e-113,2.5839534956162424e-09,0.0,True,0.011259317398071289,0.0,0.0,0.0,0.0,0.0,0.0
1759830046.4640408,3,4.3104678449461413e-113,1.0776169612365353e-113,2.482515526480711e-09,0.0,True,0.011121988296508789,0.0,0.0,0.0,0.0,0.0,0.0
1759830046.4753008,3,1.646452209355914e-113,4.116130523389785e-114,2.394092035729045e-09,0.0,True,0.011260032653808594,0.0,0.0,0.0,0.0,0.0,0.0
1759830046.485333,3,6.288887831216014e-114,1.5722219578040035e-114,2.251812070142023e-09,0.0,True,0.010032176971435547,0.0,0.0,0.0,0.0,0.0,0.0
1759830046.4963598,3,2.402141400088905e-114,6.005353500222262e-115,2.1756587642585146e-09,0.0,True,0.011026859283447266,0.0,0.0,0.0,0.0,0.0,0.0
1759830046.5078986,3,9.175363690507018e-115,2.2938409226267545e-115,2.127864995316031e-09,0.0,True,0.01153874397277832,0.0,0.0,0.0,0.0,0.0,0.0
1759830046.5182254,3,3.5046770706320096e-115,8.761692676580024e-116,2.0230972452850438e-09,0.0,True,0.010326862335205078,0.0,0.0,0.0,0.0,0.0,0.0
1759830046.5291252,3,1.3386675213890115e-115,3.346668803472529e-116,1.952463080101552e-09,0.0,True,0.010899782180786133,0.0,0.0,0.0,0.0,0.0,0.0
1759830046.5400329,3,5.113254935350255e-116,1.2783137338375637e-116,1.886997225142295e-09,0.0,True,0.010907649993896484,0.0,0.0,0.0,0.0,0.0,0.0
1759830046.5503616,3,1.9530895921606508e-116,4.882723980401627e-117,1.801581106519734e-09,0.0,True,0.01032876968383789,0.0,0.0,0.0,0.0,0.0,0.0
1759830046.5611959,3,7.460138411316984e-117,1.865034602829246e-117,1.743763355932515e-09,0.0,True,0.010834217071533203,0.0,0.0,0.0,0.0,0.0,0.0
1759830046.5713596,3,2.849519312344444e-117,7.12379828086111e-118,1.6645733680320518e-09,0.0,True,0.01016378402709961,0.0,0.0,0.0,0.0,0.0,0.0
1759830046.5817583,3,1.0884195257163495e-117,2.721048814290874e-118,1.6019194859495656e-09,0.0,True,0.010398626327514648,0.0,0.0,0.0,0.0,0.0,0.0
1759830046.5929327,3,4.157392648046052e-118,1.039348162011513e-118,1.5711068002133288e-09,0.0,True,0.011174440383911133,0.0,0.0,0.0,0.0,0.0,0.0
1759830046.6033177,3,1.5879826869746625e-118,3.9699567174366563e-119,1.5104024697620844e-09,0.0,True,0.01038503646850586,0.0,0.0,0.0,0.0,0.0,0.0
1759830046.6142185,3,6.06555412877936e-119,1.51638853219484e-119,1.469192767444838e-09,0.0,True,0.010900735855102539,0.0,0.0,0.0,0.0,0.0,0.0
1759830046.6254597,3,2.3168355165914587e-119,5.792088791478647e-120,1.4379883950255135e-09,0.0,True,0.01124119758605957,0.0,0.0,0.0,0.0,0.0,0.0
1759830046.6363573,3,8.849524209950162e-120,2.2123810524875404e-120,1.3924639219453638e-09,0.0,True,0.010897636413574219,0.0,0.0,0.0,0.0,0.0,0.0
1759830046.6471913,3,3.380217463935901e-120,8.450543659839753e-121,1.3448353541889446e-09,0.0,True,0.010833978652954102,0.0,0.0,0.0,0.0,0.0,0.0
1759830046.6579957,3,1.2911281818575421e-120,3.2278204546438553e-121,1.297972396230307e-09,0.0,True,0.010804414749145508,0.0,0.0,0.0,0.0,0.0,0.0
1759830046.66889,3,4.931670816367257e-121,1.2329177040918142e-121,1.2554872697023711e-09,0.0,True,0.010894298553466797,0.0,0.0,0.0,0.0,0.0,0.0
1759830046.679804,3,1.8837306305263506e-121,4.7093265763158765e-122,1.2146488259645594e-09,0.0,True,0.010914087295532227,0.0,0.0,0.0,0.0,0.0,0.0
1759830046.6911268,3,7.195210752117957e-122,1.7988026880294892e-122,1.1847340886106394e-09,0.0,True,0.011322736740112305,0.0,0.0,0.0,0.0,0.0,0.0
1759830046.701528,3,2.748325951090365e-122,6.870814877725912e-123,1.1306271474609275e-09,0.0,True,0.010401248931884766,0.0,0.0,0.0,0.0,0.0,0.0
1759830046.712957,3,1.049767101153138e-122,2.624417752882845e-123,1.1050529380440821e-09,0.0,True,0.0114288330078125,0.0,0.0,0.0,0.0,0.0,0.0
1759830046.723674,3,4.009753523690497e-123,1.0024383809226243e-123,1.0617755563657738e-09,0.0,True,0.010717153549194336,0.0,0.0,0.0,0.0,0.0,0.0
1759830046.7341325,3,1.531589559540113e-123,3.8289738988502825e-124,1.0151151030868277e-09,0.0,True,0.01045846939086914,0.0,0.0,0.0,0.0,0.0,0.0
1759830046.7443635,3,5.850151549298424e-124,1.462537887324606e-124,9.684670843057575e-10,0.0,True,0.01023101806640625,0.0,0.0,0.0,0.0,0.0,0.0
1759830046.7548375,3,2.2345590524941417e-124,5.586397631235354e-125,9.323350980139367e-10,0.0,True,0.010473966598510742,0.0,0.0,0.0,0.0,0.0,0.0
1759830046.7651415,3,8.535256081840014e-125,2.1338140204600036e-125,8.959943897934863e-10,0.0,True,0.010303974151611328,0.0,0.0,0.0,0.0,0.0,0.0
1759830046.7764628,3,3.260177720578631e-125,8.150444301446577e-126,8.819522889780274e-10,0.0,True,0.011321306228637695,0.0,0.0,0.0,0.0,0.0,0.0
1759830046.7874258,3,1.2452770798958793e-125,3.113192699739698e-126,8.580718358075501e-10,0.0,True,0.010962963104248047,0.0,0.0,0.0,0.0,0.0,0.0
1759830046.7987158,3,4.756535191090075e-126,1.1891337977725187e-126,8.383427285707512e-10,0.0,True,0.01129007339477539,0.0,0.0,0.0,0.0,0.0,0.0
1759830046.8097382,3,1.8168347743114324e-126,4.542086935778581e-127,8.118599126305526e-10,0.0,True,0.011022329330444336,0.0,0.0,0.0,0.0,0.0,0.0
1759830046.8210828,3,6.939691318442227e-127,1.7349228296105568e-127,7.90370435765908e-10,0.0,True,0.011344671249389648,0.0,0.0,0.0,0.0,0.0,0.0
1759830046.8317096,3,2.6507262122123603e-127,6.626815530530901e-128,7.563443205071962e-10,0.0,True,0.010626792907714844,0.0,0.0,0.0,0.0,0.0,0.0
1759830046.8425438,3,1.012487318194855e-127,2.5312182954871374e-128,7.280620550886852e-10,0.0,True,0.010834217071533203,0.0,0.0,0.0,0.0,0.0,0.0
1759830046.8539033,3,3.8673574237220466e-128,9.668393559305117e-129,7.094813625485585e-10,0.0,True,0.011359453201293945,0.0,0.0,0.0,0.0,0.0,0.0
1759830046.8652518,3,1.477199089217593e-128,3.6929977230439823e-129,6.897193927102307e-10,0.0,True,0.011348485946655273,0.0,0.0,0.0,0.0,0.0,0.0
1759830046.8767214,3,5.6423984393073215e-129,1.4105996098268304e-129,6.705302979526095e-10,0.0,True,0.011469602584838867,0.0,0.0,0.0,0.0,0.0,0.0
1759830046.8883057,3,2.155204425746036e-129,5.38801106436509e-130,6.517808515127399e-10,0.0,True,0.011584281921386719,0.0,0.0,0.0,0.0,0.0,0.0
1759830046.8994386,3,8.232148379307866e-130,2.0580370948269664e-130,6.262164120585112e-10,0.0,True,0.011132955551147461,0.0,0.0,0.0,0.0,0.0,0.0
1759830046.9109066,3,3.1444008804632427e-130,7.861002201158107e-131,6.059206469899436e-10,0.0,True,0.011467933654785156,0.0,0.0,0.0,0.0,0.0,0.0
1759830046.9212856,3,1.2010542620818635e-130,3.002635655204659e-131,5.730331764652874e-10,0.0,True,0.01037907600402832,0.0,0.0,0.0,0.0,0.0,0.0
1759830046.9328172,3,4.587619057823478e-131,1.1469047644558694e-131,5.573985717433061e-10,0.0,True,0.011531591415405273,0.0,0.0,0.0,0.0,0.0,0.0
1759830046.943571,3,1.752314552651799e-131,4.380786381629498e-132,5.331992625201565e-10,0.0,True,0.010753870010375977,0.0,0.0,0.0,0.0,0.0,0.0
1759830046.9550288,3,6.6932460013192e-132,1.6733115003298e-132,5.183125040275627e-10,0.0,True,0.011457681655883789,0.0,0.0,0.0,0.0,0.0,0.0
1759830046.965431,3,2.5565924774396105e-132,6.391481193599026e-133,4.923830232428372e-10,0.0,True,0.010402202606201172,0.0,0.0,0.0,0.0,0.0,0.0
1759830046.975904,3,9.765314309996323e-133,2.4413285774990807e-133,4.69971617178544e-10,0.0,True,0.010473012924194336,0.0,0.0,0.0,0.0,0.0,0.0
1759830046.9872253,3,3.7300181555928675e-133,9.325045388982169e-134,4.5843862039873784e-10,0.0,True,0.011321306228637695,0.0,0.0,0.0,0.0,0.0,0.0
1759830046.9985654,3,1.4247401567822815e-133,3.5618503919557037e-134,4.4660541931307307e-10,0.0,True,0.011340141296386719,0.0,0.0,0.0,0.0,0.0,0.0
1759830047.0087802,3,5.442023147539775e-134,1.3605057868849437e-134,4.2382009013408606e-10,0.0,True,0.010214805603027344,0.0,0.0,0.0,0.0,0.0,0.0
1759830047.0200386,3,2.0786678747965101e-134,5.1966696869912753e-135,4.12624601153766e-10,0.0,True,0.011258363723754883,0.0,0.0,0.0,0.0,0.0,0.0
1759830047.030978,3,7.93980476849756e-135,1.98495119212439e-135,3.987263852422984e-10,0.0,True,0.010939359664916992,0.0,0.0,0.0,0.0,0.0,0.0
1759830047.0420852,3,3.032735557527577e-135,7.581838893818942e-136,3.864224495941926e-10,0.0,True,0.011107206344604492,0.0,0.0,0.0,0.0,0.0,0.0
1759830047.0525453,3,1.1584019040851722e-135,2.8960047602129305e-136,3.6913583301156905e-10,0.0,True,0.010460138320922852,0.0,0.0,0.0,0.0,0.0,0.0
1759830047.0640712,3,4.4247015472794e-136,1.10617538681985e-136,3.6148417592585247e-10,0.0,True,0.011525869369506836,0.0,0.0,0.0,0.0,0.0,0.0
1759830047.0754743,3,1.6900856009864808e-136,4.225214002466202e-137,3.5209168913752364e-10,0.0,True,0.011403083801269531,0.0,0.0,0.0,0.0,0.0,0.0
1759830047.0864074,3,6.455552556800427e-137,1.6138881392001068e-137,3.3859848258543934e-10,0.0,True,0.010933160781860352,0.0,0.0,0.0,0.0,0.0,0.0
1759830047.0970118,3,2.465801660536477e-137,6.164504151341192e-138,3.235021139857963e-10,0.0,True,0.010604381561279297,0.0,0.0,0.0,0.0,0.0,0.0
1759830047.1085217,3,9.418524248090037e-138,2.3546310620225093e-138,3.1581492976329173e-10,0.0,True,0.011509895324707031,0.0,0.0,0.0,0.0,0.0,0.0
1759830047.1193316,3,3.597556138905347e-138,8.993890347263368e-139,3.0324454058927586e-10,0.0,True,0.010809898376464844,0.0,0.0,0.0,0.0,0.0,0.0
1759830047.1300175,3,1.3741441686260045e-138,3.435360421565011e-139,2.9059599171432637e-10,0.0,True,0.010685920715332031,0.0,0.0,0.0,0.0,0.0,0.0
1759830047.1402864,3,5.2487636697266676e-139,1.3121909174316669e-139,2.766276097077025e-10,0.0,True,0.010268926620483398,0.0,0.0,0.0,0.0,0.0,0.0
1759830047.150333,3,2.004849322919959e-139,5.012123307299898e-140,2.631050932677681e-10,0.0,True,0.01004648208618164,0.0,0.0,0.0,0.0,0.0,0.0
1759830047.1612785,3,7.657842990332107e-140,1.9144607475830267e-140,2.5642687973004286e-10,0.0,True,0.010945558547973633,0.0,0.0,0.0,0.0,0.0,0.0
1759830047.171618,3,2.925035741796732e-140,7.31258935449183e-141,2.4648283414308025e-10,0.0,True,0.010339498519897461,0.0,0.0,0.0,0.0,0.0,0.0
1759830047.182785,3,1.11726423505809e-140,2.793160587645225e-141,2.4146107335809575e-10,0.0,True,0.011167049407958984,0.0,0.0,0.0,0.0,0.0,0.0
1759830047.1935844,3,4.267569633775385e-141,1.0668924084438462e-141,2.340421190183406e-10,0.0,True,0.010799407958984375,0.0,0.0,0.0,0.0,0.0,0.0
1759830047.2043846,3,1.6300665507452555e-141,4.075166376863139e-142,2.2653701137187454e-10,0.0,True,0.01080012321472168,0.0,0.0,0.0,0.0,0.0,0.0
1759830047.2156498,3,6.2263001846038234e-142,1.5565750461509558e-142,2.213331740108515e-10,0.0,True,0.011265277862548828,0.0,0.0,0.0,0.0,0.0,0.0
1759830047.2269194,3,2.3782350463589155e-142,5.945587615897289e-143,2.156443912326722e-10,0.0,True,0.011269569396972656,0.0,0.0,0.0,0.0,0.0,0.0
1759830047.2381673,3,9.084049544729237e-143,2.2710123861823094e-143,2.0939605605008182e-10,0.0,True,0.011247873306274414,0.0,0.0,0.0,0.0,0.0,0.0
1759830047.2488134,3,3.4697981705985597e-143,8.674495426496399e-144,2.0040502590745746e-10,0.0,True,0.01064610481262207,0.0,0.0,0.0,0.0,0.0,0.0
1759830047.2601244,3,1.3253449670664433e-143,3.313362417666108e-144,1.9480594914966787e-10,0.0,True,0.011311054229736328,0.0,0.0,0.0,0.0,0.0,0.0
1759830047.271527,3,5.062367306007713e-144,1.2655918265019282e-144,1.8948842495092322e-10,0.0,True,0.011402606964111328,0.0,0.0,0.0,0.0,0.0,0.0
1759830047.282021,3,1.933652247358706e-144,4.834130618396765e-145,1.8046364402835025e-10,0.0,True,0.010493993759155273,0.0,0.0,0.0,0.0,0.0,0.0
1759830047.2933133,3,7.385894360684064e-145,1.846473590171016e-145,1.752153977463422e-10,0.0,True,0.011292219161987305,0.0,0.0,0.0,0.0,0.0,0.0
1759830047.304444,3,2.8211606084651372e-145,7.052901521162843e-146,1.694502316240687e-10,0.0,True,0.011130809783935547,0.0,0.0,0.0,0.0,0.0,0.0
1759830047.3158238,3,1.077587464711348e-145,2.69396866177837e-146,1.645732439214953e-10,0.0,True,0.011379718780517578,0.0,0.0,0.0,0.0,0.0,0.0
1759830047.3262205,3,4.11601785668907e-146,1.0290044641722676e-146,1.5635848171768885e-10,0.0,True,0.010396718978881836,0.0,0.0,0.0,0.0,0.0,0.0
1759830047.3365316,3,1.572178922953731e-146,3.930447307384328e-147,1.4876899712135128e-10,0.0,True,0.010311126708984375,0.0,0.0,0.0,0.0,0.0,0.0
1759830047.3477304,3,6.005189121721229e-147,1.5012972804303073e-147,1.4490453281723603e-10,0.0,True,0.011198759078979492,0.0,0.0,0.0,0.0,0.0,0.0
1759830047.3587403,3,2.2937781356263798e-147,5.7344453390659496e-148,1.404361071877247e-10,0.0,True,0.011009931564331055,0.0,0.0,0.0,0.0,0.0,0.0
1759830047.3735733,3,8.761452851579108e-148,2.190363212894777e-148,1.4667200787243928e-10,0.0,True,0.01483297348022461,0.0,0.0,0.0,0.0,0.0,0.0
1759830047.3841164,3,3.346577198473531e-148,8.366442996183828e-149,1.3789946962106114e-10,0.0,True,0.010543107986450195,0.0,0.0,0.0,0.0,0.0,0.0
1759830047.3949964,3,1.2782787438414861e-148,3.1956968596037154e-149,1.305666685880169e-10,0.0,True,0.010879993438720703,0.0,0.0,0.0,0.0,0.0,0.0
1759830047.4053698,3,4.8825903305092725e-149,1.2206475826273181e-149,1.2302248109108405e-10,0.0,True,0.010373353958129883,0.0,0.0,0.0,0.0,0.0,0.0
1759830047.4156814,3,1.8649835531129592e-149,4.662458882782398e-150,1.1650325149048513e-10,0.0,True,0.010311603546142578,0.0,0.0,0.0,0.0,0.0,0.0
1759830047.4270422,3,7.123603288296056e-150,1.780900822074014e-150,1.13464793116691e-10,0.0,True,0.011360883712768555,0.0,0.0,0.0,0.0,0.0,0.0
1759830047.4382803,3,2.7209743337585766e-150,6.802435834396441e-151,1.1012701861545793e-10,0.0,True,0.01123809814453125,0.0,0.0,0.0,0.0,0.0,0.0
1759830047.449354,3,1.0393197129796758e-150,2.5982992824491895e-151,1.0633538494175809e-10,0.0,True,0.011073589324951172,0.0,0.0,0.0,0.0,0.0,0.0
1759830047.4606519,3,3.969848051804508e-151,9.92462012951127e-152,1.0310685638614814e-10,0.0,True,0.011297941207885742,0.0,0.0,0.0,0.0,0.0,0.0
1759830047.4709356,3,1.5163470256167685e-151,3.7908675640419213e-152,9.778933218740349e-11,0.0,True,0.010283708572387695,0.0,0.0,0.0,0.0,0.0,0.0
1759830047.4813097,3,5.79193025045798e-152,1.447982562614495e-152,9.328182670742535e-11,0.0,True,0.010374069213867188,0.0,0.0,0.0,0.0,0.0,0.0
1759830047.491674,3,2.212320495206257e-152,5.530801238015642e-153,8.93374263455371e-11,0.0,True,0.010364294052124023,0.0,0.0,0.0,0.0,0.0,0.0
1759830047.5018911,3,8.450312351607912e-153,2.112578087901978e-153,8.555200992077516e-11,0.0,True,0.01021718978881836,0.0,0.0,0.0,0.0,0.0,0.0
1759830047.5133362,3,3.2277321027611696e-153,8.069330256902924e-154,8.43938252614862e-11,0.0,True,0.011445045471191406,0.0,0.0,0.0,0.0,0.0,0.0
1759830047.5235603,3,1.2328839566755983e-153,3.082209891688996e-154,8.076206370333239e-11,0.0,True,0.010224103927612305,0.0,0.0,0.0,0.0,0.0,0.0
1759830047.5336103,3,4.7091976726562565e-154,1.1772994181640641e-154,7.708944593787237e-11,0.0,True,0.010050058364868164,0.0,0.0,0.0,0.0,0.0,0.0
1759830047.5438676,3,1.7987534512127885e-154,4.496883628031971e-155,7.420553060910606e-11,0.0,True,0.010257244110107422,0.0,0.0,0.0,0.0,0.0,0.0
1759830047.5541239,3,6.870626809821094e-155,1.7176567024552735e-155,7.15889569846695e-11,0.0,True,0.010256290435791016,0.0,0.0,0.0,0.0,0.0,0.0
1759830047.5644367,3,2.6243459173353976e-155,6.560864793338494e-156,6.924238959982176e-11,0.0,True,0.010312795639038086,0.0,0.0,0.0,0.0,0.0,0.0
1759830047.5749557,3,1.0024109421850998e-155,2.5060273554627494e-156,6.731859514275129e-11,0.0,True,0.010519027709960938,0.0,0.0,0.0,0.0,0.0,0.0
1759830047.5851526,3,3.828869092199022e-156,9.572172730497556e-157,6.492939519375795e-11,0.0,True,0.010196924209594727,0.0,0.0,0.0,0.0,0.0,0.0
1759830047.595578,3,1.4624978547460712e-156,3.656244636865178e-157,6.299138988197228e-11,0.0,True,0.010425329208374023,0.0,0.0,0.0,0.0,0.0,0.0
1759830047.607009,3,5.5862447203919245e-157,1.3965611800979811e-157,6.245937100857191e-11,0.0,True,0.011430978775024414,0.0,0.0,0.0,0.0,0.0,0.0
1759830047.618402,3,2.133755613715062e-157,5.334389034287655e-158,6.148326292532147e-11,0.0,True,0.011393070220947266,0.0,0.0,0.0,0.0,0.0,0.0
1759830047.629315,3,8.150221207532623e-158,2.0375553018831557e-158,5.95488103272146e-11,0.0,True,0.010912895202636719,0.0,0.0,0.0,0.0,0.0,0.0
1759830047.6395476,3,3.1131074854472505e-158,7.782768713618126e-159,5.67466074130607e-11,0.0,True,0.010232686996459961,0.0,0.0,0.0,0.0,0.0,0.0
1759830047.650979,3,1.1891012488091309e-158,2.972753122022827e-159,5.5646154351052246e-11,0.0,True,0.011431455612182617,0.0,0.0,0.0,0.0,0.0,0.0
1759830047.662085,3,4.5419626098014247e-159,1.1354906524503562e-159,5.403855141139502e-11,0.0,True,0.011106014251708984,0.0,0.0,0.0,0.0,0.0,0.0
1759830047.6734638,3,1.7348753413129675e-159,4.3371883532824187e-160,5.2650328541403724e-11,0.0,True,0.011378765106201172,0.0,0.0,0.0,0.0,0.0,0.0
1759830047.6843688,3,6.626634141374789e-160,1.656658535343697e-160,5.065992070285574e-11,0.0,True,0.010905027389526367,0.0,0.0,0.0,0.0,0.0,0.0
1759830047.6956253,3,2.531149010994693e-160,6.3278725274867325e-161,4.9105608468380524e-11,0.0,True,0.01125645637512207,0.0,0.0,0.0,0.0,0.0,0.0
1759830047.7062364,3,9.668128916092914e-161,2.4170322290232285e-161,4.6923354091177316e-11,0.0,True,0.01061105728149414,0.0,0.0,0.0,0.0,0.0,0.0
1759830047.7167377,3,3.692896638331813e-161,9.232241595829532e-162,4.482725302068502e-11,0.0,True,0.010501384735107422,0.0,0.0,0.0,0.0,0.0,0.0
1759830047.7279088,3,1.4105609989025245e-161,3.526402497256311e-162,4.3574033270488144e-11,0.0,True,0.011171102523803711,0.0,0.0,0.0,0.0,0.0,0.0
1759830047.739309,3,5.387863583757612e-162,1.346965895939403e-162,4.2516212772625295e-11,0.0,True,0.011400222778320312,0.0,0.0,0.0,0.0,0.0,0.0
1759830047.7507339,3,2.0579807622475913e-162,5.144951905618978e-163,4.1376679860150034e-11,0.0,True,0.011424779891967773,0.0,0.0,0.0,0.0,0.0,0.0
1759830047.7609541,3,7.860787029851632e-163,1.965196757462908e-163,3.916689195193612e-11,0.0,True,0.01022028923034668,0.0,0.0,0.0,0.0,0.0,0.0
1759830047.7718728,3,3.002553467078989e-163,7.506383667697472e-164,3.7776004546685726e-11,0.0,True,0.010918617248535156,0.0,0.0,0.0,0.0,0.0,0.0
1759830047.782279,3,1.1468733713853353e-163,2.8671834284633383e-164,3.609645915503279e-11,0.0,True,0.010406255722045898,0.0,0.0,0.0,0.0,0.0,0.0
1759830047.7927406,3,4.380666470770169e-164,1.0951666176925423e-164,3.462563569200938e-11,0.0,True,0.010461568832397461,0.0,0.0,0.0,0.0,0.0,0.0
1759830047.8041506,3,1.6732656984571567e-164,4.183164246142892e-165,3.397992998088739e-11,0.0,True,0.011409997940063477,0.0,0.0,0.0,0.0,0.0,0.0
1759830047.8154974,3,6.391306246013012e-165,1.597826561503253e-165,3.318589847367548e-11,0.0,True,0.011346817016601562,0.0,0.0,0.0,0.0,0.0,0.0
1759830047.8263633,3,2.441261753467473e-165,6.103154383668683e-166,3.196909403868631e-11,0.0,True,0.010865926742553711,0.0,0.0,0.0,0.0,0.0,0.0
1759830047.8376374,3,9.32479014389408e-166,2.33119753597352e-166,3.105249390955578e-11,0.0,True,0.011274099349975586,0.0,0.0,0.0,0.0,0.0,0.0
1759830047.8479738,3,3.5617528970075154e-166,8.904382242518789e-167,2.9539037882386765e-11,0.0,True,0.01033639907836914,0.0,0.0,0.0,0.0,0.0,0.0
1759830047.8587961,3,1.360468547128467e-166,3.4011713678211675e-167,2.8477664670845115e-11,0.0,True,0.010822296142578125,0.0,0.0,0.0,0.0,0.0,0.0
1759830047.8703983,3,5.196527443778862e-167,1.2991318609447155e-167,2.794564579744474e-11,0.0,True,0.011602163314819336,0.0,0.0,0.0,0.0,0.0,0.0
1759830047.8841248,3,1.984896860051917e-167,4.962242150129792e-168,2.8486546455042117e-11,0.0,True,0.013726472854614258,0.0,0.0,0.0,0.0,0.0,0.0
1759830047.8953896,3,7.581631363768888e-168,1.895407840942222e-168,2.723687941852404e-11,0.0,True,0.011264801025390625,0.0,0.0,0.0,0.0,0.0,0.0
1759830047.906334,3,2.8959254907874973e-168,7.239813726968743e-169,2.5827340266459942e-11,0.0,True,0.010944366455078125,0.0,0.0,0.0,0.0,0.0,0.0
1759830047.918054,3,1.1061451085936034e-168,2.7653627714840085e-169,2.496935991302962e-11,0.0,True,0.01172018051147461,0.0,0.0,0.0,0.0,0.0,0.0
1759830047.9293087,3,4.2250983499331303e-169,1.0562745874832826e-169,2.3917756664104672e-11,0.0,True,0.011254549026489258,0.0,0.0,0.0,0.0,0.0,0.0
1759830047.9396038,3,1.6138439638633587e-169,4.034609909658397e-170,2.2498447549423872e-11,0.0,True,0.01029515266418457,0.0,0.0,0.0,0.0,0.0,0.0
1759830047.9510832,3,6.164335416569458e-170,1.5410838541423645e-170,2.1814550166254776e-11,0.0,True,0.011479377746582031,0.0,0.0,0.0,0.0,0.0,0.0
1759830047.9621015,3,2.3545666110747906e-170,5.886416527686977e-171,2.0958346169663855e-11,0.0,True,0.01101827621459961,0.0,0.0,0.0,0.0,0.0,0.0
1759830047.972828,3,8.993644166549153e-171,2.2484110416372883e-171,2.0031087899496924e-11,0.0,True,0.010726451873779297,0.0,0.0,0.0,0.0,0.0,0.0
1759830047.9835935,3,3.4352663888995557e-171,8.588165972248889e-172,1.921129921811371e-11,0.0,True,0.010765552520751953,0.0,0.0,0.0,0.0,0.0,0.0
