timestamp,observer_vehicle_id,vehicle_0_x,vehicle_0_y,vehicle_0_theta,vehicle_0_velocity,vehicle_1_x,vehicle_1_y,vehicle_1_theta,vehicle_1_velocity
1759505306.2203093,1,-0.23576068891651975,-0.16239113302857222,-0.14042019266852607,0.0,-1.735,-0.35,-0.7801621756414646,0.0
1759505307.3746767,1,-0.42283925803754646,-0.2912501932245016,-0.25184508220737756,0.0,-1.73500001416623,-0.3499999055584658,-0.7229647936467529,0.0
1759505307.5582976,1,-0.5789583393053638,-0.39878446711457144,-0.34483035287149,0.0,-1.7350000142586695,-0.3499999049422029,-0.7180974612499611,0.0
1759505307.7194955,1,-0.6970950855714122,-0.48015664229194177,-0.4151931633474349,0.0,-1.7350000142876907,-0.34999990474872844,-0.7176985305678496,0.0
1759505307.855714,1,-0.7955183358243532,-0.5479502307751737,-0.47381452141648206,0.0,-1.7350000142984767,-0.3499999046768224,-0.7176739847994824,0.0
1759505307.987758,1,-0.8772055689812011,-0.6042161095663863,-0.5224678277465503,0.0,-1.73500001430258,-0.3499999046494655,-0.7176780482100575,0.0
1759505308.1140893,1,-0.9412156888565391,-0.6483060549242042,-0.5605925609535062,0.0,-1.7350000143041466,-0.34999990463902214,-0.7176827827865395,0.0
1759505308.2334063,1,-0.992574834222275,-0.6836820535508208,-0.5911823133023428,0.0,-1.7353033963090918,-0.34976944086276457,-0.7179121556323846,0.004786847943468325
1759505308.3476863,1,-1.033824864631198,-0.7120949293629542,-0.6157510284864698,0.0,-1.7354085577417595,-0.3497108816909828,-0.7180237894336077,0.005389922497112679
1759505308.4649258,1,-1.066727723257669,-0.7347583026199075,-0.6353481282782434,0.0,-1.7389568577059802,-0.3470935341304662,-0.7151625681827316,0.045610732904207855
1759505308.5929437,1,-1.0935396112623692,-0.7532262367429714,-0.6513174168679966,0.0,-1.740754065168857,-0.345689900679949,-0.7128286586492787,0.04926675424192741
1759505308.712341,1,-1.115022179099771,-0.7680233538854061,-0.6641125369052086,0.0,-1.7465987541724612,-0.3407996935541337,-0.7086503052241169,0.05118871231167274
1759505308.825091,1,-1.1322968884740041,-0.7799221129232808,-0.674401436338657,0.0,-1.7494050946764663,-0.33841051813674994,-0.7053372082461762,0.05148143533372214
1759505308.9638343,1,-1.1466672510231326,-0.7898203680866369,-0.6829604929275174,0.0,-1.7559064654251881,-0.332958969527769,-0.7002966507784854,0.0537243690295901
1759505309.0850194,1,-1.1580700158828923,-0.7976745524027102,-0.689752034154852,0.0,-1.7590073883443516,-0.3303324575298662,-0.6963559287910135,0.05401976954581804
1759505309.2198439,1,-1.1670046545454635,-0.803828700077981,-0.6950735476276352,0.0,-1.7656368340883548,-0.3248304228796069,-0.6908855340104206,0.053552521982504375
1759505309.3372853,1,-1.1745634758374437,-0.80904738406589,-0.6991882706236474,0.006278747898237026,-1.768813846755927,-0.3221699078461998,-0.686634003805714,0.05361049025985579
1759505309.4584002,1,-1.179738080973183,-0.8135156215818504,-0.7016745719561763,0.014905269307482295,-1.7751956220282217,-0.31692910760287185,-0.6810591941496316,0.050252572181061786
1759505309.5683484,1,-1.181820029772243,-0.8190987437427887,-0.6997619053208135,0.03201098971668627,-1.778196458540674,-0.3144518646486901,-0.6766951994414471,0.05097251495878928
1759505309.6975508,1,-1.1833008370936544,-0.8238597439889406,-0.6968868977150687,0.045760146257558615,-1.7844669594060827,-0.3094952570468691,-0.6694861237905844,0.0556484796466323
1759505309.8292737,1,-1.1806863732806747,-0.8307336973155159,-0.6839504440193819,0.06622256010390003,-1.787443320749613,-0.30711872343749774,-0.6634823285813122,0.05781589051651498
1759505309.966458,1,-1.176764922360571,-0.8378235268258354,-0.6696660324324741,0.08347101623789946,-1.7943768891551448,-0.30178356886731733,-0.652201845087432,0.05652603395137876
1759505310.1135972,1,-1.1710749900223354,-0.8454285793308065,-0.6481512056231715,0.0978904000445937,-1.7977066921743106,-0.29918564752013715,-0.6426015054427836,0.05802589278814161
1759505310.2357953,1,-1.1621196368331095,-0.8541073119112609,-0.6182291236208604,0.109030774954017,-1.805050043952017,-0.29385403343125266,-0.6247818111793386,0.061964016375812205
1759505310.3755336,1,-1.1527807322066514,-0.8621091172758027,-0.5903170172625131,0.11857025022947827,-1.8085718105265085,-0.2912485106915226,-0.6102516678062446,0.06250792730992538
1759505310.5463555,1,-1.142135810877981,-0.8701891331136733,-0.5573054309028046,0.1263124296564989,-1.8170968055789225,-0.285483296621237,-0.5857395488023582,0.05985225316071147
1759505310.679169,1,-1.1268905965752278,-0.8792451524902845,-0.5173306052057972,0.1364412442913674,-1.8211955692163753,-0.28262084219800526,-0.5657450094971354,0.059511109798441784
1759505310.8105834,1,-1.108585479700767,-0.8885158401939062,-0.47907577622186936,0.14009049675109347,-1.827759962213576,-0.27837788977602657,-0.5438411805069884,0.04853130517835417
1759505310.9393892,1,-1.0936944884320223,-0.8959531656495302,-0.44755064190823723,0.14256291855303788,-1.8308536852682618,-0.27634138454655033,-0.5273791869096086,0.04752354099748627
1759505311.0647407,1,-1.0740850556311707,-0.9043659711340454,-0.4187931132310873,0.15163125864729712,-1.8307994800680143,-0.2761456010882762,-0.5226712719160226,0.02821127933291421
1759505311.1838324,1,-1.0523004396061164,-0.9129774488760426,-0.3970244237055074,0.15688010058772014,-1.8306186800639133,-0.27616205003557726,-0.5213759440004092,0.026427318289354802
1759505311.3005595,1,-1.034360740975986,-0.9200169371616863,-0.37972203651289216,0.16114327410994828,-1.8195589271861439,-0.2834852767810525,-0.5401488272259636,0.0803592848750475
1759505311.404618,1,-1.0118240172464472,-0.9283521901495335,-0.3684832849707694,0.16722502153787897,-1.8143729454844684,-0.2869620756807386,-0.5596518361451269,0.08419887979310062
1759505311.5243886,1,-0.993103554503969,-0.9352612181081625,-0.36053607580975927,0.17267179261111795,-1.8010669875869563,-0.2969445055130921,-0.5957714655767183,0.11141494380840206
1759505311.6494954,1,-0.9715704829405623,-0.9431258539032964,-0.3566647913815201,0.18173682854996648,-1.794880432793298,-0.3018408457066943,-0.6272888455099077,0.1120786545014864
1759505311.7707133,1,-0.9460412421750332,-0.9524257366803263,-0.3541990790616532,0.19274366179223168,-1.7812797016148787,-0.3134726279658224,-0.6686800718637528,0.11355917979198385
1759505311.8964975,1,-0.9239685496679958,-0.9605081484929635,-0.35260966346971473,0.2021018497204069,-1.7749142103416728,-0.319216572915201,-0.7017302479970796,0.11173091151406947
1759505312.0154004,1,-0.8987014398156963,-0.9697101547527152,-0.35013325133370315,0.2035222593442197,-1.759796246445407,-0.3337099579499906,-0.7352926662915197,0.13010803040952917
1759505312.1318808,1,-0.8780584489741885,-0.9772272613984058,-0.34784639096154535,0.20503128415546304,-1.7526990848357196,-0.34076217457631164,-0.7606438466199889,0.13058425685393982
1759505312.2448258,1,-0.85336152247921,-0.9860535858059927,-0.3425571606363983,0.21199400671819915,-1.734148087260758,-0.3597352515891364,-0.7812251841881793,0.16089808404783512
1759505312.3584595,1,-0.8331360463974741,-0.9932851607067129,-0.3381236972639796,0.21767857501164786,-1.7253461713572,-0.3688827292793131,-0.7951576369586744,0.1631061303418682
1759505312.4662495,1,-0.8077071465585519,-1.0019873068267737,-0.329161476461428,0.22854709465703438,-1.7082723948227096,-0.3863116506346292,-0.8024235252767008,0.16175846058761711
1759505312.565416,1,-0.7841736496647824,-1.0098668070989334,-0.32095228044073626,0.2341415165420836,-1.7002933166675769,-0.39448431251193083,-0.8056477707340741,0.16149348195243426
1759505312.6845431,1,-0.7593747417509196,-1.017814581689609,-0.30951491056031905,0.2349654709939248,-1.682295384878541,-0.41266005385687393,-0.8031779364525385,0.16843294841277054
1759505312.7852597,1,-0.7355219592283052,-1.0251543489807315,-0.29873886264206795,0.23561033288543493,-1.6737591795132927,-0.4211835013206102,-0.7995247287335405,0.16905814252898477
1759505312.911975,1,-0.7117059012190777,-1.0321492009964934,-0.2856503613024006,0.2360971433319613,-1.6547778737439671,-0.4397639480635224,-0.7915213884958849,0.16759093962549
1759505313.0223873,1,-0.6816744503397801,-1.0399984324506273,-0.26736724806345835,0.24012503038261512,-1.6459152408981814,-0.4483023249741628,-0.7839815325144728,0.1673732757560271
1759505313.141018,1,-0.6571026555958044,-1.0463299834296926,-0.25122498868909116,0.24346865422448635,-1.621011870171751,-0.4725342797277561,-0.7719463490629267,0.21743504062378013
1759505313.2491415,1,-0.6281242136865228,-1.0528190223601699,-0.22950755942024123,0.2515270622111787,-1.609097272373961,-0.48382563795699074,-0.7619431200872384,0.2220098960838229
1759505313.3705218,1,-0.6046630772201016,-1.0579961838284246,-0.21173828181725554,0.25741126034017114,-1.5851607783226407,-0.5055684786423329,-0.7497160967806485,0.2062755590789136
1759505313.4966679,1,-0.5753210686877254,-1.0632242240543985,-0.18683059907667648,0.2565066389413809,-1.5736581968924004,-0.5158276079150879,-0.7400305803106282,0.20500123919363725
1759505313.6209884,1,-0.5423521783372781,-1.0678415403275872,-0.1606915766693415,0.2550195622172317,-1.5486672365190421,-0.5378552294524095,-0.7295147143445261,0.2006251526568941
1759505313.731893,1,-0.5149207798560859,-1.071491976789389,-0.13787476342502725,0.253701503577341,-1.5365589487776787,-0.5484021954516594,-0.7217158763596728,0.200061676206142
1759505313.864978,1,-0.4839728473577519,-1.074558932957219,-0.11591178992601965,0.2552470502716117,-1.5100420642837753,-0.5713298284091521,-0.7116738413378734,0.20430297406569786
1759505313.9707584,1,-0.45856565478241923,-1.076974087529398,-0.09793300496915389,0.25684424049461624,-1.4974549697226325,-0.5820364362510715,-0.7044837364064517,0.20468958054763153
1759505314.0977876,1,-0.4272503981722003,-1.0790228809130382,-0.08222002389278327,0.26732416240076684,-1.4688048083009713,-0.6059310155171911,-0.6907948156897401,0.22508970371775244
1759505314.2092566,1,-0.3977800172768593,-1.0806894740286228,-0.0692696083629228,0.26846219902855634,-1.4554691239141342,-0.6167599498379579,-0.6798295620759017,0.22687193163161995
1759505314.3232608,1,-0.3688702947657349,-1.0820557459591675,-0.05889105863563979,0.2615373308167751,-1.4269471121403994,-0.6388174959092938,-0.6605115730231795,0.23241048876896023
1759505314.4303305,1,-0.33484585655599924,-1.0832845658100434,-0.05026287785432997,0.26844497854643423,-1.413331843000217,-0.649000173546672,-0.6448325427328202,0.2326188557224011
1759505314.5536969,1,-0.30571622556834593,-1.0842890175678566,-0.04291837581043737,0.2744311835471474,-1.3813050709006915,-0.6714594402197989,-0.616888650577681,0.2415762962808571
1759505314.670547,1,-0.2712650316074265,-1.0851948619818597,-0.03606234875539137,0.2728616249607196,-1.366025376758501,-0.6817095798388305,-0.5944701689052565,0.24267542868965575
1759505314.801599,1,-0.23892503227085163,-1.085908086916283,-0.03011859895734813,0.2750561772292962,-1.3304056004061897,-0.703768244547421,-0.5626186622255064,0.2448968353785352
1759505314.9243395,1,-0.20729084074533335,-1.0864777017727896,-0.02431101980924437,0.2804230093406889,-1.3131342845789593,-0.713952298025008,-0.5378706812626736,0.2455433193206757
1759505315.0443683,1,-0.16982472908136173,-1.0868843827076342,-0.017741643266726295,0.28289465499401695,-1.2776483775696967,-0.7336319984472629,-0.5097703546020274,0.2504410086569412
1759505315.1651752,1,-0.13975643813449132,-1.0871773537050888,-0.012425579300143826,0.28452167200880896,-1.26046759971086,-0.7427469916791508,-0.4888951649625185,0.25140521800289384
1759505315.282035,1,-0.10427635220745296,-1.087244686760279,-0.006750209854653869,0.2797382666845182,-1.2222316731158758,-0.761969183358285,-0.46346498039168443,0.2647773278675235
1759505315.4102385,1,-0.06678714439824221,-1.0871260171096386,-0.0018217812734043599,0.275820599594046,-1.2036157081358323,-0.7709235838689055,-0.4442218043995912,0.26610948183187993
1759505315.5263317,1,-0.03626386765121954,-1.0870014582202008,0.002168593432590895,0.27265447356452227,-1.1608068163838388,-0.7902283324262765,-0.41849185448469245,0.27606931415385394
1759505315.637725,1,-4.6786638130879785e-05,-1.0867084050995945,0.004951072457686673,0.2822976929740521,-1.1401435079852877,-0.7991284022148413,-0.3991711509979618,0.2772405987591008
1759505315.7608159,1,0.02929423964211101,-1.086457028170951,0.007143258507246893,0.2900028633668582,-1.1005388024921905,-0.8151092841581472,-0.3777370485760639,0.2659855961298743
1759505315.8717577,1,0.06406980095220446,-1.0861365849129834,0.007855223256652796,0.28656069582816035,-1.0817756194094634,-0.8223817929783842,-0.3627732117827695,0.26503855372827534
1759505315.9877157,1,0.09969868152260325,-1.0858420705239178,0.007743147683372702,0.2878307157244284,-1.043353590648364,-0.8366917446102901,-0.34581751881160505,0.2707927968677129
1759505316.0952709,1,0.13221945514792582,-1.0856003168767558,0.007097642739574441,0.29226661952325794,-1.025017713267363,-0.8432810673858299,-0.33416211144957975,0.2712235526778373
1759505316.2061532,1,0.16843707510598177,-1.0854109301305535,0.005972888879215995,0.28136772553499695,-0.9884567747598684,-0.8558034149155879,-0.31933989852087025,0.26075003320109347
1759505316.333048,1,0.19778607363356027,-1.0852688335215006,0.004920841943487248,0.27279847743146174,-0.970736708772693,-0.8616700435732334,-0.3087497888247276,0.25986583746724706
1759505316.4445262,1,0.23381910603379363,-1.0852085867519274,0.0038143456815414394,0.2859457103107582,-0.9324731047246463,-0.8736308630594593,-0.2937034078594054,0.24470980131657552
1759505316.552351,1,0.2633993385058237,-1.0851645497286937,0.0028695171136131673,0.2966252723037936,-0.9139884747598133,-0.8792176437532485,-0.28271735316398433,0.24362204036211038
1759505316.6679995,1,0.29766146598081417,-1.085162843475963,0.00252631083675598,0.2903200424305966,-0.8699203393384881,-0.8916985732642639,-0.2657250863350307,0.2912730624404073
1759505316.7881677,1,0.32877143031931255,-1.0851625783682046,0.0023730192573625476,0.29082075109673,-0.8486649845453139,-0.897416360080104,-0.25265088590638796,0.29613171968460245
1759505316.914026,1,0.36160518888527643,-1.0851567412300418,0.002889175889763591,0.2969792411965856,-0.8048300772551612,-0.9081186676373119,-0.23612530887600017,0.27449758086184634
1759505317.0294628,1,0.3927252456916295,-1.0851302373981628,0.003510888012612629,0.29615972478456754,-0.7844545600644579,-0.91286730019733,-0.22425061186215745,0.27327531723279197
1759505317.1597471,1,0.4251362329450102,-1.0850774600762054,0.00452412478281267,0.2896795746543714,-0.740764886627867,-0.9225423211704443,-0.21179621578526,0.2633725156858256
1759505317.282112,1,0.4620122726480032,-1.0849582141629104,0.005545349073965701,0.2938177816507505,-0.7200472844944729,-0.9269737591634933,-0.20340521643868215,0.26235818313734166
1759505317.4136684,1,0.5042406813886243,-1.0847941815842257,0.00605478146651722,0.29586125031286437,-0.6705184410843977,-0.9373066562209343,-0.19363515517068458,0.2927494382802969
1759505317.5436351,1,0.5385656879805693,-1.0846576688001786,0.00634369817428713,0.2975877625140622,-0.6466087400646182,-0.9421413017401471,-0.18706900916480618,0.29556501067694374
1759505317.6669242,1,0.5768682958128851,-1.0845299791444023,0.005871214786862446,0.295500360863655,-0.5991719912628904,-0.9512091685975004,-0.17794664163265703,0.28618901861581464
1759505317.7795541,1,0.6080061976537888,-1.084429181366645,0.005450965245433742,0.2938705834791797,-0.5764423480238676,-0.9554133709810887,-0.17176544726363305,0.28551281267741324
1759505317.8964856,1,0.6443799900396425,-1.0843658726413963,0.004700998177949906,0.2994345887825997,-0.5310583984957884,-0.9631955693237382,-0.16167874688957073,0.2867743345395592
1759505318.0099337,1,0.6774095458991002,-1.0843241474770124,0.004114885177702748,0.29978375352982933,-0.5095052409036078,-0.9667303861381865,-0.1542674635601845,0.2871442050305186
1759505318.1160927,1,0.7121870995291291,-1.084306452259095,0.003691765395700705,0.2958150536083808,-0.4667566183892954,-0.9732156071807383,-0.14448075500126958,0.2863340510051134
1759505318.234948,1,0.7511453830750316,-1.0843058887580455,0.003444735458594549,0.29191738799971645,-0.4465401135859458,-0.9761393197042677,-0.13719699773000626,0.28633585604973927
1759505318.359858,1,0.7826923740326204,-1.084306682481227,0.003232013501427892,0.28876209741901776,-0.39558734835880055,-0.9830799621750729,-0.12787960794523806,0.3184463997591248
1759505318.4760275,1,0.8188294995075402,-1.084314088410581,0.0032260660903978395,0.29246272774818727,-0.3712549291983396,-0.9862327130717985,-0.12126043093375986,0.32150400086107794
1759505318.5935464,1,0.8483331123871654,-1.0843198041101088,0.0032346371663399603,0.2954072649650948,-0.3261728403386325,-0.9916977642745686,-0.11441822924114776,0.2915456102850874
1759505318.7036524,1,0.8840918728718788,-1.084316379177074,0.003458098463456895,0.29878360200214243,-0.3047370796936553,-0.9942047582972875,-0.10964524553039937,0.28896145396224066
1759505318.8277464,1,0.9239790394634185,-1.0843008813775685,0.003685053163175693,0.2909661305260798,-0.2610110589542183,-0.9991860719477594,-0.10502857330516877,0.27958194100948713
1759505318.944945,1,0.9562352372486209,-1.0842870268433205,0.0038787953289077088,0.28473513524330657,-0.24010916454390166,-1.001511040413513,-0.10227248583705337,0.2786737982683661
1759505319.0569193,1,0.9948236092516063,-1.0842641592290767,0.003841112723678639,0.2914452392209996,-0.19714856676981807,-1.006170584613894,-0.09836198405916302,0.27343740929102667
1759505319.169969,1,1.026222126377663,-1.084245421096747,0.00383583879470847,0.2971840654396648,-0.17664302081726022,-1.0083443584890428,-0.09634830081161994,0.27299176346157694
1759505319.2822402,1,1.0625139098797733,-1.0842362842880562,0.0035915916479451414,0.29636442123182316,-0.1284398456393024,-1.013194573110114,-0.09149166946263054,0.31405629777236305
1759505319.4008539,1,1.0918300988785496,-1.084230076858759,0.003409714860326726,0.2961464425188357,-0.10537642173540211,-1.0154190984539497,-0.08829734318346683,0.3179091689739514
1759505319.5161498,1,1.127569995390165,-1.0841762114473605,0.004975812370936736,0.30206956519549544,-0.06030693742661247,-1.0193822042210219,-0.08263591593870678,0.29209906122173057
1759505319.641527,1,1.1608947208751654,-1.0840154151641637,0.007699738655533464,0.30243777572088815,-0.038777324013506385,-1.0211875471772536,-0.07869522609275571,0.29000616696880865
1759505319.7574725,1,1.1949627513954786,-1.083723306548446,0.013232754011707768,0.2981293962980377,0.007262451689436283,-1.024887228478819,-0.07462955032366567,0.2795560558969633
1759505319.8674092,1,1.2323183716791326,-1.0827494259797934,0.025252995209461733,0.3024208475325114,0.028973057246884395,-1.026586866965433,-0.07168162513822204,0.2791437838261174
1759505319.9770355,1,1.2647976863514367,-1.081824325293432,0.03648871204855759,0.30596286745824197,0.07634980283471102,-1.0305665480883044,-0.0745120628217244,0.30817663880588225
1759505320.0845351,1,1.3014460041217764,-1.0797895538037794,0.05550264290260967,0.3032549136987099,0.09875549491502149,-1.0325151442197142,-0.078016409072604,0.3108554858012796
1759505320.1836114,1,1.3299489613383424,-1.0780950029554062,0.07061872385291659,0.3007718291883518,0.14074212412544965,-1.036777815409367,-0.08721255257774661,0.3033378515876503
1759505320.2902246,1,1.364016712000222,-1.0746942225913885,0.09428651992338082,0.30249789166433305,0.16061575600271663,-1.0389557532202256,-0.0951498168513878,0.3027300886992354
1759505320.4056969,1,1.391823585421971,-1.0717817890716401,0.11386685898939661,0.30379486458915195,0.20259851882670166,-1.0441804537113486,-0.10765074827818148,0.29179716309892323
1759505320.5235338,1,1.426734132071449,-1.0664342310535069,0.1428126707552319,0.3097357598377817,0.2226287677642939,-1.046872293956149,-0.11795815195814947,0.29058226475443033
1759505320.6368058,1,1.4635152095455906,-1.0593167979300888,0.1741084516177397,0.3024788691743048,0.26589704243180395,-1.0531781009194863,-0.12979864319128842,0.2825341729064776
1759505320.7516453,1,1.4938185993647048,-1.0531934008556132,0.20186555173451134,0.29655622197592185,0.28673604605121467,-1.056389757986606,-0.14001797975434463,0.28145133419959284
1759505320.8688147,1,1.529595000256221,-1.0437854997803857,0.23585037779865498,0.3027605614418037,0.33455289076060524,-1.0641263160012877,-0.14936293616406385,0.3020522337330038
1759505320.9790707,1,1.5587970905571433,-1.0358880482410484,0.264271053582489,0.3077852620873148,0.3573889861542769,-1.0679463362552144,-0.15698692388700253,0.3036346084887347
1759505321.0902126,1,1.5916016720879222,-1.0252551189780708,0.29712871936361723,0.302671295176512,0.4012722961624161,-1.075224862140326,-0.16047151876108476,0.29772617154869885
1759505321.18751,1,1.6185497730445442,-1.0163510220884366,0.3245677997463702,0.2986761206615877,0.42165466621303366,-1.07863378073303,-0.16246029350479457,0.29719330968930274
1759505321.3048623,1,1.6504198147853093,-1.0037205410526593,0.35747531917305175,0.3015839979023063,0.4606279406922813,-1.084771160702901,-0.15984713138660483,0.2687498679879448
1759505321.4128344,1,1.6764191146928742,-0.9932138934940253,0.384620034784685,0.3043921143092505,0.4788945431557805,-1.0875988825329712,-0.15701535399576047,0.2663416159053352
1759505321.51803,1,1.707393763368937,-0.9786077692317956,0.4178271009753251,0.3106046455356177,0.5197085006000547,-1.093550679776165,-0.14964116469704392,0.28911408091203206
1759505321.6454341,1,1.7393483208170635,-0.9619578253930815,0.4524286415846511,0.2978043945278241,0.539394835123959,-1.0962889975630157,-0.14311039640873321,0.2910218957753007
1759505321.7624915,1,1.7652007446784372,-0.948280523084784,0.4820127977984266,0.2875602040327861,0.5873718790768456,-1.1022007502808402,-0.13003919094673227,0.29348473978406175
1759505321.87369,1,1.7963076848407913,-0.929082806420709,0.5191457283332688,0.30349554190394484,0.6104418147470051,-1.104825133229716,-0.11901701818709377,0.2938116903981146
1759505321.9787958,1,1.8216667639685091,-0.9130861818865147,0.5503239589206708,0.31667782685926527,0.6524818229264605,-1.1089551401733313,-0.10503489185510204,0.28197047966479494
1759505322.0900733,1,1.84993705190998,-0.8930952916719951,0.5876304213285878,0.31236077967810033,0.6724455269680101,-1.110718443779713,-0.09428136399387142,0.2809512983824679
1759505322.1904058,1,1.8729464629654649,-0.8765989598071499,0.6186265116338857,0.3090082342916468,0.7120555803698786,-1.1138372339677887,-0.08162647185845465,0.28242735842256844
1759505322.2952976,1,1.899852576060282,-0.8545550039853892,0.6574826225383166,0.3115504054797057,0.7303521133437367,-1.1151092723701979,-0.0725083179883747,0.28237791433748144
1759505322.4066613,1,1.9214693542332484,-0.8365178126258014,0.6896544370897238,0.3135762788508699,0.7696543977072458,-1.11746809569837,-0.059950770292678576,0.2674189648307296
1759505322.508371,1,1.946442806006163,-0.8126929554379662,0.7302013346227024,0.3191282620840262,0.7880076866866392,-1.1184077211139596,-0.050888895624303265,0.2659956517265131
1759505322.5983946,1,1.9657458116308029,-0.7937862888702202,0.7620512937886507,0.32343915511342947,0.7940928065425664,-1.1186128946357008,-0.04599373649530457,0.26562123210483907
1759505322.6919918,1,1.9879239399573403,-0.769368412375599,0.8018197642133601,0.31593824728954134,0.8391919133474889,-1.1201734193390895,-0.032300586114563934,0.2582267397643501
1759505322.797995,1,2.0058202392767455,-0.7494169404625711,0.834619239432307,0.30963422638139826,0.8617762369980754,-1.1207750504784553,-0.020772854930342647,0.25792212748670507
1759505322.9035096,1,2.0260678024261396,-0.7236458476619035,0.874496139371862,0.30868098006674455,0.9049350359245885,-1.1208512816949345,-0.0026230985484223617,0.28732534551679867
1759505323.0071874,1,2.041400338230181,-0.7035571863033121,0.905417800683746,0.3079102627793312,0.9252646865960913,-1.1205930696275712,0.012064961417086581,0.2902903866741516
1759505323.1110172,1,2.058946328560162,-0.6771305713456307,0.9435715611690236,0.3134371683295766,0.9616083345455332,-1.1193066132653096,0.030878583117317986,0.26511514314976875
1759505323.2184062,1,2.0731473517370542,-0.6552637579281964,0.9751549411146175,0.3177972098413721,0.9787761729947372,-1.1184448449070683,0.04549520816955774,0.26325346100970887
1759505323.311914,1,2.0891917325696223,-0.6270693525212926,1.0139658155862974,0.31601452211234077,1.0124540592938998,-1.1161689242800334,0.06386818540885844,0.25003252665860054
1759505323.4239628,1,2.1031277369233012,-0.6010479152421869,1.0472502555981207,0.3143959125902042,1.029111099400539,-1.1148190669240807,0.07843246144519109,0.24908127135552657
1759505323.5417163,1,2.116676067477481,-0.5729753328499645,1.0844973542981717,0.3126240921960278,1.0679785714354222,-1.1108369682603416,0.100055236864331,0.2490904671741385
1759505323.6506896,1,2.1304593813173667,-0.5404660208301607,1.1248937901605816,0.30696912982650537,1.0866182466667988,-1.1086373814337576,0.11702078623900757,0.24878609139797747
1759505323.7495258,1,2.141733098218152,-0.5135171327626394,1.159840241836723,0.3023561982861857,1.1259355593819191,-1.1028613815411379,0.14335863992766518,0.2751649185434668
1759505323.8487232,1,2.153040547669573,-0.4814658513238375,1.197708598619383,0.30210096933544606,1.1445497232157729,-1.099745308264599,0.1643016686865916,0.27835375465875684
1759505323.9433987,1,2.161622445523547,-0.4557326885326212,1.2300761148363366,0.30172531468570885,1.1511845527423241,-1.0983713420043073,0.1752176417633277,0.2785806562654289
1759505324.041667,1,2.1693191308447135,-0.42930175904085727,1.2600104982074964,0.3048679055033541,1.1899310648430348,-1.0906213675743177,0.19885515186045724,0.23591879291288884
1759505324.147718,1,2.176459867864526,-0.4004508291385824,1.2944910230696125,0.31111173196922626,1.2091958901224216,-1.0864696434849321,0.21758483060620956,0.23196788388138098
1759505324.2516882,1,2.1830975580823444,-0.3678937659302599,1.3288105993252328,0.30224530914355274,1.2440693279525228,-1.0779347504658263,0.24153926593474567,0.24395182397152543
1759505324.3551822,1,2.1884958260815504,-0.3410144473738945,1.3584301875394347,0.2946933965856235,1.2605448262804788,-1.0735894373765478,0.2600399104722497,0.24530406343004973
1759505324.444078,1,2.192757228043738,-0.31456833650648586,1.3829363251887619,0.2973943834465826,1.2656559367616556,-1.0720527021161896,0.26902808655932825,0.24580876258429465
1759505324.5446248,1,2.1964747707053247,-0.2855963168064892,1.4074976874928828,0.30809505951303945,1.3080771767012587,-1.0588102978140093,0.2988456837057402,0.24627467245053272
1759505324.6439214,1,2.1996251017561033,-0.25730798682536354,1.4281912123152467,0.31105196510449007,1.3285062145094484,-1.0520225623121742,0.32480411737238646,0.24719013412745866
1759505324.7329042,1,2.2025817521308997,-0.22756435138660214,1.4468743239880857,0.30706783153429207,1.3353132311806586,-1.0494795590612538,0.33790407607295914,0.2467311205590169
1759505324.8251724,1,2.2048256821930585,-0.20097494019570222,1.4615056496697159,0.3044203015871889,1.3744229214671193,-1.0339088443603817,0.3726550874872105,0.24593226759213035
1759505324.9277856,1,2.20702430189061,-0.17160929460882066,1.4743105623703485,0.30261587109542054,1.3939991065548027,-1.0256341080519988,0.4024159807129642,0.246207934320023
1759505325.0361376,1,2.2089139215961073,-0.14443803938145092,1.4847899975730923,0.3008247943278909,1.4263895344049504,-1.010247727351515,0.43944763207035453,0.23250761728006403
1759505325.1511822,1,2.210700546170746,-0.11504506283103508,1.4938118995887841,0.29868525647951266,1.4414570062999617,-1.0025865853656446,0.4669713534333463,0.2313191222880602
1759505325.257791,1,2.212348871667,-0.08635442530148883,1.501476796794751,0.29561565188313066,1.473264593395916,-0.9851108477619811,0.500944267641816,0.23889283272943368
1759505325.375292,1,2.213894856395443,-0.05773736869833584,1.5082979973095356,0.29160030829679773,1.4883573106307144,-0.9763344678371799,0.5259474290611698,0.23959911702015732
1759505325.4745028,1,2.215490438599482,-0.022497624527266398,1.5151663906625,0.2959166155004536,1.517728749522971,-0.9581958235154419,0.5566928927354802,0.23324148421138208
1759505325.5803168,1,2.216719634327604,0.006690083511836407,1.5210204880629012,0.29931597770191654,1.5317735142227178,-0.9490843010404933,0.580483972324001,0.23313963115219347
1759505325.6927779,1,2.2178548702651226,0.04108555129615839,1.5271960929301998,0.30176690421073993,1.5642739897062625,-0.9257430488330044,0.618146133677625,0.25937284154901974
1759505325.803579,1,2.2187014393593154,0.06914849524508691,1.5323431969308945,0.3038025369937455,1.5795500703897176,-0.9141298697771894,0.648841926982287,0.2627723380233275
1759505325.9041069,1,2.2196035274618504,0.10315482551345598,1.537866820737934,0.30178829573620664,1.6089900802267647,-0.8895742935828985,0.6877582638868539,0.2699426086940374
1759505326.019081,1,2.220303043058923,0.13066870333235595,1.5423603141309499,0.3001014996412661,1.622674555101907,-0.8774493448497699,0.7182986269798198,0.2715295863314916
1759505326.13418,1,2.220981855405246,0.1649590125759824,1.5473268846586066,0.2986198200922946,1.6504954450801086,-0.8513580443491938,0.7539835079983614,0.24831461771155922
1759505326.2441318,1,2.2215159261003388,0.1962243032458767,1.5514702076747542,0.2993031922048206,1.6634503067654272,-0.8386143645426736,0.780838860211536,0.24703663739606463
1759505326.3582373,1,2.2218794309112058,0.229122294459494,1.555474523066096,0.3017545293513563,1.691182406126838,-0.8094630491521043,0.8115005428440549,0.2634816276947872
1759505326.4700441,1,2.2222992183008587,0.26598107717515557,1.5592150663778512,0.2949678285026634,1.703910496524709,-0.7955557425936406,0.8335386417614786,0.2646456669523028
1759505326.5992591,1,2.222621263104879,0.29606329882089555,1.56230498698526,0.28940629742323776,1.7334411230890228,-0.7611370223709226,0.867500984140678,0.26846625595201584
1759505326.727767,1,2.222713467461753,0.33055230694173426,1.565494834444757,0.29191694983098854,1.7472062473320982,-0.7443870686056031,0.8933476697292573,0.26928674423545435
1759505326.8537521,1,2.222711124743856,0.37134663642888066,1.568944380465042,0.30167489796795716,1.7754755321806386,-0.7071595402874614,0.9263400943531674,0.27476159892065805
1759505326.9734757,1,2.2224584597950097,0.40497868667778725,1.571963680163778,0.3091226810511533,1.7886783735899916,-0.6889860620901167,0.9509264215881297,0.2755493703309975
1759505327.0908477,1,2.2222360139339354,0.4430520979068726,1.5748758599195098,0.29971078977307,1.8125000263257809,-0.6546017159282088,0.9775690875060155,0.26239326584062356
1759505327.209942,1,2.2221412425415785,0.47403303992087825,1.5773087126567946,0.2921392694303154,1.8237282391326104,-0.6377640281810893,0.9969949801451011,0.2615775802573966
1759505327.323921,1,2.221899689780417,0.5095691190142385,1.5791712664990845,0.2930337944904844,1.8478127822711659,-0.5985313336595086,1.024346421071183,0.28414262374901367
1759505327.438323,1,2.2216653220387714,0.5385499686831114,1.5806978138390062,0.2937827915112448,1.858933838165519,-0.5797339142061568,1.0454475336046194,0.28681010204253493
1759505327.5436819,1,2.2212216488622922,0.57421980196348,1.5811219337158406,0.30196612930919275,1.8791101442541087,-0.5434951131481661,1.070741221200134,0.27566351046758497
1759505327.6742682,1,2.221215548210177,0.6124461216601986,1.5807208716966599,0.2866325951815784,1.8883461527264827,-0.5261737121715432,1.0895603569575059,0.2751476252058839
1759505327.7952676,1,2.2213985657559077,0.6435783077744726,1.5801446825536998,0.27436332618478537,1.9086198305488753,-0.48574497615580486,1.11347059004121,0.2721346797792718
1759505327.90824,1,2.2213504170047584,0.6828254659444577,1.578189805526877,0.29261360106692447,1.9179543218857997,-0.46646295118823605,1.1310933293617518,0.2716831618057933
1759505328.0218055,1,2.221015895713697,0.7147211932945732,1.5765257770489172,0.30740928187096545,1.9365543746994054,-0.42513100699985285,1.1552777466710507,0.2798576608855096
1759505328.132136,1,2.2209541403001793,0.7517126727778234,1.5743432188563495,0.3005603786660938,1.9448870650610852,-0.4058528616050914,1.1728738325762476,0.2807586310097193
1759505328.2524998,1,2.2208224212400394,0.7921248954583849,1.5723724430006394,0.3102509325997848,1.9619072130735722,-0.36292539887532665,1.1959903458166052,0.29819407906872203
1759505328.3710613,1,2.220529920870022,0.8255199851065756,1.570716715265146,0.31805560395100774,1.9696750966780256,-0.34247987178449546,1.2129292130978162,0.30031221036885886
1759505328.4857588,1,2.2205916301284194,0.8627959774438108,1.5695506917532553,0.30518987278697524,1.9855951131623994,-0.29722043099405343,1.2363027424851105,0.3049892685868894
1759505328.608029,1,2.2208088385004308,0.8931310757024764,1.568663953595445,0.29472220669774135,1.9929516260741682,-0.27503358080731055,1.2545476510202647,0.306145489655077
1759505328.71521,1,2.220989485971591,0.9297895331781395,1.568554075518719,0.30244757413458023,2.006452450202255,-0.23296965172803932,1.2733791547513518,0.28423558814602856
1759505328.831154,1,2.2209839655433377,0.9596160581204063,1.5684903133409716,0.30849048507012833,2.012657909480022,-0.21259210247947102,1.2867545294662914,0.28264178304580073
1759505328.9454389,1,2.2210873068349932,0.9953211968500169,1.5692718482582877,0.30664738446876083,2.0250300585538437,-0.1703003384816223,1.2993678312514636,0.27990347464071513
1759505329.076741,1,2.221138910706994,1.0280023358271868,1.5700767784220517,0.3020413426711871,2.030847116201645,-0.14979397155296603,1.3074678197542657,0.27979766606725376
1759505329.1904612,1,2.2213041521358003,1.0594861639722701,1.5710846766965982,0.29510795176582444,2.0433016681164227,-0.10413662025432498,1.3162439496123532,0.29502401984472654
1759505329.3064387,1,2.2212994946514506,1.0973668647668835,1.5720622093456125,0.3009847837851063,2.0491650380912505,-0.08213423219309729,1.322043068495409,0.2962076682206015
1759505329.420009,1,2.2211818335063027,1.1283750440079123,1.5728635830373854,0.30574998091802963,2.060807106431815,-0.03752020750792529,1.3312874509625119,0.291506910621322
1759505329.5320654,1,2.2210655454091914,1.1644135481550093,1.5730960952916204,0.30420003183457295,2.066199624283197,-0.016334250453247417,1.3378891435012266,0.29112671662099765
1759505329.6665084,1,2.2210940909655683,1.2059944645995357,1.5727883148891464,0.3097255372862992,2.0773331583665917,0.030574864599104513,1.349324215226296,0.2867876901588506
1759505329.7866235,1,2.2209861163049234,1.2404115300638845,1.5724017945977053,0.3141937678815096,2.082491618846526,0.052942761185904935,1.3576240846195473,0.2866367001639777
1759505329.9207225,1,2.2212107555962866,1.2804266649693326,1.5718693140771172,0.3071159296634885,2.093041964066594,0.1060010873318332,1.372035459198383,0.3144724946052233
1759505330.0373483,1,2.2214713966322743,1.3126344158356016,1.571412857026545,0.30138375748614116,2.097914089509792,0.1314266787564453,1.3832143563152477,0.31743453211331124
1759505330.1562717,1,2.2216441162124574,1.349849789342169,1.5712959279945076,0.30469490598728877,2.1065356207807855,0.17779277413252428,1.3967106294691483,0.29730710970979557
1759505330.2645283,1,2.2218142942994916,1.389830159182296,1.5715103623898425,0.3050286095879437,2.1104179799301495,0.19961324070975617,1.4068862290989568,0.2956928485543374
1759505330.3847184,1,2.2218933183849745,1.4240692142689209,1.571863707560763,0.3052558694411317,2.118052475997266,0.24688711918156814,1.4165953452226119,0.29943336192512265
1759505330.4899607,1,2.2220707199907213,1.4622987052820893,1.5723442574000162,0.29788157623695083,2.121506008554373,0.2690023413904606,1.4228187762363296,0.29977176464852234
1759505330.6146855,1,2.222249225458632,1.4931973463008206,1.5727461668375418,0.2918479397264937,2.128676054139953,0.3159692963198945,1.4290444573257728,0.2974477568363043
1759505330.7304306,1,2.2223551046267462,1.5285867305433987,1.5728859069560683,0.29334633239407865,2.132009051559501,0.33826171820453976,1.4327890649529753,0.297200062538131
1759505330.8395002,1,2.222412306838229,1.5575481452466495,1.5729973595135656,0.2945267794091913,2.138440687976374,0.38219432815722626,1.4371942495941343,0.2963119400888667
1759505330.9527898,1,2.222283107280643,1.5932806970602507,1.5726091278347956,0.30499716288001055,2.1414381382686183,0.4031373008458656,1.4400101816329065,0.29614020653170725
1759505331.0773993,1,2.2224071323545322,1.6343696960158505,1.5719902071457972,0.30503230393315833,2.1476367402618215,0.4478309881088132,1.445563231115399,0.28871305755940746
1759505331.1927555,1,2.222488595885944,1.668410354570924,1.571429411028777,0.3051001728348098,2.1505178236150355,0.4691721289413155,1.4491161993825663,0.28814442127977674
1759505331.3076828,1,2.2227173955963324,1.706672973616297,1.5710307352062958,0.2966076089964489,2.1561780848303886,0.5189072037971535,1.456930460473022,0.31124194672898947
1759505331.430641,1,2.2229757889938564,1.7376754176223637,1.5707399054514843,0.28970568617933223,2.1588001571754987,0.5430966724599017,1.4627835476345235,0.31363639676247346
1759505331.5477848,1,2.2232405035981113,1.773780786617929,1.570702239942375,0.29212785201222946,2.1638850734775934,0.5911308782949903,1.4704381499134795,0.30652859552258954
1759505331.680123,1,2.223252965680863,1.8075621908285815,1.5707322978365414,0.2972829402438503,2.1661865350325518,0.6143193787589252,1.4758624467002797,0.30608638134258803
1759505331.8066247,1,2.223363315970194,1.8432927100575252,1.5708820401298105,0.3050777363824803,2.1711766250424542,0.6610872998796745,1.4814491891523627,0.2744359508444928
1759505331.930057,1,2.2234487062103816,1.8824996706975632,1.571216695196519,0.3014934641623729,2.173442384091337,0.6835042349343856,1.4853572282028804,0.2715352633427104
1759505332.0522952,1,2.223496714863111,1.9139891240444973,1.5714848568583317,0.298529412478128,2.177712931243246,0.7366242922478137,1.48939415642069,0.3064616504234504
1759505332.1702173,1,2.223480796913981,1.9509392822347282,1.5720878034424184,0.3000230738386381,2.1797220591906044,0.7620792684687779,1.4918264339703609,0.3096645701389848
1759505332.301896,1,2.223671537470945,1.9920392874221686,1.5727912496113952,0.2947047543908662,2.1839910412932904,0.8116371930048825,1.4953227740427208,0.2956569425855361
1759505332.41797,1,2.223870843537942,2.025331199130368,1.5733848668849741,0.29029390522943954,2.1860091378422353,0.8352856386901063,1.4970763800558997,0.29446111420310406
1759505332.5416963,1,2.223852570726598,2.0638765672177435,1.5737379703704355,0.2951579257176932,2.1896805189453734,0.8848500758328967,1.5005277287622574,0.3079446395656237
1759505332.660482,1,2.2237381596442383,2.0953440838419044,1.5739910052366537,0.29905366180693965,2.1914203369267757,0.9085434402635637,1.5024916843411336,0.30921809664665056
1759505332.7835138,1,2.2237765854624247,2.1338546375091414,1.5736900977127983,0.30455541106087214,2.1948513054100327,0.9564976900935437,1.5061956746958618,0.30378185602141805
1759505332.8951502,1,2.2240007200338643,2.1743971935048,1.573175242448314,0.2940590910093239,2.1964451062182926,0.9792161745109434,1.5084779904521068,0.30339637396139685
1759505333.0080674,1,2.2243498401246384,2.2078732789168747,1.5726773195104824,0.2856348964015892,2.199687650157859,1.0208830246299974,1.5121497053680188,0.2697736651765735
1759505333.1208334,1,2.2244818228957257,2.247676705413026,1.572364844051169,0.2977743602209609,2.201116994971923,1.040806926634966,1.5151465210581003,0.26671035597061055
1759505333.2328372,1,2.2243870780386183,2.2800192584654533,1.5721136305186683,0.30756578351908537,2.2032165161127666,1.089181572311899,1.5189655817483343,0.3141877249943702
1759505333.343042,1,2.2244117544207946,2.3164598776250025,1.5723457387812458,0.30108020787700374,2.2042261403969765,1.1122632167929332,1.5215472440290825,0.31847127613911663
1759505333.464664,1,2.2244670334353187,2.345659266228949,1.5725493775256494,0.29593777772539376,2.206782822762677,1.1581079725640684,1.5244976931487786,0.29530031814862207
1759505333.5685604,1,2.2244799445437033,2.382096403340758,1.5730397476863365,0.30096069886578225,2.2079594593751506,1.1796460770782506,1.5266826578782637,0.2934059915439678
1759505333.681698,1,2.224522075981597,2.420369279877248,1.573562312826103,0.29741771744440426,2.210203668482888,1.2225662416108467,1.5292098858054919,0.2875889617838171
1759505333.7858963,1,2.2246287799880755,2.453543167250355,1.5740591281071055,0.2944429609335164,2.2112205532484523,1.2428903294855111,1.5301097192349837,0.2870560913450115
1759505333.8895164,1,2.2246927142638375,2.4916980000866764,1.574484122916789,0.2966143226666148,2.212785653610626,1.2886184454536331,1.5313503324017765,0.3197955871086967
1759505334.0040364,1,2.2246989194493314,2.5234209732878727,1.5748421150376335,0.29839101875724705,2.2135616304391235,1.3104510544908137,1.5321449246360916,0.32269451649642006
1759505334.128507,1,2.224713660135282,2.5599541556984557,1.574809259182622,0.294230908200558,2.216187525567586,1.352226558546737,1.533351010250893,0.2678046058624111
1759505334.2310295,1,2.22482667658499,2.590059959194299,1.5747434575786754,0.29095823575428187,2.2173110648808954,1.3720750732711537,1.534281822657376,0.2632585977283128
1759505334.3418815,1,2.2248348124651383,2.6257607617816587,1.5742608753971057,0.2963549270402215,2.218804118809991,1.4136025101701435,1.5363308492015506,0.28734090662884726
1759505334.4525695,1,2.224758842486193,2.65482282676222,1.5737867785088648,0.3007673115306146,2.2194967491103395,1.4334743551577644,1.5370799263521604,0.2893798185922504
1759505334.558012,1,2.2247797991768827,2.6894887702779644,1.5731295809637225,0.2986771676306841,2.220739362357741,1.4802793942196173,1.5399361349214082,0.31299399019347873
1759505334.663564,1,2.2245752951222486,2.7162549803175122,1.5726672786848996,0.2970666958090352,2.2213329155623454,1.5027359341889546,1.541626096422848,0.3152120985249915
1759505334.7816617,1,2.224608594831101,2.7508562744977083,1.5723055840670765,0.30227320700760085,2.2227276011973123,1.547617716399925,1.5448086552736644,0.30473362637196244
1759505334.8898938,1,2.2246309384423966,2.7882189843936076,1.5722262418782478,0.30214713375006735,2.2233649450484223,1.5686430279828478,1.5473323349565595,0.3039328539989717
1759505334.988641,1,2.2247076816286477,2.8209235739909837,1.5722656339757695,0.3020070955238834,2.2245788270819853,1.6135488878877315,1.5495673189377364,0.3038269632211329
1759505335.1053514,1,2.224888680811935,2.8549062271068157,1.5724969477959423,0.2926137613622509,2.225115093757512,1.6349384163522822,1.5504117638545503,0.30385277906907243
1759505335.2074544,1,2.225206062172099,2.8842279098114623,1.5728033157994836,0.28487051543056496,2.2264363033850114,1.6772352799912047,1.5516030940522285,0.2880246232216211
1759505335.3259265,1,2.225397752734797,2.91948264699361,1.5734138844145895,0.28580552170931,2.226981367023491,1.6972962647516268,1.5524343258541564,0.2866436723670841
1759505335.4281006,1,2.2255678905445118,2.9486245319073703,1.5739935005792458,0.2864869895722236,2.2278383666980544,1.7437013736540037,1.552665021776048,0.3082218687851648
1759505335.52917,1,2.225537499322027,2.9835883898951017,1.5747139701025268,0.2894548510944918,2.228314595360315,1.7647107715734942,1.5524926227914553,0.30964955624664436
1759505335.620779,1,2.22553857121186,3.013297056864958,1.5753307114966557,0.2918617926169597,2.2284368893935467,1.7729072821542238,1.5522517745965623,0.3103295724073945
1759505335.7422943,1,2.225258510454594,3.0485729121629968,1.5756252708470593,0.30256675422925,2.2298024579804787,1.8298333102162951,1.5529811952662607,0.3061327388725792
1759505335.8549535,1,2.2248615338042685,3.0773685815280225,1.5758250367587625,0.3112923056791017,2.2305247660290917,1.8577118277107474,1.5523582469715715,0.3057454575297949
1759505335.9667523,1,2.224585820366545,3.110823591290873,1.5755037315196694,0.3049113561943984,2.231461399441149,1.9076889742784304,1.5532541104863329,0.31930652408918103
1759505336.079214,1,2.224457387529732,3.137997417760309,1.5752102250779483,0.2997505079303062,2.2319045378142497,1.9315968453085302,1.5534162495850066,0.32056184731083015
1759505336.190827,1,2.224297238659436,3.172395392839873,1.574542083058685,0.30441609653124546,2.233183443774642,1.9745484478886737,1.555245343129156,0.29405907841955536
1759505336.2836235,1,2.2241919873398546,3.2010017614117956,1.5739806347542908,0.30833628861814233,2.2336901238799056,1.9938320067499282,1.5562164699211134,0.29196445344562044
1759505336.4053915,1,2.2240361502937964,3.2350861990263304,1.57351136089028,0.31042517505915873,2.2346576600501424,2.03547157641831,1.5584917223736852,0.27980990906657
1759505336.511853,1,2.224124595677501,3.2721239775944753,1.5732579897224939,0.2991574508826748,2.235066666763395,2.0549453335410104,1.5602212623548977,0.27877584625372914
1759505336.6173205,1,2.2243929098158897,3.3029352954287345,1.5730973001784774,0.28997205700934325,2.235319286145361,2.1009553753569437,1.5618512780143547,0.3034170448399118
1759505336.7254157,1,2.224571000258912,3.3390985070656907,1.5731089234733449,0.29378114669655503,2.235484915042579,2.1225331595452297,1.5628664817578457,0.3054912253357876
1759505336.8528183,1,2.2245730071877574,3.3688386108779946,1.5731715642635222,0.29676980021365523,2.2358477453448176,2.1719623313526517,1.5636666591643569,0.31119808291599704
1759505336.9973736,1,2.2246378146823265,3.4057351700818317,1.5735184333296024,0.3000795986381684,2.236024027071568,2.1955293574277,1.5640692366706401,0.31176782151914645
1759505337.1261535,1,2.2246263662817096,3.4442788107451667,1.5739017226320273,0.2953975491526716,2.2367100018032615,2.249869275166747,1.5647225077290003,0.3090352638186205
1759505337.2506828,1,2.2246008797699535,3.475303241031745,1.5742381039231863,0.29170607865601694,2.237062500505962,2.2759916229895842,1.5641198185846656,0.3087773206008956
1759505337.3729877,1,2.2246389123853327,3.5150411161543684,1.5745236836845995,0.3017162605743101,2.2378619362220107,2.326988426455475,1.564333727156269,0.3019523231107119
1759505337.4893188,1,2.22447786363059,3.5471874704751696,1.5747554414489413,0.310588039459165,2.2382288714322875,2.351395469895364,1.563691982106912,0.3013269851318387
1759505337.618058,1,2.2241197343150794,3.583797077061233,1.576714759882754,0.3142023172079306,2.2390562667584537,2.399978681363622,1.5641896279110268,0.2885428913212383
1759505337.732728,1,2.2237220071092842,3.623718695185561,1.5828597607773018,0.30421260436320874,2.239461363490745,2.422604250513005,1.5648064293746125,0.28783225899622095
1759505337.8371108,1,2.223518110632243,3.656976662779558,1.5893636803740951,0.29695923249493844,2.2397101207153276,2.471710861906157,1.5623363575174938,0.31623617130058373
1759505337.9383426,1,2.222152460307111,3.69609204866957,1.6046332145806477,0.3121182069163108,2.239982781639141,2.4946342373100365,1.558892622848816,0.31848507579748486
1759505338.0429733,1,2.220703354914869,3.728116109581137,1.61857014457903,0.32518166829021555,2.2415570115279952,2.531865878349178,1.554714539859215,0.27495234969193244
1759505338.1504157,1,2.2175641576087215,3.7631627792662647,1.6424030751071144,0.3241129776963888,2.2422834129164158,2.549454661074098,1.5517029835921279,0.2718200338151282
1759505338.2663991,1,2.2150128596332728,3.793223179370697,1.6644035254089926,0.3226703930186347,2.2439267817347455,2.595349631983958,1.537266058250144,0.3068584903140995
1759505338.3820374,1,2.2105247991229326,3.8272182199862668,1.697081555057095,0.3157081724554342,2.24502114285424,2.6171586050712876,1.524019161247906,0.30966489970937305
1759505338.5010488,1,2.206811974535744,3.8543438147118376,1.7239033297407853,0.31047492073207067,2.2491985133399828,2.6632566274578866,1.5015015215218384,0.2972747846752009
1759505338.6112292,1,2.1998074246543857,3.88744611550797,1.7634806621934238,0.3133517885576213,2.25152390081849,2.6849923417467907,1.483148502692352,0.2958605901348808
1759505338.7094657,1,2.1902517544253803,3.922596481450447,1.8065462265059382,0.3128687970244724,2.2570135017613704,2.725071735517932,1.4626628180679169,0.2758211788908435
1759505338.8180695,1,2.181487620869847,3.952595038537403,1.846997479182362,0.3123010266041892,2.2598978653905015,2.7443382554408693,1.4470310217164726,0.2735911669114755
1759505338.9309301,1,2.1701871155970607,3.984511875487642,1.8899202772814538,0.30436417076182337,2.2660884297670667,2.7865595406128665,1.432696355332309,0.28458015980873846
1759505339.0408735,1,2.1607010362070964,4.0106299977188264,1.9279773068052832,0.2980166710986988,2.269238018603891,2.8066467228798397,1.4223526272147609,0.2851313496995226
1759505339.1523185,1,2.146596533111102,4.0412808397209075,1.9715109922040919,0.3011534286032654,2.275708536771703,2.847066981668267,1.4156036907196732,0.2787513930060064
1759505339.2509856,1,2.1347818527080755,4.065249518504893,2.0085368950891143,0.30364678978850956,2.2788488651896057,2.866369909748475,1.4116338160498514,0.27787822461104894
1759505339.3569293,1,2.118144695993209,4.093259777140487,2.052385385266834,0.31501296789994016,2.2847393740175526,2.903558115334488,1.4125216459838807,0.2701747160953302
1759505339.4916217,1,2.103928048375444,4.116589636135057,2.090170198480173,0.32461332984732455,2.28749683802661,2.9214568383734636,1.4143094422269535,0.2693479075884628
1759505339.5837343,1,2.0854962914236386,4.142435779221665,2.134444084911529,0.31875920357415766,2.2933563359206253,2.9659795877468658,1.4236352396652032,0.289840424512481
1759505339.6906235,1,2.070436860005605,4.163313931760246,2.1710908900763757,0.31398253395740994,2.2961655856644456,2.9883810223990075,1.4321098372024277,0.291899927375527
1759505339.7994182,1,2.0503343743554647,4.187568736223923,2.216682754915552,0.31250883443924216,2.300749542673921,3.029639239598825,1.4455132181187678,0.2926623394905652
1759505339.9072592,1,2.033916769085864,4.206987268722035,2.254191504488785,0.31130599746192295,2.3027225671917226,3.0492145544008946,1.4568034747903997,0.29303025469844396
1759505340.0225728,1,2.011998166636799,4.228970463961172,2.3009589516113595,0.3157285714625479,2.306638721531799,3.0889768006016083,1.471866463369715,0.26267949119244316
1759505340.1325417,1,1.9908894232791472,4.248683243688698,2.3427219170862372,0.31361600172866805,2.308254317861544,3.107666766578881,1.4836816184401245,0.2603059104685182
1759505340.2294123,1,1.9691502055135668,4.267803781965253,2.388195885409569,0.3062064504480698,2.3107072855061896,3.14535769371377,1.4983370401268348,0.2681300024024489
1759505340.328751,1,1.942672279279005,4.288005149271816,2.4375482755649553,0.30513847814330114,2.31169210992939,3.163351077044217,1.5094763623373975,0.2683434897797712
1759505340.44383,1,1.9207025928632573,4.304183059910798,2.4814320184045244,0.3046392496874833,2.3132045881610437,3.202923060117745,1.5280941447369383,0.26646606487893254
1759505340.5532725,1,1.8925927889606722,4.321492600740119,2.5307216255140923,0.3063060548803359,2.3136839823659967,3.2210008591493047,1.5421490292659135,0.26619406054527317
1759505340.6582966,1,1.8690973274407119,4.335426645262377,2.574756867327821,0.30839474797404154,2.3136736352222522,3.2601135034838706,1.5637562292664766,0.273972330897469
1759505340.7480304,1,1.8461744106714413,4.347219552601543,2.6133544988794286,0.309932125334866,2.3134374312077455,3.2769138101096233,1.5794930111679695,0.27524502547393276
1759505340.859698,1,1.8217520702474719,4.358407678499906,2.6564411120139466,0.3105369617565237,2.313161822932438,3.308084376127863,1.5977379427558975,0.22826389616590345
1759505340.9480767,1,1.791616303532986,4.36993617972915,2.705018448947618,0.31386702314866194,2.312794366016036,3.321175830987476,1.6099522422479038,0.22410498625221803
1759505341.0409114,1,1.766255512397245,4.379222988822279,2.7489450342490676,0.3158102557401639,2.312666563236809,3.326754820356278,1.6173147837184039,0.2225798126496603
1759505341.1373386,1,1.742119178483185,4.386533312998132,2.787057846036259,0.3145675063590912,2.309252442968552,3.3698916146252995,1.6418722039941855,0.24761047026306535
1759505341.2362127,1,1.7174424894339606,4.393250928261948,2.82709961906336,0.31059898147647097,2.3073285997043733,3.390943070584805,1.6626787646135066,0.25007649301169355
1759505341.3606956,1,1.686542454031139,4.39966034372798,2.868506833458763,0.306839728984902,2.302805547603378,3.427845433741398,1.6897285075717405,0.24022709906376297
1759505341.510068,1,1.6610722835438856,4.404868442876634,2.904370426932608,0.3032985290033716,2.300282744900596,3.44542873714768,1.7111539308227823,0.23959237855763693
1759505341.6526613,1,1.629996509931287,4.408930793801119,2.9385290392173786,0.3082170034195984,2.292179582920489,3.489124062760258,1.7477561557803476,0.23096337010235274
1759505341.7724218,1,1.5928465477402296,4.413324433651261,2.97036367491054,0.29952497100878495,2.2880209723503127,3.5093789626190106,1.7774557376868023,0.23124799108278618
1759505341.9122746,1,1.563232636863503,4.416538411563056,2.9956451168205973,0.29320056304817105,2.2782961282473773,3.5480008664155744,1.8152353193624937,0.21504309707430194
1759505342.0490005,1,1.526607917455959,4.419366596803305,3.0170952638138036,0.3063458228802397,2.273365925621579,3.5660210961855445,1.8436502244032542,0.2128612473537505
1759505342.1815908,1,1.4873936382929176,4.421930702343105,3.0335082570023237,0.29592527405620117,2.2593942926682065,3.6069746682018704,1.886763653220888,0.23360769633057335
1759505342.2929523,1,1.4554872121395328,4.424249459742389,3.0467535624521207,0.2877848089752908,2.2523433484292164,3.6262914931468297,1.9217682553895958,0.23641640048951448
1759505342.4416053,1,1.4192273878178134,4.425982817098984,3.0570437018731176,0.2977282797211625,2.2348282556619,3.6658330314795067,1.9728022315877354,0.23625582208114915
1759505342.5766916,1,1.3774483139551434,4.428057489820748,3.066514588382687,0.2971451222100429,2.226153016699472,3.6840922649540753,2.013032057985375,0.2364197096446029
1759505342.699026,1,1.3437295465261725,4.429533987317939,3.0742424372833517,0.29675444419704067,2.2037096511216965,3.723552267302813,2.069341619083016,0.258546823830655
1759505342.8250613,1,1.3058171319421181,4.430726744657637,3.082432647930535,0.30088099047160144,2.1925233413963023,3.7417341914202886,2.1127949173695315,0.26136748383229674
1759505342.9467633,1,1.26417252929234,4.432367018576749,3.0912078793614226,0.29829272910416355,2.170490524973097,3.7751685299938353,2.160182423969924,0.2386796312589567
1759505343.0599957,1,1.2298818155899167,4.433689406137372,3.0988751669304735,0.29595308275619897,2.159620034692437,3.7905971515490737,2.1940199167739283,0.23708134684095744
1759505343.1985688,1,1.1900929511416125,4.43418717180296,3.106943675627608,0.3042981122456416,2.135432150439303,3.8227024986525366,2.22922500922526,0.23574303143521044
1759505343.3173966,1,1.1578311337684095,4.434177352108214,3.113537424963729,0.3109938638389189,2.123812682585524,3.8376615447895945,2.2538066654839395,0.2360187067411341
1759505343.4233708,1,1.1205780203803515,4.441094831930278,1.9908006062525778,0.30890778864098967,2.096352097728565,3.8689794019787853,2.286666283944917,0.266163495698804
1759505343.5518656,1,1.077217622406613,4.454907142996788,1.0339636953055404,0.3087906653371996,2.0829680878181387,3.8835999087091437,2.311552594715784,0.26870379134991695
1759505343.681102,1,1.0467522907986981,4.467544531969829,0.27053601761590934,0.30869013314689714,2.049491794901346,3.9174415134145146,2.3544982887926107,0.26936998321880673
1759505343.8178327,1,1.012380033424678,4.474614791393056,-0.3713361908931694,0.3060464693918745,2.0331373087194415,3.933187537925106,2.3884501016739477,0.2702295230166564
1759505343.9544113,1,0.9793168647919206,4.476867365850063,-0.8783425821658725,0.30361503676289586,1.9958301907552733,3.9653423427002603,2.4307514726914032,0.27454076068045247
1759505344.1116493,1,0.9429259200598117,4.4774772167094365,-1.2927738266850077,0.301316504310243,1.9773973415595127,3.9803010872801203,2.462581109126826,0.27548182244345737
1759505344.2582848,1,0.9001486547736461,4.47827790735137,-1.6211674732635195,0.298017041014285,1.938443024075166,4.011122059670486,2.49685003583555,0.24654915876494404
1759505344.4013598,1,0.8510538548414446,4.480420050803631,-1.8970100085471115,0.2953691369559408,1.9197003045148044,4.02542259293872,2.5212161380057587,0.24383280304399277
1759505344.546816,1,0.8030069743841409,4.484166337498777,-2.127058767913782,0.2987730994677678,1.8698840359525768,4.0576566434030585,2.5586818555173467,0.29826597789457504
1759505344.6865623,1,0.7592426891582443,4.489005010010942,-2.3079531935628816,0.30581734804306354,1.8454823699335312,4.072599098118819,2.5877180797150356,0.30414873934446246
1759505344.843385,1,0.7121338459075586,4.494282529648458,-2.4568848051577894,0.30466237802305,1.799557531954728,4.100174552029556,2.620893567456454,0.27304612548658264
1759505344.9608295,1,0.6703234745595104,4.4998385838820285,-2.5775637718298996,0.3014417885292336,1.7778416801220709,4.112975339822533,2.6450745542093,0.2708815516366699
1759505345.1081815,1,0.6305284784473386,4.505325547422939,-2.6793909431437393,0.29658618996053177,1.7358284324391546,4.1353433129827195,2.6725494587007845,0.26114338221565203
1759505345.237619,1,0.5886845889798926,4.504130496347564,-1.6167105578269845,0.29917048628599063,1.7159513269154802,4.145549188665886,2.6920405955274997,0.2600067305302211
1759505345.3707502,1,0.546542498009142,4.497548211396297,-0.7208359005662693,0.29351312017222975,1.6681370930411528,4.167158752220015,2.71974838376235,0.28613923439197175
1759505345.4903865,1,0.5164709551605222,4.493141566642811,-0.0028696288241710443,0.2892475495572762,1.6450657485883267,4.177142601563826,2.740412589925306,0.2889328597278194
1759505345.6222503,1,0.4810146827553077,4.493008672358032,0.5686858998699783,0.296731500034863,1.6025559462271761,4.1949435493922795,2.7647560251493535,0.27154838760333244
1759505345.7460957,1,0.44697976587527777,4.495583930704401,1.0288668566581947,0.3007468558662507,1.5823374808919128,4.203145801825608,2.7823131742092744,0.2703920343883141
1759505345.8742423,1,0.4069076978482078,4.498401154101929,1.4220851455810852,0.30254343477980766,1.5356493139963998,4.219480426267446,2.8063061399336644,0.28889519877237285
1759505346.0016978,1,0.3613606981484578,4.499939794088707,1.738008532864777,0.2980489255016623,1.5137546611202568,4.226854302189205,2.824382650121944,0.2907854854167685
1759505346.1250973,1,0.3228296979249241,4.499409005455038,1.9923670631199377,0.29433273575414864,1.462821618168899,4.2421651723485505,2.846637445102361,0.3085031606520624
1759505346.228351,1,0.2821340026861257,4.501900301534183,1.03778263902265,0.2973088060962953,1.4390084104680176,4.249131511221786,2.8624959798362086,0.3104868137490041
1759505346.3345716,1,0.2537745005136664,4.505466370475337,0.25774567033316437,0.2996746182685133,1.3995018974224251,4.261445040159644,2.8756212683749234,0.2781505971820405
1759505346.4690938,1,0.22256354484330415,4.5051874103878875,-0.3584975177636543,0.30396975035753127,1.380448202454822,4.266995603353847,2.8838140948135678,0.2750749642234878
1759505346.5777748,1,0.19119738931748226,4.501538398174116,-0.8627983335065402,0.30225911684117346,1.3368132135958732,4.278914672077617,2.8905783159626157,0.28738318353355374
1759505346.6902475,1,0.15749768836425712,4.497139069264844,-1.2747796001126455,0.2957006905375301,1.3157868692449088,4.284551644592077,2.8939092181611183,0.2882960659388546
1759505346.8171606,1,0.11663497061953397,4.491532964324921,-0.43846575697245804,0.301994506261793,1.2734676320096394,4.296422077218186,2.9001122862028788,0.2665220422055007
1759505346.9372272,1,0.08722898719063739,4.489573309664204,0.23299196585961937,0.30710280974918774,1.2534129694791272,4.3019964592003195,2.9039077108168048,0.2646763521288789
1759505347.0581214,1,0.051761808075426054,4.492004181722503,0.7743163803292643,0.3010012067910317,1.2037884295708705,4.31263652686355,2.9155503357682493,0.30686771028170656
1759505347.1763666,1,0.009471844606859875,4.495491159475195,1.2112990240921298,0.3048833582016991,1.1799978111744527,4.31767926808211,2.92524499839952,0.31083096338733535
