timestamp,vehicle_id,x,y,theta,velocity,gps_available,dt,gps_x,gps_y,gps_theta,gps_velocity,control_steering,control_acceleration
1759505306.2203093,1,-1.735,-0.35,-0.7801621756414647,0.0,False,0.01,nan,nan,nan,nan,0.0,0.0
1759505307.3746767,1,-1.73500001416623,-0.3499999055584658,-0.7229647936467529,0.0,True,0.1,-1.7350000143051147,-0.34999990463256836,-0.7177029252052307,0.0,0.0,0.0
1759505307.5582976,1,-1.7350000142586695,-0.3499999049422029,-0.7180974612499611,0.0,True,0.1,-1.7350000143051147,-0.34999990463256836,-0.7177029252052307,0.0,0.0,0.0
1759505307.7194955,1,-1.7350000142876907,-0.34999990474872844,-0.7176985305678496,0.0,True,0.1,-1.7350000143051147,-0.34999990463256836,-0.7177029252052307,0.0,0.0,0.0
1759505307.855714,1,-1.7350000142984767,-0.3499999046768224,-0.7176739847994824,0.0,True,0.1,-1.7350000143051147,-0.34999990463256836,-0.7177029252052307,0.0,0.0,0.0
1759505307.987758,1,-1.73500001430258,-0.3499999046494655,-0.7176780482100575,0.0,True,0.1,-1.7350000143051147,-0.34999990463256836,-0.7177029252052307,0.0,0.0,0.0
1759505308.1140893,1,-1.7350000143041466,-0.34999990463902214,-0.7176827827865395,0.0,True,0.1,-1.7350000143051147,-0.34999990463256836,-0.7177029252052307,0.0,0.0,0.0
1759505308.2334063,1,-1.7353134739405258,-0.34972660648467746,-0.7174121556323847,0.003575449314904902,True,0.1,-1.7356736660003662,-0.34941238164901733,-0.7171612977981567,0.003575449314904902,0.12113986285634226,-0.05
1759505308.3476863,1,-1.7354331787404063,-0.3496221912290759,-0.7172443432530855,0.003575449314904902,True,0.1,-1.7356736660003662,-0.34941238164901733,-0.7171612977981567,0.003575449314904902,0.12171857329223812,-0.05
1759505308.4649258,1,-1.7394754007177897,-0.34613183718191265,-0.7140125742903614,0.04805012459421965,True,0.1,-1.7442116737365723,-0.34202274680137634,-0.7103040218353271,0.04805012459421965,0.12171857329223812,-0.05
1759505308.5929437,1,-1.7410156288083523,-0.34479431346687234,-0.7118487328821725,0.04805012459421965,True,0.1,-1.7442116737365723,-0.34202274680137634,-0.7103040218353271,0.04805012459421965,0.12902482909995427,-0.05
1759505308.712341,1,-1.747359933456019,-0.33936908805189625,-0.7074047926465994,0.049291361352901575,True,0.1,-1.7535877227783203,-0.33402636647224426,-0.7025777697563171,0.049291361352901575,0.12902482909995427,-0.05
1759505308.825091,1,-1.7497779543579348,-0.33729067914988037,-0.7042871924474206,0.049291361352901575,True,0.1,-1.7535877227783203,-0.33402636647224426,-0.7025777697563171,0.049291361352901575,0.1374249007987025,-0.05
1759505308.9638343,1,-1.7567439261911086,-0.3314209806363038,-0.6989585399791824,0.0516600620545636,True,0.1,-1.7634825706481934,-0.32572638988494873,-0.6939476728439331,0.0516600620545636,0.1374249007987025,-0.05
1759505309.0850194,1,-1.7593981120276074,-0.329171169347042,-0.6952547911078746,0.0516600620545636,True,0.1,-1.7634825706481934,-0.32572638988494873,-0.6939476728439331,0.0516600620545636,0.14719594625685062,-0.05
1759505309.2198439,1,-1.7665114549774092,-0.32327794212659583,-0.6894618495992955,0.05102926112403159,True,0.1,-1.7733298540115356,-0.31761589646339417,-0.684842050075531,0.05102926112403159,0.14719594625685062,-0.05
1759505309.3372853,1,-1.7692215284641237,-0.32101850932365994,-0.685478438324786,0.05102926112403159,True,0.1,-1.7733298540115356,-0.31761589646339417,-0.684842050075531,0.05102926112403159,0.157861825081973,-0.05
1759505309.4584002,1,-1.7760278340449753,-0.3154771270913129,-0.6796110884668529,0.04711576201119668,True,0.1,-1.7824888229370117,-0.31020936369895935,-0.6758241653442383,0.04711576201119668,0.16786254145745616,-0.05
1759505309.5683484,1,-1.7786213586315553,-0.31335281534957593,-0.6754625222209967,0.04711576201119668,True,0.1,-1.7824888229370117,-0.31020936369895935,-0.6758241653442383,0.04711576201119668,0.26568910623190334,-0.05
1759505309.6975508,1,-1.7853378983976933,-0.3080046930186201,-0.6677995442459022,0.05173409811025572,True,0.1,-1.7919843196868896,-0.30270034074783325,-0.6621689796447754,0.05173409811025572,0.26568910623190334,-0.05
1759505309.8292737,1,-1.7878947156019473,-0.30595098747825544,-0.6621449293855726,0.05173409811025572,True,0.1,-1.7919843196868896,-0.30270034074783325,-0.6621689796447754,0.05173409811025572,0.4373388750231264,-0.05
1759505309.966458,1,-1.7953597805097257,-0.3002074105249025,-0.6500804454480722,0.049054342673401606,True,0.1,-1.8023645877838135,-0.29479387402534485,-0.6390016078948975,0.049054342673401606,0.4373388750231264,-0.05
1759505310.1135972,1,-1.798198199028822,-0.29799670701299813,-0.6411417592626982,0.049054342673401606,True,0.1,-1.8023645877838135,-0.29479387402534485,-0.6390016078948975,0.049054342673401606,0.5933118694214983,-0.05
1759505310.2357953,1,-1.8061528323274836,-0.2922185418557104,-0.6220092406665927,0.05243675809890678,True,0.1,-1.8136664628982544,-0.28670936822891235,-0.6034616231918335,0.05243675809890678,0.6,-0.05
1759505310.3755336,1,-1.8091691850662295,-0.2899813495766141,-0.6085568117376692,0.05243675809890678,True,0.1,-1.8136664628982544,-0.28670936822891235,-0.6034616231918335,0.05243675809890678,0.6,-0.05
1759505310.5463555,1,-1.8183924500057083,-0.28381882561097205,-0.5823877045207464,0.04932932842426483,True,0.1,-1.8265955448150635,-0.27826929092407227,-0.5571410655975342,0.04932932842426483,0.6,-0.05
1759505310.679169,1,-1.821888498128226,-0.28142516662345735,-0.5639603439526404,0.04932932842426483,True,0.1,-1.8265955448150635,-0.27826929092407227,-0.5571410655975342,0.04932932842426483,0.6,-0.028003770317426038
1759505310.8105834,1,-1.8288415230906334,-0.2770844196670931,-0.5414366518414049,0.03721907666180934,True,0.1,-1.8350838422775269,-0.2731737792491913,-0.5274421572685242,0.03721907666180934,0.6,0.00748855172530567
1759505310.9393892,1,-1.831481032084834,-0.2753999256516547,-0.526302300116356,0.03721907666180934,True,0.1,-1.8350838422775269,-0.2731737792491913,-0.5274421572685242,0.03721907666180934,0.6,0.022268265332247218
1759505311.0647407,1,-1.8310587605990727,-0.27558530486401484,-0.5227025719010854,0.015955913581021695,True,0.1,-1.8316503763198853,-0.2752043604850769,-0.5394113063812256,0.015955913581021695,0.6,0.06069299246680418
1759505311.1838324,1,-1.8308964387982116,-0.27565433721384697,-0.5218524373697235,0.015955913581021695,True,0.1,-1.8316503763198853,-0.2752043604850769,-0.5394113063812256,0.015955913581021695,0.6,0.09937803354764668
1759505311.3005595,1,-1.818928838675318,-0.2832032742821216,-0.5430261804686616,0.07625311922435885,True,0.1,-1.8156085014343262,-0.28550323843955994,-0.5966140627861023,0.07625311922435885,0.6,0.09937803354764668
1759505311.404618,1,-1.8143887261898344,-0.2861390476171457,-0.5616683071111588,0.07625311922435885,True,0.1,-1.8156085014343262,-0.28550323843955994,-0.5966140627861023,0.07625311922435885,0.5679904856415128,0.10689983263662345
1759505311.5243886,1,-1.8003593819917536,-0.29627660552079077,-0.6000580813103014,0.10499728718206959,True,0.1,-1.7971596717834473,-0.2990518808364868,-0.6633111238479614,0.10499728718206959,0.5679904856415128,0.10689983263662345
1759505311.6494954,1,-1.7950818637391568,-0.3002710712753523,-0.630046771018737,0.10499728718206959,True,0.1,-1.7971596717834473,-0.2990518808364868,-0.6633111238479614,0.10499728718206959,0.3746455221504732,0.11224470492526482
1759505311.7707133,1,-1.7803901690972042,-0.31265161752780585,-0.6737399637672823,0.10735884345669096,True,0.1,-1.7766494750976562,-0.31636378169059753,-0.7263827323913574,0.10735884345669096,0.3746455221504732,0.11224470492526482
1759505311.8964975,1,-1.774882819327879,-0.31751596498656803,-0.7054263021737679,0.10735884345669096,True,0.1,-1.7766494750976562,-0.31636378169059753,-0.7263827323913574,0.10735884345669096,0.1842430199627536,0.13297522795512928
1759505312.0154004,1,-1.7585091233073393,-0.332869479836414,-0.7410900939293157,0.1293888985358282,True,0.1,-1.7544578313827515,-0.33715030550956726,-0.7679544687271118,0.1293888985358282,0.1378907828798539,0.1798465547562225
1759505312.1318808,1,-1.7523672923021019,-0.3388604369058401,-0.7651412614892372,0.1293888985358282,True,0.1,-1.7544578313827515,-0.33715030550956726,-0.7679544687271118,0.1293888985358282,0.05847032747238856,0.13947591378987745
1759505312.2448258,1,-1.7323442958904711,-0.3587863850899427,-0.7864507766997022,0.16360908912909838,True,0.1,-1.7272485494613647,-0.36408281326293945,-0.7866345047950745,0.16360908912909838,0.027284222254913004,0.18635178537919594
1759505312.3584595,1,-1.7247853399348556,-0.36648799859749254,-0.7994373769644021,0.16360908912909838,True,0.1,-1.7272485494613647,-0.36408281326293945,-0.7866345047950745,0.16360908912909838,-0.00993278660453889,0.13367549842095724
1759505312.4662495,1,-1.7065291827205027,-0.3850067631680962,-0.8068150319082292,0.16210176696464654,True,0.1,-1.7022274732589722,-0.3892664611339569,-0.7885707020759583,0.16210176696464654,-0.03667981848699853,0.18664475347561352
1759505312.565416,1,-1.6996225959828637,-0.39207289961650893,-0.8096497564942773,0.16210176696464654,True,0.0991666316986084,-1.7022274732589722,-0.3892664611339569,-0.7885707020759583,0.16210176696464654,-0.04256624408080967,0.14896927519621128
1759505312.6845431,1,-1.680448160730113,-0.41131645348028084,-0.8070036327994785,0.17016957785056627,True,0.1,-1.6758573055267334,-0.4155999720096588,-0.7809763550758362,0.17016957785056627,-0.06564963385825706,0.19829063850938214
1759505312.7852597,1,-1.6731116788967846,-0.41865488212472446,-0.8031518192364651,0.17016957785056627,True,0.1,-1.6758573055267334,-0.4155999720096588,-0.7809763550758362,0.17016957785056627,-0.053424424214904676,0.15567824752195938
1759505312.911975,1,-1.6529004327628491,-0.4384399045555543,-0.7948436265377765,0.16857855058799487,True,0.1,-1.6476539373397827,-0.4431801438331604,-0.7690909504890442,0.16857855058799487,-0.07517607176164631,0.20367315674430764
1759505313.0223873,1,-1.645142548368028,-0.44596016159601515,-0.7877541231697158,0.16857855058799487,True,0.1,-1.6476539373397827,-0.4431801438331604,-0.7690909504890442,0.16857855058799487,-0.07733320265055177,0.22147912645556525
1759505313.141018,1,-1.618612400327302,-0.47119275400801824,-0.7751743888801492,0.22429127234762192,True,0.1,-1.6120126247406006,-0.4769802987575531,-0.7503361105918884,0.22429127234762192,-0.07733320265055177,0.22147912645556525
1759505313.2491415,1,-1.6084055079961106,-0.4807566450106499,-0.7653013249041578,0.22429127234762192,True,0.1,-1.6120126247406006,-0.4769802987575531,-0.7503361105918884,0.22429127234762192,-0.0574720050807116,0.1994493620373475
1759505313.3705218,1,-1.5830280692055343,-0.5039222174779253,-0.7523798937851076,0.20557719768706173,True,0.1,-1.5765211582183838,-0.5094526410102844,-0.734498143196106,0.20557719768706173,-0.0574720050807116,0.1994493620373475
1759505313.4966679,1,-1.573267269691344,-0.5126993034179553,-0.7431166978160277,0.20557719768706173,True,0.1,-1.5765211582183838,-0.5094526410102844,-0.734498143196106,0.20557719768706173,-0.04743091700573565,0.20570644134220084
1759505313.6209884,1,-1.5464275725414725,-0.5365097814344546,-0.732076540984476,0.2009083095008364,True,0.1,-1.538994550704956,-0.5428369641304016,-0.7213906049728394,0.2009083095008364,-0.04743091700573565,0.20570644134220084
1759505313.731893,1,-1.536119793416956,-0.545542866839198,-0.7247050335306913,0.2009083095008364,True,0.1,-1.538994550704956,-0.5428369641304016,-0.7213906049728394,0.2009083095008364,-0.06253245994683532,0.20852569120044293
1759505313.864978,1,-1.5078840923739525,-0.569965800247412,-0.7147527698142699,0.20638227840393855,True,0.1,-1.4999990463256836,-0.5766223669052124,-0.7062634825706482,0.20638227840393855,-0.11301859117803659,0.2581925691469851
1759505313.9707584,1,-1.4970497756052743,-0.5792381638380878,-0.7075940096765159,0.20638227840393855,True,0.1,-1.4999990463256836,-0.5766223669052124,-0.7062634825706482,0.20638227840393855,-0.08902732872100749,0.20196871471400457
1759505314.0977876,1,-1.466577905635604,-0.6044643634289992,-0.6933833325242063,0.22970830823049743,True,0.1,-1.4585603475570679,-0.6108580827713013,-0.6780065298080444,0.22970830823049743,-0.16483331040472393,0.26235499392115436
1759505314.2092566,1,-1.454862878691305,-0.614009522371261,-0.6825134962914099,0.22970830823049743,True,0.1,-1.4585603475570679,-0.6108580827713013,-0.6780065298080444,0.22970830823049743,-0.11721639375041981,0.19807407719590808
1759505314.3232608,1,-1.424850434486133,-0.6371941358369179,-0.6623752368846496,0.23582011263769975,True,0.1,-1.41764497756958,-0.6423715353012085,-0.6405888795852661,0.23582011263769975,-0.18465774588596595,0.24963815597819644
1759505314.4303305,1,-1.413276679503897,-0.6459107063750371,-0.6479552548138692,0.23582011263769975,True,0.1,-1.41764497756958,-0.6423715353012085,-0.6405888795852661,0.23582011263769975,-0.1894419274858521,0.25097580085816606
1759505314.5536969,1,-1.3792321279007962,-0.6698345119804602,-0.6182664930113173,0.2457591984890826,True,0.1,-1.3703440427780151,-0.6755087971687317,-0.5865114331245422,0.2457591984890826,-0.1894419274858521,0.25097580085816606
1759505314.670547,1,-1.3660703962084295,-0.6787555845931501,-0.5970281411818164,0.2457591984890826,True,0.1,-1.3703440427780151,-0.6755087971687317,-0.5865114331245422,0.2457591984890826,-0.15557528632089124,0.2468029359775597
1759505314.801599,1,-1.328347624885683,-0.7022505768165808,-0.5636397502060682,0.24778717147747326,True,0.1,-1.3177380561828613,-0.7082198858261108,-0.533416211605072,0.24778717147747326,-0.15557528632089124,0.2468029359775597
1759505314.9243395,1,-1.3137734843507156,-0.7109704593731078,-0.5403449368315094,0.24778717147747326,True,0.1,-1.3177380561828613,-0.7082198858261108,-0.533416211605072,0.24778717147747326,-0.11404106653361801,0.23934859807137362
1759505315.0443683,1,-1.2759085935117684,-0.7321095245469831,-0.5114492553327139,0.2534642175932324,True,0.1,-1.265974760055542,-0.7371734976768494,-0.4928881525993347,0.2534642175932324,-0.162826467063363,0.2971209853971892
1759505315.1651752,1,-1.261313571546461,-0.7399546671419085,-0.49136212394178713,0.2534642175932324,True,0.1,-1.265974760055542,-0.7371734976768494,-0.4928881525993347,0.2534642175932324,-0.09016801517602602,0.23170368482806838
1759505315.282035,1,-1.2204776981375212,-0.7605387873432367,-0.4649875876046714,0.2684584151017128,True,0.1,-1.2098995447158813,-0.7654901146888733,-0.45171043276786804,0.2684584151017128,-0.14395400446412765,0.2957834605333164
1759505315.4102385,1,-1.204761254948131,-0.7681705176421453,-0.44714197752425733,0.2684584151017128,True,0.1,-1.2098995447158813,-0.7654901146888733,-0.45171043276786804,0.2684584151017128,-0.11473463975556264,0.2751146416407972
1759505315.5263317,1,-1.1590279802243266,-0.7888988697026448,-0.4199245234464879,0.2791280714911065,True,0.1,-1.1463463306427002,-0.7943088412284851,-0.4065265357494354,0.2791280714911065,-0.11473463975556264,0.2751146416407972
1759505315.637725,1,-1.1414432188246444,-0.7965631490407087,-0.4017921886433271,0.2791280714911065,True,0.1,-1.1463463306427002,-0.7943088412284851,-0.4065265357494354,0.2791280714911065,-0.09037825732820082,0.26150551078826983
1759505315.7608159,1,-1.0993017124488058,-0.8137503044988637,-0.3794096989540634,0.2662761817532863,True,0.1,-1.0884222984313965,-0.8179821372032166,-0.37458473443984985,0.2662761817532863,-0.09037825732820082,0.26150551078826983
1759505315.8717577,1,-1.083121847527735,-0.8201114777498731,-0.3653658195665024,0.2662761817532863,True,0.1,-1.0884222984313965,-0.8179821372032166,-0.37458473443984985,0.2662761817532863,-0.08911510974636272,0.26198270206247953
1759505315.9877157,1,-1.0422417841609015,-0.8354451741933805,-0.34768300059304735,0.27289182754184815,True,0.1,-1.0327445268630981,-0.8389367461204529,-0.3478979468345642,0.27289182754184815,-0.08911510974636272,0.26198270206247953
1759505316.0952709,1,-1.026565025159185,-0.8411345265384186,-0.33690140241963107,0.27289182754184815,True,0.1,-1.0327445268630981,-0.8389367461204529,-0.3478979468345642,0.27289182754184815,-0.09388632162355037,0.2583804255927241
1759505316.2061532,1,-0.9875624641336701,-0.8546287991514084,-0.32133470569238476,0.2611659649049376,True,0.1,-0.978704035282135,-0.8576699495315552,-0.32169264554977417,0.2611659649049376,-0.09388632162355037,0.2583804255927241
1759505316.333048,1,-0.9726169286089138,-0.8596419419734631,-0.3116794687484159,0.2611659649049376,True,0.1,-0.978704035282135,-0.8576699495315552,-0.32169264554977417,0.2611659649049376,-0.08485484606180727,0.2518510372361348
1759505316.4445262,1,-0.9313922657893966,-0.8726824689831557,-0.29644631990351655,0.24489474824315077,True,0.1,-0.9203325510025024,-0.8761391043663025,-0.2935973107814789,0.24489474824315077,-0.12618563510534742,0.3214232086179372
1759505316.552351,1,-0.9156061604427884,-0.8775359904712903,-0.2861012531266258,0.24489474824315077,True,0.1,-0.9203325510025024,-0.8761391043663025,-0.2935973107814789,0.24489474824315077,-0.07713865289884048,0.2601340325884134
1759505316.6679995,1,-0.8687280678907169,-0.8907474917341807,-0.26845966524199305,0.29819365917358726,True,0.1,-0.8574512004852295,-0.89376300573349,-0.25987571477890015,0.29819365917358726,-0.10735794557462874,0.3223312554926265
1759505316.7881677,1,-0.85077148187003,-0.8956138508721617,-0.255794768416731,0.29819365917358726,True,0.1,-0.8574512004852295,-0.89376300573349,-0.25987571477890015,0.29819365917358726,-0.04528869553899639,0.23344705030665014
1759505316.914026,1,-0.8038077154498389,-0.9072082631668011,-0.23869829191320413,0.27324952895727145,True,0.1,-0.7911309003829956,-0.910139799118042,-0.2321643829345703,0.27324952895727145,-0.07372508398672473,0.2994707963346017
1759505317.0294628,1,-0.7858285883281791,-0.9114748832061405,-0.22694861176792713,0.27324952895727145,True,0.1,-0.7911309003829956,-0.910139799118042,-0.2321643829345703,0.27324952895727145,-0.021554718989225563,0.23296202098018717
1759505317.1597471,1,-0.7396854910026824,-0.9218067060187056,-0.2147174124323783,0.2629089077346518,True,0.1,-0.7270053625106812,-0.9245614409446716,-0.2157062590122223,0.2629089077346518,-0.04722536560946722,0.29545315293200874
1759505317.282112,1,-0.7220346265878785,-0.9256375382357415,-0.20718751146420544,0.2629089077346518,True,0.1,-0.7270053625106812,-0.9245614409446716,-0.2157062590122223,0.2629089077346518,-0.04463041040864546,0.29120246224438256
1759505317.4136684,1,-0.66911112106956,-0.9366841407727462,-0.1969845260652754,0.2968641395465594,True,0.1,-0.6543629169464111,-0.9397632479667664,-0.19870157539844513,0.2968641395465594,-0.04463041040864546,0.29120246224438256
1759505317.5436351,1,-0.6488738356246877,-0.9407939614190154,-0.19078739656904276,0.2968641395465594,True,0.1,-0.6543629169464111,-0.9397632479667664,-0.19870157539844513,0.2968641395465594,-0.04491939681462398,0.26647481307944204
1759505317.6669242,1,-0.5980964363927072,-0.9505623810940667,-0.18170800247863994,0.2862412819505541,True,0.1,-0.5840896368026733,-0.9532741904258728,-0.18210437893867493,0.2862412819505541,-0.07228882098321066,0.33004453683721874
1759505317.7795541,1,-0.5786841962138,-0.954202626973956,-0.17562632462687233,0.2862412819505541,True,0.1,-0.5840896368026733,-0.9532741904258728,-0.18210437893867493,0.2862412819505541,-0.043863455469056234,0.25513905905757067
1759505317.8964856,1,-0.5301545038316943,-0.9625744119057774,-0.1652379888713149,0.2879181907137185,True,0.1,-0.5176875591278076,-0.9646700620651245,-0.16184258460998535,0.2879181907137185,-0.06818154571724655,0.3215109811844643
1759505318.0099337,1,-0.5115999494469405,-0.965667429426948,-0.1579274587590298,0.2879181907137185,True,0.1,-0.5176875591278076,-0.9646700620651245,-0.16184258460998535,0.2879181907137185,-0.03129023005075915,0.24706533480069007
1759505318.1160927,1,-0.46613075509572266,-0.9726190343077348,-0.14805503129819186,0.28701274587875825,True,0.1,-0.45555102825164795,-0.9741517305374146,-0.14533421397209167,0.28701274587875825,-0.050921704390519906,0.31378302535099045
1759505318.234948,1,-0.4487474830372887,-0.9751723400900567,-0.14148598228360854,0.28701274587875825,True,0.1,-0.45555102825164795,-0.9741517305374146,-0.14533421397209167,0.28701274587875825,-0.03681433598745798,0.30617979391455297
1759505318.359858,1,-0.39451863457922026,-0.9825754208245051,-0.13177582021612722,0.3226373028704328,True,0.1,-0.3807480037212372,-0.9843656420707703,-0.1289326548576355,0.3226373028704328,-0.03681433598745798,0.30617979391455297
1759505318.4760275,1,-0.3737897081235889,-0.985290529160629,-0.12533311274554393,0.3226373028704328,True,0.1,-0.3807480037212372,-0.9843656420707703,-0.1289326548576355,0.3226373028704328,-0.02194496169306781,0.27521516204934915
1759505318.5935464,1,-0.32554259357469434,-0.9912225380825817,-0.11805854709175989,0.28865067226996516,True,0.1,-0.3134259283542633,-0.9926747679710388,-0.11889182776212692,0.28865067226996516,-0.02194496169306781,0.27521516204934915
1759505318.7036524,1,-0.30710454945048143,-0.9934119230037528,-0.11366064175142476,0.28865067226996516,True,0.1,-0.3134259283542633,-0.9926747679710388,-0.11889182776212692,0.28865067226996516,-0.01896020172439883,0.28190085206213583
1759505318.8277464,1,-0.2603736443417775,-0.9987907336755704,-0.10896614724232911,0.2788191420430474,True,0.1,-0.2486143857240677,-1.0001715421676636,-0.11226984113454819,0.2788191420430474,-0.01896020172439883,0.28190085206213583
1759505318.944945,1,-0.24251870076268142,-1.0007973550031242,-0.1063652773876207,0.2788191420430474,True,0.1,-0.2486143857240677,-1.0001715421676636,-0.11226984113454819,0.2788191420430474,-0.020062437171153746,0.27087559458380867
1759505319.0569193,1,-0.19643681906671356,-1.005825464873796,-0.10296078585179913,0.2733535502961801,True,0.1,-0.18475665152072906,-1.0071516036987305,-0.10572486370801926,0.2733535502961801,-0.036158866852229465,0.34244765363296936
1759505319.169969,1,-0.17883167713803858,-1.007713179201923,-0.10084992482646093,0.2733535502961801,True,0.1,-0.18475665152072906,-1.0071516036987305,-0.10572486370801926,0.2733535502961801,-0.025335826656332827,0.2736766596481922
1759505319.2822402,1,-0.12756928213978472,-1.0128467671137478,-0.09604888111915066,0.31919059566931474,True,0.1,-0.11551609635353088,-1.0140520334243774,-0.0947362631559372,0.31919059566931474,-0.038836452129858756,0.33796777861859706
1759505319.4008539,1,-0.10798353876025475,-1.0147540124288834,-0.09255299723153598,0.31919059566931474,True,0.1,-0.11551609635353088,-1.0140520334243774,-0.0947362631559372,0.31919059566931474,-0.01906732886065754,0.24637681386895818
1759505319.5161498,1,-0.05971767421407503,-1.0190422083324329,-0.08684215744870372,0.2896484389030352,True,0.1,-0.04771364480257034,-1.0200517177581787,-0.08442655950784683,0.2896484389030352,-0.021591185377952016,0.3174344348630453
1759505319.641527,1,-0.04127653084646427,-1.0206216699869197,-0.08287227304085576,0.2896484389030352,True,0.1,-0.04771364480257034,-1.0200517177581787,-0.08442655950784683,0.2896484389030352,-0.001690583304977622,0.2523649247720264
1759505319.7574725,1,0.008182873231662443,-1.02463430376806,-0.07900222804190093,0.27822687542975566,True,0.1,0.02161386050283909,-1.0256938934326172,-0.0802358016371727,0.27822687542975566,0.013174206328386617,0.3120212367593438
1759505319.8674092,1,0.027077487030296984,-1.026132498808404,-0.0763398677351752,0.27822687542975566,True,0.1,0.02161386050283909,-1.0256938934326172,-0.0802358016371727,0.27822687542975566,0.05526643448730084,0.30823770764005487
1759505319.9770355,1,0.07720684653702158,-1.0303206253567918,-0.07974643028824602,0.31048647214803016,True,0.1,0.08905678242444992,-1.0314257144927979,-0.09196876734495163,0.31048647214803016,0.05526643448730084,0.30823770764005487
1759505320.0845351,1,0.09635122697231792,-1.031962398523702,-0.08277516904768412,0.31048647214803016,True,0.1,0.08905678242444992,-1.0314257144927979,-0.09196876734495163,0.31048647214803016,0.06860367550088142,0.28426867062122424
1759505320.1836114,1,0.14102000919138002,-1.0364559010017118,-0.09259345550582587,0.30144964743916514,True,0.0990762710571289,0.1502341777086258,-1.0376747846603394,-0.11087318509817123,0.30144964743916514,0.06860367550088142,0.28426867062122424
1759505320.2902246,1,0.1581781224205258,-1.038290958733508,-0.1001253093137251,0.30144964743916514,True,0.1,0.1502341777086258,-1.0376747846603394,-0.11087318509817123,0.30144964743916514,0.06417928650233762,0.2847747463158753
1759505320.4056969,1,0.20297971862617367,-1.0438004559436158,-0.11335853227507187,0.2894888937211091,True,0.1,0.21287032961845398,-1.0453822612762451,-0.13177984952926636,0.2894888937211091,0.06417928650233762,0.2847747463158753
1759505320.5235338,1,0.22007724146693686,-1.0460441293692928,-0.12313529014924995,0.2894888937211091,True,0.1,0.21287032961845398,-1.0453822612762451,-0.13177984952926636,0.2894888937211091,0.043253196068960165,0.2839123854884692
1759505320.6368058,1,0.26663894347446854,-1.05275835459155,-0.1361638790051849,0.280819498842247,True,0.1,0.2781951129436493,-1.0547467470169067,-0.14958855509757996,0.280819498842247,0.047754261892659855,0.33917874541769166
1759505320.7516453,1,0.2844066852025099,-1.055453760475183,-0.1455437862368818,0.280819498842247,True,0.1,0.2781951129436493,-1.0547467470169067,-0.14958855509757996,0.280819498842247,0.014161818149766248,0.2703064681602881
1759505320.8688147,1,0.33550062075890963,-1.0636064344886857,-0.155592378029338,0.30413513459237207,True,0.1,0.34848323464393616,-1.0659006834030151,-0.1610620766878128,0.30413513459237207,0.00864913006579826,0.3377922784075853
1759505320.9790707,1,0.35500020886349065,-1.0668290734610524,-0.1623668249242609,0.30413513459237207,True,0.1,0.34848323464393616,-1.0659006834030151,-0.1610620766878128,0.30413513459237207,-0.014866693967334754,0.2532686880611994
1759505321.0902126,1,0.40192817262158714,-1.0745720612024845,-0.16590843889865248,0.29749989244845004,True,0.1,0.4127863943576813,-1.0763863325119019,-0.16020876169204712,0.29749989244845004,-0.02851216503447418,0.30923524627632215
1759505321.18751,1,0.4195439182147389,-1.0775166857685203,-0.16736683727184065,0.29749989244845004,True,0.09729743003845215,0.4127863943576813,-1.0763863325119019,-0.16020876169204712,0.29749989244845004,-0.029048373424959806,0.24151868447935226
1759505321.3048623,1,0.4610115315573736,-1.08409237683966,-0.16470852325738505,0.2663297556353639,True,0.1,0.47040751576423645,-1.0854281187057495,-0.15164606273174286,0.2663297556353639,-0.05320640401237853,0.3039167705627899
1759505321.4128344,1,0.4768549683294723,-1.086578776900989,-0.1617171356920153,0.2663297556353639,True,0.1,0.47040751576423645,-1.0854281187057495,-0.15164606273174286,0.2663297556353639,-0.03903331334356608,0.25195164979191204
1759505321.51803,1,0.5202304804598692,-1.0929012218463312,-0.1542135336019559,0.2925675232662503,True,0.1,0.5291878581047058,-1.0939244031906128,-0.13742738962173462,0.2925675232662503,-0.06849797576583505,0.3127708730740899
1759505321.6454341,1,0.5368113475163279,-1.09523445724258,-0.14811102688581634,0.2925675232662503,True,0.1,0.5291878581047058,-1.0939244031906128,-0.13742738962173462,0.2925675232662503,-0.06991917204123155,0.29017875637627416
1759505321.7624915,1,0.5884748477820134,-1.101670712971734,-0.13393177186460647,0.29496424555699674,True,0.1,0.6023687124252319,-1.1029967069625854,-0.11192131042480469,0.29496424555699674,-0.06991917204123155,0.29017875637627416
1759505321.87369,1,0.6082300456051838,-1.1039755675980611,-0.12336079854972226,0.29496424555699674,True,0.1,0.6023687124252319,-1.1029967069625854,-0.11192131042480469,0.29496424555699674,-0.06204492219443658,0.27703572304478896
1759505321.9787958,1,0.6530508053438587,-1.1084843409852245,-0.10855544982655019,0.28170213963178775,True,0.1,0.6634693145751953,-1.1091639995574951,-0.0916200801730156,0.28170213963178775,-0.06204492219443658,0.27703572304478896
1759505322.0900733,1,0.670188448829143,-1.1100525893978248,-0.09824693606928747,0.28170213963178775,True,0.1,0.6634693145751953,-1.1091639995574951,-0.0916200801730156,0.28170213963178775,-0.06124609651883084,0.2706934029331991
1759505322.1904058,1,0.7124509961193002,-1.1134677748978088,-0.0849183278410095,0.28357868764224403,True,0.1,0.7211257815361023,-1.113892674446106,-0.07378566265106201,0.28357868764224403,-0.06124609651883084,0.2706934029331991
1759505322.2952976,1,0.7286065699519929,-1.114630963241013,-0.0761116579034713,0.28357868764224403,True,0.1,0.7211257815361023,-1.113892674446106,-0.07378566265106201,0.28357868764224403,-0.07433064453615401,0.2677183128779543
1759505322.4066613,1,0.7700540297257897,-1.1172116304283464,-0.06307046721783394,0.2669969572792751,True,0.1,0.7792139053344727,-1.1175847053527832,-0.05391848832368851,0.2669969572792751,-0.07433064453615401,0.2677183128779543
1759505322.508371,1,0.7858943846293757,-1.1180670422168737,-0.054559790739313385,0.2669969572792751,True,0.1,0.7792139053344727,-1.1175847053527832,-0.05391848832368851,0.2669969572792751,-0.0883849948495623,0.2686300536007238
1759505322.5983946,1,0.7909335699116297,-1.118257354023522,-0.04985246479355254,0.2669969572792751,True,0.09002351760864258,0.7792139053344727,-1.1175847053527832,-0.05391848832368851,0.2669969572792751,-0.0883849948495623,0.2686300536007238
1759505322.6919918,1,0.8405429565327567,-1.1200677592772867,-0.035575649652358265,0.25943727858430626,True,0.0935971736907959,0.8562123775482178,-1.1204795837402344,-0.02133028209209442,0.25943727858430626,-0.13992977310251753,0.32076838654184187
1759505322.797995,1,0.8601312264314114,-1.120655784200772,-0.02430256163086497,0.25943727858430626,True,0.1,0.8562123775482178,-1.1204795837402344,-0.02133028209209442,0.25943727858430626,-0.08351126136923703,0.24410211278341548
1759505322.9035096,1,0.9056040996158377,-1.120809596257376,-0.00532330205615672,0.2926674160345067,True,0.1,0.9156238436698914,-1.1205275058746338,0.013099554926156998,0.2926674160345067,-0.14215932281232924,0.2953528441843578
1759505323.0071874,1,0.9229755339924602,-1.1206695388097099,0.009023878181617206,0.2926674160345067,True,0.1,0.9156238436698914,-1.1205275058746338,0.013099554926156998,0.2926674160345067,-0.07964684792250054,0.22356028645143602
1759505323.1110172,1,0.9617004807117029,-1.1194006121187572,0.02856733308153281,0.26449164083935783,True,0.1,0.9692884683609009,-1.1188193559646606,0.043967727571725845,0.26449164083935783,-0.14604232537382167,0.2754498238489781
1759505323.2184062,1,0.9764880374943887,-1.1187299969875901,0.042626702970810726,0.26449164083935783,True,0.1,0.9692884683609009,-1.1188193559646606,0.043967727571725845,0.26449164083935783,-0.09041067876018793,0.23005073008003488
1759505323.311914,1,1.0125492940347642,-1.1163935426084592,0.06158071620042094,0.25082422896130874,True,0.09350776672363281,1.0203561782836914,-1.1156150102615356,0.07541968673467636,0.25082422896130874,-0.15999112823111616,0.2801302776988977
1759505323.4239628,1,1.0269353225380662,-1.1153004333435386,0.0755387242756127,0.25082422896130874,True,0.1,1.0203561782836914,-1.1156150102615356,0.07541968673467636,0.25082422896130874,-0.1035946097317364,0.23281936259152394
1759505323.5417163,1,1.0686657800821413,-1.1111443263428467,0.09812365784755972,0.25164076580500216,True,0.1,1.0789532661437988,-1.1098098754882812,0.11561696976423264,0.25164076580500216,-0.17609973868690076,0.28120932002269705
1759505323.6506896,1,1.0845863257859607,-1.1093466655887807,0.11383149706836981,0.25164076580500216,True,0.1,1.0789532661437988,-1.1098098754882812,0.11561696976423264,0.25164076580500216,-0.17323885750794688,0.26557591502489675
1759505323.7495258,1,1.126532028396022,-1.1033683118432838,0.14195839683353562,0.2809784628637388,True,0.09883618354797363,1.1354124546051025,-1.1017003059387207,0.1654677391052246,0.2809784628637388,-0.17323885750794688,0.26557591502489675
1759505323.8487232,1,1.1425555144074995,-1.1008022319176942,0.16236490773152212,0.2809784628637388,True,0.0991973876953125,1.1354124546051025,-1.1017003059387207,0.1654677391052246,0.2809784628637388,-0.0806422145796013,0.19844738146959495
1759505323.9433987,1,1.1481637251757912,-1.0996872859781799,0.1726930613240958,0.2809784628637388,True,0.09467554092407227,1.1354124546051025,-1.1017003059387207,0.1654677391052246,0.2809784628637388,-0.1579268844471411,0.24523382905790503
1759505324.041667,1,1.191040651025324,-1.091188798147019,0.19793615914605756,0.23377244874658742,True,0.09826827049255371,1.2035627365112305,-1.0884292125701904,0.21501809358596802,0.23377244874658742,-0.1579268844471411,0.24523382905790503
1759505324.147718,1,1.2075292036655847,-1.0876998982094133,0.21508691213279363,0.23377244874658742,True,0.1,1.2035627365112305,-1.0884292125701904,0.21501809358596802,0.23377244874658742,-0.16149534899857976,0.24407585660812964
1759505324.2516882,1,1.2446834256580828,-1.0787492621792316,0.23988455162673095,0.24873358379829835,True,0.1,1.2526432275772095,-1.0765700340270996,0.2559407353401184,0.24873358379829835,-0.23859943495030933,0.2845998682014892
1759505324.3551822,1,1.2588240516396632,-1.0751142417048114,0.2575663568211235,0.24873358379829835,True,0.1,1.2526432275772095,-1.0765700340270996,0.2559407353401184,0.24873358379829835,-0.1666362461281956,0.22978632683250436
1759505324.444078,1,1.2631661370418354,-1.073843011719615,0.26650819726375286,0.24873358379829835,True,0.08889579772949219,1.2526432275772095,-1.0765700340270996,0.2559407353401184,0.24873358379829835,-0.1666362461281956,0.22978632683250436
1759505324.5446248,1,1.309797311566815,-1.0594810667485017,0.2983631212833773,0.25031235121666556,True,0.1,1.3237165212631226,-1.0547655820846558,0.32939156889915466,0.25031235121666556,-0.27363268759255277,0.28236591539036426
1759505324.6439214,1,1.3274640048176594,-1.05374258438062,0.32308378552878736,0.25031235121666556,True,0.09929656982421875,1.3237165212631226,-1.0547655820846558,0.32939156889915466,0.25031235121666556,-0.14142338668400178,0.20828517192999532
1759505324.7329042,1,1.3332061118216265,-1.0516456606542413,0.3353906920282572,0.25031235121666556,True,0.08898282051086426,1.3237165212631226,-1.0547655820846558,0.32939156889915466,0.25031235121666556,-0.2430638885475762,0.25582543593759577
1759505324.8251724,1,1.3760409061605954,-1.0348148774694992,0.3727366803558452,0.24982570544185856,True,0.09226822853088379,1.38908851146698,-1.0291787385940552,0.40930306911468506,0.24982570544185856,-0.2430638885475762,0.25582543593759577
1759505324.9277856,1,1.392976024571384,-1.027815462380227,0.400519856832112,0.24982570544185856,True,0.1,1.38908851146698,-1.0291787385940552,0.40930306911468506,0.24982570544185856,-0.20207478473920837,0.23658044434966022
1759505325.0361376,1,1.4274773337768332,-1.0115604255948902,0.4394164131461826,0.2343842975116381,True,0.1,1.4354918003082275,-1.0072351694107056,0.4663223624229431,0.2343842975116381,-0.20207478473920837,0.23658044434966022
1759505325.1511822,1,1.4405163919237263,-1.0050438329157143,0.46526638969874146,0.2343842975116381,True,0.1,1.4354918003082275,-1.0072351694107056,0.4663223624229431,0.2343842975116381,-0.19992249664291073,0.241071223372837
1759505325.257791,1,1.4746291766225552,-0.9865510262625832,0.5008687650377279,0.243056239164863,True,0.1,1.4823222160339355,-0.9819315671920776,0.5197995901107788,0.243056239164863,-0.19992249664291073,0.241071223372837
1759505325.375292,1,1.4875089385218694,-0.9792044295852196,0.5241546494788425,0.243056239164863,True,0.1,1.4823222160339355,-0.9819315671920776,0.5197995901107788,0.243056239164863,-0.1970137358487598,0.23393103508197524
1759505325.4745028,1,1.5193039149481542,-0.9597160975202087,0.5562126397103615,0.23697251269843772,True,0.09921073913574219,1.526417851448059,-0.955018162727356,0.5717692375183105,0.23697251269843772,-0.29795397077104013,0.29219323984937506
1759505325.5803168,1,1.5313681200876699,-0.9520020831556054,0.5785708543062427,0.23697251269843772,True,0.1,1.526417851448059,-0.955018162727356,0.5717692375183105,0.23697251269843772,-0.20768948847512014,0.2422983165796321
1759505325.6927779,1,1.5662880177090157,-0.927389683167085,0.6181776338060825,0.26679063522134866,True,0.1,1.574127197265625,-0.9212905764579773,0.6467558741569519,0.26679063522134866,-0.2957764998637824,0.2965037706108854
1759505325.803579,1,1.5794117259714406,-0.9176779772671497,0.6471595901788296,0.26679063522134866,True,0.1,1.574127197265625,-0.9212905764579773,0.6467558741569519,0.26679063522134866,-0.15941325830349307,0.22726799962614974
1759505325.9041069,1,1.6110843606974197,-0.8916714529510239,0.687901875488639,0.27452657280369613,True,0.1,1.617189884185791,-0.8859166502952576,0.7136813402175903,0.27452657280369613,-0.24739978557783004,0.2835608485950196
1759505326.019081,1,1.622932470048244,-0.8814246356138706,0.7168983733018202,0.27452657280369613,True,0.1,1.617189884185791,-0.8859166502952576,0.7136813402175903,0.27452657280369613,-0.12399802061699106,0.22360033754321543
1759505326.13418,1,1.6530077789810964,-0.8532956857517392,0.7539623939120297,0.24898353857975036,True,0.1,1.660051703453064,-0.8460868000984192,0.7707957029342651,0.24898353857975036,-0.2160950527029737,0.28535071225421144
1759505326.2441318,1,1.664271768368476,-0.8423064653024145,0.7794764009251258,0.24898353857975036,True,0.1,1.660051703453064,-0.8460868000984192,0.7707957029342651,0.24898353857975036,-0.11165131790132143,0.23300101845766716
1759505326.3582373,1,1.694052153069873,-0.8114675224064724,0.8109328649282439,0.2681168061850811,True,0.1,1.7007293701171875,-0.804114580154419,0.8197345733642578,0.2681168061850811,-0.19428845652132587,0.29031759852349265
1759505326.4700441,1,1.7052039000594046,-0.7994711048105752,0.8314806813083431,0.2681168061850811,True,0.1,1.7007293701171875,-0.804114580154419,0.8197345733642578,0.2681168061850811,-0.1849118381627246,0.28047736197412765
1759505326.5992591,1,1.7369715882244354,-0.7629046003267591,0.8672145824291517,0.2720234638742411,True,0.1,1.7453433275222778,-0.752788245677948,0.8840743899345398,0.2720234638742411,-0.1849118381627246,0.28047736197412765
1759505326.727767,1,1.7488380344200496,-0.7487041603672338,0.8912032044726557,0.2720234638742411,True,0.1,1.7453433275222778,-0.752788245677948,0.8840743899345398,0.2720234638742411,-0.14044148634653553,0.2649056588106061
1759505326.8537521,1,1.7794142256278165,-0.7088823776084492,0.9260446196009591,0.27775984475334786,True,0.1,1.7875856161117554,-0.6976747512817383,0.9404975175857544,0.27775984475334786,-0.14044148634653553,0.2649056588106061
1759505326.9734757,1,1.7908120850831988,-0.6934544811094835,0.9489272920244316,0.27775984475334786,True,0.1,1.7875856161117554,-0.6976747512817383,0.9404975175857544,0.27775984475334786,-0.11543988490137913,0.2549233352469089
1759505327.0908477,1,1.8165140140033365,-0.6564051411006682,0.9763075588921639,0.263699760833688,True,0.1,1.8229644298553467,-0.6467969417572021,0.9810128211975098,0.263699760833688,-0.1856669592854292,0.3174077774387214
1759505327.209942,1,1.8261178388138966,-0.6421062152444692,0.9945465448103832,0.263699760833688,True,0.1,1.8229644298553467,-0.6467969417572021,0.9810128211975098,0.263699760833688,-0.11474970178948674,0.25631989935956695
1759505327.323921,1,1.8523117350175389,-0.6002249998201634,1.0232259957545882,0.2893063919367348,True,0.1,1.8588290214538574,-0.5893799662590027,1.0340120792388916,0.2893063919367348,-0.179261353874816,0.3141868531122631
1759505327.438323,1,1.8620663636928731,-0.5840714623664021,1.043462119715195,0.2893063919367348,True,0.1,1.8588290214538574,-0.5893799662590027,1.0340120792388916,0.2893063919367348,-0.08264315808257194,0.23349669161731948
1759505327.5436819,1,1.8836348400059415,-0.5455130828721781,1.0694920625814044,0.27670881151131327,True,0.1,1.8884202241897583,-0.5364968180656433,1.0764625072479248,0.27670881151131327,-0.15629606185831868,0.3005587357771504
1759505327.6742682,1,1.8916485725375463,-0.5306591917948397,1.0873157517944563,0.27670881151131327,True,0.1,1.8884202241897583,-0.5364968180656433,1.0764625072479248,0.27670881151131327,-0.07887486711910618,0.23970690895325716
1759505327.7952676,1,1.9135479271165134,-0.4872366506871321,1.1121376171043158,0.2737490954431212,True,0.1,1.9192737340927124,-0.47540900111198425,1.1188431978225708,0.2737490954431212,-0.133407895036445,0.2908655601192218
1759505327.90824,1,1.9216885028365247,-0.47053748483553104,1.1283048961722306,0.2737490954431212,True,0.1,1.9192737340927124,-0.47540900111198425,1.1188431978225708,0.2737490954431212,-0.1297212400320369,0.2923779148335911
1759505328.0218055,1,1.9417695137624864,-0.4265376381719005,1.1536720675972472,0.2829325470337997,True,0.1,1.9467527866363525,-0.4151747524738312,1.162373661994934,0.2829325470337997,-0.1297212400320369,0.2923779148335911
1759505328.132136,1,1.9492006026201623,-0.40962253944655846,1.1703382346680957,0.2829325470337997,True,0.1,1.9467527866363525,-0.4151747524738312,1.162373661994934,0.2829325470337997,-0.10503624486791452,0.28137330162800217
1759505328.2524998,1,1.9675724662281533,-0.36448133607162736,1.1936015097634876,0.3024305272153161,True,0.1,1.9717092514038086,-0.3538241982460022,1.2013742923736572,0.3024305272153161,-0.151132441673127,0.346028320666918
1759505328.3710613,1,1.9743573301029969,-0.34714459629621824,1.2097339696310883,0.3024305272153161,True,0.1,1.9717092514038086,-0.3538241982460022,1.2013742923736572,0.3024305272153161,-0.08146154519910453,0.2678011043700567
1759505328.4857588,1,1.9917630777208661,-0.29839667797771857,1.234303743568283,0.3074196982003331,True,0.1,1.9958750009536743,-0.28606849908828735,1.2449231147766113,0.3074196982003331,-0.12050650677864638,0.33049276878260936
1759505328.608029,1,1.9981590496468091,-0.27968572463972624,1.2516155574230972,0.3074196982003331,True,0.1,1.9958750009536743,-0.28606849908828735,1.2449231147766113,0.3074196982003331,-0.03917610218805656,0.250530108127358
1759505328.71521,1,2.012543119050018,-0.23418699129298345,1.2709897140482482,0.28296543179338474,True,0.1,2.015989065170288,-0.22268664836883545,1.272716760635376,0.28296543179338474,-0.07687520215016264,0.3183654603767364
1759505328.831154,1,2.0178503720843497,-0.21674868633745306,1.2837665289886546,0.28296543179338474,True,0.1,2.015989065170288,-0.22268664836883545,1.272716760635376,0.28296543179338474,-0.024478121231954475,0.253846247914498
1759505328.9454389,1,2.0311717634437643,-0.17124844368997696,1.2964173381167354,0.2803658725194174,True,0.1,2.034529209136963,-0.15975525975227356,1.290195107460022,0.2803658725194174,-0.05763206129570797,0.3194519848020882
1759505329.076741,1,2.036138229970951,-0.15383396578847022,1.3042127442949498,0.2803658725194174,True,0.1,2.034529209136963,-0.15975525975227356,1.290195107460022,0.2803658725194174,-0.02543001009155965,0.24863182195363265
1759505329.1904612,1,2.0497529975311437,-0.10492229033019491,1.31317494904805,0.2974554922894769,True,0.1,2.0533502101898193,-0.09243464469909668,1.3058346509933472,0.2974554922894769,-0.05272784241126871,0.3025968648281717
1759505329.3064387,1,2.0548573249211413,-0.08621406682301327,1.3181985530497755,0.2974554922894769,True,0.1,2.0533502101898193,-0.09243464469909668,1.3058346509933472,0.2974554922894769,-0.06248131729596018,0.2930740953882854
1759505329.420009,1,2.0673567058861826,-0.03838404889653057,1.3280505438170946,0.2920495946907528,True,0.1,2.0705995559692383,-0.026307784020900726,1.3260977268218994,0.2920495946907528,-0.06248131729596018,0.2930740953882854
1759505329.5320654,1,2.0720282484283334,-0.0200887796725205,1.3340831537029318,0.2920495946907528,True,0.1,2.0705995559692383,-0.026307784020900726,1.3260977268218994,0.2920495946907528,-0.06103158880315007,0.2860354600134329
1759505329.6665084,1,2.0839392182964396,0.03001010011109038,1.3454309738419923,0.28768770977978675,True,0.1,2.0871682167053223,0.04367966577410698,1.3490676879882812,0.28768770977978675,-0.0933099080330777,0.35449874064105397
1759505329.7866235,1,2.088375844653644,0.04917251761408267,1.3534543917915913,0.28768770977978675,True,0.1,2.0871682167053223,0.04367966577410698,1.3490676879882812,0.28768770977978675,-0.05323322820992793,0.2772661020012159
1759505329.9207225,1,2.1002058564418804,0.10590459569537924,1.3684781711689569,0.31876981491869166,True,0.1,2.1033151149749756,0.12171917408704758,1.3785041570663452,0.31876981491869166,-0.07961179128935925,0.3429731988067123
1759505330.0373483,1,2.1045585658434987,0.1276093177275941,1.3795363828051217,0.31876981491869166,True,0.1,2.1033151149749756,0.12171917408704758,1.3785041570663452,0.31876981491869166,-0.025016881316474837,0.2453921030205071
1759505330.1562717,1,2.1136355236844433,0.17714312699042076,1.3934349461161784,0.29580563270273713,True,0.1,2.115802764892578,0.18980193138122559,1.3996049165725708,0.29580563270273713,-0.047518956339555274,0.3107287106248946
1759505330.2645283,1,2.1169554379964377,0.19609055497674105,1.4027907113766052,0.29580563270273713,True,0.1,2.115802764892578,0.18980193138122559,1.3996049165725708,0.29580563270273713,-0.02782089305512514,0.31048438114816324
1759505330.3847184,1,2.125202131288599,0.24655524201672285,1.4126879671360175,0.3002966156592349,True,0.1,2.1272177696228027,0.2594422996044159,1.4121098518371582,0.3002966156592349,-0.02782089305512514,0.31048438114816324
1759505330.4899607,1,2.1282444698149607,0.2658486230812629,1.4187137847123328,0.3002966156592349,True,0.1,2.1272177696228027,0.2594422996044159,1.4121098518371582,0.3002966156592349,-0.023616885536622334,0.295306351371584
1759505330.6146855,1,2.1359099656834526,0.3156575955520603,1.4251135303126663,0.29759433647513256,True,0.1,2.1378767490386963,0.32825878262519836,1.421011209487915,0.29759433647513256,-0.023616885536622334,0.295306351371584
1759505330.7304306,1,2.1387681711305233,0.3346933361072379,1.4286575219642792,0.29759433647513256,True,0.1,2.1378767490386963,0.32825878262519836,1.421011209487915,0.29759433647513256,-0.02768964306495647,0.28130854078137574
1759505330.8395002,1,2.1456329898092212,0.38166589879876944,1.4333548184739655,0.2966720539303802,True,0.1,2.147292137145996,0.39254412055015564,1.4293256998062134,0.2966720539303802,-0.02768964306495647,0.28130854078137574
1759505330.9527898,1,2.1482032907470465,0.3996150748556198,1.4358475370751433,0.2966720539303802,True,0.1,2.147292137145996,0.39254412055015564,1.4293256998062134,0.2966720539303802,-0.03638543420509066,0.28301091048125243
1759505331.0773993,1,2.1547654129934717,0.44753941637036165,1.4410061148892064,0.2886917185854987,True,0.1,2.156440496444702,0.45947566628456116,1.440670371055603,0.2886917185854987,-0.054268169800682386,0.35091832906507736
1759505331.1927555,1,2.15721970907699,0.4658517843612143,1.4445468306544162,0.2886917185854987,True,0.1,2.156440496444702,0.45947566628456116,1.440670371055603,0.2886917185854987,-0.03502743203178227,0.27938428258764314
1759505331.3076828,1,2.16370557730703,0.519188330238658,1.4525419299731261,0.3145509364744333,True,0.1,2.165292501449585,0.532863199710846,1.457717776298523,0.3145509364744333,-0.049184052599642314,0.3458129543507072
1759505331.430641,1,2.1660948334217998,0.5395718035292144,1.4584711121961558,0.3145509364744333,True,0.1,2.165292501449585,0.532863199710846,1.457717776298523,0.3145509364744333,-0.017677016151484537,0.2560770478338769
1759505331.5477848,1,2.1715332087333827,0.5910916831264744,1.4663388713274825,0.30621744759964353,True,0.1,2.17279314994812,0.6041244268417358,1.4701957702636719,0.30621744759964353,-0.02923483525017545,0.3185771238329643
1759505331.680123,1,2.173525073965781,0.6107797441641716,1.4718396084497094,0.30621744759964353,True,0.1,2.17279314994812,0.6041244268417358,1.4701957702636719,0.30621744759964353,-0.005407405878594673,0.24257539166581993
1759505331.8066247,1,2.1783555413390565,0.6613453540942039,1.4773100016572016,0.27115091289647514,True,0.1,2.179696798324585,0.6759194135665894,1.4771232604980469,0.27115091289647514,-0.017944297230096495,0.3120909514544146
1759505331.930057,1,2.1801463992269574,0.680664897622646,1.4807078314748257,0.27115091289647514,True,0.1,2.179696798324585,0.6759194135665894,1.4771232604980469,0.27115091289647514,-0.01549612618691043,0.30792093549522576
1759505332.0522952,1,2.185244704360289,0.7373388934872855,1.4848613004720796,0.31057207865817105,True,0.1,2.1866796016693115,0.7532477974891663,1.483582615852356,0.31057207865817105,-0.01549612618691043,0.30792093549522576
1759505332.1702173,1,2.187144992211642,0.758990565073434,1.487356756148202,0.31057207865817105,True,0.1,2.1866796016693115,0.7532477974891663,1.483582615852356,0.31057207865817105,-0.013497727462899789,0.2783026924773421
1759505332.301896,1,2.191615495423168,0.8119869194447216,1.4905364654952855,0.29446768018209185,True,0.1,2.1928718090057373,0.8266038298606873,1.4891074895858765,0.29446768018209185,-0.022193524851909174,0.33894716564644506
1759505332.41797,1,2.1932899443957545,0.8322324271617841,1.4925559406017328,0.29446768018209185,True,0.1,2.1928718090057373,0.8266038298606873,1.4891074895858765,0.29446768018209185,-0.012582306328916104,0.26333796787839
1759505332.5416963,1,2.1974293586533267,0.8852136429267442,1.4958465838546964,0.30976898845977807,True,0.1,2.198503017425537,0.8988707065582275,1.4958512783050537,0.30976898845977807,-0.024576870858405542,0.3342400840463901
1759505332.660482,1,2.1989745711888395,0.9054534028002251,1.4981336813902182,0.30976898845977807,True,0.1,2.198503017425537,0.8988707065582275,1.4958512783050537,0.30976898845977807,-0.01256722935494281,0.24950367292039094
1759505332.7835138,1,2.2026184298290934,0.9567396264024857,1.5017644438294768,0.30355165311546106,True,0.1,2.2035205364227295,0.9697243571281433,1.50286066532135,0.30355165311546106,-0.025043614536073733,0.31691374486221613
1759505332.8951502,1,2.203971248468725,0.9763319673228348,1.5043368371232422,0.30355165311546106,True,0.1,2.2035205364227295,0.9697243571281433,1.50286066532135,0.30355165311546106,-0.012474895693905808,0.2408690037088641
1759505333.0080674,1,2.206843811935014,1.0210040154537439,1.5079201096278103,0.2663483975796965,True,0.1,2.2075352668762207,1.0321873426437378,1.508986473083496,0.2663483975796965,-0.02196534410962414,0.3007365740207453
1759505333.1208334,1,2.20790616651161,1.038069459361762,1.5102908368410244,0.2663483975796965,True,0.1,2.2075352668762207,1.0321873426437378,1.508986473083496,0.2663483975796965,-0.018396788809361908,0.31643138704838414
1759505333.2328372,1,2.2108994430013142,1.0896276390808854,1.5141932319821834,0.3197141906344167,True,0.1,2.211566209793091,1.1017683744430542,1.5159553289413452,0.3197141906344167,-0.018396788809361908,0.31643138704838414
1759505333.343042,1,2.2119979917559243,1.1093237138251066,1.5168885921023643,0.3197141906344167,True,0.1,2.211566209793091,1.1017683744430542,1.5159553289413452,0.3197141906344167,-0.009202721186422735,0.28308871365355404
1759505333.464664,1,2.2145377979371066,1.1583178094718092,1.5201214768378124,0.2929486094094421,True,0.1,2.215139150619507,1.1705185174942017,1.5205886363983154,0.2929486094094421,-0.009202721186422735,0.28308871365355404
1759505333.5685604,1,2.21547342818429,1.1770336819779397,1.5221698640848995,0.2929486094094421,True,0.1,2.215139150619507,1.1705185174942017,1.5205886363983154,0.2929486094094421,-0.005862494195675083,0.28827615067352114
1759505333.681698,1,2.2176928815857915,1.2227637610267899,1.5240737022061044,0.28704648627934026,True,0.1,2.218207597732544,1.2333067655563354,1.52295982837677,0.28704648627934026,-0.010908703675372777,0.3512322545598785
1759505333.7858963,1,2.2185210729105798,1.2402320251786358,1.5252194016900367,0.28704648627934026,True,0.1,2.218207597732544,1.2333067655563354,1.52295982837677,0.28704648627934026,-0.006773246573999359,0.28404601035894844
1759505333.8895164,1,2.220756207866752,1.2888448299891646,1.5268131722776808,0.3235329309529471,True,0.1,2.22123122215271,1.2989143133163452,1.5259044170379639,0.3235329309529471,-0.006773246573999359,0.28404601035894844
1759505334.0040364,1,2.2215907850667227,1.307414123922692,1.527721560661834,0.3235329309529471,True,0.1,2.22123122215271,1.2989143133163452,1.5259044170379639,0.3235329309529471,-0.008020568934771433,0.2681817159126535
1759505334.128507,1,2.223562258151743,1.352588834974638,1.529074513788129,0.26193171572133317,True,0.1,2.2240869998931885,1.3643349409103394,1.5283347368240356,0.26193171572133317,-0.008020568934771433,0.2681817159126535
1759505334.2310295,1,2.2243019009239275,1.369844604596834,1.5298066207910548,0.26193171572133317,True,0.1,2.2240869998931885,1.3643349409103394,1.5283347368240356,0.26193171572133317,-0.011739146942101542,0.28322443948959236
1759505334.3418815,1,2.226110337381148,1.4138788161748834,1.5311991977782125,0.2901124150972523,True,0.1,2.2264997959136963,1.4231783151626587,1.531374454498291,0.2901124150972523,-0.01942908418488898,0.3489157159380896
1759505334.4525695,1,2.226786735325551,1.4306989625492676,1.5321932595070447,0.2901124150972523,True,0.1,2.2264997959136963,1.4231783151626587,1.531374454498291,0.2901124150972523,-0.014508262558312168,0.27484642691490635
1759505334.558012,1,2.2286062318390205,1.4808542435373753,1.5349434565020648,0.31599500503218964,True,0.1,2.228986978530884,1.4923365116119385,1.5374784469604492,0.31599500503218964,-0.019894331396994147,0.33944083912796386
1759505334.663564,1,2.2292705398862487,1.500012985393175,1.5370533041209242,0.31599500503218964,True,0.1,2.228986978530884,1.4923365116119385,1.5374784469604492,0.31599500503218964,-0.008770357982228916,0.25478631588728773
1759505334.7816617,1,2.2307181550041113,1.5477775073535427,1.540096347344602,0.3037909154979447,True,0.1,2.230987310409546,1.55853271484375,1.542376160621643,0.3037909154979447,-0.011851562482092959,0.3218213635628362
1759505334.8898938,1,2.2312378672106137,1.5660229905010539,1.5422543871894963,0.3037909154979447,True,0.1,2.230987310409546,1.55853271484375,1.542376160621643,0.3037909154979447,-0.004216924956985224,0.32023096493552766
1759505334.988641,1,2.2325020464814123,1.613963362734638,1.5445003512693427,0.3038627487848923,True,0.09874725341796875,2.2327587604522705,1.6250550746917725,1.5450778007507324,0.3038627487848923,-0.004216924956985224,0.32023096493552766
1759505335.1053514,1,2.2329645526206265,1.6324209641866778,1.5459868077542556,0.3038627487848923,True,0.1,2.2327587604522705,1.6250550746917725,1.5450778007507324,0.3038627487848923,0.001135553534339806,0.24700998304328953
1759505335.2074544,1,2.2340825542945115,1.6775328218985273,1.546980046436988,0.28626314083819837,True,0.1,2.2343361377716064,1.6877268552780151,1.5457054376602173,0.28626314083819837,9.044547061165531e-05,0.30311959430621144
1759505335.3259265,1,2.2344992180761065,1.6947642698212566,1.5474789148518662,0.28626314083819837,True,0.1,2.2343361377716064,1.6877268552780151,1.5457054376602173,0.28626314083819837,0.00017657172633178675,0.30974615620074625
1759505335.4281006,1,2.235730076296349,1.7442973005635807,1.5476228867655752,0.3105738295025231,True,0.1,2.2360434532165527,1.755721092224121,1.5456774234771729,0.3105738295025231,0.00017657172633178675,0.30974615620074625
1759505335.52917,1,2.2361983476216256,1.7632172782975941,1.5475235108486824,0.3105738295025231,True,0.1,2.2360434532165527,1.755721092224121,1.5456774234771729,0.3105738295025231,-0.002429902134764461,0.29995453122231847
1759505335.620779,1,2.2363553811198695,1.7694488924846434,1.5473155758943085,0.3105738295025231,True,0.09160900115966797,2.2360434532165527,1.755721092224121,1.5456774234771729,0.3105738295025231,-0.002429902134764461,0.29995453122231847
1759505335.7422943,1,2.237900000257366,1.8315835533705018,1.5473638090472148,0.30577139274962345,True,0.1,2.238412857055664,1.8510923385620117,1.546524167060852,0.30577139274962345,-0.007386472379200981,0.36619437455734877
1759505335.8549535,1,2.2384895919300107,1.8553168912972167,1.5473866107084504,0.30577139274962345,True,0.1,2.238412857055664,1.8510923385620117,1.546524167060852,0.30577139274962345,-0.006476893831102615,0.26284631158637695
1759505335.9667523,1,2.2397200491787386,1.9083956814580738,1.5482117182939525,0.32097745004225786,True,0.1,2.240020990371704,1.9213680028915405,1.5490370988845825,0.32097745004225786,-0.0123676671938302,0.3246865662772791
1759505336.079214,1,2.2401807848706072,1.928670186089447,1.548901560102654,0.32097745004225786,True,0.1,2.240020990371704,1.9213680028915405,1.5490370988845825,0.32097745004225786,-0.008166554847418794,0.24235026526377976
1759505336.190827,1,2.2411013766896613,1.9747064130526362,1.5505420924592412,0.29133199230991697,True,0.1,2.241281747817993,1.9851572513580322,1.5524299144744873,0.29133199230991697,-0.013297594851142236,0.314862624400057
1759505336.2836235,1,2.241420002783958,1.9914896100070951,1.551777048858055,0.29133199230991697,True,0.09279656410217285,2.241281747817993,1.9851572513580322,1.5524299144744873,0.29133199230991697,-0.007236885711570551,0.2544668567224737
1759505336.4053915,1,2.2421522651092105,2.035738523947286,1.5536961573541603,0.27855226300822966,True,0.1,2.2422821521759033,2.0458734035491943,1.5555087327957153,0.27855226300822966,-0.008983444756697878,0.3201737118057497
1759505336.511853,1,2.2424127195744274,2.0526404482045497,1.5550946458732815,0.27855226300822966,True,0.1,2.2422821521759033,2.0458734035491943,1.5555087327957153,0.27855226300822966,-0.003601338153149669,0.3177361365221087
1759505336.6173205,1,2.2430900396153386,2.1015911337139053,1.556717208992204,0.3061917509198848,True,0.1,2.2432150840759277,2.1129229068756104,1.557612657546997,0.3061917509198848,-0.003601338153149669,0.3177361365221087
1759505336.7254157,1,2.2433308410009665,2.1202888957984225,1.5578191493944633,0.3061917509198848,True,0.1,2.2432150840759277,2.1129229068756104,1.557612657546997,0.3061917509198848,-0.00012561438956382176,0.30404331794083
1759505336.8528183,1,2.243985158738711,2.1727478621030967,1.5586622237046308,0.3118755777115929,True,0.1,2.244140863418579,2.1858959197998047,1.5582334995269775,0.3118755777115929,-0.00012561438956382176,0.30404331794083
1759505336.9973736,1,2.244225598143772,2.1927855228068283,1.5591461438920673,0.3118755777115929,True,0.1,2.244140863418579,2.1858959197998047,1.5582334995269775,0.3118755777115929,0.0010143876552248798,0.2920603900372671
1759505337.1261535,1,2.244950304905496,2.25106905053862,1.559275157134862,0.30872818973224414,True,0.1,2.245176076889038,2.2680110931396484,1.5580648183822632,0.30872818973224414,0.00018612820490915283,0.348919315666236
1759505337.2506828,1,2.2452256980664957,2.2733313935942814,1.5592542267784744,0.30872818973224414,True,0.1,2.245176076889038,2.2680110931396484,1.5580648183822632,0.30872818973224414,-0.0001413812058146391,0.25962526582351464
1759505337.3729877,1,2.245921131976061,2.3280841762145377,1.5591296110960444,0.3012139184129405,True,0.1,2.246136426925659,2.343308448791504,1.5580729246139526,0.3012139184129405,-0.002303106469767613,0.3354895516911912
1759505337.4893188,1,2.2461881856847614,2.348997861726782,1.5589864067077892,0.3012139184129405,True,0.1,2.246136426925659,2.343308448791504,1.5580729246139526,0.3012139184129405,-0.0025018072831795024,0.25513692970891483
1759505337.618058,1,2.2468302796007724,2.4007962404477516,1.5592369947153308,0.28706421168587365,True,0.1,2.247016668319702,2.415069103240967,1.5588493347167969,0.28706421168587365,0.005928335736268053,0.32032512611114383
1759505337.732728,1,2.2470770189906437,2.4205814438799558,1.5597200823088482,0.28706421168587365,True,0.1,2.247016668319702,2.415069103240967,1.5588493347167969,0.28706421168587365,0.03853177192701196,0.30980338497775906
1759505337.8371108,1,2.2478122864451553,2.4724855725456636,1.5569198378030613,0.31874174577154096,True,0.1,2.248033285140991,2.484866142272949,1.5513337850570679,0.31874174577154096,0.03853177192701196,0.30980338497775906
1759505337.9383426,1,2.2481247878280857,2.4923107683911647,1.5545181621763628,0.31874174577154096,True,0.1,2.248033285140991,2.484866142272949,1.5513337850570679,0.31874174577154096,0.02641018768603942,0.22256911569674534
1759505338.0429733,1,2.2490892853385835,2.5317451253319927,1.5498445147453186,0.26914392200560433,True,0.1,2.24939227104187,2.539485454559326,1.5418076515197754,0.26914392200560433,0.07954353649364876,0.29057077337362164
