timestamp,observer_vehicle_id,vehicle_0_x,vehicle_0_y,vehicle_0_theta,vehicle_0_velocity,vehicle_1_x,vehicle_1_y,vehicle_1_theta,vehicle_1_velocity,vehicle_2_x,vehicle_2_y,vehicle_2_theta,vehicle_2_velocity
1759839573.1663153,2,0.0,0.0,0.0,0.0,-0.17350000143051145,-0.03499999046325685,-0.0717702686783767,1.0027291164005923e-32,-1.95,0.197,-0.8848819307611251,0.0
1759839573.1778543,2,0.0,0.0,0.0,0.0,-0.32965000271797174,-0.06649998188018802,-0.13636351048891854,1.885218940667659e-32,-1.95,0.197,-0.8848819307611251,0.0
1759839573.188211,2,-0.23538943628356607,-0.1621354067282681,-0.14019892865315173,0.0,-0.47018500387668605,-0.09484997415542606,-0.19449742811840617,2.679459782508019e-32,-1.95,0.197,-0.8848819307611251,0.0
1759839573.1985185,2,-0.4227981144717481,-0.2912218378875809,-0.251820317943682,0.0,-0.5966665049195289,-0.1203649672031403,-0.24681795398494877,3.2330162550132166e-32,-1.95,0.197,-0.8848819307611251,0.0
1759839573.2094793,2,-0.5722692765404525,-0.39417704283977617,-0.3408459646227849,0.0,-0.7104998558580875,-0.14332846094608312,-0.2939064272648483,3.6005716015144204e-32,-1.95,0.197,-0.8848819307611251,0.0
1759839573.2210248,2,-0.6917169284292833,-0.4764521607358985,-0.4119894835901137,0.0,-0.8129498717027902,-0.16399560531473165,-0.3362860532167608,3.825251100038977e-32,-1.95,0.197,-0.8848819307611251,0.0
1759839573.2313282,2,-0.7875573910710895,-0.5424667306197192,-0.4690724623174039,0.0,-0.988747424149332,-0.19945907856177458,-0.40900673026638046,3.6806675733914676e-32,-1.95,0.197,-0.8848819307611251,0.0
1759839573.2424245,2,-0.8645760691136954,-0.5955169221970005,-0.5149451077442252,0.0,-1.129371396433032,-0.2278270188975333,-0.46717745182399767,3.4709519666098606e-32,-1.95,0.197,-0.8848819307611251,0.0
1759839573.2526307,2,-0.9266898186208833,-0.6383006519971502,-0.5519403156559658,0.0,-1.242259926002496,-0.25059991472327064,-0.5138750888910725,3.294775720242239e-32,-1.95,0.197,-0.8848819307611251,0.0
1759839573.2638056,2,-0.9768482762463463,-0.6728496192590886,-0.5818149019288732,0.0,-1.3291011378787547,-0.2681183098957574,-0.549797953774953,3.0845281459598326e-32,-1.95,0.197,-0.8848819307611251,0.0
1759839573.2739334,2,-1.0175047919968345,-0.700853682743988,-0.6060300920452293,0.0,-1.3952234078245869,-0.2814570925956522,-0.5771501903197935,2.886373543932644e-32,-1.95,0.197,-0.8848819307611251,0.0
1759839573.2846348,2,-1.0524180346688776,-0.7249018001540454,-0.6268245647951929,0.0,-1.4454347769295364,-0.29158618438430073,-0.5979206999548137,2.670868665438346e-32,-1.95,0.197,-0.8848819307611251,0.0
1759839573.2946982,2,-1.0805230295474095,-0.7442604206922976,-0.6435640168028257,0.0,-1.483873431251387,-0.29934037760385535,-0.6138212908803605,2.453760416835725e-32,-1.95,0.197,-0.8848819307611251,0.0
1759839573.3054721,2,-1.1031829764120864,-0.7598685115197866,-0.6570603755346507,0.0,-1.5153198177708938,-0.3056840272823104,-0.6268294499055623,2.2827878102092354e-32,-1.95,0.197,-0.8848819307611251,0.0
1759839573.3155265,2,-1.1215131381148964,-0.7724942617233761,-0.6679778961904085,0.0,-1.5431659469466046,-0.3113014004670527,-0.6383483211224377,2.121832585966757e-32,-1.95,0.197,-0.8848819307611251,0.0
1759839573.327023,2,-1.1363513522926794,-0.7827147708881876,-0.6768155983562149,0.0,-1.5640254717228248,-0.3155093725835727,-0.6469771031706202,1.956800109230313e-32,-1.95,0.197,-0.8848819307611251,0.0
1759839573.3381038,2,-1.1484002195910714,-0.7910139878406695,-0.683991953902959,0.0,-1.5798606171730674,-0.3187037814318328,-0.6535274929928858,1.8001368567261437e-32,-1.95,0.197,-0.8848819307611251,0.0
1759839573.3483863,2,-1.1582179335626472,-0.7977763943150434,-0.6898394252354442,0.0,-1.5931924119859615,-0.3213931917342084,-0.659042343066678,1.6787595184816568e-32,-1.95,0.197,-0.8848819307611251,0.0
1759839573.3603616,2,-1.1662206368695227,-0.8032886278972797,-0.6946058686564709,0.0,-1.6027126905626912,-0.3233137084872099,-0.6629805156644697,1.556891039632593e-32,-0.016249999999999876,0.0016416666666666524,-0.07503536244256637,0.0
1759839573.3711758,2,-1.1731958843775105,-0.8080931535786087,-0.6987603551243019,0.0,-1.6102746685862608,-0.32483917913001165,-0.6661086147423998,1.4597953910508398e-32,-0.005431754874651777,0.0005487465181058457,-0.005867864680505263,0.0
1759839573.381366,2,-1.1788516764263288,-0.8119888430313034,-0.7021289684250879,0.0,-1.6157945343314426,-0.3259526964029046,-0.6683919706175407,1.3655313062078256e-32,-0.0020376175548589216,0.0002058516196447216,0.0005972787738723895,0.0
1759839573.3922243,2,-1.1834449032178342,-0.8151526413129677,-0.7048647134330085,0.0,-1.6199521667621337,-0.32679141164338943,-0.6701118230334453,1.2874126901434318e-32,-0.0007762738853503137,7.842356687898033e-05,0.0014792885413692505,0.0
1759839573.4023736,2,-1.1871875293002274,-0.8177305488507113,-0.7070938371158093,0.0,-1.6230144338577936,-0.3274091598754375,-0.6713785649954659,1.212108609490959e-32,-0.0002963976288189676,2.994376044991618e-05,0.001566731613281469,0.0
1759839573.412559,2,-1.1902440361691842,-0.8198358599139022,-0.7089143053373845,0.0,-1.6256210189769054,-0.32793498381525527,-0.6724568088732279,1.1527866112585882e-32,-0.00011320754716981062,1.1436865021770596e-05,0.0014731956079270248,0.0
1759839573.4228833,2,-1.192745598220595,-0.8215589269600075,-0.7104042461142711,0.0,-1.6287573467061425,-0.32856767222855715,-0.6737541868671122,1.0931432695081984e-32,-4.324108568387413e-05,4.368458399858048e-06,0.0013280110134612502,0.0
1759839573.434197,2,-1.1947953459220928,-0.8229707858884273,-0.7116250843825316,0.0,-1.6310013156689163,-0.3290203459556429,-0.674682430406249,1.0325193584355177e-32,-1.65166055411093e-05,1.6686006623582196e-06,0.0011948050975663094,0.0
1759839573.445456,2,-1.1964792621366818,-0.8241306613894663,-0.7126280318934921,0.0,-1.6326006976177831,-0.329342987756772,-0.6753440331223645,9.752980691918943e-33,-6.308780852364781e-06,6.373486297004413e-07,0.0010543035993082484,0.0
1759839573.4557965,2,-1.1978676871288836,-0.8250870035872154,-0.713454983601671,0.0,-1.6339733853458691,-0.32961989874810294,-0.6759118611698969,9.303528093164428e-33,-2.4097397975324104e-06,2.4344550775070993e-07,0.0009111010406863684,0.0
1759839573.4659328,2,-1.1990154149394738,-0.8258775544221273,-0.7141385750659724,0.0,-1.6353039542652397,-0.32988831315216466,-0.6764622662883594,8.870885801589585e-33,-9.204386952427418e-07,9.298790921170254e-08,0.0007931097109645789,0.0
1759839573.4764698,2,-1.19996584024579,-0.8265322039936517,-0.7147046523369587,0.0,-1.6365736361237624,-0.33014444486728434,-0.676987484774658,8.507655005417254e-33,-3.5157629683424237e-07,3.551822075710034e-08,0.0007049334596471724,0.0
1759839573.4879396,2,-1.200807420869116,-0.827111881734556,-0.715205901261415,0.0,-1.6380541712709253,-0.33044311181601044,-0.6775999251459837,8.15706726102703e-33,-1.342901957413884e-07,1.3566753108232555e-08,0.0006424487288363423,0.0
1759839573.498127,2,-1.2014997699195158,-0.8275887692986577,-0.7156182672394836,0.0,-1.6390988539537628,-0.33065385466116876,-0.678032070138573,7.879534828025194e-33,-5.1294290416750496e-08,5.1820385703076095e-09,0.000571317207446853,0.0
1759839573.5082707,2,-1.2020706866583242,-0.8279820147183169,-0.7159583076269999,0.0,-1.6405916981276747,-0.3309550046981673,-0.6786496022802119,7.607636134204866e-33,-1.9592675510358164e-08,1.9793626028413097e-09,0.000512551113555304,0.0
1759839573.5186121,2,-1.2025424245215233,-0.8283069460811109,-0.7162392766631208,0.0,-1.641964474189128,-0.33123193350890445,-0.6792174668678446,7.375864882197218e-33,-7.483736114407315e-09,7.560492382247381e-10,0.0004664544962622585,0.0
1759839573.528619,2,-1.202933276001503,-0.8285761631907543,-0.7164720694325026,0.0,-1.6437827900954438,-0.3315987406492821,-0.679969634130456,7.144786630504146e-33,-2.858532832868423e-09,2.887851118333736e-10,0.0004247263670640322,0.0
1759839573.5392747,2,-1.2032575632126736,-0.8287995310687273,-0.7166652162461398,0.0,-1.6461411012575968,-0.3320744805196233,-0.6809451766338667,6.884961890396056e-33,-1.091862384198209e-09,1.1030609727540864e-10,0.00039494094951653125,0.0
1759839573.55038,2,-1.2035270978071424,-0.8289851855390021,-0.7168257521732234,0.0,-1.6478753107944981,-0.33242432096200014,-0.6816625523306045,6.671265820516674e-33,-4.170543197262193e-10,4.2133179992853885e-11,0.0003714615450958192,0.0
1759839573.5612772,2,-1.203751729395153,-0.829139910978092,-0.7169595436826386,0.0,-1.6494251081147175,-0.3327369601030977,-0.6823036437954694,6.501807275164403e-33,-1.5930057498044998e-10,1.609344270315313e-11,0.00034736954901770645,0.0
1759839573.5723884,2,-1.203939329461373,-0.8292691292366471,-0.7170712790634379,0.0,-1.6512036573302815,-0.3330957451467284,-0.6830393611096354,6.332531401042687e-33,-6.084740521513077e-11,6.147148116605511e-12,0.0003262980562652728,0.0
1759839573.5835922,2,-1.2040963596650491,-0.8293772910825806,-0.7171648069067821,0.0,-1.6530432313247083,-0.33346684066102544,-0.6838003220245993,6.171482458944463e-33,-2.3241640664942343e-11,2.3480016466634033e-12,0.00030702329036191855,0.0
1759839573.593601,2,-1.2042283338349136,-0.8294681944215173,-0.717243411272029,0.0,-1.6544374009604292,-0.3337480851771757,-0.6843770363099867,6.047418350411282e-33,-8.877516779696268e-12,8.968568233846987e-13,0.00028208787193317875,0.0
1759839573.6038802,2,-1.2043480365938217,-0.8295506452562211,-0.7173147067337995,0.0,-1.6554555121452097,-0.33395346777927404,-0.6847981896971567,5.954512887010996e-33,-3.390909674146461e-12,3.425688234906933e-13,0.00026253338485293654,0.0
1759839573.6142757,2,-1.2044478162082755,-0.8296193730998666,-0.7173741358877528,0.0,-1.6567346163852947,-0.33421150026247504,-0.6853273058598176,5.857717576784372e-33,-1.2952122427431172e-12,1.3084964708738142e-13,0.00024648072978283864,0.0
1759839573.6253924,2,-1.2045310982834145,-0.8296767374970928,-0.7174237390385775,0.0,-1.657845231778256,-0.3344355436506104,-0.6857867246753448,5.774405853587597e-33,-4.947270540828914e-13,4.998011777145101e-14,0.00023580679903822957,0.0
1759839573.63542,2,-1.204600879991116,-0.8297248028892319,-0.717465301314327,0.0,-1.6591139084154378,-0.33469147258338394,-0.6863115273402763,5.691641818732176e-33,-1.8896891950555702e-13,1.9090706226971637e-14,0.00022026917024753345,0.0
1759839573.645934,2,-1.2046594384105533,-0.8297651377203218,-0.717500178952841,0.0,-1.6608271729278008,-0.33503708780585845,-0.6870202388870073,5.5666623695252e-33,-7.21797044337798e-14,7.2920009094639e-15,0.00020879370207715908,0.0
1759839573.6576037,2,-1.2047086111850058,-0.829799007752519,-0.7175294664621107,0.0,-1.6625716880439851,-0.3353890071829537,-0.6877418776049982,5.449176283432676e-33,-2.7570193795782396e-14,2.785296501420065e-15,0.00020322351255952498,0.0
1759839573.667832,2,-1.2047500887671179,-0.8298275773635941,-0.7175541706827716,0.0,-1.6639088276731588,-0.3356587470900618,-0.6882950007730474,5.360294213655486e-33,-1.0530876953567395e-14,1.0638885947962949e-15,0.00019096528982665006,0.0
1759839573.6793566,2,-1.204785086986644,-0.8298516840127592,-0.71757501576809,0.0,-1.665539349436451,-0.3359876706963721,-0.6889694848311111,5.262002129009431e-33,-4.022437064919796e-15,4.063692829688201e-16,0.00018479382341762832,0.0
1759839573.690726,2,-1.2048146960190642,-0.829872078609008,-0.7175926510311216,0.0,-1.6671570225276493,-0.33631400235226705,-0.6896386538883611,5.1701048897676214e-33,-1.5364342411919945e-15,1.5521925411016546e-16,0.00017770836998121098,0.0
1759839573.7013514,2,-1.2048398326896397,-0.8298893926583211,-0.7176076225368112,0.0,-1.668526402339403,-0.3365902460407788,-0.690205113578293,5.096852923857571e-33,-5.868656586561881e-16,5.928847936167639e-17,0.00016784769855249237,0.0
1759839573.7121506,2,-1.2048612143077129,-0.8299041202408224,-0.7176203575175906,0.0,-1.6696555619294404,-0.3368180303321734,-0.6906722034139732,5.034758589502637e-33,-2.2416273477656987e-16,2.264618397486371e-17,0.00015948013941713413,0.0
1759839573.7235699,2,-1.2048809618581389,-0.8299177222833387,-0.7176321192408733,0.0,-1.670792191374266,-0.337047321510278,-0.6911423832408945,4.977817451993822e-33,-8.562254567352161e-17,8.65007256291474e-18,0.0001538113020265186,0.0
1759839573.734224,2,-1.2048976466930732,-0.8299292147383145,-0.7176420567980529,0.0,-1.6719781211165725,-0.3372865579905581,-0.6916329567022058,4.9225764523131486e-33,-3.2704902243994994e-17,3.304033713880517e-18,0.00014579278188797673,0.0
1759839573.744511,2,-1.2049117830953635,-0.8299389518419468,-0.7176504764981355,0.0,-1.6729549664667311,-0.33748361607504074,-0.6920370400028427,4.8805502842365305e-33,-1.249216105846338e-17,1.2620285787268121e-18,0.00013742004506056563,0.0
1759839573.7550542,2,-1.2049237817731877,-0.8299472164885678,-0.7176576229606223,0.0,-1.6740377223245664,-0.33770203938562177,-0.6924849344016287,4.8363759582538265e-33,-4.771580931395148e-18,4.820520222999197e-19,0.00013085631637377307,0.0
1759839573.7665133,2,-1.2049339744870318,-0.8299542371936209,-0.7176636937834407,0.0,-1.675655175356672,-0.33802832664920507,-0.693154012428909,4.7435867576213753e-33,-1.822581735722066e-18,1.8412748817294703e-19,0.00012739869793687572,0.0
1759839573.7774677,2,-1.204942660141844,-0.8299602198417717,-0.7176688669956229,0.0,-1.677278440699065,-0.338355786424621,-0.6938254947851061,4.6561715440797076e-33,-6.961642757710507e-19,7.033044221892149e-20,0.00012234467589600229,0.0
1759839573.7880864,2,-1.2049500820751986,-0.8299653320430759,-0.7176732875300414,0.0,-1.6788454045544363,-0.3386718885545465,-0.6944736873844325,4.5767161164979374e-33,-2.659110915910864e-19,2.686383848381743e-20,0.00011656073950394585,0.0
1759839573.798266,2,-1.2049564423343462,-0.8299697129669614,-0.7176770757268803,0.0,-1.6800874693994163,-0.3389224491157604,-0.6949874817758201,4.5172559179901444e-33,-1.0156899900220865e-19,1.0261073232530816e-20,0.00011024475230225762,0.0
1759839573.8083065,2,-1.2049619053469018,-0.8299734758705846,-0.717680329519912,0.0,-1.6810870771246804,-0.33912409903254875,-0.695400980994404,4.4714273797304735e-33,-3.879590541553954e-20,3.919381213775018e-21,0.00010442507595964656,0.0
1759839573.8192248,2,-1.20496701439229,-0.8299769949628814,-0.7176833724886243,0.0,-1.6818386684109785,-0.3392757168287206,-0.6957118853639104,4.4413362437882154e-33,-1.4818717244409988e-20,1.497070408794239e-21,0.00010130993387580389,0.0
1759839573.8304203,2,-1.2049713650579967,-0.8299799916859504,-0.7176859637632399,0.0,-1.682603960243001,-0.3394300984229658,-0.6960284571215392,4.414467476662985e-33,-5.660246317690433e-21,5.718300126076998e-22,9.878003176844175e-05,0.0
1759839573.8419185,2,-1.2049750766856142,-0.8299825482418558,-0.7176881744241079,0.0,-1.6834266689895503,-0.3395960626768324,-0.6963687800454414,4.3863353714052117e-33,-2.1620217086613097e-21,2.184196290288604e-22,9.655669236430242e-05,0.0
1759839573.8528733,2,-1.2049782532360596,-0.8299847362385075,-0.7176900663907836,0.0,-1.6840346813978373,-0.3397187164423432,-0.6966202913626918,4.371291201954807e-33,-8.258188082934972e-22,8.342887447888147e-23,9.287367904420307e-05,0.0
1759839573.8633342,2,-1.2049809800339164,-0.8299866144471756,-0.7176916904829443,0.0,-1.6846641684968244,-0.33984570227680794,-0.6968806859324395,4.357071644681074e-33,-3.154347162191824e-22,3.186699440778405e-23,8.833229146798516e-05,0.0
1759839573.8743126,2,-1.204983323739393,-0.8299882287831741,-0.7176930864036877,0.0,-1.685662050390768,-0.3400470040432836,-0.6972934712410767,4.3061583983062296e-33,-1.2048534036404992e-22,1.2172108744470678e-23,8.517518101669452e-05,0.0
1759839573.884588,2,-1.2049853449364762,-0.8299896209765383,-0.7176942902370889,0.0,-1.6864828146728668,-0.34021257604218375,-0.6976329898149307,4.2664930737158955e-33,-4.602130487296743e-23,4.64933182562799e-24,8.095586077150331e-05,0.0
1759839573.8955393,2,-1.2049870895967834,-0.8299908226923545,-0.7176953293640345,0.0,-1.6872935654914551,-0.3403761280346028,-0.6979683662045708,4.229634365019357e-33,-1.7578574254852392e-23,1.7758867324132926e-24,7.830842680167649e-05,0.0
1759839573.905927,2,-1.204988600253768,-0.8299918632275141,-0.7176962291176264,0.0,-1.687944340958671,-0.3405074083513664,-0.6982375669523927,4.202213047307862e-33,-6.714417891589756e-24,6.7832837161188805e-25,7.484457014950152e-05,0.0
1759839573.9174347,2,-1.2049899083973,-0.8299927642721274,-0.7176970082533625,0.0,-1.6886117850423472,-0.3406420512122933,-0.6985136628648928,4.17386279918646e-33,-2.5646794199168796e-24,2.590983824223719e-25,7.339216868729181e-05,0.0
1759839573.9282525,2,-1.2049910450651835,-0.829993547204924,-0.7176976852574882,0.0,-1.6891413075441717,-0.34074887128353903,-0.6987327059306804,4.1554335449526745e-33,-9.796203681608838e-25,9.896677565522774e-26,7.06650751647331e-05,0.0
1759839573.9387596,2,-1.2049921342701784,-0.8299942974454516,-0.7176983339925198,0.0,-1.6895123185259766,-0.34082371497643743,-0.6988861788853035,4.147899405397442e-33,-3.7418168456577225e-25,3.7801944543311346e-26,6.754093997862753e-05,0.0
1759839573.9497263,2,-1.204993074278594,-0.8299949449199058,-0.7176988938654473,0.0,-1.6899478904011742,-0.34091158247702696,-0.6990663581951225,4.136491464505766e-33,-1.4292468553643303e-25,1.4439057974706312e-26,6.532575124307272e-05,0.0
1759839573.9598207,2,-1.2049938884903246,-0.8299955057460507,-0.7176993788133454,0.0,-1.6903097335286905,-0.3409845767473892,-0.6992160387615023,4.129643006045832e-33,-5.459237204352691e-26,5.515229380807591e-27,6.201224210666821e-05,0.0
1759839573.970539,2,-1.2049945943769484,-0.8299959919582472,-0.7176997992423586,0.0,-1.6907976806871168,-0.34108300986410783,-0.6994178837088937,4.1109798819785474e-33,-2.0852430594147727e-26,2.1066301677164622e-27,5.988267262413416e-05,0.0
1759839573.9814572,2,-1.2049952074037686,-0.8299964142089412,-0.717700164363686,0.0,-1.6913822553064148,-0.3412009355467119,-0.6996596997154862,4.083599164825024e-33,-7.964919738916267e-27,8.04661122341797e-28,5.812828345064247e-05,0.0
1759839573.991852,2,-1.2049957414047712,-0.8299967820269329,-0.7177004824169072,0.0,-1.692169051634291,-0.3413596552224764,-0.6999851670548664,4.034277624901292e-33,-3.0423286226010747e-27,3.07353199308929e-28,5.5720497190492324e-05,0.0
1759839574.003386,2,-1.204996214570934,-0.8299971079421036,-0.7177007642366446,0.0,-1.6929300201746953,-0.34151316468321063,-0.7002999504332604,3.987626557668772e-33,-1.1620661288869587e-27,1.1739847558499016e-28,5.479920624207324e-05,0.0
1759839574.0144913,2,-1.2049966356888193,-0.8299973980066054,-0.717701015056211,0.0,-1.693510947727608,-0.3416303546465775,-0.7005402577889518,3.9551413102683485e-33,-4.438697640598022e-28,4.484222744604154e-29,5.317522627823478e-05,0.0
1759839574.025623,2,-1.204997010483737,-0.8299976561640121,-0.717701238285625,0.0,-1.69408066173129,-0.3417452825113109,-0.700775926531186,3.923488978916373e-33,-1.695431632924479e-28,1.7128206753134472e-29,5.148930757670201e-05,0.0
1759839574.035624,2,-1.204997344051214,-0.8299978859241041,-0.7177014369598035,0.0,-1.694606612139626,-0.3418513819875307,-0.7009934919594709,3.892891012798572e-33,-6.475972581754156e-29,6.542392813361888e-30,4.861972049319263e-05,0.0
1759839574.0456862,2,-1.2049976420831825,-0.8299980912074643,-0.7177016144688853,0.0,-1.6951687692150597,-0.3419647854003076,-0.7012260346915257,3.858707790734749e-33,-2.47360141601768e-29,2.4989716869511934e-30,4.618582680659955e-05,0.0
1759839574.0567248,2,-1.2049979061747202,-0.8299982731127764,-0.7177017717629052,0.0,-1.6956979867297477,-0.342071543946788,-0.7014449515958848,3.8267796235280176e-33,-9.448316662988851e-30,9.545222474916937e-31,4.505007377364478e-05,0.0
1759839574.067889,2,-1.204998141216189,-0.8299984350085042,-0.7177019117545829,0.0,-1.69625558378483,-0.34218402747099164,-0.7016756080231386,3.790839072087483e-33,-3.608935828789755e-30,3.6459505552388784e-31,4.399930799880991e-05,0.0
1759839574.0791714,2,-1.204998350403096,-0.829998579095702,-0.7177020363471759,0.0,-1.6963880694234357,-0.34221075367300596,-0.7017304122294776,3.7956064548605324e-33,-1.3784908233804149e-30,1.3926291907997001e-31,4.2930789589057376e-05,0.0
1759839574.0894337,2,-1.2049985365794433,-0.8299987073333079,-0.7177021472345837,0.0,-1.6969596565894365,-0.34232605940899447,-0.7019668558268262,3.755951502112287e-33,-5.265366413514903e-31,5.31937017160223e-32,4.085990823909924e-05,0.0
1759839574.099519,2,-1.2049985365794433,-0.8299987073333079,-0.7177021472345837,0.0,-1.6974683691671772,-0.34242868151402417,-0.7021772906284663,3.7206585941663487e-33,-2.011191006740559e-31,2.031818606809691e-32,3.8841598913208486e-05,0.0
1759839574.1101465,2,-1.2049985365794433,-0.8299987073333079,-0.7177021472345837,0.0,-1.6979349230257295,-0.3425227989806829,-0.7023702859916147,3.6868913039733885e-33,-7.682066067067746e-32,7.760856488268433e-33,3.753555458096969e-05,0.0
1759839574.1214564,2,-1.2049985365794433,-0.8299987073333079,-0.7177021472345837,0.0,-1.698421145168487,-0.34262088411162944,-0.7025714173664656,3.648484828605631e-33,-2.9342881337976493e-32,2.9643833967083917e-33,3.6846849391203314e-05,0.0
1759839574.132417,2,-1.2049985365794433,-0.8299987073333079,-0.7177021472345837,0.0,-1.6985640063875647,-0.3426497033696355,-0.7026305135508576,3.642779367691949e-33,-1.1207983343252029e-32,1.1322937018567422e-33,3.5760202138135355e-05,0.0
1759839574.1424782,2,-1.2049985365794433,-0.8299987073333079,-0.7177021472345837,0.0,-1.6987157281654106,-0.34268031005974436,-0.7026932750071718,3.63642640549533e-33,-4.2810686917795945e-33,4.324977088618356e-34,3.397241590175071e-05,0.0
1759839574.1538177,2,-1.2049985365794433,-0.8299987073333079,-0.7177021472345837,0.0,-1.6987157281654106,-0.34268031005974436,-0.7026932750071718,3.63642640549533e-33,-1.635222732086757e-33,1.6519942472876458e-34,3.3291140737468083e-05,0.0
1759839574.164253,2,-1.2049985365794433,-0.8299987073333079,-0.7177021472345837,0.0,-1.6987157281654106,-0.34268031005974436,-0.7026932750071718,3.63642640549533e-33,-6.245995044806778e-34,6.310056532445817e-35,3.1922071353385206e-05,0.0
1759839574.1760259,2,-1.2049985365794433,-0.8299987073333079,-0.7177021472345837,0.0,-1.6987157281654106,-0.34268031005974436,-0.7026932750071718,3.63642640549533e-33,-2.385757813552767e-34,2.4102271244609984e-35,3.1514189688941485e-05,0.0
1759839574.1864002,2,-1.2049985365794433,-0.8299987073333079,-0.7177021472345837,0.0,-1.6987157281654106,-0.34268031005974436,-0.7026932750071718,3.63642640549533e-33,-9.112783958515222e-35,9.206248409371781e-36,3.0058728601289886e-05,0.0
1759839574.197787,2,-1.2049985365794433,-0.8299987073333079,-0.7177021472345837,0.0,-1.6987157281654106,-0.34268031005974436,-0.7026932750071718,3.63642640549533e-33,-3.480773740018003e-35,3.516473983505364e-36,2.9330273182637256e-05,0.0
1759839574.208175,2,-1.2049985365794433,-0.8299987073333079,-0.7177021472345837,0.0,-1.6987157281654106,-0.34268031005974436,-0.7026932750071718,3.63642640549533e-33,-1.329537261538787e-35,1.3431735411443117e-36,2.7972332227399477e-05,0.0
1759839574.2197483,2,-1.2049985365794433,-0.8299987073333079,-0.7177021472345837,0.0,-1.6987157281654106,-0.34268031005974436,-0.7026932750071718,3.63642640549533e-33,-5.078380445983582e-36,5.1304663992757165e-37,2.741050881294171e-05,0.0
1759839574.2305398,2,-1.2049985365794433,-0.8299987073333079,-0.7177021472345837,0.0,-1.6987157281654106,-0.34268031005974436,-0.7026932750071718,3.63642640549533e-33,-1.9397687225628785e-36,1.9596637863840347e-37,2.634653911925966e-05,0.0
1759839574.2409685,2,-1.2049985365794433,-0.8299987073333079,-0.7177021472345837,0.0,-1.6987157281654106,-0.34268031005974436,-0.7026932750071718,3.63642640549533e-33,-7.409257217050545e-37,7.485249598763878e-38,2.5132205071720645e-05,0.0
1759839574.251675,2,-1.2049985365794433,-0.8299987073333079,-0.7177021472345837,0.0,-1.6987157281654106,-0.34268031005974436,-0.7026932750071718,3.63642640549533e-33,-2.830084425522851e-37,2.859110932451288e-38,2.4190402438506453e-05,0.0
1759839574.2629921,2,-1.2049985365794433,-0.8299987073333079,-0.7177021472345837,0.0,-1.6987157281654106,-0.34268031005974436,-0.7026932750071718,3.63642640549533e-33,-1.0809960595180085e-37,1.0920831985899872e-38,2.362355659890625e-05,0.0
1759839574.274377,2,-1.2049985365794433,-0.8299987073333079,-0.7177021472345837,0.0,-1.6987157281654106,-0.34268031005974436,-0.7026932750071718,3.63642640549533e-33,-4.129037530311749e-38,4.1713866331867385e-39,2.304146822851294e-05,0.0
1759839574.284602,2,-1.2049985365794433,-0.8299987073333079,-0.7177021472345837,0.0,-1.6987157281654106,-0.34268031005974436,-0.7026932750071718,3.63642640549533e-33,-1.5771519957551637e-38,1.593327913660344e-39,2.1864885365374672e-05,0.0
1759839574.2949421,2,-1.2049985365794433,-0.8299987073333079,-0.7177021472345837,0.0,-1.6987157281654106,-0.34268031005974436,-0.7026932750071718,3.63642640549533e-33,-6.024184569537425e-39,6.0859710779429335e-40,2.0868396593876067e-05,0.0
1759839574.3056278,2,-1.2049985365794433,-0.8299987073333079,-0.7177021472345837,0.0,-1.6987157281654106,-0.34268031005974436,-0.7026932750071718,3.63642640549533e-33,-2.3010337510606416e-39,2.3246340972253647e-40,2.014554992602058e-05,0.0
1759839574.316259,2,-1.2049985365794433,-0.8299987073333079,-0.7177021472345837,0.0,-1.6987157281654106,-0.34268031005974436,-0.7026932750071718,3.63642640549533e-33,-8.789166836445006e-40,8.879312137331615e-41,1.9445903236103845e-05,0.0
1759839574.326599,2,-1.2049985365794433,-0.8299987073333079,-0.7177021472345837,0.0,-1.6987157281654106,-0.34268031005974436,-0.7026932750071718,3.63642640549533e-33,-3.357162998728604e-40,3.3915954397412027e-41,1.866123504701278e-05,0.0
1759839574.3380089,2,-1.2049985365794433,-0.8299987073333079,-0.7177021472345837,0.0,-1.6987157281654106,-0.34268031005974436,-0.7026932750071718,3.63642640549533e-33,-1.2823221597408064e-40,1.2954741818919934e-41,1.835974068864488e-05,0.0
1759839574.349338,2,-1.2049985365794433,-0.8299987073333079,-0.7177021472345837,0.0,-1.6987157281654106,-0.34268031005974436,-0.7026932750071718,3.63642640549533e-33,-4.898034804938159e-41,4.948271059347779e-42,1.7958731866940525e-05,0.0
1759839574.3597908,2,-1.2049985365794433,-0.8299987073333079,-0.7177021472345837,0.0,-1.6987157281654106,-0.34268031005974436,-0.7026932750071718,3.63642640549533e-33,-1.8708828174064152e-41,1.890071359123403e-42,1.7173522365077076e-05,0.0
1759839574.3703096,2,-1.2049985365794433,-0.8299987073333079,-0.7177021472345837,0.0,-1.6987157281654106,-0.34268031005974436,-0.7026932750071718,3.63642640549533e-33,-7.14613647281087e-42,7.219430180224313e-43,1.6470956673231285e-05,0.0
1759839574.380513,2,-1.2049985365794433,-0.8299987073333079,-0.7177021472345837,0.0,-1.6987157281654106,-0.34268031005974436,-0.7026932750071718,3.63642640549533e-33,-2.7295812443684632e-42,2.7575769494389082e-43,1.5727400702658653e-05,0.0
1759839574.391267,2,-1.2049985365794433,-0.8299987073333079,-0.7177021472345837,0.0,-1.6987157281654106,-0.34268031005974436,-0.7026932750071718,3.63642640549533e-33,-1.0426072602945203e-42,1.0533006680924125e-43,1.5249319591958965e-05,0.0
1759839574.4020302,2,-1.2049985365794433,-0.8299987073333079,-0.7177021472345837,0.0,-1.6987157281654106,-0.34268031005974436,-0.7026932750071718,3.63642640549533e-33,-3.98240536515098e-43,4.0232505483832966e-44,1.4790426211774843e-05,0.0
1759839574.4127374,2,-1.2049985365794433,-0.8299987073333079,-0.7177021472345837,0.0,-1.6987157281654106,-0.34268031005974436,-0.7026932750071718,3.63642640549533e-33,-1.5211434925077382e-43,1.5367449642257658e-44,1.4314860702135945e-05,0.0
1759839574.4242735,2,-1.2049985365794433,-0.8299987073333079,-0.7177021472345837,0.0,-1.6987157281654106,-0.34268031005974436,-0.7026932750071718,3.63642640549533e-33,-5.810251123722348e-44,5.869843442940011e-45,1.4093724716168765e-05,0.0
1759839574.4354408,2,-1.2049985365794433,-0.8299987073333079,-0.7177021472345837,0.0,-1.6987157281654106,-0.34268031005974436,-0.7026932750071718,3.63642640549533e-33,-2.2193184460896662e-44,2.24208068656238e-45,1.3701984659775237e-05,0.0
1759839574.4465039,2,-1.2049985365794433,-0.8299987073333079,-0.7177021472345837,0.0,-1.6987157281654106,-0.34268031005974436,-0.7026932750071718,3.63642640549533e-33,-8.477042145466512e-45,8.563986167471294e-46,1.3253876705476841e-05,0.0
1759839574.4571865,2,-1.2049985365794433,-0.8299987073333079,-0.7177021472345837,0.0,-1.6987157281654106,-0.34268031005974436,-0.7026932750071718,3.63642640549533e-33,-3.2379419755028766e-45,3.2711516367900848e-46,1.2706761551406487e-05,0.0
1759839574.4672952,2,-1.2049985365794433,-0.8299987073333079,-0.7177021472345837,0.0,-1.6987157281654106,-0.34268031005974436,-0.7026932750071718,3.63642640549533e-33,-1.2367837810421193e-45,1.249468742898961e-46,1.2052927230499222e-05,0.0
1759839574.478734,2,-1.2049985365794433,-0.8299987073333079,-0.7177021472345837,0.0,-1.6987157281654106,-0.34268031005974436,-0.7026932750071718,3.63642640549533e-33,-4.724093676234817e-46,4.772545919067993e-47,1.1817071219333286e-05,0.0
1759839574.4894276,2,-1.2049985365794433,-0.8299987073333079,-0.7177021472345837,0.0,-1.6987157281654106,-0.34268031005974436,-0.7026932750071718,3.63642640549533e-33,-1.8044432182832584e-46,1.8229503282143682e-47,1.137653288729723e-05,0.0
1759839574.500577,2,-1.2049985365794433,-0.8299987073333079,-0.7177021472345837,0.0,-1.6987157281654106,-0.34268031005974436,-0.7026932750071718,3.63642640549533e-33,-6.89235978614959e-47,6.963050655751122e-48,1.1056826070721115e-05,0.0
1759839574.510812,2,-1.2049985365794433,-0.8299987073333079,-0.7177021472345837,0.0,-1.6987157281654106,-0.34268031005974436,-0.7026932750071718,3.63642640549533e-33,-2.6326471756161863e-47,2.659648685109685e-48,1.0526636856411642e-05,0.0
1759839574.522122,2,-1.2049985365794433,-0.8299987073333079,-0.7177021472345837,0.0,-1.6987157281654106,-0.34268031005974436,-0.7026932750071718,3.63642640549533e-33,-1.0055817406989697e-47,1.0158953995779331e-48,1.028472053477003e-05,0.0
1759839574.5324168,2,-1.2049985365794433,-0.8299987073333079,-0.7177021472345837,0.0,-1.6987157281654106,-0.34268031005974436,-0.7026932750071718,3.63642640549533e-33,-3.840980464807229e-48,3.880375136241148e-49,9.816671460605166e-06,0.0
1759839574.54254,2,-1.2049985365794433,-0.8299987073333079,-0.7177021472345837,0.0,-1.6987157281654106,-0.34268031005974436,-0.7026932750071718,3.63642640549533e-33,-1.467123987431992e-48,1.4821714129441147e-49,9.3552153401788e-06,0.0
1759839574.5535932,2,-1.2049985365794433,-0.8299987073333079,-0.7177021472345837,0.0,-1.6987157281654106,-0.34268031005974436,-0.7026932750071718,3.63642640549533e-33,-5.603914974887472e-49,5.661391025911959e-50,9.134831270962707e-06,0.0
1759839574.5636902,2,-1.2049985365794433,-0.8299987073333079,-0.7177021472345837,0.0,-1.6987157281654106,-0.34268031005974436,-0.7026932750071718,3.63642640549533e-33,-2.1405050503425007e-49,2.162458948294731e-50,8.724735867993163e-06,0.0
1759839574.574632,2,-1.2049985365794433,-0.8299987073333079,-0.7177021472345837,0.0,-1.6987157281654106,-0.34268031005974436,-0.7026932750071718,3.63642640549533e-33,-8.176001761400305e-50,8.259858189722358e-51,8.507490955267372e-06,0.0
1759839574.5851068,2,-1.2049985365794433,-0.8299987073333079,-0.7177021472345837,0.0,-1.6987157281654106,-0.34268031005974436,-0.7026932750071718,3.63642640549533e-33,-3.122954780775908e-50,3.154985086219763e-51,8.202450672456507e-06,0.0
1759839574.5955071,2,-1.2049985365794433,-0.8299987073333079,-0.7177021472345837,0.0,-1.6987157281654106,-0.34268031005974436,-0.7026932750071718,3.63642640549533e-33,-1.19286258092742e-50,1.2050970689369318e-51,7.897376346654994e-06,0.0
1759839574.6064835,2,-1.2049985365794433,-0.8299987073333079,-0.7177021472345837,0.0,-1.6987157281654106,-0.34268031005974436,-0.7026932750071718,3.63642640549533e-33,-4.5563296200635234e-51,4.603061205910328e-52,7.709210122719412e-06,0.0
1759839574.617257,2,-1.2049985365794433,-0.8299987073333079,-0.7177021472345837,0.0,-1.6987157281654106,-0.34268031005974436,-0.7026932750071718,3.63642640549533e-33,-1.7403630509163707e-51,1.758212928361667e-52,7.477632723684735e-06,0.0
1759839574.628446,2,-1.2049985365794433,-0.8299987073333079,-0.7177021472345837,0.0,-1.6987157281654106,-0.34268031005974436,-0.7026932750071718,3.63642640549533e-33,-6.647595326855897e-52,6.715775791746728e-53,7.307275289747395e-06,0.0
1759839574.6396856,2,-1.2049985365794433,-0.8299987073333079,-0.7177021472345837,0.0,-1.6987157281654106,-0.34268031005974436,-0.7026932750071718,3.63642640549533e-33,-2.539155471403986e-52,2.565198091623514e-53,7.126607330043555e-06,0.0
1759839574.6499245,2,-1.2049985365794433,-0.8299987073333079,-0.7177021472345837,0.0,-1.6987157281654106,-0.34268031005974436,-0.7026932750071718,3.63642640549533e-33,-9.698710873560609e-53,9.798184831238153e-54,6.784346035182409e-06,0.0
1759839574.6611555,2,-1.2049985365794433,-0.8299987073333079,-0.7177021472345837,0.0,-1.6987157281654106,-0.34268031005974436,-0.7026932750071718,3.63642640549533e-33,-3.704577906641968e-53,3.742573577479322e-54,6.614679303851289e-06,0.0
1759839574.6744893,2,-1.2049985365794433,-0.8299987073333079,-0.7177021472345837,0.0,-1.6987157281654106,-0.34268031005974436,-0.7026932750071718,3.63642640549533e-33,-1.415022846365297e-53,1.4295359011998128e-54,6.720091620948665e-06,0.0
1759839574.685563,2,-1.2049985365794433,-0.8299987073333079,-0.7177021472345837,0.0,-1.6987157281654106,-0.34268031005974436,-0.7026932750071718,3.63642640549533e-33,-5.404906324539227e-54,5.460341261201168e-55,6.433081804146923e-06,0.0
1759839574.6965218,2,-1.2049985365794433,-0.8299987073333079,-0.7177021472345837,0.0,-1.6987157281654106,-0.34268031005974436,-0.7026932750071718,3.63642640549533e-33,-2.0644905099647145e-54,2.0856647716053783e-55,6.133318534828902e-06,0.0
1759839574.706799,2,-1.2049985365794433,-0.8299987073333079,-0.7177021472345837,0.0,-1.6987157281654106,-0.34268031005974436,-0.7026932750071718,3.63642640549533e-33,-7.885652053549173e-55,7.966530536149678e-56,5.782908477414139e-06,0.0
1759839574.7183034,2,-1.2049985365794433,-0.8299987073333079,-0.7177021472345837,0.0,-1.6987157281654106,-0.34268031005974436,-0.7026932750071718,3.63642640549533e-33,-3.012051061000378e-55,3.0429438923952536e-56,5.6260840022304146e-06,0.0
1759839574.7292266,2,-1.2049985365794433,-0.8299987073333079,-0.7177021472345837,0.0,-1.6987157281654106,-0.34268031005974436,-0.7026932750071718,3.63642640549533e-33,-1.1505011294519615e-55,1.162301141036084e-56,5.405010595538329e-06,0.0
1759839574.7401543,2,-1.2049985365794433,-0.8299987073333079,-0.7177021472345837,0.0,-1.6987157281654106,-0.34268031005974436,-0.7026932750071718,3.63642640549533e-33,-4.394523273555065e-56,4.4395953071299886e-57,5.195816196845726e-06,0.0
1759839574.7504277,2,-1.2049985365794433,-0.8299987073333079,-0.7177021472345837,0.0,-1.6987157281654106,-0.34268031005974436,-0.7026932750071718,3.63642640549533e-33,-1.6785585261455827e-56,1.695774511029127e-57,4.9328111320079415e-06,0.0
1759839574.7611344,2,-1.2049985365794433,-0.8299987073333079,-0.7177021472345837,0.0,-1.6987157281654106,-0.34268031005974436,-0.7026932750071718,3.63642640549533e-33,-6.411523048816833e-57,6.47728225957393e-58,4.746340695582774e-06,0.0
1759839574.7722068,2,-1.2049985365794433,-0.8299987073333079,-0.7177021472345837,0.0,-1.6987157281654106,-0.34268031005974436,-0.7026932750071718,3.63642640549533e-33,-2.4489838849946785e-57,2.474101668430522e-58,4.612016194727175e-06,0.0
1759839574.7824278,2,-1.2049985365794433,-0.8299987073333079,-0.7177021472345837,0.0,-1.6987157281654106,-0.34268031005974436,-0.7026932750071718,3.63642640549533e-33,-9.354286061672033e-58,9.450227457176366e-59,4.396463070932555e-06,0.0
1759839574.792638,2,-1.2049985365794433,-0.8299987073333079,-0.7177021472345837,0.0,-1.6987157281654106,-0.34268031005974436,-0.7026932750071718,3.63642640549533e-33,-3.5730193350693214e-58,3.6096656872238795e-59,4.20195611550156e-06,0.0
1759839574.803321,2,-1.2049985365794433,-0.8299987073333079,-0.7177021472345837,0.0,-1.6987157281654106,-0.34268031005974436,-0.7026932750071718,3.63642640549533e-33,-1.3647719435359314e-58,1.3787696044952745e-59,4.072468639648719e-06,0.0
1759839574.8144763,2,-1.2049985365794433,-0.8299987073333079,-0.7177021472345837,0.0,-1.6987157281654106,-0.34268031005974436,-0.7026932750071718,3.63642640549533e-33,-5.212964955384733e-59,5.26643126261945e-60,3.988488432860037e-06,0.0
1759839574.8259153,2,-1.2049985365794433,-0.8299987073333079,-0.7177021472345837,0.0,-1.6987157281654106,-0.34268031005974436,-0.7026932750071718,3.63642640549533e-33,-1.9911754307948884e-59,2.011597742905606e-60,3.916616652333005e-06,0.0
1759839574.8366659,2,-1.2049985365794433,-0.8299987073333079,-0.7177021472345837,0.0,-1.6987157281654106,-0.34268031005974436,-0.7026932750071718,3.63642640549533e-33,-7.605613369999331e-60,7.683619660973687e-61,3.7726737911469854e-06,0.0
1759839574.8472466,2,-1.2049985365794433,-0.8299987073333079,-0.7177021472345837,0.0,-1.6987157281654106,-0.34268031005974436,-0.7026932750071718,3.63642640549533e-33,-2.905085802049114e-60,2.934881553865004e-61,3.6197556907424655e-06,0.0
1759839574.857383,2,-1.2049985365794433,-0.8299987073333079,-0.7177021472345837,0.0,-1.6987157281654106,-0.34268031005974436,-0.7026932750071718,3.63642640549533e-33,-1.1096440361480127e-60,1.1210250006213261e-61,3.4463219567015813e-06,0.0
1759839574.8674195,2,-1.2049985365794433,-0.8299987073333079,-0.7177021472345837,0.0,-1.6987157281654106,-0.34268031005974436,-0.7026932750071718,3.63642640549533e-33,-4.238463063949239e-61,4.281934479989745e-62,3.28699852936154e-06,0.0
1759839574.8789139,2,-1.2049985365794433,-0.8299987073333079,-0.7177021472345837,0.0,-1.6987157281654106,-0.34268031005974436,-0.7026932750071718,3.63642640549533e-33,-1.6189488303675898e-61,1.635553433755976e-62,3.2501135560636385e-06,0.0
1759839574.8894541,2,-1.2049985365794433,-0.8299987073333079,-0.7177021472345837,0.0,-1.6987157281654106,-0.34268031005974436,-0.7026932750071718,3.63642640549533e-33,-6.183834271535313e-62,6.247258212781831e-63,3.1340828243742176e-06,0.0
1759839574.901044,2,-1.2049985365794433,-0.8299987073333079,-0.7177021472345837,0.0,-1.6987157281654106,-0.34268031005974436,-0.7026932750071718,3.63642640549533e-33,-2.362014510930043e-62,2.386240300785736e-63,3.08807787519072e-06,0.0
1759839574.911418,2,-1.2049985365794433,-0.8299987073333079,-0.7177021472345837,0.0,-1.6987157281654106,-0.34268031005974436,-0.7026932750071718,3.63642640549533e-33,-9.022092612548162e-63,9.114626895753786e-64,2.9518184430088468e-06,0.0
1759839574.9227407,2,-1.2049985365794433,-0.8299987073333079,-0.7177021472345837,0.0,-1.6987157281654106,-0.34268031005974436,-0.7026932750071718,3.63642640549533e-33,-3.4461327283440615e-63,3.481477679404001e-64,2.8825445737012956e-06,0.0
1759839574.9329057,2,-1.2049985365794433,-0.8299987073333079,-0.7177021472345837,0.0,-1.6987157281654106,-0.34268031005974436,-0.7026932750071718,3.63642640549533e-33,-1.3163055724840232e-63,1.3298061424582184e-64,2.741368708036873e-06,0.0
1759839574.9431648,2,-1.2049985365794433,-0.8299987073333079,-0.7177021472345837,0.0,-1.6987157281654106,-0.34268031005974436,-0.7026932750071718,3.63642640549533e-33,-5.0278398910800845e-64,5.079407479706547e-65,2.6201677805204326e-06,0.0
1759839574.9542196,2,-1.2049985365794433,-0.8299987073333079,-0.7177021472345837,0.0,-1.6987157281654106,-0.34268031005974436,-0.7026932750071718,3.63642640549533e-33,-1.920463948400023e-64,1.940161014537459e-65,2.557218915733017e-06,0.0
1759839574.9652958,2,-1.2049985365794433,-0.8299987073333079,-0.7177021472345837,0.0,-1.6987157281654106,-0.34268031005974436,-0.7026932750071718,3.63642640549533e-33,-7.335519541199844e-65,7.410755639058305e-66,2.492864981995524e-06,0.0
1759839574.97535,2,-1.2049985365794433,-0.8299987073333079,-0.7177021472345837,0.0,-1.6987157281654106,-0.34268031005974436,-0.7026932750071718,3.63642640549533e-33,-2.801919139599305e-65,2.8306567718003243e-66,2.3713133083802518e-06,0.0
1759839574.9854953,2,-1.2049985365794433,-0.8299987073333079,-0.7177021472345837,0.0,-1.6987157281654106,-0.34268031005974436,-0.7026932750071718,3.63642640549533e-33,-1.0702378775980729e-65,1.0812146763426689e-66,2.2673331168121535e-06,0.0
1759839574.997394,2,-1.2049985365794433,-0.8299987073333079,-0.7177021472345837,0.0,-1.6987157281654106,-0.34268031005974436,-0.7026932750071718,3.63642640549533e-33,-4.0879449319491407e-66,4.1298725722768265e-67,2.260049402735831e-06,0.0
1759839575.0074027,2,-1.2049985365794433,-0.8299987073333079,-0.7177021472345837,0.0,-1.6987157281654106,-0.34268031005974436,-0.7026932750071718,3.63642640549533e-33,-1.5614560198666958e-66,1.577470953403791e-67,2.1489246799788475e-06,0.0
1759839575.0174265,2,-1.2049985365794433,-0.8299987073333079,-0.7177021472345837,0.0,-1.6987157281654106,-0.34268031005974436,-0.7026932750071718,3.63642640549533e-33,-5.964231276509466e-67,6.025402879345463e-68,2.047728910881119e-06,0.0
1759839575.0288126,2,-1.2049985365794433,-0.8299987073333079,-0.7177021472345837,0.0,-1.6987157281654106,-0.34268031005974436,-0.7026932750071718,3.63642640549533e-33,-2.2781336308614436e-67,2.301499103998485e-68,2.01920113784837e-06,0.0
1759839575.0390458,2,-1.2049985365794433,-0.8299987073333079,-0.7177021472345837,0.0,-1.6987157281654106,-0.34268031005974436,-0.7026932750071718,3.63642640549533e-33,-8.701696160748649e-68,8.790944326499921e-69,1.934757584365343e-06,0.0
1759839575.0500708,2,-1.2049985365794433,-0.8299987073333079,-0.7177021472345837,0.0,-1.6987157281654106,-0.34268031005974436,-0.7026932750071718,3.63642640549533e-33,-3.3237521736315146e-68,3.3578419395149163e-69,1.8876772864828695e-06,0.0
1759839575.0616803,2,-1.2049985365794433,-0.8299987073333079,-0.7177021472345837,0.0,-1.6987157281654106,-0.34268031005974436,-0.7026932750071718,3.63642640549533e-33,-1.2695603601458965e-68,1.2825814920448292e-69,1.8613538594891563e-06,0.0
1759839575.0730658,2,-1.2049985365794433,-0.8299987073333079,-0.7177021472345837,0.0,-1.6987157281654106,-0.34268031005974436,-0.7026932750071718,3.63642640549533e-33,-4.84928906806175e-69,4.899025366195718e-70,1.8161848966968819e-06,0.0
1759839575.0841155,2,-1.2049985365794433,-0.8299987073333079,-0.7177021472345837,0.0,-1.6987157281654106,-0.34268031005974436,-0.7026932750071718,3.63642640549533e-33,-1.852263602726286e-69,1.8712611781388642e-70,1.7528652938025855e-06,0.0
1759839575.0952113,2,-1.2049985365794433,-0.8299987073333079,-0.7177021472345837,0.0,-1.6987157281654106,-0.34268031005974436,-0.7026932750071718,3.63642640549533e-33,-7.075017401171087e-70,7.147581682208743e-71,1.692064312663888e-06,0.0
1759839575.1063182,2,-1.2049985365794433,-0.8299987073333079,-0.7177021472345837,0.0,-1.6987157281654106,-0.34268031005974436,-0.7026932750071718,3.63642640549533e-33,-2.702416176250405e-70,2.73013326523759e-71,1.6334792150018986e-06,0.0
1759839575.1175554,2,-1.2049985365794433,-0.8299987073333079,-0.7177021472345837,0.0,-1.6987157281654106,-0.34268031005974436,-0.7026932750071718,3.63642640549533e-33,-1.0322311275801283e-70,1.0428181135040275e-71,1.5808366251590657e-06,0.0
1759839575.1282117,2,-1.2049985365794433,-0.8299987073333079,-0.7177021472345837,0.0,-1.6987157281654106,-0.34268031005974436,-0.7026932750071718,3.63642640549533e-33,-3.9427720648997994e-71,3.983210752744928e-72,1.510435065021909e-06,0.0
1759839575.1396494,2,-1.2049985365794433,-0.8299987073333079,-0.7177021472345837,0.0,-1.6987157281654106,-0.34268031005974436,-0.7026932750071718,3.63642640549533e-33,-1.506004918898117e-71,1.5214511231945086e-72,1.4698915036248648e-06,0.0
1759839575.1500757,2,-1.2049985365794433,-0.8299987073333079,-0.7177021472345837,0.0,-1.6987157281654106,-0.34268031005974436,-0.7026932750071718,3.63642640549533e-33,-5.752426917945518e-72,5.811426168385987e-73,1.3987523201919316e-06,0.0
1759839575.1610875,2,-1.2049985365794433,-0.8299987073333079,-0.7177021472345837,0.0,-1.6987157281654106,-0.34268031005974436,-0.7026932750071718,3.63642640549533e-33,-2.1972315648553848e-72,2.2197672732128775e-73,0.008470807461417413,0.006
1759839575.171516,2,-1.2049985365794433,-0.8299987073333079,-0.7177021472345837,0.0,-1.6987157281654106,-0.34268031005974436,-0.7026932750071718,3.63642640549533e-33,-8.392677766206379e-73,8.47875651252645e-74,0.008470746701292482,0.006
1759839575.1825273,2,-1.2049985365794433,-0.8299987073333079,-0.7177021472345837,0.0,-1.6987157281654106,-0.34268031005974436,-0.7026932750071718,3.63642640549533e-33,-3.2057176500652926e-73,3.23859680545058e-74,0.00847070731492276,0.006
1759839575.1927257,2,-1.2049985365794433,-0.8299987073333079,-0.7177021472345837,0.0,-1.6987157281654106,-0.34268031005974436,-0.7026932750071718,3.63642640549533e-33,-1.2244751839895002e-73,1.2370339038252908e-74,0.0084706482174927,0.006
1759839575.203909,2,-1.2049985365794433,-0.8299987073333079,-0.7177021472345837,0.0,-1.6987157281654106,-0.34268031005974436,-0.7026932750071718,3.63642640549533e-33,-4.677079019032079e-74,4.725049060252924e-75,0.008470619764253824,0.006
1759839575.2141373,2,-1.2049985365794433,-0.8299987073333079,-0.7177021472345837,0.0,-1.6987157281654106,-0.34268031005974436,-0.7026932750071718,3.63642640549533e-33,-1.7864852172012377e-74,1.804808142505867e-75,0.008470567416985082,0.006
1759839575.225363,2,-1.2049985365794433,-0.8299987073333079,-0.7177021472345837,0.0,-1.6987157281654106,-0.34268031005974436,-0.7026932750071718,3.63642640549533e-33,-6.823766325716343e-75,6.893753672646774e-76,0.008470542805194254,0.006
1759839575.2361026,2,-1.2049985365794433,-0.8299987073333079,-0.7177021472345837,0.0,-1.6987157281654106,-0.34268031005974436,-0.7026932750071718,3.63642640549533e-33,-2.606446805136657e-75,2.633179592881651e-76,0.008470505610632157,0.006
1759839575.2462206,2,-1.2049985365794433,-0.8299987073333079,-0.7177021472345837,0.0,-1.6987157281654106,-0.34268031005974436,-0.7026932750071718,3.63642640549533e-33,-9.955740896936289e-76,1.0057851059981799e-76,0.008470455726841726,0.006
1759839575.257118,2,-1.2049985365794433,-0.8299987073333079,-0.7177021472345837,0.0,-1.6987157281654106,-0.34268031005974436,-0.7026932750071718,3.63642640549533e-33,-3.802754639442298e-76,3.841757251128889e-77,0.008470427816079136,0.006
1759839575.2679646,2,-1.2049985365794433,-0.8299987073333079,-0.7177021472345837,0.0,-1.6987157281654106,-0.34268031005974436,-0.7026932750071718,3.63642640549533e-33,-1.452523021390606e-76,1.46742069340487e-77,0.008470399313770178,0.006
1759839575.27911,2,-1.2049985365794433,-0.8299987073333079,-0.7177021472345837,0.0,-1.6987157281654106,-0.34268031005974436,-0.7026932750071718,3.63642640549533e-33,-5.548144247295208e-77,5.605048290857217e-78,0.008470376263235364,0.006
1759839575.2895784,2,-1.2049985365794433,-0.8299987073333079,-0.7177021472345837,0.0,-1.6987157281654106,-0.34268031005974436,-0.7026932750071718,3.63642640549533e-33,-2.1192025279795672e-77,2.1409379385229501e-78,0.008470338710154719,0.006
1759839575.3003085,2,-1.2049985365794433,-0.8299987073333079,-0.7177021472345837,0.0,-1.6987157281654106,-0.34268031005974436,-0.7026932750071718,3.63642640549533e-33,-8.094633366434945e-78,8.177655247116339e-79,0.008470308442338911,0.006
1759839575.3103397,2,-1.2049985365794433,-0.8299987073333079,-0.7177021472345837,0.0,-1.6987157281654106,-0.34268031005974436,-0.7026932750071718,3.63642640549533e-33,-3.091874819509166e-78,3.123586356119521e-79,0.008470267458014531,0.006
1759839575.320977,2,-1.2049985365794433,-0.8299987073333079,-0.7177021472345837,0.0,-1.6987157281654106,-0.34268031005974436,-0.7026932750071718,3.63642640549533e-33,-1.1809910920925548e-78,1.1931038212422236e-79,0.008470241637216587,0.006
1759839575.3321638,2,-1.2049985365794433,-0.8299987073333079,-0.7177021472345837,0.0,-1.6987157281654106,-0.34268031005974436,-0.7026932750071718,3.63642640549533e-33,-4.510984567684987e-79,4.557251076071506e-80,0.008470226290113443,0.006
1759839575.3425732,2,-1.2049985365794433,-0.8299987073333079,-0.7177021472345837,0.0,-1.6987157281654106,-0.34268031005974436,-0.7026932750071718,3.63642640549533e-33,-1.723042782129414e-79,1.7407150157922825e-80,0.008470196196209185,0.006
1759839575.3537173,2,-1.2049985365794433,-0.8299987073333079,-0.7177021472345837,0.0,-1.6987157281654106,-0.34268031005974436,-0.7026932750071718,3.63642640549533e-33,-6.581437787032562e-80,6.648939713053418e-81,0.008470179006485763,0.006
1759839575.3651788,2,-1.2049985365794433,-0.8299987073333079,-0.7177021472345837,0.0,-1.6987157281654106,-0.34268031005974436,-0.7026932750071718,3.63642640549533e-33,-2.5138855398035465e-80,2.539668981237432e-81,0.008470165304785544,0.006
1759839575.3757346,2,-1.2049985365794433,-0.8299987073333079,-0.7177021472345837,0.0,-1.6987157281654106,-0.34268031005974436,-0.7026932750071718,3.63642640549533e-33,-9.60218832378078e-81,9.7006723065888e-82,0.008470135703924226,0.006
1759839575.386727,2,-1.2049985365794433,-0.8299987073333079,-0.7177021472345837,0.0,-1.6987157281654106,-0.34268031005974436,-0.7026932750071718,3.63642640549533e-33,-3.667709573306877e-81,3.7053271073920806e-82,0.008470113939493968,0.006
1759839575.397622,2,-1.2049985365794433,-0.8299987073333079,-0.7177021472345837,0.0,-1.6987157281654106,-0.34268031005974436,-0.7026932750071718,3.63642640549533e-33,-1.400940396139853e-81,1.4153090155874428e-82,0.008470091512635376,0.006
1759839575.4077597,2,-1.2049985365794433,-0.8299987073333079,-0.7177021472345837,0.0,-1.6987157281654106,-0.34268031005974436,-0.7026932750071718,3.63642640549533e-33,-5.351116151126818e-82,5.405999393702484e-83,0.008470059964960681,0.006
1759839575.4191365,2,-1.2049985365794433,-0.8299987073333079,-0.7177021472345837,0.0,-1.6987157281654106,-0.34268031005974436,-0.7026932750071718,3.63642640549533e-33,-2.043944491981925e-82,2.0649080252330244e-83,0.008470047653612296,0.006
1759839575.4304235,2,-1.2049985365794433,-0.8299987073333079,-0.7177021472345837,0.0,-1.6987157281654106,-0.34268031005974436,-0.7026932750071718,3.63642640549533e-33,-7.807173248189583e-83,7.887246819965896e-84,0.008470033062920974,0.006
1759839575.4404397,2,-1.2049985365794433,-0.8299987073333079,-0.7177021472345837,0.0,-1.6987157281654106,-0.34268031005974436,-0.7026932750071718,3.63642640549533e-33,-2.982074824749502e-83,3.012660207567449e-84,0.008470002195643351,0.006
1759839575.4516559,2,-1.2049985365794433,-0.8299987073333079,-0.7177021472345837,0.0,-1.6987157281654106,-0.34268031005974436,-0.7026932750071718,3.63642640549533e-33,-1.1390512260589233e-83,1.1507338027364522e-84,0.008469988555477021,0.006
1759839575.4630322,2,-1.2049985365794433,-0.8299987073333079,-0.7177021472345837,0.0,-1.6987157281654106,-0.34268031005974436,-0.7026932750071718,3.63642640549533e-33,-4.350788534272687e-84,4.3954120064190787e-85,0.008469976446556044,0.006
1759839575.4731855,2,-1.2049985365794433,-0.8299987073333079,-0.7177021472345837,0.0,-1.6987157281654106,-0.34268031005974436,-0.7026932750071718,3.63642640549533e-33,-1.6618533422288295e-84,1.678897991892717e-85,0.008469950005999633,0.006
1759839575.4839685,2,-1.2049985365794433,-0.8299987073333079,-0.7177021472345837,0.0,-1.6987157281654106,-0.34268031005974436,-0.7026932750071718,3.63642640549533e-33,-6.347714924138018e-85,6.412819692590725e-86,0.008469932821493371,0.006
1759839575.4943383,2,-1.2049985365794433,-0.8299987073333079,-0.7177021472345837,0.0,-1.6987157281654106,-0.34268031005974436,-0.7026932750071718,3.63642640549533e-33,-2.4246113501257626e-85,2.4494791588450046e-86,0.008469912814813503,0.006
1759839575.504609,2,-1.2049985365794433,-0.8299987073333079,-0.7177021472345837,0.0,-1.6987157281654106,-0.34268031005974436,-0.7026932750071718,3.63642640549533e-33,-9.261191262392695e-86,9.35617783944289e-87,0.008469893667382307,0.006
1759839575.5158365,2,-1.2049985365794433,-0.8299987073333079,-0.7177021472345837,0.0,-1.6987157281654106,-0.34268031005974436,-0.7026932750071718,3.63642640549533e-33,-3.537460285920463e-86,3.573741929878627e-87,0.008469885280698959,0.006
1759839575.5276353,2,-1.2049985365794433,-0.8299987073333079,-0.7177021472345837,0.0,-1.6987157281654106,-0.34268031005974436,-0.7026932750071718,3.63642640549533e-33,-1.3511895953686955e-86,1.365047950192992e-87,0.008469880816160884,0.006
1759839575.537684,2,-1.2049985365794433,-0.8299987073333079,-0.7177021472345837,0.0,-1.6987157281654106,-0.34268031005974436,-0.7026932750071718,3.63642640549533e-33,-5.161085001856242e-87,5.214019207003493e-88,0.008469858470386766,0.006
1759839575.548669,2,-1.2049985365794433,-0.8299987073333079,-0.7177021472345837,0.0,-1.6987157281654106,-0.34268031005974436,-0.7026932750071718,3.63642640549533e-33,-1.9713590518817698e-87,1.9915781190805605e-88,0.00846984613772121,0.006
1759839575.558967,2,-1.2049985365794433,-0.8299987073333079,-0.7177021472345837,0.0,-1.6987157281654106,-0.34268031005974436,-0.7026932750071718,3.63642640549533e-33,-7.529921537890686e-88,7.607151502381886e-89,0.008469828845680523,0.006
1759839575.5701113,2,-1.2049985365794433,-0.8299987073333079,-0.7177021472345837,0.0,-1.6987157281654106,-0.34268031005974436,-0.7026932750071718,3.63642640549533e-33,-2.8761740948543626e-88,2.9056733163400534e-89,0.008469819724408785,0.006
1759839575.5811384,2,-1.2049985365794433,-0.8299987073333079,-0.7177021472345837,0.0,-1.6987157281654106,-0.34268031005974436,-0.7026932750071718,3.63642640549533e-33,-1.0986007466724024e-88,1.109868446638275e-89,0.00846980936789758,0.006
1759839575.5917144,2,-1.2049985365794433,-0.8299987073333079,-0.7177021472345837,0.0,-1.6987157281654106,-0.34268031005974436,-0.7026932750071718,3.63642640549533e-33,-4.1962814516284476e-89,4.23932023574772e-90,0.008469795391970498,0.006
1759839575.6030803,2,-1.2049985365794433,-0.8299987073333079,-0.7177021472345837,0.0,-1.6987157281654106,-0.34268031005974436,-0.7026932750071718,3.63642640549533e-33,-1.602836888161319e-89,1.6192762408604117e-90,0.008469787800225486,0.006
1759839575.6138468,2,-1.2049985365794433,-0.8299987073333079,-0.7177021472345837,0.0,-1.6987157281654106,-0.34268031005974436,-0.7026932750071718,3.63642640549533e-33,-6.122292128555099e-90,6.185084868335159e-91,0.008469775485280868,0.006
1759839575.6247938,2,-1.2049985365794433,-0.8299987073333079,-0.7177021472345837,0.0,-1.6987157281654106,-0.34268031005974436,-0.7026932750071718,3.63642640549533e-33,-2.3385075040521066e-90,2.3624921964013618e-91,0.008469764782548834,0.006
1759839575.6362321,2,-1.2049985365794433,-0.8299987073333079,-0.7177021472345837,0.0,-1.6987157281654106,-0.34268031005974436,-0.7026932750071718,3.63642640549533e-33,-8.932303836012221e-91,9.023917208689281e-92,0.008469757494695846,0.006
1759839575.64697,2,-1.2049985365794433,-0.8299987073333079,-0.7177021472345837,0.0,-1.6987157281654106,-0.34268031005974436,-0.7026932750071718,3.63642640549533e-33,-3.411836467515601e-91,3.446829662054227e-92,0.008469745301169658,0.006
1759839575.65702,2,-1.2049985365794433,-0.8299987073333079,-0.7177021472345837,0.0,-1.6987157281654106,-0.34268031005974436,-0.7026932750071718,3.63642640549533e-33,-1.3032055665345827e-91,1.3165717774734007e-92,0.008469729792688936,0.006
1759839575.66856,2,-1.2049985365794433,-0.8299987073333079,-0.7177021472345837,0.0,-1.6987157281654106,-0.34268031005974436,-0.7026932750071718,3.63642640549533e-33,-4.97780232088148e-92,5.0288567036597574e-93,0.008469724831212373,0.006
1759839575.6794186,2,-1.2049985365794433,-0.8299987073333079,-0.7177021472345837,0.0,-1.6987157281654106,-0.34268031005974436,-0.7026932750071718,3.63642640549533e-33,-1.9013512972986148e-92,1.920852336245269e-93,0.008469715491887504,0.006
1759839575.6897278,2,-1.2049985365794433,-0.8299987073333079,-0.7177021472345837,0.0,-1.6987157281654106,-0.34268031005974436,-0.7026932750071718,3.63642640549533e-33,-7.262515710143647e-93,7.337003050760511e-94,0.008469703374579458,0.006
1759839575.7009497,2,-1.2049985365794433,-0.8299987073333079,-0.7177021472345837,0.0,-1.6987157281654106,-0.34268031005974436,-0.7026932750071718,3.63642640549533e-33,-2.7740341574447936e-93,2.802485789828845e-94,0.008469697204511446,0.006
1759839575.7123084,2,-1.2049985365794433,-0.8299987073333079,-0.7177021472345837,0.0,-1.6987157281654106,-0.34268031005974436,-0.7026932750071718,3.63642640549533e-33,-1.0595867621907339e-93,1.0704543187260243e-94,0.008469691508052142,0.006
1759839575.72293,2,-1.2049985365794433,-0.8299987073333079,-0.7177021472345837,0.0,-1.6987157281654106,-0.34268031005974436,-0.7026932750071718,3.63642640549533e-33,-4.0472612912740833e-94,4.0887716634922814e-95,0.008469681697127624,0.006
1759839575.7338588,2,-1.2049985365794433,-0.8299987073333079,-0.7177021472345837,0.0,-1.6987157281654106,-0.34268031005974436,-0.7026932750071718,3.63642640549533e-33,-1.5459162519149115e-94,1.5617718032166038e-95,0.008469673938247864,0.006
1759839575.7450998,2,-1.2049985365794433,-0.8299987073333079,-0.7177021472345837,0.0,-1.6987157281654106,-0.34268031005974436,-0.7026932750071718,3.63642640549533e-33,-5.9048746447065136e-95,5.965437461575302e-96,0.008469667925336806,0.006
1759839575.756746,2,-1.2049985365794433,-0.8299987073333079,-0.7177021472345837,0.0,-1.6987157281654106,-0.34268031005974436,-0.7026932750071718,3.63642640549533e-33,-2.2554614149704287e-95,2.2785943525598703e-96,0.00846966343155013,0.006
1759839575.7669709,2,-1.2049985365794433,-0.8299987073333079,-0.7177021472345837,0.0,-1.6987157281654106,-0.34268031005974436,-0.7026932750071718,3.63642640549533e-33,-8.615096002047728e-96,8.703455961043093e-97,0.008469652391852973,0.006
1759839575.7780704,2,-1.2049985365794433,-0.8299987073333079,-0.7177021472345837,0.0,-1.6987157281654106,-0.34268031005974436,-0.7026932750071718,3.63642640549533e-33,-3.290673856438898e-96,3.3244243575305806e-97,0.008469646064020493,0.006
1759839575.7894492,2,-1.2049985365794433,-0.8299987073333079,-0.7177021472345837,0.0,-1.6987157281654106,-0.34268031005974436,-0.7026932750071718,3.63642640549533e-33,-1.256925567268967e-96,1.2698171115486492e-97,0.008469641122064315,0.006
1759839575.8001978,2,-1.2049985365794433,-0.8299987073333079,-0.7177021472345837,0.0,-1.6987157281654106,-0.34268031005974436,-0.7026932750071718,3.63642640549533e-33,-4.80102845368003e-97,4.850269771153673e-98,0.008469633557267526,0.006
1759839575.8108292,2,-1.2049985365794433,-0.8299987073333079,-0.7177021472345837,0.0,-1.6987157281654106,-0.34268031005974436,-0.7026932750071718,3.63642640549533e-33,-1.833829688350421e-97,1.8526381979745283e-98,0.008469626050994591,0.006
1759839575.8212633,2,-1.2049985365794433,-0.8299987073333079,-0.7177021472345837,0.0,-1.6987157281654106,-0.34268031005974436,-0.7026932750071718,3.63642640549533e-33,-7.004606113712336e-98,7.076448227699132e-99,0.008469618569872201,0.006
1759839575.8315868,2,-1.2049985365794433,-0.8299987073333079,-0.7177021472345837,0.0,-1.6987157281654106,-0.34268031005974436,-0.7026932750071718,3.63642640549533e-33,-2.675521457632801e-98,2.702962703352113e-99,0.008469611521168359,0.006
1759839575.8421242,2,-1.2049985365794433,-0.8299987073333079,-0.7177021472345837,0.0,-1.6987157281654106,-0.34268031005974436,-0.7026932750071718,3.63642640549533e-33,-1.0219582591860681e-98,1.0324398823572078e-99,0.008469605943520682,0.006
1759839575.852797,2,-1.2049985365794433,-0.8299987073333079,-0.7177021472345837,0.0,-1.6987157281654106,-0.34268031005974436,-0.7026932750071718,3.63642640549533e-33,-3.9035331992540355e-99,3.9435694371951046e-100,0.008469601199348517,0.006
1759839575.8636227,2,-1.2049985365794433,-0.8299987073333079,-0.7177021472345837,0.0,-1.6987157281654106,-0.34268031005974436,-0.7026932750071718,3.63642640549533e-33,-1.4910170059014257e-99,1.506309488013236e-100,0.008469597059816243,0.006
1759839575.8749342,2,-1.2049985365794433,-0.8299987073333079,-0.7177021472345837,0.0,-1.6987157281654106,-0.34268031005974436,-0.7026932750071718,3.63642640549533e-33,-5.695178184502421e-100,5.753590268446038e-101,0.00846959429684772,0.006
1759839575.885584,2,-1.2049985365794433,-0.8299987073333079,-0.7177021472345837,0.0,-1.6987157281654106,-0.34268031005974436,-0.7026932750071718,3.63642640549533e-33,-2.1753644944930048e-100,2.1976759252057543e-101,0.008469589197725709,0.006
