timestamp,vehicle_id,x,y,theta,velocity,gps_available,dt,gps_x,gps_y,gps_theta,gps_velocity,control_steering,control_acceleration
1759839573.1663153,2,-1.95,0.197,-0.8848819307611251,0.0,False,0.01,nan,nan,nan,nan,0.0,0.0
1759839573.1778543,2,-1.95,0.197,-0.8848819307611251,0.0,False,0.011538982391357422,nan,nan,nan,nan,0.0,0.0
1759839573.188211,2,-1.95,0.197,-0.8848819307611251,0.0,False,0.010356664657592773,nan,nan,nan,nan,0.0,0.0
1759839573.1985185,2,-1.95,0.197,-0.8848819307611251,0.0,False,0.010307550430297852,nan,nan,nan,nan,0.0,0.0
1759839573.2094793,2,-1.95,0.197,-0.8848819307611251,0.0,False,0.010960817337036133,nan,nan,nan,nan,0.0,0.0
1759839573.2210248,2,-1.95,0.197,-0.8848819307611251,0.0,False,0.011545419692993164,nan,nan,nan,nan,0.0,0.0
1759839573.2313282,2,-1.95,0.197,-0.8848819307611251,0.0,False,0.010303497314453125,nan,nan,nan,nan,0.0,0.0
1759839573.2424245,2,-1.95,0.197,-0.8848819307611251,0.0,False,0.01109623908996582,nan,nan,nan,nan,0.0,0.0
1759839573.2526307,2,-1.95,0.197,-0.8848819307611251,0.0,False,0.010206222534179688,nan,nan,nan,nan,0.0,0.0
1759839573.2638056,2,-1.95,0.197,-0.8848819307611251,0.0,False,0.011174917221069336,nan,nan,nan,nan,0.0,0.0
1759839573.2739334,2,-1.95,0.197,-0.8848819307611251,0.0,False,0.010127782821655273,nan,nan,nan,nan,0.0,0.0
1759839573.2846348,2,-1.95,0.197,-0.8848819307611251,0.0,False,0.010701417922973633,nan,nan,nan,nan,0.0,0.0
1759839573.2946982,2,-1.95,0.197,-0.8848819307611251,0.0,False,0.010063409805297852,nan,nan,nan,nan,0.0,0.0
1759839573.3054721,2,-1.95,0.197,-0.8848819307611251,0.0,False,0.010773897171020508,nan,nan,nan,nan,0.0,0.0
1759839573.3155265,2,-1.95,0.197,-0.8848819307611251,0.0,False,0.010054349899291992,nan,nan,nan,nan,0.0,0.0
1759839573.327023,2,-1.95,0.197,-0.8848819307611251,0.0,False,0.011496543884277344,nan,nan,nan,nan,0.0,0.0
1759839573.3381038,2,-1.95,0.197,-0.8848819307611251,0.0,False,0.011080741882324219,nan,nan,nan,nan,0.0,0.0
1759839573.3483863,2,-1.95,0.197,-0.8848819307611251,0.0,False,0.010282516479492188,nan,nan,nan,nan,0.0,0.0
1759839573.3603616,2,-0.016249999999999876,0.0016416666666666524,-0.07503536244256637,0.0,True,0.011975288391113281,0.0,0.0,0.0,0.0,0.0,0.0
1759839573.3711758,2,-0.005431754874651777,0.0005487465181058457,-0.005867864680505264,0.0,True,0.010814189910888672,0.0,0.0,0.0,0.0,0.0,0.0
1759839573.381366,2,-0.0020376175548589216,0.0002058516196447216,0.0005972787738723895,0.0,True,0.010190248489379883,0.0,0.0,0.0,0.0,0.0,0.0
1759839573.3922243,2,-0.0007762738853503137,7.842356687898033e-05,0.0014792885413692503,0.0,True,0.010858297348022461,0.0,0.0,0.0,0.0,0.0,0.0
1759839573.4023736,2,-0.0002963976288189676,2.994376044991618e-05,0.001566731613281469,0.0,True,0.010149240493774414,0.0,0.0,0.0,0.0,0.0,0.0
1759839573.412559,2,-0.00011320754716981062,1.1436865021770596e-05,0.0014731956079270248,0.0,True,0.010185480117797852,0.0,0.0,0.0,0.0,0.0,0.0
1759839573.4228833,2,-4.324108568387413e-05,4.368458399858048e-06,0.00132801101346125,0.0,True,0.010324239730834961,0.0,0.0,0.0,0.0,0.0,0.0
1759839573.434197,2,-1.65166055411093e-05,1.6686006623582196e-06,0.0011948050975663094,0.0,True,0.011313676834106445,0.0,0.0,0.0,0.0,0.0,0.0
1759839573.445456,2,-6.308780852364781e-06,6.373486297004413e-07,0.0010543035993082484,0.0,True,0.011259078979492188,0.0,0.0,0.0,0.0,0.0,0.0
1759839573.4557965,2,-2.4097397975324104e-06,2.4344550775070993e-07,0.0009111010406863684,0.0,True,0.010340452194213867,0.0,0.0,0.0,0.0,0.0,0.0
1759839573.4659328,2,-9.204386952427418e-07,9.298790921170254e-08,0.000793109710964579,0.0,True,0.01013636589050293,0.0,0.0,0.0,0.0,0.0,0.0
1759839573.4764698,2,-3.5157629683424237e-07,3.551822075710034e-08,0.0007049334596471724,0.0,True,0.010536909103393555,0.0,0.0,0.0,0.0,0.0,0.0
1759839573.4879396,2,-1.342901957413884e-07,1.3566753108232555e-08,0.0006424487288363423,0.0,True,0.011469841003417969,0.0,0.0,0.0,0.0,0.0,0.0
1759839573.498127,2,-5.1294290416750496e-08,5.1820385703076095e-09,0.0005713172074468531,0.0,True,0.010187387466430664,0.0,0.0,0.0,0.0,0.0,0.0
1759839573.5082707,2,-1.9592675510358164e-08,1.9793626028413097e-09,0.000512551113555304,0.0,True,0.010143756866455078,0.0,0.0,0.0,0.0,0.0,0.0
1759839573.5186121,2,-7.483736114407315e-09,7.560492382247381e-10,0.00046645449626225854,0.0,True,0.010341405868530273,0.0,0.0,0.0,0.0,0.0,0.0
1759839573.528619,2,-2.858532832868423e-09,2.887851118333736e-10,0.0004247263670640322,0.0,True,0.010006904602050781,0.0,0.0,0.0,0.0,0.0,0.0
1759839573.5392747,2,-1.091862384198209e-09,1.1030609727540864e-10,0.00039494094951653125,0.0,True,0.010655641555786133,0.0,0.0,0.0,0.0,0.0,0.0
1759839573.55038,2,-4.170543197262193e-10,4.2133179992853885e-11,0.0003714615450958192,0.0,True,0.01110529899597168,0.0,0.0,0.0,0.0,0.0,0.0
1759839573.5612772,2,-1.5930057498044998e-10,1.609344270315313e-11,0.00034736954901770645,0.0,True,0.010897159576416016,0.0,0.0,0.0,0.0,0.0,0.0
1759839573.5723884,2,-6.084740521513077e-11,6.147148116605511e-12,0.00032629805626527286,0.0,True,0.011111259460449219,0.0,0.0,0.0,0.0,0.0,0.0
1759839573.5835922,2,-2.3241640664942343e-11,2.3480016466634033e-12,0.00030702329036191855,0.0,True,0.011203765869140625,0.0,0.0,0.0,0.0,0.0,0.0
1759839573.593601,2,-8.877516779696268e-12,8.968568233846987e-13,0.00028208787193317875,0.0,True,0.010008811950683594,0.0,0.0,0.0,0.0,0.0,0.0
1759839573.6038802,2,-3.390909674146461e-12,3.425688234906933e-13,0.00026253338485293654,0.0,True,0.010279178619384766,0.0,0.0,0.0,0.0,0.0,0.0
1759839573.6142757,2,-1.2952122427431172e-12,1.3084964708738142e-13,0.00024648072978283864,0.0,True,0.010395526885986328,0.0,0.0,0.0,0.0,0.0,0.0
1759839573.6253924,2,-4.947270540828914e-13,4.998011777145101e-14,0.00023580679903822954,0.0,True,0.011116743087768555,0.0,0.0,0.0,0.0,0.0,0.0
1759839573.63542,2,-1.8896891950555702e-13,1.9090706226971637e-14,0.00022026917024753345,0.0,True,0.010027647018432617,0.0,0.0,0.0,0.0,0.0,0.0
1759839573.645934,2,-7.21797044337798e-14,7.2920009094639e-15,0.00020879370207715908,0.0,True,0.010514020919799805,0.0,0.0,0.0,0.0,0.0,0.0
1759839573.6576037,2,-2.7570193795782396e-14,2.785296501420065e-15,0.00020322351255952498,0.0,True,0.011669635772705078,0.0,0.0,0.0,0.0,0.0,0.0
1759839573.667832,2,-1.0530876953567395e-14,1.0638885947962949e-15,0.00019096528982665006,0.0,True,0.010228157043457031,0.0,0.0,0.0,0.0,0.0,0.0
1759839573.6793566,2,-4.022437064919796e-15,4.063692829688201e-16,0.0001847938234176283,0.0,True,0.011524677276611328,0.0,0.0,0.0,0.0,0.0,0.0
1759839573.690726,2,-1.5364342411919945e-15,1.5521925411016546e-16,0.00017770836998121098,0.0,True,0.011369466781616211,0.0,0.0,0.0,0.0,0.0,0.0
1759839573.7013514,2,-5.868656586561881e-16,5.928847936167639e-17,0.00016784769855249237,0.0,True,0.010625362396240234,0.0,0.0,0.0,0.0,0.0,0.0
1759839573.7121506,2,-2.2416273477656987e-16,2.264618397486371e-17,0.00015948013941713413,0.0,True,0.010799169540405273,0.0,0.0,0.0,0.0,0.0,0.0
1759839573.7235699,2,-8.562254567352161e-17,8.65007256291474e-18,0.0001538113020265186,0.0,True,0.011419296264648438,0.0,0.0,0.0,0.0,0.0,0.0
1759839573.734224,2,-3.2704902243994994e-17,3.304033713880517e-18,0.00014579278188797673,0.0,True,0.010654211044311523,0.0,0.0,0.0,0.0,0.0,0.0
1759839573.744511,2,-1.249216105846338e-17,1.2620285787268121e-18,0.0001374200450605656,0.0,True,0.010286808013916016,0.0,0.0,0.0,0.0,0.0,0.0
1759839573.7550542,2,-4.771580931395148e-18,4.820520222999197e-19,0.00013085631637377304,0.0,True,0.010543346405029297,0.0,0.0,0.0,0.0,0.0,0.0
1759839573.7665133,2,-1.822581735722066e-18,1.8412748817294703e-19,0.00012739869793687575,0.0,True,0.011459112167358398,0.0,0.0,0.0,0.0,0.0,0.0
1759839573.7774677,2,-6.961642757710507e-19,7.033044221892149e-20,0.00012234467589600229,0.0,True,0.01095438003540039,0.0,0.0,0.0,0.0,0.0,0.0
1759839573.7880864,2,-2.659110915910864e-19,2.686383848381743e-20,0.00011656073950394585,0.0,True,0.01061868667602539,0.0,0.0,0.0,0.0,0.0,0.0
1759839573.798266,2,-1.0156899900220865e-19,1.0261073232530816e-20,0.00011024475230225761,0.0,True,0.010179519653320312,0.0,0.0,0.0,0.0,0.0,0.0
1759839573.8083065,2,-3.879590541553954e-20,3.919381213775018e-21,0.00010442507595964656,0.0,True,0.010040521621704102,0.0,0.0,0.0,0.0,0.0,0.0
1759839573.8192248,2,-1.4818717244409988e-20,1.497070408794239e-21,0.00010130993387580389,0.0,True,0.010918378829956055,0.0,0.0,0.0,0.0,0.0,0.0
1759839573.8304203,2,-5.660246317690433e-21,5.718300126076998e-22,9.878003176844175e-05,0.0,True,0.01119542121887207,0.0,0.0,0.0,0.0,0.0,0.0
1759839573.8419185,2,-2.1620217086613097e-21,2.184196290288604e-22,9.655669236430242e-05,0.0,True,0.011498212814331055,0.0,0.0,0.0,0.0,0.0,0.0
1759839573.8528733,2,-8.258188082934972e-22,8.342887447888147e-23,9.287367904420307e-05,0.0,True,0.010954856872558594,0.0,0.0,0.0,0.0,0.0,0.0
1759839573.8633342,2,-3.154347162191824e-22,3.186699440778405e-23,8.833229146798516e-05,0.0,True,0.010460853576660156,0.0,0.0,0.0,0.0,0.0,0.0
1759839573.8743126,2,-1.2048534036404992e-22,1.2172108744470678e-23,8.517518101669452e-05,0.0,True,0.010978460311889648,0.0,0.0,0.0,0.0,0.0,0.0
1759839573.884588,2,-4.602130487296743e-23,4.64933182562799e-24,8.09558607715033e-05,0.0,True,0.01027536392211914,0.0,0.0,0.0,0.0,0.0,0.0
1759839573.8955393,2,-1.7578574254852392e-23,1.7758867324132926e-24,7.830842680167649e-05,0.0,True,0.01095128059387207,0.0,0.0,0.0,0.0,0.0,0.0
1759839573.905927,2,-6.714417891589756e-24,6.7832837161188805e-25,7.484457014950152e-05,0.0,True,0.010387659072875977,0.0,0.0,0.0,0.0,0.0,0.0
1759839573.9174347,2,-2.5646794199168796e-24,2.590983824223719e-25,7.339216868729181e-05,0.0,True,0.011507749557495117,0.0,0.0,0.0,0.0,0.0,0.0
1759839573.9282525,2,-9.796203681608838e-25,9.896677565522774e-26,7.066507516473308e-05,0.0,True,0.010817766189575195,0.0,0.0,0.0,0.0,0.0,0.0
1759839573.9387596,2,-3.7418168456577225e-25,3.7801944543311346e-26,6.754093997862753e-05,0.0,True,0.01050710678100586,0.0,0.0,0.0,0.0,0.0,0.0
1759839573.9497263,2,-1.4292468553643303e-25,1.4439057974706312e-26,6.532575124307272e-05,0.0,True,0.010966777801513672,0.0,0.0,0.0,0.0,0.0,0.0
1759839573.9598207,2,-5.459237204352691e-26,5.515229380807591e-27,6.201224210666823e-05,0.0,True,0.010094404220581055,0.0,0.0,0.0,0.0,0.0,0.0
1759839573.970539,2,-2.0852430594147727e-26,2.1066301677164622e-27,5.988267262413416e-05,0.0,True,0.010718345642089844,0.0,0.0,0.0,0.0,0.0,0.0
1759839573.9814572,2,-7.964919738916267e-27,8.04661122341797e-28,5.812828345064247e-05,0.0,True,0.010918140411376953,0.0,0.0,0.0,0.0,0.0,0.0
1759839573.991852,2,-3.0423286226010747e-27,3.07353199308929e-28,5.5720497190492324e-05,0.0,True,0.010394811630249023,0.0,0.0,0.0,0.0,0.0,0.0
1759839574.003386,2,-1.1620661288869587e-27,1.1739847558499016e-28,5.479920624207324e-05,0.0,True,0.011533975601196289,0.0,0.0,0.0,0.0,0.0,0.0
1759839574.0144913,2,-4.438697640598022e-28,4.484222744604154e-29,5.317522627823479e-05,0.0,True,0.01110529899597168,0.0,0.0,0.0,0.0,0.0,0.0
1759839574.025623,2,-1.695431632924479e-28,1.7128206753134472e-29,5.1489307576702004e-05,0.0,True,0.011131763458251953,0.0,0.0,0.0,0.0,0.0,0.0
1759839574.035624,2,-6.475972581754156e-29,6.542392813361888e-30,4.861972049319263e-05,0.0,True,0.010000944137573242,0.0,0.0,0.0,0.0,0.0,0.0
1759839574.0456862,2,-2.47360141601768e-29,2.4989716869511934e-30,4.618582680659955e-05,0.0,True,0.010062217712402344,0.0,0.0,0.0,0.0,0.0,0.0
1759839574.0567248,2,-9.448316662988851e-30,9.545222474916937e-31,4.505007377364478e-05,0.0,True,0.011038541793823242,0.0,0.0,0.0,0.0,0.0,0.0
1759839574.067889,2,-3.608935828789755e-30,3.6459505552388784e-31,4.399930799880991e-05,0.0,True,0.011164188385009766,0.0,0.0,0.0,0.0,0.0,0.0
1759839574.0791714,2,-1.3784908233804149e-30,1.3926291907997001e-31,4.293078958905738e-05,0.0,True,0.01128244400024414,0.0,0.0,0.0,0.0,0.0,0.0
1759839574.0894337,2,-5.265366413514903e-31,5.31937017160223e-32,4.085990823909924e-05,0.0,True,0.010262250900268555,0.0,0.0,0.0,0.0,0.0,0.0
1759839574.099519,2,-2.011191006740559e-31,2.031818606809691e-32,3.8841598913208486e-05,0.0,True,0.010085344314575195,0.0,0.0,0.0,0.0,0.0,0.0
1759839574.1101465,2,-7.682066067067746e-32,7.760856488268433e-33,3.753555458096969e-05,0.0,True,0.010627508163452148,0.0,0.0,0.0,0.0,0.0,0.0
1759839574.1214564,2,-2.9342881337976493e-32,2.9643833967083917e-33,3.684684939120331e-05,0.0,True,0.01130986213684082,0.0,0.0,0.0,0.0,0.0,0.0
1759839574.132417,2,-1.1207983343252029e-32,1.1322937018567422e-33,3.5760202138135355e-05,0.0,True,0.010960578918457031,0.0,0.0,0.0,0.0,0.0,0.0
1759839574.1424782,2,-4.2810686917795945e-33,4.324977088618356e-34,3.397241590175071e-05,0.0,True,0.010061264038085938,0.0,0.0,0.0,0.0,0.0,0.0
1759839574.1538177,2,-1.635222732086757e-33,1.6519942472876458e-34,3.3291140737468083e-05,0.0,True,0.011339426040649414,0.0,0.0,0.0,0.0,0.0,0.0
1759839574.164253,2,-6.245995044806778e-34,6.310056532445817e-35,3.1922071353385206e-05,0.0,True,0.010435342788696289,0.0,0.0,0.0,0.0,0.0,0.0
1759839574.1760259,2,-2.385757813552767e-34,2.4102271244609984e-35,3.1514189688941485e-05,0.0,True,0.011772871017456055,0.0,0.0,0.0,0.0,0.0,0.0
1759839574.1864002,2,-9.112783958515222e-35,9.206248409371781e-36,3.0058728601289886e-05,0.0,True,0.010374307632446289,0.0,0.0,0.0,0.0,0.0,0.0
1759839574.197787,2,-3.480773740018003e-35,3.516473983505364e-36,2.9330273182637256e-05,0.0,True,0.011386871337890625,0.0,0.0,0.0,0.0,0.0,0.0
1759839574.208175,2,-1.329537261538787e-35,1.3431735411443117e-36,2.7972332227399477e-05,0.0,True,0.010387897491455078,0.0,0.0,0.0,0.0,0.0,0.0
1759839574.2197483,2,-5.078380445983582e-36,5.1304663992757165e-37,2.7410508812941714e-05,0.0,True,0.011573314666748047,0.0,0.0,0.0,0.0,0.0,0.0
1759839574.2305398,2,-1.9397687225628785e-36,1.9596637863840347e-37,2.634653911925966e-05,0.0,True,0.010791540145874023,0.0,0.0,0.0,0.0,0.0,0.0
1759839574.2409685,2,-7.409257217050545e-37,7.485249598763878e-38,2.5132205071720648e-05,0.0,True,0.010428667068481445,0.0,0.0,0.0,0.0,0.0,0.0
1759839574.251675,2,-2.830084425522851e-37,2.859110932451288e-38,2.4190402438506453e-05,0.0,True,0.010706424713134766,0.0,0.0,0.0,0.0,0.0,0.0
1759839574.2629921,2,-1.0809960595180085e-37,1.0920831985899872e-38,2.3623556598906248e-05,0.0,True,0.011317253112792969,0.0,0.0,0.0,0.0,0.0,0.0
1759839574.274377,2,-4.129037530311749e-38,4.1713866331867385e-39,2.304146822851294e-05,0.0,True,0.011384963989257812,0.0,0.0,0.0,0.0,0.0,0.0
1759839574.284602,2,-1.5771519957551637e-38,1.593327913660344e-39,2.1864885365374676e-05,0.0,True,0.01022481918334961,0.0,0.0,0.0,0.0,0.0,0.0
1759839574.2949421,2,-6.024184569537425e-39,6.0859710779429335e-40,2.086839659387607e-05,0.0,True,0.010340213775634766,0.0,0.0,0.0,0.0,0.0,0.0
1759839574.3056278,2,-2.3010337510606416e-39,2.3246340972253647e-40,2.014554992602058e-05,0.0,True,0.01068568229675293,0.0,0.0,0.0,0.0,0.0,0.0
1759839574.316259,2,-8.789166836445006e-40,8.879312137331615e-41,1.9445903236103845e-05,0.0,True,0.010631084442138672,0.0,0.0,0.0,0.0,0.0,0.0
1759839574.326599,2,-3.357162998728604e-40,3.3915954397412027e-41,1.866123504701278e-05,0.0,True,0.010339975357055664,0.0,0.0,0.0,0.0,0.0,0.0
1759839574.3380089,2,-1.2823221597408064e-40,1.2954741818919934e-41,1.8359740688644877e-05,0.0,True,0.011409997940063477,0.0,0.0,0.0,0.0,0.0,0.0
1759839574.349338,2,-4.898034804938159e-41,4.948271059347779e-42,1.7958731866940525e-05,0.0,True,0.011329174041748047,0.0,0.0,0.0,0.0,0.0,0.0
1759839574.3597908,2,-1.8708828174064152e-41,1.890071359123403e-42,1.7173522365077076e-05,0.0,True,0.010452747344970703,0.0,0.0,0.0,0.0,0.0,0.0
1759839574.3703096,2,-7.14613647281087e-42,7.219430180224313e-43,1.6470956673231285e-05,0.0,True,0.010518789291381836,0.0,0.0,0.0,0.0,0.0,0.0
1759839574.380513,2,-2.7295812443684632e-42,2.7575769494389082e-43,1.5727400702658656e-05,0.0,True,0.010203361511230469,0.0,0.0,0.0,0.0,0.0,0.0
1759839574.391267,2,-1.0426072602945203e-42,1.0533006680924125e-43,1.5249319591958965e-05,0.0,True,0.010754108428955078,0.0,0.0,0.0,0.0,0.0,0.0
1759839574.4020302,2,-3.98240536515098e-43,4.0232505483832966e-44,1.4790426211774843e-05,0.0,True,0.010763168334960938,0.0,0.0,0.0,0.0,0.0,0.0
1759839574.4127374,2,-1.5211434925077382e-43,1.5367449642257658e-44,1.4314860702135945e-05,0.0,True,0.01070713996887207,0.0,0.0,0.0,0.0,0.0,0.0
1759839574.4242735,2,-5.810251123722348e-44,5.869843442940011e-45,1.4093724716168765e-05,0.0,True,0.011536121368408203,0.0,0.0,0.0,0.0,0.0,0.0
1759839574.4354408,2,-2.2193184460896662e-44,2.24208068656238e-45,1.3701984659775235e-05,0.0,True,0.011167287826538086,0.0,0.0,0.0,0.0,0.0,0.0
1759839574.4465039,2,-8.477042145466512e-45,8.563986167471294e-46,1.3253876705476841e-05,0.0,True,0.011063098907470703,0.0,0.0,0.0,0.0,0.0,0.0
1759839574.4571865,2,-3.2379419755028766e-45,3.2711516367900848e-46,1.2706761551406487e-05,0.0,True,0.01068258285522461,0.0,0.0,0.0,0.0,0.0,0.0
1759839574.4672952,2,-1.2367837810421193e-45,1.249468742898961e-46,1.2052927230499222e-05,0.0,True,0.010108709335327148,0.0,0.0,0.0,0.0,0.0,0.0
1759839574.478734,2,-4.724093676234817e-46,4.772545919067993e-47,1.1817071219333286e-05,0.0,True,0.011438846588134766,0.0,0.0,0.0,0.0,0.0,0.0
1759839574.4894276,2,-1.8044432182832584e-46,1.8229503282143682e-47,1.137653288729723e-05,0.0,True,0.010693550109863281,0.0,0.0,0.0,0.0,0.0,0.0
1759839574.500577,2,-6.89235978614959e-47,6.963050655751122e-48,1.1056826070721115e-05,0.0,True,0.011149406433105469,0.0,0.0,0.0,0.0,0.0,0.0
1759839574.510812,2,-2.6326471756161863e-47,2.659648685109685e-48,1.0526636856411642e-05,0.0,True,0.010235071182250977,0.0,0.0,0.0,0.0,0.0,0.0
1759839574.522122,2,-1.0055817406989697e-47,1.0158953995779331e-48,1.0284720534770031e-05,0.0,True,0.01130986213684082,0.0,0.0,0.0,0.0,0.0,0.0
1759839574.5324168,2,-3.840980464807229e-48,3.880375136241148e-49,9.816671460605164e-06,0.0,True,0.010294914245605469,0.0,0.0,0.0,0.0,0.0,0.0
1759839574.54254,2,-1.467123987431992e-48,1.4821714129441147e-49,9.355215340178802e-06,0.0,True,0.010123252868652344,0.0,0.0,0.0,0.0,0.0,0.0
1759839574.5535932,2,-5.603914974887472e-49,5.661391025911959e-50,9.134831270962707e-06,0.0,True,0.011053085327148438,0.0,0.0,0.0,0.0,0.0,0.0
1759839574.5636902,2,-2.1405050503425007e-49,2.162458948294731e-50,8.72473586799316e-06,0.0,True,0.010097026824951172,0.0,0.0,0.0,0.0,0.0,0.0
1759839574.574632,2,-8.176001761400305e-50,8.259858189722358e-51,8.507490955267372e-06,0.0,True,0.010941743850708008,0.0,0.0,0.0,0.0,0.0,0.0
1759839574.5851068,2,-3.122954780775908e-50,3.154985086219763e-51,8.202450672456507e-06,0.0,True,0.010474920272827148,0.0,0.0,0.0,0.0,0.0,0.0
1759839574.5955071,2,-1.19286258092742e-50,1.2050970689369318e-51,7.897376346654994e-06,0.0,True,0.01040029525756836,0.0,0.0,0.0,0.0,0.0,0.0
1759839574.6064835,2,-4.5563296200635234e-51,4.603061205910328e-52,7.709210122719412e-06,0.0,True,0.010976314544677734,0.0,0.0,0.0,0.0,0.0,0.0
1759839574.617257,2,-1.7403630509163707e-51,1.758212928361667e-52,7.477632723684735e-06,0.0,True,0.010773658752441406,0.0,0.0,0.0,0.0,0.0,0.0
1759839574.628446,2,-6.647595326855897e-52,6.715775791746728e-53,7.307275289747395e-06,0.0,True,0.011188983917236328,0.0,0.0,0.0,0.0,0.0,0.0
1759839574.6396856,2,-2.539155471403986e-52,2.565198091623514e-53,7.126607330043555e-06,0.0,True,0.01123952865600586,0.0,0.0,0.0,0.0,0.0,0.0
1759839574.6499245,2,-9.698710873560609e-53,9.798184831238153e-54,6.784346035182409e-06,0.0,True,0.010238885879516602,0.0,0.0,0.0,0.0,0.0,0.0
1759839574.6611555,2,-3.704577906641968e-53,3.742573577479322e-54,6.61467930385129e-06,0.0,True,0.011230945587158203,0.0,0.0,0.0,0.0,0.0,0.0
1759839574.6744893,2,-1.415022846365297e-53,1.4295359011998128e-54,6.720091620948665e-06,0.0,True,0.013333797454833984,0.0,0.0,0.0,0.0,0.0,0.0
1759839574.685563,2,-5.404906324539227e-54,5.460341261201168e-55,6.433081804146923e-06,0.0,True,0.011073827743530273,0.0,0.0,0.0,0.0,0.0,0.0
1759839574.6965218,2,-2.0644905099647145e-54,2.0856647716053783e-55,6.133318534828902e-06,0.0,True,0.010958671569824219,0.0,0.0,0.0,0.0,0.0,0.0
1759839574.706799,2,-7.885652053549173e-55,7.966530536149678e-56,5.782908477414139e-06,0.0,True,0.010277271270751953,0.0,0.0,0.0,0.0,0.0,0.0
1759839574.7183034,2,-3.012051061000378e-55,3.0429438923952536e-56,5.626084002230414e-06,0.0,True,0.011504411697387695,0.0,0.0,0.0,0.0,0.0,0.0
1759839574.7292266,2,-1.1505011294519615e-55,1.162301141036084e-56,5.405010595538329e-06,0.0,True,0.010923147201538086,0.0,0.0,0.0,0.0,0.0,0.0
1759839574.7401543,2,-4.394523273555065e-56,4.4395953071299886e-57,5.195816196845726e-06,0.0,True,0.010927677154541016,0.0,0.0,0.0,0.0,0.0,0.0
1759839574.7504277,2,-1.6785585261455827e-56,1.695774511029127e-57,4.9328111320079415e-06,0.0,True,0.010273456573486328,0.0,0.0,0.0,0.0,0.0,0.0
1759839574.7611344,2,-6.411523048816833e-57,6.47728225957393e-58,4.746340695582774e-06,0.0,True,0.010706663131713867,0.0,0.0,0.0,0.0,0.0,0.0
1759839574.7722068,2,-2.4489838849946785e-57,2.474101668430522e-58,4.612016194727175e-06,0.0,True,0.011072397232055664,0.0,0.0,0.0,0.0,0.0,0.0
1759839574.7824278,2,-9.354286061672033e-58,9.450227457176366e-59,4.396463070932555e-06,0.0,True,0.010221004486083984,0.0,0.0,0.0,0.0,0.0,0.0
1759839574.792638,2,-3.5730193350693214e-58,3.6096656872238795e-59,4.2019561155015595e-06,0.0,True,0.010210275650024414,0.0,0.0,0.0,0.0,0.0,0.0
1759839574.803321,2,-1.3647719435359314e-58,1.3787696044952745e-59,4.072468639648719e-06,0.0,True,0.010682821273803711,0.0,0.0,0.0,0.0,0.0,0.0
1759839574.8144763,2,-5.212964955384733e-59,5.26643126261945e-60,3.988488432860038e-06,0.0,True,0.011155366897583008,0.0,0.0,0.0,0.0,0.0,0.0
1759839574.8259153,2,-1.9911754307948884e-59,2.011597742905606e-60,3.916616652333005e-06,0.0,True,0.011439085006713867,0.0,0.0,0.0,0.0,0.0,0.0
1759839574.8366659,2,-7.605613369999331e-60,7.683619660973687e-61,3.7726737911469854e-06,0.0,True,0.010750532150268555,0.0,0.0,0.0,0.0,0.0,0.0
1759839574.8472466,2,-2.905085802049114e-60,2.934881553865004e-61,3.6197556907424655e-06,0.0,True,0.010580778121948242,0.0,0.0,0.0,0.0,0.0,0.0
1759839574.857383,2,-1.1096440361480127e-60,1.1210250006213261e-61,3.4463219567015813e-06,0.0,True,0.01013636589050293,0.0,0.0,0.0,0.0,0.0,0.0
1759839574.8674195,2,-4.238463063949239e-61,4.281934479989745e-62,3.28699852936154e-06,0.0,True,0.010036468505859375,0.0,0.0,0.0,0.0,0.0,0.0
1759839574.8789139,2,-1.6189488303675898e-61,1.635553433755976e-62,3.2501135560636385e-06,0.0,True,0.01149439811706543,0.0,0.0,0.0,0.0,0.0,0.0
1759839574.8894541,2,-6.183834271535313e-62,6.247258212781831e-63,3.134082824374218e-06,0.0,True,0.010540246963500977,0.0,0.0,0.0,0.0,0.0,0.0
1759839574.901044,2,-2.362014510930043e-62,2.386240300785736e-63,3.08807787519072e-06,0.0,True,0.011589765548706055,0.0,0.0,0.0,0.0,0.0,0.0
1759839574.911418,2,-9.022092612548162e-63,9.114626895753786e-64,2.9518184430088468e-06,0.0,True,0.010374069213867188,0.0,0.0,0.0,0.0,0.0,0.0
1759839574.9227407,2,-3.4461327283440615e-63,3.481477679404001e-64,2.8825445737012956e-06,0.0,True,0.011322736740112305,0.0,0.0,0.0,0.0,0.0,0.0
1759839574.9329057,2,-1.3163055724840232e-63,1.3298061424582184e-64,2.741368708036873e-06,0.0,True,0.010164976119995117,0.0,0.0,0.0,0.0,0.0,0.0
1759839574.9431648,2,-5.0278398910800845e-64,5.079407479706547e-65,2.6201677805204326e-06,0.0,True,0.010259151458740234,0.0,0.0,0.0,0.0,0.0,0.0
1759839574.9542196,2,-1.920463948400023e-64,1.940161014537459e-65,2.557218915733017e-06,0.0,True,0.011054754257202148,0.0,0.0,0.0,0.0,0.0,0.0
1759839574.9652958,2,-7.335519541199844e-65,7.410755639058305e-66,2.492864981995524e-06,0.0,True,0.011076211929321289,0.0,0.0,0.0,0.0,0.0,0.0
1759839574.97535,2,-2.801919139599305e-65,2.8306567718003243e-66,2.3713133083802518e-06,0.0,True,0.01005411148071289,0.0,0.0,0.0,0.0,0.0,0.0
1759839574.9854953,2,-1.0702378775980729e-65,1.0812146763426689e-66,2.2673331168121535e-06,0.0,True,0.010145425796508789,0.0,0.0,0.0,0.0,0.0,0.0
1759839574.997394,2,-4.0879449319491407e-66,4.1298725722768265e-67,2.260049402735831e-06,0.0,True,0.01189875602722168,0.0,0.0,0.0,0.0,0.0,0.0
1759839575.0074027,2,-1.5614560198666958e-66,1.577470953403791e-67,2.1489246799788475e-06,0.0,True,0.010008573532104492,0.0,0.0,0.0,0.0,0.0,0.0
1759839575.0174265,2,-5.964231276509466e-67,6.025402879345463e-68,2.047728910881119e-06,0.0,True,0.010023832321166992,0.0,0.0,0.0,0.0,0.0,0.0
1759839575.0288126,2,-2.2781336308614436e-67,2.301499103998485e-68,2.01920113784837e-06,0.0,True,0.01138615608215332,0.0,0.0,0.0,0.0,0.0,0.0
1759839575.0390458,2,-8.701696160748649e-68,8.790944326499921e-69,1.934757584365343e-06,0.0,True,0.010233163833618164,0.0,0.0,0.0,0.0,0.0,0.0
1759839575.0500708,2,-3.3237521736315146e-68,3.3578419395149163e-69,1.8876772864828695e-06,0.0,True,0.011024951934814453,0.0,0.0,0.0,0.0,0.0,0.0
1759839575.0616803,2,-1.2695603601458965e-68,1.2825814920448292e-69,1.8613538594891565e-06,0.0,True,0.011609554290771484,0.0,0.0,0.0,0.0,0.0,0.0
1759839575.0730658,2,-4.84928906806175e-69,4.899025366195718e-70,1.8161848966968819e-06,0.0,True,0.011385440826416016,0.0,0.0,0.0,0.0,0.0,0.0
1759839575.0841155,2,-1.852263602726286e-69,1.8712611781388642e-70,1.7528652938025857e-06,0.0,True,0.011049747467041016,0.0,0.0,0.0,0.0,0.0,0.0
1759839575.0952113,2,-7.075017401171087e-70,7.147581682208743e-71,1.692064312663888e-06,0.0,True,0.011095762252807617,0.0,0.0,0.0,0.0,0.0,0.0
1759839575.1063182,2,-2.702416176250405e-70,2.73013326523759e-71,1.6334792150018984e-06,0.0,True,0.01110696792602539,0.0,0.0,0.0,0.0,0.0,0.0
1759839575.1175554,2,-1.0322311275801283e-70,1.0428181135040275e-71,1.5808366251590655e-06,0.0,True,0.011237144470214844,0.0,0.0,0.0,0.0,0.0,0.0
1759839575.1282117,2,-3.9427720648997994e-71,3.983210752744928e-72,1.510435065021909e-06,0.0,True,0.010656356811523438,0.0,0.0,0.0,0.0,0.0,0.0
1759839575.1396494,2,-1.506004918898117e-71,1.5214511231945086e-72,1.469891503624865e-06,0.0,True,0.011437654495239258,0.0,0.0,0.0,0.0,0.0,0.0
1759839575.1500757,2,-5.752426917945518e-72,5.811426168385987e-73,1.3987523201919316e-06,0.0,True,0.01042628288269043,0.0,0.0,0.0,0.0,0.0,0.0
1759839575.1610875,2,-2.1972315648553848e-72,2.2197672732128775e-73,1.3513075165505484e-06,0.0,True,0.011011838912963867,0.0,0.0,0.0,0.0,0.6,0.8469456153900863
1759839575.171516,2,-8.392677766206379e-73,8.47875651252645e-74,1.2905473916191568e-06,0.0,True,0.010428428649902344,0.0,0.0,0.0,0.0,0.6,0.8469456153900863
1759839575.1825273,2,-3.2057176500652926e-73,3.23859680545058e-74,1.2511610218979285e-06,0.0,True,0.011011362075805664,0.0,0.0,0.0,0.0,0.6,0.8469456153900863
1759839575.1927257,2,-1.2244751839895002e-73,1.2370339038252908e-74,1.1920635918372113e-06,0.0,True,0.010198354721069336,0.0,0.0,0.0,0.0,0.6,0.8469456153900863
1759839575.203909,2,-4.677079019032079e-74,4.725049060252924e-75,1.1636103529610864e-06,0.0,True,0.01118326187133789,0.0,0.0,0.0,0.0,0.6,0.8469456153900863
1759839575.2141373,2,-1.7864852172012377e-74,1.804808142505867e-75,1.1112630842191606e-06,0.0,True,0.010228395462036133,0.0,0.0,0.0,0.0,0.6,0.8469456153900863
1759839575.225363,2,-6.823766325716343e-75,6.893753672646774e-76,1.0866512933915828e-06,0.0,True,0.011225700378417969,0.0,0.0,0.0,0.0,0.6,0.8469456153900863
1759839575.2361026,2,-2.606446805136657e-75,2.633179592881651e-76,1.0494567312946401e-06,0.0,True,0.010739564895629883,0.0,0.0,0.0,0.0,0.6,0.8469456153900863
1759839575.2462206,2,-9.955740896936289e-76,1.0057851059981799e-76,9.995729408629472e-07,0.0,True,0.01011800765991211,0.0,0.0,0.0,0.0,0.6,0.8469456153900863
1759839575.257118,2,-3.802754639442298e-76,3.841757251128889e-77,9.716621782729362e-07,0.0,True,0.010897397994995117,0.0,0.0,0.0,0.0,0.6,0.8469456153900863
1759839575.2679646,2,-1.452523021390606e-76,1.46742069340487e-77,9.431598693154797e-07,0.0,True,0.010846614837646484,0.0,0.0,0.0,0.0,0.6,0.8469456153900863
1759839575.27911,2,-5.548144247295208e-77,5.605048290857217e-78,9.201093345012623e-07,0.0,True,0.011145353317260742,0.0,0.0,0.0,0.0,0.6,0.8469456153900863
1759839575.2895784,2,-2.1192025279795672e-77,2.1409379385229501e-78,8.825562538561371e-07,0.0,True,0.010468482971191406,0.0,0.0,0.0,0.0,0.6,0.8469456153900863
1759839575.3003085,2,-8.094633366434945e-78,8.177655247116339e-79,8.522884380468554e-07,0.0,True,0.01073002815246582,0.0,0.0,0.0,0.0,0.6,0.8469456153900863
1759839575.3103397,2,-3.091874819509166e-78,3.123586356119521e-79,8.113041136681431e-07,0.0,True,0.01003122329711914,0.0,0.0,0.0,0.0,0.6,0.8469456153900863
1759839575.320977,2,-1.1809910920925548e-78,1.1931038212422236e-79,7.854833157239227e-07,0.0,True,0.010637283325195312,0.0,0.0,0.0,0.0,0.6,0.8469456153900863
1759839575.3321638,2,-4.510984567684987e-79,4.557251076071506e-80,7.701362125800415e-07,0.0,True,0.011186838150024414,0.0,0.0,0.0,0.0,0.6,0.8469456153900863
1759839575.3425732,2,-1.723042782129414e-79,1.7407150157922825e-80,7.40042308322586e-07,0.0,True,0.010409355163574219,0.0,0.0,0.0,0.0,0.6,0.8469456153900863
1759839575.3537173,2,-6.581437787032562e-80,6.648939713053418e-81,7.228525849001244e-07,0.0,True,0.011144161224365234,0.0,0.0,0.0,0.0,0.6,0.8469456153900863
1759839575.3651788,2,-2.5138855398035465e-80,2.539668981237432e-81,7.091508846812644e-07,0.0,True,0.011461496353149414,0.0,0.0,0.0,0.0,0.6,0.8469456153900863
1759839575.3757346,2,-9.60218832378078e-81,9.7006723065888e-82,6.795500233636176e-07,0.0,True,0.010555744171142578,0.0,0.0,0.0,0.0,0.6,0.8469456153900863
1759839575.386727,2,-3.667709573306877e-81,3.7053271073920806e-82,6.577855931055865e-07,0.0,True,0.01099252700805664,0.0,0.0,0.0,0.0,0.6,0.8469456153900863
1759839575.397622,2,-1.400940396139853e-81,1.4153090155874428e-82,6.353587345131473e-07,0.0,True,0.010895013809204102,0.0,0.0,0.0,0.0,0.6,0.8469456153900863
1759839575.4077597,2,-5.351116151126818e-82,5.405999393702484e-83,6.038110598183266e-07,0.0,True,0.010137557983398438,0.0,0.0,0.0,0.0,0.6,0.8469456153900863
1759839575.4191365,2,-2.043944491981925e-82,2.0649080252330244e-83,5.9149971143313e-07,0.0,True,0.01137685775756836,0.0,0.0,0.0,0.0,0.6,0.8469456153900863
1759839575.4304235,2,-7.807173248189583e-83,7.887246819965896e-84,5.769090201113158e-07,0.0,True,0.01128697395324707,0.0,0.0,0.0,0.0,0.6,0.8469456153900863
1759839575.4404397,2,-2.982074824749502e-83,3.012660207567449e-84,5.460417424885122e-07,0.0,True,0.010016202926635742,0.0,0.0,0.0,0.0,0.6,0.8469456153900863
1759839575.4516559,2,-1.1390512260589233e-83,1.1507338027364522e-84,5.324015761587475e-07,0.0,True,0.011216163635253906,0.0,0.0,0.0,0.0,0.6,0.8469456153900863
1759839575.4630322,2,-4.350788534272687e-84,4.3954120064190787e-85,5.2029265518172e-07,0.0,True,0.011376380920410156,0.0,0.0,0.0,0.0,0.6,0.8469456153900863
1759839575.4731855,2,-1.6618533422288295e-84,1.678897991892717e-85,4.938520987707307e-07,0.0,True,0.01015329360961914,0.0,0.0,0.0,0.0,0.6,0.8469456153900863
1759839575.4839685,2,-6.347714924138018e-85,6.412819692590725e-86,4.7666759250830637e-07,0.0,True,0.010782957077026367,0.0,0.0,0.0,0.0,0.6,0.8469456153900863
1759839575.4943383,2,-2.4246113501257626e-85,2.4494791588450046e-86,4.566609126399612e-07,0.0,True,0.01036977767944336,0.0,0.0,0.0,0.0,0.6,0.8469456153900863
1759839575.504609,2,-9.261191262392695e-86,9.35617783944289e-87,4.3751348144382973e-07,0.0,True,0.010270833969116211,0.0,0.0,0.0,0.0,0.6,0.8469456153900863
1759839575.5158365,2,-3.537460285920463e-86,3.573741929878627e-87,4.291267980960356e-07,0.0,True,0.01122736930847168,0.0,0.0,0.0,0.0,0.6,0.8469456153900863
1759839575.5276353,2,-1.3511895953686955e-86,1.365047950192992e-87,4.246622600234673e-07,0.0,True,0.011798858642578125,0.0,0.0,0.0,0.0,0.6,0.8469456153900863
1759839575.537684,2,-5.161085001856242e-87,5.214019207003493e-88,4.023164859034978e-07,0.0,True,0.010048627853393555,0.0,0.0,0.0,0.0,0.6,0.8469456153900863
1759839575.548669,2,-1.9713590518817698e-87,1.9915781190805605e-88,3.899838203480499e-07,0.0,True,0.010985136032104492,0.0,0.0,0.0,0.0,0.6,0.8469456153900863
1759839575.558967,2,-7.529921537890686e-88,7.607151502381886e-89,3.7269177965981726e-07,0.0,True,0.010298013687133789,0.0,0.0,0.0,0.0,0.6,0.8469456153900863
1759839575.5701113,2,-2.8761740948543626e-88,2.9056733163400534e-89,3.635705079219065e-07,0.0,True,0.011144161224365234,0.0,0.0,0.0,0.0,0.6,0.8469456153900863
1759839575.5811384,2,-1.0986007466724024e-88,1.109868446638275e-89,3.5321399671772724e-07,0.0,True,0.011027097702026367,0.0,0.0,0.0,0.0,0.6,0.8469456153900863
1759839575.5917144,2,-4.1962814516284476e-89,4.23932023574772e-90,3.39238069635428e-07,0.0,True,0.010576009750366211,0.0,0.0,0.0,0.0,0.6,0.8469456153900863
1759839575.6030803,2,-1.602836888161319e-89,1.6192762408604117e-90,3.316463246250123e-07,0.0,True,0.011365890502929688,0.0,0.0,0.0,0.0,0.6,0.8469456153900863
1759839575.6138468,2,-6.122292128555099e-90,6.185084868335159e-91,3.193313800053943e-07,0.0,True,0.01076650619506836,0.0,0.0,0.0,0.0,0.6,0.8469456153900863
1759839575.6247938,2,-2.3385075040521066e-90,2.3624921964013618e-91,3.0862864797143175e-07,0.0,True,0.010946989059448242,0.0,0.0,0.0,0.0,0.6,0.8469456153900863
1759839575.6362321,2,-8.932303836012221e-91,9.023917208689281e-92,3.013407949836733e-07,0.0,True,0.011438369750976562,0.0,0.0,0.0,0.0,0.6,0.8469456153900863
1759839575.64697,2,-3.411836467515601e-91,3.446829662054227e-92,2.8914726879492036e-07,0.0,True,0.010737895965576172,0.0,0.0,0.0,0.0,0.6,0.8469456153900863
1759839575.65702,2,-1.3032055665345827e-91,1.3165717774734007e-92,2.7363878807307174e-07,0.0,True,0.010050058364868164,0.0,0.0,0.0,0.0,0.6,0.8469456153900863
1759839575.66856,2,-4.97780232088148e-92,5.0288567036597574e-93,2.6867731151014596e-07,0.0,True,0.011539936065673828,0.0,0.0,0.0,0.0,0.6,0.8469456153900863
1759839575.6794186,2,-1.9013512972986148e-92,1.920852336245269e-93,2.593379866411283e-07,0.0,True,0.010858535766601562,0.0,0.0,0.0,0.0,0.6,0.8469456153900863
1759839575.6897278,2,-7.262515710143647e-93,7.337003050760511e-94,2.472206785952835e-07,0.0,True,0.010309219360351562,0.0,0.0,0.0,0.0,0.6,0.8469456153900863
1759839575.7009497,2,-2.7740341574447936e-93,2.802485789828845e-94,2.4105061058321553e-07,0.0,True,0.011221885681152344,0.0,0.0,0.0,0.0,0.6,0.8469456153900863
1759839575.7123084,2,-1.0595867621907339e-93,1.0704543187260243e-94,2.3535415127895476e-07,0.0,True,0.01135873794555664,0.0,0.0,0.0,0.0,0.6,0.8469456153900863
1759839575.72293,2,-4.0472612912740833e-94,4.0887716634922814e-95,2.2554322676171523e-07,0.0,True,0.01062154769897461,0.0,0.0,0.0,0.0,0.6,0.8469456153900863
1759839575.7338588,2,-1.5459162519149115e-94,1.5617718032166038e-95,2.1778434700081561e-07,0.0,True,0.010928869247436523,0.0,0.0,0.0,0.0,0.6,0.8469456153900863
1759839575.7450998,2,-5.9048746447065136e-95,5.965437461575302e-96,2.1177143594286463e-07,0.0,True,0.011240959167480469,0.0,0.0,0.0,0.0,0.6,0.8469456153900863
1759839575.756746,2,-2.2554614149704287e-95,2.2785943525598703e-96,2.0727764926675718e-07,0.0,True,0.011646270751953125,0.0,0.0,0.0,0.0,0.6,0.8469456153900863
1759839575.7669709,2,-8.615096002047728e-96,8.703455961043093e-97,1.9623795211032302e-07,0.0,True,0.01022481918334961,0.0,0.0,0.0,0.0,0.6,0.8469456153900863
1759839575.7780704,2,-3.290673856438898e-96,3.3244243575305806e-97,1.8991011963009896e-07,0.0,True,0.011099576950073242,0.0,0.0,0.0,0.0,0.6,0.8469456153900863
1759839575.7894492,2,-1.256925567268967e-96,1.2698171115486492e-97,1.8496816345248135e-07,0.0,True,0.011378765106201172,0.0,0.0,0.0,0.0,0.6,0.8469456153900863
1759839575.8001978,2,-4.80102845368003e-97,4.850269771153673e-98,1.7740336666349776e-07,0.0,True,0.010748624801635742,0.0,0.0,0.0,0.0,0.6,0.8469456153900863
1759839575.8108292,2,-1.833829688350421e-97,1.8526381979745283e-98,1.6989709372694506e-07,0.0,True,0.010631322860717773,0.0,0.0,0.0,0.0,0.6,0.8469456153900863
1759839575.8212633,2,-7.004606113712336e-98,7.076448227699132e-99,1.62415971338703e-07,0.0,True,0.010434150695800781,0.0,0.0,0.0,0.0,0.6,0.8469456153900863
1759839575.8315868,2,-2.675521457632801e-98,2.702962703352113e-99,1.5536726749587615e-07,0.0,True,0.010323524475097656,0.0,0.0,0.0,0.0,0.6,0.8469456153900863
1759839575.8421242,2,-1.0219582591860681e-98,1.0324398823572078e-99,1.4978961981881866e-07,0.0,True,0.010537385940551758,0.0,0.0,0.0,0.0,0.6,0.8469456153900863
1759839575.852797,2,-3.9035331992540355e-99,3.9435694371951046e-100,1.4504544765259197e-07,0.0,True,0.010672807693481445,0.0,0.0,0.0,0.0,0.6,0.8469456153900863
1759839575.8636227,2,-1.4910170059014257e-99,1.506309488013236e-100,1.4090591538007402e-07,0.0,True,0.010825634002685547,0.0,0.0,0.0,0.0,0.6,0.8469456153900863
1759839575.8749342,2,-5.695178184502421e-100,5.753590268446038e-101,1.3814294685943196e-07,0.0,True,0.011311531066894531,0.0,0.0,0.0,0.0,0.6,0.8469456153900863
1759839575.885584,2,-2.1753644944930048e-100,2.1976759252057543e-101,1.3304382484591315e-07,0.0,True,0.010649919509887695,0.0,0.0,0.0,0.0,0.6,0.8469456153900863
1759839575.8971052,2,-8.309152989765943e-101,8.394375071712263e-102,1.3049182889801614e-07,0.0,True,0.011521100997924805,0.0,0.0,0.0,0.0,0.6,0.8469456153900863
1759839575.907816,2,-3.173814024367783e-101,3.206365963079248e-102,1.2538369453807263e-07,0.0,True,0.010710716247558594,0.0,0.0,0.0,0.0,0.6,0.8469456153900863
1759839575.9178236,2,-1.2122890833374059e-101,1.224722817525482e-102,1.1871673866181709e-07,0.0,True,0.010007619857788086,0.0,0.0,0.0,0.0,0.6,0.8469456153900863
1759839575.9292772,2,-4.630532256444352e-102,4.678024894971987e-103,1.165190388618953e-07,0.0,True,0.011453628540039062,0.0,0.0,0.0,0.0,0.6,0.8469456153900863
1759839575.9405289,2,-1.7687059359589981e-102,1.786846509661142e-103,1.135704854604569e-07,0.0,True,0.011251688003540039,0.0,0.0,0.0,0.0,0.6,0.8469456153900863
1759839575.9518485,2,-6.755855514326423e-103,6.825146340114387e-104,1.1048996118034893e-07,0.0,True,0.011319637298583984,0.0,0.0,0.0,0.0,0.6,0.8469456153900863
1759839575.9626129,2,-2.580507183389291e-103,2.6069739237317455e-104,1.0599685307255413e-07,0.0,True,0.010764360427856445,0.0,0.0,0.0,0.0,0.6,0.8469456153900863
1759839575.9733584,2,-9.856660358414509e-104,9.957754310808504e-105,1.0174509323945813e-07,0.0,True,0.010745525360107422,0.0,0.0,0.0,0.0,0.6,0.8469456153900863
1759839575.9842045,2,-3.764909241350621e-104,3.803523695108064e-105,9.804551748260337e-08,0.0,True,0.010846138000488281,0.0,0.0,0.0,0.0,0.6,0.8469456153900863
1759839575.995013,2,-1.438067365637356e-104,1.452816774515688e-105,9.449095994540357e-08,0.0,True,0.010808467864990234,0.0,0.0,0.0,0.0,0.6,0.8469456153900863
1759839576.0063677,2,-5.492928555614473e-105,5.549266284390006e-106,9.217475138711961e-08,0.0,True,0.011354684829711914,0.0,0.0,0.0,0.0,0.6,0.8469456153900863
1759839576.0165074,2,-2.0981120104698613e-105,2.119631108013142e-106,8.744865009902014e-08,0.0,True,0.010139703750610352,0.0,0.0,0.0,0.0,0.6,0.8469456153900863
1759839576.0270882,2,-8.014074757951116e-106,8.096270396494204e-107,8.404753870649984e-08,0.0,True,0.010580778121948242,0.0,0.0,0.0,0.0,0.6,0.8469456153900863
1759839576.0371313,2,-3.061104169154739e-106,3.092500109351198e-107,8.0044483929953e-08,0.0,True,0.010043144226074219,0.0,0.0,0.0,0.0,0.6,0.8469456153900863
1759839576.0481136,2,-1.1692377495131026e-106,1.1812299315593909e-107,7.811488433873137e-08,0.0,True,0.010982275009155273,0.0,0.0,0.0,0.0,0.6,0.8469456153900863
1759839576.0591714,2,-4.466090793845693e-107,4.511896853269752e-108,7.625987397119616e-08,0.0,True,0.011057853698730469,0.0,0.0,0.0,0.0,0.6,0.8469456153900863
1759839576.06951,2,-1.7058948864060547e-107,1.723391244215348e-108,7.309950333933557e-08,0.0,True,0.010338544845581055,0.0,0.0,0.0,0.0,0.6,0.8469456153900863
1759839576.0798764,2,-6.5159386537247185e-108,6.582768793762923e-109,7.021193226819378e-08,0.0,True,0.010366439819335938,0.0,0.0,0.0,0.0,0.6,0.8469456153900863
1759839576.090204,2,-2.4888670971136105e-108,2.5143939391352894e-109,6.752857739655838e-08,0.0,True,0.010327577590942383,0.0,0.0,0.0,0.0,0.6,0.8469456153900863
1759839576.1012034,2,-9.506626376161138e-109,9.604130236429461e-110,6.602751145834418e-08,0.0,True,0.010999441146850586,0.0,0.0,0.0,0.0,0.6,0.8469456153900863
1759839576.1127114,2,-3.631208157347311e-109,3.6684513179354896e-110,6.510919536850679e-08,0.0,True,0.011507987976074219,0.0,0.0,0.0,0.0,0.6,0.8469456153900863
1759839576.1237035,2,-1.3869980958807964e-109,1.4012237173770102e-110,6.314661238349117e-08,0.0,True,0.010992050170898438,0.0,0.0,0.0,0.0,0.6,0.8469456153900863
1759839576.1349392,2,-5.2978613029507863e-110,5.3521983419554125e-111,6.141630759515238e-08,0.0,True,0.011235713958740234,0.0,0.0,0.0,0.0,0.6,0.8469456153900863
1759839576.1463404,2,-2.0236029500443964e-110,2.044357852096135e-111,5.981026873769224e-08,0.0,True,0.011401176452636719,0.0,0.0,0.0,0.0,0.6,0.8469456153900863
1759839576.1578095,2,-7.729475471824038e-111,7.80875214332993e-112,5.81646677488834e-08,0.0,True,0.011469125747680664,0.0,0.0,0.0,0.0,0.6,0.8469456153900863
1759839576.1681793,2,-2.952396915028152e-111,2.982677909028442e-112,5.515785073129109e-08,0.0,True,0.01036977767944336,0.0,0.0,0.0,0.0,0.6,0.8469456153900863
1759839576.180832,2,-1.1277152732604188e-111,1.1392815837553977e-112,5.500582300754786e-08,0.0,True,0.01265263557434082,0.0,0.0,0.0,0.0,0.6,0.8469456153900863
1759839576.1909807,2,-4.307489047531044e-112,4.351668422377518e-113,5.175701467408089e-08,0.0,True,0.010148763656616211,0.0,0.0,0.0,0.0,0.6,0.8469456153900863
1759839576.201305,2,-1.6453144099889473e-112,1.6621894295785781e-113,4.904626482726826e-08,0.0,True,0.010324239730834961,0.0,0.0,0.0,0.0,0.6,0.8469456153900863
1759839576.21273,2,-6.284541824357983e-113,6.3489986635821694e-114,4.784405760460686e-08,0.0,True,0.011425018310546875,0.0,0.0,0.0,0.0,0.6,0.8469456153900863
1759839576.2230158,2,-2.4004813731844773e-113,2.425101694960729e-114,4.5511892032834567e-08,0.0,True,0.01028585433959961,0.0,0.0,0.0,0.0,0.6,0.8469456153900863
1759839576.2339604,2,-9.169022951954498e-114,9.263064213000187e-115,4.4030803003636265e-08,0.0,True,0.010944604873657227,0.0,0.0,0.0,0.0,0.6,0.8469456153900863
1759839576.2446487,2,-3.502255124018723e-114,3.538175689393275e-115,4.2394217025787384e-08,0.0,True,0.010688304901123047,0.0,0.0,0.0,0.0,0.6,0.8469456153900863
1759839576.2553546,2,-1.337742420101674e-114,1.3514628551796403e-115,4.0865588246674633e-08,0.0,True,0.010705947875976562,0.0,0.0,0.0,0.0,0.6,0.8469456153900863
1759839576.2666028,2,-5.109721362862988e-115,5.162128761456457e-116,3.987963648199866e-08,0.0,True,0.011248111724853516,0.0,0.0,0.0,0.0,0.6,0.8469456153900863
1759839576.2769322,2,-1.9517398875722265e-115,1.9717577325729678e-116,3.808277870831489e-08,0.0,True,0.010329484939575195,0.0,0.0,0.0,0.0,0.6,0.8469456153900863
1759839576.287806,2,-7.45498299853692e-116,7.531444362624479e-117,3.687156802101299e-08,0.0,True,0.010873794555664062,0.0,0.0,0.0,0.0,0.6,0.8469456153900863
1759839576.2989202,2,-2.8475501198884957e-116,2.8767557621437625e-117,3.5891480898442296e-08,0.0,True,0.011114120483398438,0.0,0.0,0.0,0.0,0.6,0.8469456153900863
1759839576.3099961,2,-1.0876673611285672e-116,1.0988229238068089e-117,3.4841573182120555e-08,0.0,True,0.011075973510742188,0.0,0.0,0.0,0.0,0.6,0.8469456153900863
1759839576.3201816,2,-4.154519634972065e-117,4.197130092766649e-118,3.313712149122239e-08,0.0,True,0.010185480117797852,0.0,0.0,0.0,0.0,0.6,0.8469456153900863
1759839576.3314345,2,-1.586885293630522e-117,1.6031610402318606e-118,3.2350674139536295e-08,0.0,True,0.011252880096435547,0.0,0.0,0.0,0.0,0.6,0.8469456153900863
1759839576.34165,2,-6.061362459195023e-118,6.123530279289331e-119,3.0848340770717186e-08,0.0,True,0.010215520858764648,0.0,0.0,0.0,0.0,0.6,0.8469456153900863
1759839576.352297,2,-2.315234441279851e-118,2.3389804355493878e-119,2.9765105047374618e-08,0.0,True,0.010647058486938477,0.0,0.0,0.0,0.0,0.6,0.8469456153900863
1759839576.3634992,2,-8.843408646445305e-119,8.934110273588331e-120,2.9100950094118616e-08,0.0,True,0.011202096939086914,0.0,0.0,0.0,0.0,0.6,0.8469456153900863
1759839576.3751936,2,-3.377881526537404e-119,3.41252646527112e-120,2.8665453122300733e-08,0.0,True,0.01169443130493164,0.0,0.0,0.0,0.0,0.6,0.8469456153900863
1759839576.3864975,2,-1.2902359331669084e-119,1.30346912222503e-120,2.784841335312649e-08,0.0,True,0.011303901672363281,0.0,0.0,0.0,0.0,0.6,0.8469456153900863
1759839576.3968012,2,-4.928262729633212e-120,4.978809014039703e-121,2.6424085142195963e-08,0.0,True,0.010303735733032227,0.0,0.0,0.0,0.0,0.6,0.8469456153900863
1759839576.4069662,2,-1.882428857230553e-120,1.901735819868814e-121,2.5086952071262658e-08,0.0,True,0.010164976119995117,0.0,0.0,0.0,0.0,0.6,0.8469456153900863
1759839576.4179618,2,-7.19023842058448e-121,7.263984455667393e-122,2.4371320961336096e-08,0.0,True,0.010995626449584961,0.0,0.0,0.0,0.0,0.6,0.8469456153900863
1759839576.4285026,2,-2.746426689447909e-121,2.77459516831404e-122,2.344472527227026e-08,0.0,True,0.01054072380065918,0.0,0.0,0.0,0.0,0.6,0.8469456153900863
1759839576.438723,2,-1.049041647759249e-121,1.0598010492747279e-122,2.2417100176141957e-08,0.0,True,0.010220527648925781,0.0,0.0,0.0,0.0,0.6,0.8469456153900863
1759839576.4501832,2,-4.006982538298381e-122,4.048079795101439e-123,2.2079726491597285e-08,0.0,True,0.011460065841674805,0.0,0.0,0.0,0.0,0.6,0.8469456153900863
1759839576.4608374,2,-1.5305311373026538e-122,1.5462288925570393e-123,2.129405718420685e-08,0.0,True,0.010654211044311523,0.0,0.0,0.0,0.0,0.6,0.8469456153900863
1759839576.4713311,2,-5.8461087360958166e-123,5.906068825696796e-124,2.0452965543427126e-08,0.0,True,0.010493755340576172,0.0,0.0,0.0,0.0,0.6,0.8469456153900863
1759839576.4821758,2,-2.2330148352609127e-123,2.2559175515199976e-124,1.9825861841127335e-08,0.0,True,0.010844707489013672,0.0,0.0,0.0,0.0,0.6,0.8469456153900863
1759839576.4922907,2,-8.529357696869214e-124,8.616838288631969e-125,1.891366441242326e-08,0.0,True,0.010114908218383789,0.0,0.0,0.0,0.0,0.6,0.8469456153900863
1759839576.5030112,2,-3.257924737998517e-124,3.291339350695935e-125,1.833758656033524e-08,0.0,True,0.010720491409301758,0.0,0.0,0.0,0.0,0.6,0.8469456153900863
1759839576.514473,2,-1.2444165171263372e-124,1.2571797634558372e-125,1.8067542129074354e-08,0.0,True,0.011461734771728516,0.0,0.0,0.0,0.0,0.6,0.8469456153900863
1759839576.5246217,2,-4.753248133804951e-125,4.801999396715768e-126,1.7226639670298027e-08,0.0,True,0.010148763656616211,0.0,0.0,0.0,0.0,0.6,0.8469456153900863
1759839576.5355945,2,-1.8155792301514826e-125,1.8342005555889327e-126,1.6752427889343835e-08,0.0,True,0.010972738265991211,0.0,0.0,0.0,0.0,0.6,0.8469456153900863
1759839576.545607,2,-6.934895566494983e-126,7.006022700510313e-127,1.594854648345745e-08,0.0,True,0.010012626647949219,0.0,0.0,0.0,0.0,0.6,0.8469456153900863
1759839576.5569932,2,-2.648894397970127e-126,2.676062545641614e-127,1.5692649846243967e-08,0.0,True,0.01138615608215332,0.0,0.0,0.0,0.0,0.6,0.8469456153900863
1759839576.567553,2,-1.011787627415398e-126,1.0221649364145297e-127,1.5119277385622354e-08,0.0,True,0.010559797286987305,0.0,0.0,0.0,0.0,0.6,0.8469456153900863
1759839576.5788736,2,-3.86468484276067e-127,3.9043226360197516e-128,1.47997942789857e-08,0.0,True,0.01132059097290039,0.0,0.0,0.0,0.0,0.6,0.8469456153900863
1759839576.5890052,2,-1.476178254128033e-127,1.4913185439139602e-128,1.408371463895719e-08,0.0,True,0.010131597518920898,0.0,0.0,0.0,0.0,0.6,0.8469456153900863
1759839576.5997577,2,-5.638499196234288e-128,5.6963299572213e-129,1.362021873063668e-08,0.0,True,0.010752439498901367,0.0,0.0,0.0,0.0,0.6,0.8469456153900863
1759839576.61105,2,-2.1537150474225344e-128,2.175804432524302e-129,1.3335134774195012e-08,0.0,True,0.011292219161987305,0.0,0.0,0.0,0.0,0.6,0.8469456153900863
1759839576.6212363,2,-8.226459460333164e-129,8.31083340351606e-130,1.2711507402229927e-08,0.0,True,0.010186433792114258,0.0,0.0,0.0,0.0,0.6,0.8469456153900863
1759839576.6315176,2,-3.142227906774151e-129,3.1744558853051647e-130,1.217063871905566e-08,0.0,True,0.01028132438659668,0.0,0.0,0.0,0.0,0.6,0.8469456153900863
1759839576.642985,2,-1.2002242599892895e-129,1.2125342523994349e-130,1.1992509207914281e-08,0.0,True,0.011467456817626953,0.0,0.0,0.0,0.0,0.6,0.8469456153900863
1759839576.6543384,2,-4.58444873193718e-130,4.631468718931404e-131,1.17375007491205e-08,0.0,True,0.011353254318237305,0.0,0.0,0.0,0.0,0.6,0.8469456153900863
1759839576.6653824,2,-1.751103595918647e-130,1.7690636327998622e-131,1.1362720542251736e-08,0.0,True,0.011044025421142578,0.0,0.0,0.0,0.0,0.6,0.8469456153900863
1759839576.676674,2,-6.688620558187613e-131,6.75722179468184e-132,1.1039528402534415e-08,0.0,True,0.01129150390625,0.0,0.0,0.0,0.0,0.6,0.8469456153900863
1759839576.6876295,2,-2.554825715376374e-131,2.5810290560468992e-132,1.0631594271615086e-08,0.0,True,0.010955572128295898,0.0,0.0,0.0,0.0,0.6,0.8469456153900863
1759839576.6980543,2,-9.7585658794151e-132,9.858653734588582e-133,1.0126585792136211e-08,0.0,True,0.01042485237121582,0.0,0.0,0.0,0.0,0.6,0.8469456153900863
1759839576.7085195,2,-3.72744048448156e-132,3.765670643296753e-133,9.685525270697326e-09,0.0,True,0.010465145111083984,0.0,0.0,0.0,0.0,0.6,0.8469456153900863
1759839576.7192202,2,-1.4237555740295808e-132,1.4383581953016778e-133,9.340499040888517e-09,0.0,True,0.010700702667236328,0.0,0.0,0.0,0.0,0.6,0.8469456153900863
1759839576.7295597,2,-5.438262376071827e-133,5.494039426082816e-134,8.948528140706458e-09,0.0,True,0.010339498519897461,0.0,0.0,0.0,0.0,0.6,0.8469456153900863
1759839576.740821,2,-2.0772313879196747e-133,2.0985363252316695e-134,8.764343917277984e-09,0.0,True,0.011261224746704102,0.0,0.0,0.0,0.0,0.6,0.8469456153900863
1759839576.7508676,2,-7.934317876871979e-134,8.015695496121941e-135,8.34170243990684e-09,0.0,True,0.010046720504760742,0.0,0.0,0.0,0.0,0.6,0.8469456153900863
1759839576.7619746,2,-3.030639751419192e-134,3.06172323604913e-135,8.146364471883771e-09,0.0,True,0.01110696792602539,0.0,0.0,0.0,0.0,0.6,0.8469456153900863
1759839576.7720175,2,-1.157601377385599e-134,1.1694742120254502e-135,7.764048959302272e-09,0.0,True,0.010042905807495117,0.0,0.0,0.0,0.0,0.6,0.8469456153900863
1759839576.7823877,2,-4.421643807376049e-135,4.466994000272209e-136,7.473365926102815e-09,0.0,True,0.010370254516601562,0.0,0.0,0.0,0.0,0.6,0.8469456153900863
1759839576.7927604,2,-1.6889176482721575e-135,1.7062398805621266e-136,7.209319363710165e-09,0.0,True,0.010372638702392578,0.0,0.0,0.0,0.0,0.6,0.8469456153900863
1759839576.8036833,2,-6.451091374404239e-136,6.517256414141712e-137,7.046395467114053e-09,0.0,True,0.010922908782958984,0.0,0.0,0.0,0.0,0.6,0.8469456153900863
1759839576.8137531,2,-2.4640976404911456e-136,2.489370436803873e-137,6.744865999053218e-09,0.0,True,0.010069847106933594,0.0,0.0,0.0,0.0,0.6,0.8469456153900863
1759839576.8241394,2,-9.412015470691984e-137,9.508548962699071e-138,6.513755756998307e-09,0.0,True,0.010386228561401367,0.0,0.0,0.0,0.0,0.6,0.8469456153900863
1759839576.835298,2,-3.5950700071644974e-137,3.6319425200584886e-138,6.405237229500926e-09,0.0,True,0.01115870475769043,0.0,0.0,0.0,0.0,0.6,0.8469456153900863
1759839576.8462067,2,-1.3731945508015097e-137,1.3872785974763958e-138,6.239788241657607e-09,0.0,True,0.01090860366821289,0.0,0.0,0.0,0.0,0.6,0.8469456153900863
1759839576.8575377,2,-5.2451364524003254e-138,5.2989327237069896e-139,6.115545403417855e-09,0.0,True,0.01133108139038086,0.0,0.0,0.0,0.0,0.6,0.8469456153900863
1759839576.8689008,2,-2.0034638491858793e-138,2.024012196357014e-139,5.972911054641372e-09,0.0,True,0.011363029479980469,0.0,0.0,0.0,0.0,0.6,0.8469456153900863
1759839576.87941,2,-7.652550951573124e-139,7.731038653640531e-140,5.709051897895279e-09,0.0,True,0.010509252548217773,0.0,0.0,0.0,0.0,0.6,0.8469456153900863
1759839576.890929,2,-2.923014362860582e-139,2.9529939973514567e-140,5.5825406519716125e-09,0.0,True,0.01151895523071289,0.0,0.0,0.0,0.0,0.6,0.8469456153900863
1759839576.9024773,2,-1.116492137008624e-139,1.1279433384138392e-140,5.447052586760037e-09,0.0,True,0.011548280715942383,0.0,0.0,0.0,0.0,0.6,0.8469456153900863
1759839576.912801,2,-4.264620481652899e-140,4.3083601789006166e-141,5.163718341805179e-09,0.0,True,0.010323762893676758,0.0,0.0,0.0,0.0,0.6,0.8469456153900863
1759839576.9231741,2,-1.62894007487246e-140,1.6456471525634576e-141,4.916645757191418e-09,0.0,True,0.010373115539550781,0.0,0.0,0.0,0.0,0.6,0.8469456153900863
1759839576.9342334,2,-6.221997429644811e-141,6.285812787897571e-142,4.771172790185574e-09,0.0,True,0.011059284210205078,0.0,0.0,0.0,0.0,0.6,0.8469456153900863
1759839576.9448643,2,-2.3765915402098348e-141,2.400966838058138e-142,4.5872114995404445e-09,0.0,True,0.01063084602355957,0.0,0.0,0.0,0.0,0.6,0.8469456153900863
1759839576.9563744,2,-9.077771909846944e-142,9.17087726276844e-143,4.496578220880565e-09,0.0,True,0.011510133743286133,0.0,0.0,0.0,0.0,0.6,0.8469456153900863
1759839576.967014,2,-3.467400327442486e-142,3.5029634077239427e-143,4.3135086613688145e-09,0.0,True,0.010639667510986328,0.0,0.0,0.0,0.0,0.6,0.8469456153900863
1759839576.977417,2,-1.324429072480515e-142,1.33801296040339e-143,4.11978984260486e-09,0.0,True,0.010402917861938477,0.0,0.0,0.0,0.0,0.6,0.8469456153900863
1759839576.9884799,2,-5.058868899990586e-143,5.110754734862277e-144,4.002771447630948e-09,0.0,True,0.011062860488891602,0.0,0.0,0.0,0.0,0.6,0.8469456153900863
1759839576.998635,2,-1.9323159751666112e-143,1.9521346005529325e-144,3.812222537646903e-09,0.0,True,0.010155200958251953,0.0,0.0,0.0,0.0,0.6,0.8469456153900863
1759839577.0093503,2,-7.380790255092477e-144,7.456490667965209e-145,3.6862317642771814e-09,0.0,True,0.010715246200561523,0.0,0.0,0.0,0.0,0.6,0.8469456153900863
1759839577.0201313,2,-2.819211013611319e-144,2.8481259983663023e-145,3.5726275271485974e-09,0.0,True,0.010781049728393555,0.0,0.0,0.0,0.0,0.6,0.8469456153900863
1759839577.0315068,2,-1.0768427857414813e-144,1.0878873271337e-145,3.50432038942472e-09,0.0,True,0.01137542724609375,0.0,0.0,0.0,0.0,0.6,0.8469456153900863
1759839577.0417738,2,-4.1131734361312515e-145,4.155359830347976e-146,3.34467742391098e-09,0.0,True,0.010267019271850586,0.0,0.0,0.0,0.0,0.6,0.8469456153900863
1759839577.052446,2,-1.5710924509789432e-145,1.5872062197069298e-146,3.2264875216014843e-09,0.0,True,0.01067209243774414,0.0,0.0,0.0,0.0,0.6,0.8469456153900863
1759839577.063206,2,-6.001039168055782e-146,6.06258828772814e-147,3.1222455731949594e-09,0.0,True,0.010760068893432617,0.0,0.0,0.0,0.0,0.6,0.8469456153900863
1759839577.0734475,2,-2.292192994377916e-146,2.315702666115122e-147,2.9874707152544033e-09,0.0,True,0.010241508483886719,0.0,0.0,0.0,0.0,0.6,0.8469456153900863
1759839577.0850627,2,-8.755398150779672e-147,8.84519710617227e-148,2.9511371124613106e-09,0.0,True,0.011615276336669922,0.0,0.0,0.0,0.0,0.6,0.8469456153900863
1759839577.0951169,2,-3.344264508559857e-147,3.3785646573655946e-148,2.806627819040841e-09,0.0,True,0.01005411148071289,0.0,0.0,0.0,0.0,0.6,0.8469456153900863
1759839577.1060007,2,-1.2773953748999016e-147,1.2904968659245143e-148,2.7238904465320957e-09,0.0,True,0.010883808135986328,0.0,0.0,0.0,0.0,0.6,0.8469456153900863
1759839577.1174154,2,-4.87921616139848e-148,4.9292594040794845e-149,2.6734987557119894e-09,0.0,True,0.011414766311645508,0.0,0.0,0.0,0.0,0.6,0.8469456153900863
1759839577.127883,2,-1.8636947351964265e-148,1.8828095529933106e-149,2.56147991706257e-09,0.0,True,0.010467529296875,0.0,0.0,0.0,0.0,0.6,0.8469456153900863
1759839577.1390388,2,-7.118680441907998e-149,7.191692549004482e-150,2.492665629461044e-09,0.0,True,0.011155843734741211,0.0,0.0,0.0,0.0,0.6,0.8469456153900863
1759839577.1498845,2,-2.7190939737597336e-149,2.746982117080343e-150,2.406719268321922e-09,0.0,True,0.010845661163330078,0.0,0.0,0.0,0.0,0.6,0.8469456153900863
1759839577.1614158,2,-1.0386014793712034e-149,1.0492538022365478e-150,2.3562982676139654e-09,0.0,True,0.011531352996826172,0.0,0.0,0.0,0.0,0.6,0.8469456153900863
1759839577.171749,2,-3.9671046435387694e-150,4.007792896293007e-151,2.2422756984497028e-09,0.0,True,0.01033329963684082,0.0,0.0,0.0,0.0,0.6,0.8469456153900863
1759839577.1819007,2,-1.5152991369042739e-150,1.530840666513546e-151,2.130777332354228e-09,0.0,True,0.01015162467956543,0.0,0.0,0.0,0.0,0.6,0.8469456153900863
1759839577.194702,2,-5.7879276717405245e-151,5.847291032476315e-152,2.1511645798000245e-09,0.0,True,0.012801170349121094,0.0,0.0,0.0,0.0,0.6,0.8469456153900863
1759839577.206341,2,-2.2107916461788356e-151,2.233466432293487e-152,2.097814366663897e-09,0.0,True,0.011639118194580078,0.0,0.0,0.0,0.0,0.6,0.8469456153900863
1759839577.21756,2,-8.444472667959835e-152,8.531082644041461e-153,2.017237932250282e-09,0.0,True,0.011219024658203125,0.0,0.0,0.0,0.0,0.6,0.8469456153900863
1759839577.2282803,2,-3.2255015420911513e-152,3.258583609189517e-153,1.9198225231775723e-09,0.0,True,0.010720252990722656,0.0,0.0,0.0,0.0,0.6,0.8469456153900863
1759839577.2384412,2,-1.2320319583136202e-152,1.244668183527091e-153,1.8117427558195232e-09,0.0,True,0.01016092300415039,0.0,0.0,0.0,0.0,0.6,0.8469456153900863
1759839577.2486372,2,-4.705943328497093e-153,4.754209413917567e-154,1.7212311576031425e-09,0.0,True,0.01019597053527832,0.0,0.0,0.0,0.0,0.6,0.8469456153900863
1759839577.2588632,2,-1.7975104023550778e-153,1.8159464064817928e-154,1.6451000561801266e-09,0.0,True,0.010226011276245117,0.0,0.0,0.0,0.0,0.6,0.8469456153900863
1759839577.2702472,2,-6.865878785681406e-154,6.9362980552781235e-155,1.6183543394276967e-09,0.0,True,0.011384010314941406,0.0,0.0,0.0,0.0,0.6,0.8469456153900863
1759839577.2812622,2,-2.622532333493442e-154,2.6494301010164456e-155,1.5739312075879752e-09,0.0,True,0.011014938354492188,0.0,0.0,0.0,0.0,0.6,0.8469456153900863
1759839577.2919903,2,-1.0017182147989203e-154,1.0119922477712147e-155,1.5175096734765248e-09,0.0,True,0.010728120803833008,0.0,0.0,0.0,0.0,0.6,0.8469456153900863
1759839577.3032389,2,-3.826223109033196e-155,3.865466422971989e-156,1.4794183655908455e-09,0.0,True,0.011248588562011719,0.0,0.0,0.0,0.0,0.6,0.8469456153900863
1759839577.3144581,2,-1.461487179110386e-155,1.476476791203822e-156,1.4382450785888068e-09,0.0,True,0.011219263076782227,0.0,0.0,0.0,0.0,0.6,0.8469456153900863
1759839577.3245685,2,-5.58238428297962e-156,5.639639506394781e-157,1.363028800938082e-09,0.0,True,0.01011037826538086,0.0,0.0,0.0,0.0,0.6,0.8469456153900863
1759839577.3354836,2,-2.1322810578350035e-156,2.154150607146126e-157,1.3193472980788101e-09,0.0,True,0.010915040969848633,0.0,0.0,0.0,0.0,0.6,0.8469456153900863
1759839577.3466837,2,-8.14458890525391e-157,8.228123150435979e-158,1.2857501729968135e-09,0.0,True,0.011200189590454102,0.0,0.0,0.0,0.0,0.6,0.8469456153900863
1759839577.357356,2,-3.1109561374116965e-157,3.142863379846679e-158,1.2364012036414351e-09,0.0,True,0.010672330856323242,0.0,0.0,0.0,0.0,0.6,0.8469456153900863
1759839577.3683558,2,-1.1882795069811795e-157,1.2004669891040601e-158,1.197847154799092e-09,0.0,True,0.010999679565429688,0.0,0.0,0.0,0.0,0.6,0.8469456153900863
1759839577.379539,2,-4.538823835318426e-158,4.585375874655012e-159,1.1644392117204916e-09,0.0,True,0.01118326187133789,0.0,0.0,0.0,0.0,0.6,0.8469456153900863
1759839577.3913424,2,-1.7336764361434829e-158,1.751457732924437e-159,1.1443814784684037e-09,0.0,True,0.011803388595581055,0.0,0.0,0.0,0.0,0.6,0.8469456153900863
1759839577.4030266,2,-6.622054731120237e-159,6.689973241182991e-160,1.1161773727508262e-09,0.0,True,0.011684179306030273,0.0,0.0,0.0,0.0,0.6,0.8469456153900863
1759839577.4133677,2,-2.529399831925884e-159,2.5553423943046045e-160,1.0551426399274533e-09,0.0,True,0.010341167449951172,0.0,0.0,0.0,0.0,0.6,0.8469456153900863
1759839577.4237022,2,-9.661447646574161e-160,9.76053941730823e-161,1.0011751427896343e-09,0.0,True,0.010334491729736328,0.0,0.0,0.0,0.0,0.6,0.8469456153900863
1759839577.433985,2,-3.690344620463647e-160,3.728194308878649e-161,9.539640188904741e-10,0.0,True,0.010282754898071289,0.0,0.0,0.0,0.0,0.6,0.8469456153900863
1759839577.4446638,2,-1.4095862148167822e-160,1.42404350932772e-161,9.208198648025245e-10,0.0,True,0.010678768157958984,0.0,0.0,0.0,0.0,0.6,0.8469456153900863
1759839577.455549,2,-5.384140239867001e-161,5.43936219104511e-162,8.939258222540047e-10,0.0,True,0.010885238647460938,0.0,0.0,0.0,0.0,0.6,0.8469456153900863
1759839577.4669309,2,-2.0565585714331824e-161,2.0776514798581327e-162,8.761773528931371e-10,0.0,True,0.011381864547729492,0.0,0.0,0.0,0.0,0.6,0.8469456153900863
