timestamp,observer_vehicle_id,vehicle_0_x,vehicle_0_y,vehicle_0_theta,vehicle_0_velocity,vehicle_1_x,vehicle_1_y,vehicle_1_theta,vehicle_1_velocity
1759827516.7850866,0,-1.205,-0.83,-0.7801621756414646,0.0,0.0,0.0,0.0,0.0
1759827516.79575,0,-1.205,-0.83,-0.7801621756414646,0.0,0.0,0.0,0.0,0.0
1759827516.806462,0,-1.205,-0.83,-0.7801621756414646,0.0,0.0,0.0,0.0,0.0
1759827516.8165455,0,-1.205,-0.83,-0.7801621756414646,0.0,0.0,0.0,0.0,0.0
1759827516.8277593,0,-1.205,-0.83,-0.7801621756414646,0.0,0.0,0.0,0.0,0.0
1759827516.8377738,0,-1.205,-0.83,-0.7801621756414646,0.0,0.0,0.0,0.0,0.0
1759827516.8493667,0,-1.205,-0.83,-0.7801621756414646,0.0,0.0,0.0,0.0,0.0
1759827516.8601975,0,-1.205,-0.83,-0.7801621756414646,0.0,0.0,0.0,0.0,0.0
1759827516.8709671,0,-1.205,-0.83,-0.7801621756414646,0.0,0.0,0.0,0.0,0.0
1759827516.881591,0,-1.205,-0.83,-0.7801621756414646,0.0,0.0,0.0,0.0,0.0
1759827516.8920019,0,-1.205,-0.83,-0.7801621756414646,0.0,0.0,0.0,0.0,0.0
1759827516.9024563,0,-1.205,-0.83,-0.7801621756414646,0.0,0.0,0.0,0.0,0.0
1759827516.9132278,0,-1.205,-0.83,-0.7801621756414646,0.0,0.0,0.0,0.0,0.0
1759827516.9241002,0,-1.205,-0.83,-0.7801621756414646,0.0,0.0,0.0,0.0,0.0
1759827516.9350667,0,-1.205,-0.83,-0.7801621756414646,0.0,0.0,0.0,0.0,0.0
1759827516.945143,0,-1.205,-0.83,-0.7801621756414646,0.0,0.0,0.0,0.0,0.0
1759827516.955937,0,-1.205,-0.83,-0.7801621756414646,0.0,0.0,0.0,0.0,0.0
1759827516.9669018,0,-1.205,-0.83,-0.7801621756414646,0.0,0.0,0.0,0.0,0.0
1759827516.980645,0,-1.2049998061259588,-0.8299996288021405,-0.7229999060682636,0.0,0.0,0.0,0.0,0.0
1759827516.9916072,0,-1.2049998050413424,-0.829999626725497,-0.7181167066423733,0.0,0.0,0.0,0.0,0.0
1759827517.0024443,0,-1.2049998047010528,-0.8299996260739668,-0.7176574848771864,0.0,0.0,0.0,0.0,0.0
1759827517.0137699,0,-1.2049998045745929,-0.8299996258318424,-0.7175959927383726,0.0,0.0,0.0,0.0,0.0
1759827517.0244503,0,-1.2049998045264814,-0.8299996257397265,-0.7175911339370379,0.0,0.0,0.0,0.0,0.0
1759827517.0358322,0,-1.2049998045081152,-0.8299996257045619,-0.7175976929473364,0.0,0.0,0.0,0.0,0.0
1759827517.0466964,0,-1.2049998045011003,-0.8299996256911313,-0.7176099706783887,0.0,0.0,0.0,0.0,0.0
1759827517.0577457,0,-1.204999804498421,-0.8299996256860013,-0.717621689558726,0.0,0.0,0.0,0.0,0.0
1759827517.0688646,0,-1.2049998044973975,-0.8299996256840418,-0.7176320509638074,0.0,0.0,0.0,0.0,0.0
1759827517.0796175,0,-1.2049998044970067,-0.8299996256832933,-0.7176413248746947,0.0,0.0,0.0,0.0,0.0
1759827517.0897577,0,-1.2049998044968575,-0.8299996256830074,-0.7176494898437618,0.0,0.0,0.0,0.0,0.0
1759827517.0999055,0,-1.2049998044968004,-0.8299996256828983,-0.7176558876872132,0.0,0.0,0.0,0.0,0.0
1759827517.1106377,0,-1.2049998044967787,-0.8299996256828566,-0.7176605244510057,0.0,0.0,0.0,0.0,0.0
1759827517.1219065,0,-1.2049998044967702,-0.8299996256828407,-0.7176641083734019,0.0,0.0,0.0,0.0,0.0
1759827517.1321278,0,-1.2049998044967671,-0.8299996256828346,-0.7176680960981443,0.0,0.0,0.0,0.0,0.0
1759827517.1429102,0,-1.2049998044967658,-0.8299996256828323,-0.7176710647523752,0.0,0.0,0.0,0.0,0.0
1759827517.1534815,0,-1.2049998044967654,-0.8299996256828314,-0.7176737650020488,0.0,0.0,0.0,0.0,0.0
1759827517.1643982,0,-1.2049998044967651,-0.829999625682831,-0.7176759188598609,0.0,0.0,0.0,0.0,0.0
1759827517.1769178,0,-1.2049998044967651,-0.8299996256828309,-0.7176770633215703,0.0,0.0,0.0,0.0,0.0
1759827517.1855593,0,-1.2049998044967651,-0.8299996256828308,-0.7176801901935921,0.0,0.0,0.0,0.0,0.0
1759827517.1965818,0,-1.2049998044967651,-0.8299996256828308,-0.7176815909615222,0.0,0.0,0.0,0.0,0.0
1759827517.2065983,0,-1.2049998044967651,-0.8299996256828308,-0.7176832412914836,0.0,0.0,0.0,0.0,0.0
1759827517.2175117,0,-1.2049998044967651,-0.8299996256828308,-0.7176843017575134,0.0,0.0,0.0,0.0,0.0
1759827517.228905,0,-1.2049998044967651,-0.8299996256828308,-0.7176851172282959,0.0,0.0,0.0,0.0,0.0
1759827517.2396939,0,-1.2049998044967651,-0.8299996256828308,-0.7176861744717122,0.0,0.0,0.0,0.0,0.0
1759827517.2506573,0,-1.2049998044967651,-0.8299996256828308,-0.7176871013252182,0.0,0.0,0.0,0.0,0.0
1759827517.2617285,0,-1.2049998044967651,-0.8299996256828308,-0.7176879308764903,0.0,0.0,0.0,0.0,0.0
1759827517.2723684,0,-1.2049998044967651,-0.8299996256828308,-0.7176888450178006,0.0,0.0,0.0,0.0,0.0
1759827517.283669,0,-1.2049998044967651,-0.8299996256828308,-0.7176894794126412,0.0,0.0,0.0,0.0,0.0
1759827517.2947214,0,-1.2049998044967651,-0.8299996256828308,-0.7176901648514667,0.0,0.0,0.0,0.0,0.0
1759827517.305906,0,-1.2049998044967651,-0.8299996256828308,-0.7176907820164509,0.0,-0.3464618474117742,-0.06989151111127967,-0.14331811934937377,0.0
1759827517.3165736,0,-1.2049998044967651,-0.8299996256828308,-0.7176914986507762,0.0,-0.6207763124787784,-0.12522878021158784,-0.2567916043446987,0.0
1759827517.3277795,0,-1.2049998044967651,-0.8299996256828308,-0.7176920160217168,0.0,-0.8384010346898628,-0.16913006632470992,-0.3468146938831936,0.0
1759827517.3379016,0,-1.2049998044967651,-0.8299996256828308,-0.7176927526655401,0.0,-1.0117052620747486,-0.20409060938129253,-0.41850407650828314,0.0
1759827517.3494847,0,-1.2049998044967651,-0.8299996256828308,-0.7176930741225149,0.0,-1.1498357871717424,-0.23195558557345997,-0.47564343320666763,0.0
1759827517.3604715,0,-1.2049998044967651,-0.8299996256828308,-0.7176935328992116,0.0,-1.260301137746457,-0.2542396850631451,-0.5213387569945744,0.0
1759827517.3710647,0,-1.2049998044967651,-0.8299996256828308,-0.7176940539743555,0.0,-1.3489074822482943,-0.2721141822337376,-0.5579918394372517,0.0
1759827517.395286,0,-1.2049998044967651,-0.8299996256828308,-0.7176920654610761,0.0,-1.4191043907736858,-0.28627495649742973,-0.587029636785374,0.0
1759827517.4064753,0,-1.2049998044967651,-0.8299996256828308,-0.7176931810987242,0.0,-1.4758316039312454,-0.297718498342894,-0.6104955322841353,0.0
1759827517.4179666,0,-1.2049998044967651,-0.8299996256828308,-0.717694170748663,0.0,-1.527347809148513,-0.30811082712671634,-0.631805831536163,0.0
1759827517.428156,0,-1.2049998044967651,-0.8299996256828308,-0.7176951444950248,0.0,-1.568200700481015,-0.3163520529061885,-0.6487051224667449,0.0
1759827517.439609,0,-1.2049998044967651,-0.8299996256828308,-0.7176957074520196,0.0,-1.6006342241135423,-0.3228948454078015,-0.6621216404632062,0.0
1759827517.4500155,0,-1.2049998044967651,-0.8299996256828308,-0.7176963093561817,0.0,-1.6264814981762805,-0.3281089982960562,-0.6728136769360614,0.0
1759827517.460018,0,-1.2049998044967651,-0.8299996256828308,-0.7176968541690094,0.0,-1.6471395604992083,-0.3322763350552591,-0.6813591334232382,0.0
1759827517.4707808,0,-1.2049998044967651,-0.8299996256828308,-0.7176971902493943,0.0,-1.6636759237902063,-0.3356122042925992,-0.6881995994238918,0.0
1759827517.481768,0,-1.2049998044967651,-0.8299996256828308,-0.7176974478542189,0.0,-1.6769432103683626,-0.3382886049243595,-0.6936877724376166,0.0
1759827517.4929454,0,-1.2049998044967651,-0.8299996256828308,-0.7176976624106999,0.0,-1.6876127965381362,-0.3404409732324671,-0.6981013753653602,0.0
1759827517.5035665,0,-1.2049998044967651,-0.8299996256828308,-0.7176979371976593,0.0,-1.696220871381716,-0.3421774742731191,-0.7016622092840636,0.0
1759827517.5144951,0,-1.2049998044967651,-0.8299996256828308,-0.7176981517426348,0.0,-1.7039394371590908,-0.343734535259264,-0.7048550870556038,0.0
1759827517.5253205,0,-1.2049998044967651,-0.8299996256828308,-0.7176983638899195,0.0,-1.7100544445359278,-0.34496811150789436,-0.7073846335658556,0.0
1759827517.5361679,0,-1.2049998044967651,-0.8299996256828308,-0.7176985609804092,0.0,-1.714911436796828,-0.34594790922907503,-0.7093937869595893,0.0
1759827517.5466957,0,-1.2049998044967651,-0.8299996256828308,-0.717698780038571,0.0,-1.7187804444673274,-0.34672840149571976,-0.710994248618576,0.0
1759827517.5581205,0,-1.2049998044967651,-0.8299996256828308,-0.7176988907640833,0.0,-1.7218672178925243,-0.347351094183982,-0.7122711296531307,0.0
1759827517.5696487,0,-1.2049998044967651,-0.8299996256828308,-0.717699001894406,0.0,-1.7243362505418853,-0.34784917044875996,-0.7132924747696625,0.0
1759827517.5903444,0,-1.2049998044967651,-0.8299996256828308,-0.7176983147616962,0.0,-1.7262969425283838,-0.3482446994998918,-0.7141035386435857,0.0
1759827517.6019258,0,-1.2049998044967651,-0.8299996256828308,-0.7176986949399264,0.0,-1.7278769620056325,-0.34856343574653803,-0.714757132745523,0.0
1759827517.6134152,0,-1.2049998044967651,-0.8299996256828308,-0.7176990750879924,0.0,-1.7292923215829563,-0.34884895526438386,-0.7153426132950857,0.0
1759827517.624076,0,-1.2049998044967651,-0.8299996256828308,-0.7176994489157664,0.0,-1.7304142645078526,-0.34907528404196037,-0.7158067185095983,0.0
1759827517.634365,0,-1.2049998044967651,-0.8299996256828308,-0.7176997744326687,0.0,-1.7313062208807608,-0.34925521778997215,-0.7161756870146786,0.0
1759827517.6457133,0,-1.2049998044967651,-0.8299996256828308,-0.7176999555283032,0.0,-1.7320162899499172,-0.34939845953681226,-0.7164694156441364,0.0
1759827517.656027,0,-1.2049998044967651,-0.8299996256828308,-0.7177001827654692,0.0,-1.7325836931405438,-0.3495129213937195,-0.7167041288132802,0.0
1759827517.6661804,0,-1.2049998044967651,-0.8299996256828308,-0.7177003851519608,0.0,-1.7330382765537222,-0.3496046241942169,-0.7168921727215802,0.0
1759827517.6762772,0,-1.2049998044967651,-0.8299996256828308,-0.7177005567427308,0.0,-1.7334033656302836,-0.3496782733635027,-0.7170431962187955,0.0
1759827517.6865032,0,-1.2049998044967651,-0.8299996256828308,-0.7177006928154697,0.0,-1.7336972327012443,-0.34973755496639414,-0.7171647578749012,0.0
1759827517.6967587,0,-1.2049998044967651,-0.8299996256828308,-0.7177008094059366,0.0,-1.733934329284372,-0.3497853842976695,-0.717262835734417,0.0
1759827517.7075417,0,-1.2049998044967651,-0.8299996256828308,-0.717700882480088,0.0,-1.7341259667247544,-0.3498240431872236,-0.7173421088715825,0.0
1759827517.717548,0,-1.2049998044967651,-0.8299996256828308,-0.7177010015774741,0.0,-1.7342813828188544,-0.3498553951694081,-0.7174063986122551,0.0
1759827517.7288716,0,-1.2049998044967651,-0.8299996256828308,-0.7177010352852804,0.0,-1.7344232577225212,-0.34988401549652387,-0.7174650868762827,0.0
1759827517.7399154,0,-1.2049998044967651,-0.8299996256828308,-0.7177010948490352,0.0,-1.7345358360831236,-0.3499067258520787,-0.7175116562721382,0.0
1759827517.751111,0,-1.2049998044967651,-0.8299996256828308,-0.7177011543862584,0.0,-1.7346253878412794,-0.34992479106689794,-0.7175487004363346,0.0
1759827517.7613213,0,-1.2049998044967651,-0.8299996256828308,-0.7177012702404681,0.0,-1.7346968851939522,-0.34993921417886853,-0.7175782761780793,0.0
1759827517.772804,0,-1.2049998044967651,-0.8299996256828308,-0.7177013125457883,0.0,-1.7347540289311563,-0.3499507417458246,-0.7176019143737707,0.0
1759827517.8112233,0,-1.2049998044967651,-0.8299996256828308,-0.7177002001649591,0.0,-1.734798500248082,-0.3499597129141199,-0.7176203104700635,0.0
1759827517.8221974,0,-1.2049998044967651,-0.8299996256828308,-0.7177006579128502,0.0,-1.7348344784532932,-0.3499669707728079,-0.7176351932883217,0.0
1759827517.833596,0,-1.2049998044967651,-0.8299996256828308,-0.7177010567919435,0.0,-1.734867326815149,-0.34997359725034016,-0.7176487814091498,0.0
1759827517.8449438,0,-1.2049998044967651,-0.8299996256828308,-0.7177013504534103,0.0,-1.7348933424190889,-0.3499788453602992,-0.7176595430773053,0.0
1759827517.8561723,0,-1.2049998044967651,-0.8299996256828308,-0.7177015719490214,0.0,-1.7349140046919276,-0.34998301354644284,-0.717668090275523,0.0
1759827517.8670218,0,-1.2049998044967651,-0.8299996256828308,-0.7177017530476686,0.0,-1.734930465377404,-0.3499863341492465,-0.7176748994364835,0.0
1759827517.8778687,0,-1.2049998044967651,-0.8299996256828308,-0.7177018934944854,0.0,-1.7349436125300628,-0.349988986315345,-0.7176803379146534,0.0
1759827517.8886523,0,-1.2049998044967651,-0.8299996256828308,-0.7177020066030515,0.0,-1.7349541406982822,-0.3499911101555068,-0.7176846930183414,0.0
1759827517.8998754,0,-1.2049998044967651,-0.8299996256828308,-0.7177020849968904,0.0,-1.734962588932535,-0.34999281441201463,-0.7176881877322729,0.0
1759827517.9112453,0,-1.2049998044967651,-0.8299996256828308,-0.7177021478626937,0.0,-1.734969384795908,-0.3499941853368769,-0.7176909989230729,0.0
1759827517.9218,0,-1.2049998044967651,-0.8299996256828308,-0.7177022282590091,0.0,-1.734974870829567,-0.34999529203068835,-0.7176932682870232,0.0
1759827517.9326801,0,-1.2049998044967651,-0.8299996256828308,-0.7177022885358983,0.0,-1.734979804535213,-0.34999628730374815,-0.7176953091738334,0.0
1759827517.9435468,0,-1.2049998044967651,-0.8299996256828308,-0.7177023419258681,0.0,-1.7349837130250712,-0.34999707576072947,-0.7176969259677753,0.0
1759827517.9537861,0,-1.2049998044967651,-0.8299996256828308,-0.7177024067473621,0.0,-1.734986819360852,-0.34999770239971834,-0.7176982109410142,0.0
1759827517.9640772,0,-1.2049998044967651,-0.8299996256828308,-0.7177024616395737,0.0,-1.7349892940605829,-0.3499982016191996,-0.7176992346303873,0.0
1759827517.9746008,0,-1.2049998044967651,-0.8299996256828308,-0.7177025035536317,0.0,-1.734991269892441,-0.34999860020240664,-0.7177000519570518,0.0
1759827518.0122979,0,-1.2049998044967651,-0.8299996256828308,-0.7177019434284642,0.0,-1.7349928057625597,-0.34999891003243344,-0.7177006872882394,0.0
1759827518.0223818,0,-1.2049998044967651,-0.8299996256828308,-0.7177021721811805,0.0,-1.7349940465523033,-0.3499991603360983,-0.717701200555873,0.0
1759827518.0336685,0,-1.2049998044967651,-0.8299996256828308,-0.7177023568381671,0.0,-1.7349951633763312,-0.3499993856322443,-0.7177016625435941,0.0
1759827518.0450218,0,-1.2049998044967651,-0.8299996256828308,-0.7177024911792813,0.0,-1.7349960476682065,-0.34999956401983845,-0.7177020283415873,0.0
1759827518.0558717,0,-1.2049998044967651,-0.8299996256828308,-0.7177026007312719,0.0,-1.734996750097907,-0.34999970572050065,-0.7177023189100997,0.0
1759827518.0672455,0,-1.2049998044967651,-0.8299996256828308,-0.7177026753471427,0.0,-1.734997309200359,-0.3499998185078552,-0.7177025501895682,0.0
1759827518.078543,0,-1.2049998044967651,-0.8299996256828308,-0.7177027355832486,0.0,-1.734997755451131,-0.3499999085297178,-0.7177027347865792,0.0
1759827518.0891688,0,-1.2049998044967651,-0.8299996256828308,-0.7177027960613707,0.0,-1.7349981128300782,-0.34999998062352794,-0.7177028826206884,0.0
1759827518.0999858,0,-1.2049998044967651,-0.8299996256828308,-0.7177028424856182,0.0,-1.734998399691501,-0.35000003849188627,-0.7177030012843737,0.0
1759827518.1108577,0,-1.2049998044967651,-0.8299996256828308,-0.7177028802342279,0.0,-1.7349986305181937,-0.35000008505639685,-0.7177030967686174,0.0
1759827518.121593,0,-1.2049998044967651,-0.8299996256828308,-0.7177029148157246,0.0,-1.7349988351050927,-0.35000012632757177,-0.7177031813984541,0.0
1759827518.1323164,0,-1.2049998044967651,-0.8299996256828308,-0.7177029452416939,0.0,-1.7349989971411872,-0.35000015901500214,-0.7177032484266378,0.0
1759827518.143736,0,-1.2049998044967651,-0.8299996256828308,-0.717702962524328,0.0,-1.734999125713093,-0.3500001849517246,-0.7177033016119564,0.0
1759827518.1549582,0,-1.2049998044967651,-0.8299996256828308,-0.7177029828571975,0.0,-1.7349992280290776,-0.35000020559185807,-0.7177033439361967,0.0
1759827518.166337,0,-1.2049998044967651,-0.8299996256828308,-0.7177030012454129,0.0,-1.7349993096534302,-0.35000022205788284,-0.7177033777010942,0.0
1759827518.1775546,0,-1.2049998044967651,-0.8299996256828308,-0.7177030220376004,0.0,-1.7349993749560966,-0.35000023523134494,-0.7177034047143293,0.0
1759827518.1986642,0,-1.2049998044967651,-0.8299996256828308,-0.7177029247963524,0.0,-1.7349994267807558,-0.350000245685898,-0.7177034261522244,0.0
1759827518.2099612,0,-1.2049998044967651,-0.8299996256828308,-0.7177029777921575,0.0,-1.7349994685524637,-0.350000254112476,-0.7177034434315948,0.0
1759827518.2208261,0,-1.2049998044967651,-0.8299996256828308,-0.717703033761552,0.0,-1.7349995023255462,-0.35000026092549674,-0.7177034574022374,0.0
1759827518.2315323,0,-1.2049998044967651,-0.8299996256828308,-0.7177030799029946,0.0,-1.7349995328152386,-0.3500002670761615,-0.7177034700146662,0.0
1759827518.242968,0,-1.2049998044967651,-0.8299996256828308,-0.7177031089977479,0.0,-1.7349995569988923,-0.3500002719547134,-0.717703480018526,0.0
1759827518.2543705,0,-1.2049998044967651,-0.8299996256828308,-0.7177031337409456,0.0,-1.7349995762334525,-0.350000275834888,-0.7177034879751336,0.0
1759827518.2652483,0,-1.2049998044967651,-0.8299996256828308,-0.7177031605663267,0.0,-1.7349995915813803,-0.350000278931015,-0.717703494323989,0.0
1759827518.2765458,0,-1.2049998044967651,-0.8299996256828308,-0.7177031798573985,0.0,-1.7349996038539826,-0.35000028140675865,-0.7177034994006988,0.0
1759827518.28801,0,-1.2049998044967651,-0.8299996256828308,-0.7177031957596665,0.0,-1.7349996136917019,-0.350000283391315,-0.71770350347019,0.0
1759827518.2991827,0,-1.2049998044967651,-0.8299996256828308,-0.7177032134465069,0.0,-1.7349996216012067,-0.350000284986894,-0.717703506742052,0.0
1759827518.3105896,0,-1.2049998044967651,-0.8299996256828308,-0.7177032279357061,0.0,-1.7349996279753106,-0.3500002862727376,-0.7177035093787769,0.0
1759827518.3217669,0,-1.2049998044967651,-0.8299996256828308,-0.7177032436663708,0.0,-1.734999633701144,-0.35000028742780603,-0.7177035117473368,0.0
1759827518.3319442,0,-1.2049998044967651,-0.8299996256828308,-0.7177032661910268,0.0,-1.7349996382379467,-0.35000028834301217,-0.71770351362404,0.0
1759827518.3427513,0,-1.2049998044967651,-0.8299996256828308,-0.7177032806790393,0.0,-1.734999641839069,-0.3500002890694641,-0.7177035151136876,0.0
1759827518.353331,0,-1.2049998044967651,-0.8299996256828308,-0.7177032952171096,0.0,-1.7349996447055094,-0.35000028964770913,-0.7177035162994252,0.0
1759827518.3649247,0,-1.2049998044967651,-0.8299996256828308,-0.7177033012239457,0.0,-1.7349996469904514,-0.3500002901086489,-0.7177035172446189,0.0
1759827518.3759859,0,-1.2049998044967651,-0.8299996256828308,-0.7177033118985428,0.0,-1.734999648817857,-0.3500002904772902,-0.7177035180005471,0.0
1759827518.397928,0,-1.2049998044967651,-0.8299996256828308,-0.71770325312918,0.0,-1.7349996502660334,-0.35000029076942984,-0.7177035185996029,0.0
1759827518.4080667,0,-1.2049998044967651,-0.8299996256828308,-0.7177032894607916,0.0,-1.7349996514343677,-0.3500002910051171,-0.7177035190828984,0.0
1759827518.4192696,0,-1.2049998044967651,-0.8299996256828308,-0.7177033165580315,0.0,-1.7349996524748794,-0.3500002912150188,-0.7177035195133186,0.0
1759827518.4307873,0,-1.2049998044967651,-0.8299996256828308,-0.7177033361606817,0.0,-1.734999653299209,-0.3500002913813102,-0.7177035198543124,0.0
1759827518.4420724,0,-1.2049998044967651,-0.8299996256828308,-0.7177033536376278,0.0,-1.734999653954215,-0.35000029151344414,-0.7177035201252636,0.0
1759827518.453431,0,-1.2049998044967651,-0.8299996256828308,-0.7177033680499321,0.0,-1.7349996544760284,-0.3500002916187092,-0.7177035203411181,0.0
1759827518.465021,0,-1.2049998044967651,-0.8299996256828308,-0.7177033793792624,0.0,-1.7349996548927444,-0.3500002917027731,-0.7177035205134976,0.0
1759827518.4754186,0,-1.2049998044967651,-0.8299996256828308,-0.7177033955223759,0.0,-1.7349996552268605,-0.3500002917701741,-0.7177035206517087,0.0
1759827518.4856484,0,-1.2049998044967651,-0.8299996256828308,-0.7177034099646971,0.0,-1.7349996554954519,-0.3500002918243569,-0.7177035207628149,0.0
1759827518.4963517,0,-1.2049998044967651,-0.8299996256828308,-0.7177034197060621,0.0,-1.734999655711774,-0.3500002918679954,-0.7177035208522992,0.0
1759827518.5066962,0,-1.2049998044967651,-0.8299996256828308,-0.717703429804434,0.0,-1.7349996558865017,-0.35000029190324317,-0.7177035209245775,0.0
1759827518.516918,0,-1.2049998044967651,-0.8299996256828308,-0.7177034392043744,0.0,-1.7349996560439107,-0.35000029193499715,-0.7177035209896916,0.0
1759827518.528242,0,-1.2049998044967651,-0.8299996256828308,-0.7177034427730096,0.0,-1.7349996561685508,-0.3500002919601407,-0.7177035210412505,0.0
1759827518.5383873,0,-1.2049998044967651,-0.8299996256828308,-0.7177034516141774,0.0,-1.7349996562676295,-0.3500002919801278,-0.7177035210822357,0.0
1759827518.5485806,0,-1.2049998044967651,-0.8299996256828308,-0.717703459477109,0.0,-1.7349996563465757,-0.35000029199605354,-0.7177035211148927,0.0
1759827518.5588405,0,-1.2049998044967651,-0.8299996256828308,-0.7177034661776727,0.0,-1.734999656409628,-0.35000029200877303,-0.717703521140975,0.0
1759827518.5701444,0,-1.2049998044967651,-0.8299996256828308,-0.7177034683790069,0.0,-1.7349996564600525,-0.35000029201894506,-0.7177035211618337,0.0
1759827518.581428,0,-1.2049998044967651,-0.8299996256828308,-0.7177034713825936,0.0,-1.7349996565004857,-0.35000029202710164,-0.7177035211785594,0.0
1759827518.6121829,0,-1.2049998044967651,-0.8299996256828308,-0.7177034116360339,0.0,-1.7349996565323047,-0.35000029203352045,-0.7177035211917215,0.0
1759827518.6224113,0,-1.2049998044967651,-0.8299996256828308,-0.7177034386802212,0.0,-1.7349996565580994,-0.35000029203872396,-0.7177035212023918,0.0
1759827518.633655,0,-1.2049998044967651,-0.8299996256828308,-0.7177034605037989,0.0,-1.7349996565790355,-0.35000029204294736,-0.7177035212110523,0.0
1759827518.6448748,0,-1.2049998044967651,-0.8299996256828308,-0.7177034769823631,0.0,-1.7349996565984376,-0.35000029204686134,-0.7177035212190782,0.0
1759827518.656224,0,-1.2049998044967651,-0.8299996256828308,-0.7177034892754541,0.0,-1.7349996566138277,-0.35000029204996597,-0.7177035212254446,0.0
1759827518.6673841,0,-1.2049998044967651,-0.8299996256828308,-0.7177034995173202,0.0,-1.7349996566260708,-0.3500002920524358,-0.7177035212305091,0.0
1759827518.6776438,0,-1.2049998044967651,-0.8299996256828308,-0.7177035101250642,0.0,-1.7349996566358452,-0.35000029205440764,-0.7177035212345525,0.0
1759827518.6888268,0,-1.2049998044967651,-0.8299996256828308,-0.7177035163699017,0.0,-1.73499965664366,-0.35000029205598415,-0.7177035212377854,0.0
1759827518.6999547,0,-1.2049998044967651,-0.8299996256828308,-0.7177035217698595,0.0,-1.7349996566499253,-0.350000292057248,-0.717703521240377,0.0
1759827518.711375,0,-1.2049998044967651,-0.8299996256828308,-0.7177035259221967,0.0,-1.7349996566549593,-0.3500002920582635,-0.7177035212424594,0.0
1759827518.7227,0,-1.2049998044967651,-0.8299996256828308,-0.7177035300612893,0.0,-1.7349996566590151,-0.3500002920590817,-0.7177035212441372,0.0
1759827518.7335439,0,-1.2049998044967651,-0.8299996256828308,-0.7177035350316743,0.0,-1.7349996566622936,-0.350000292059743,-0.7177035212454932,0.0
1759827518.7449527,0,-1.2049998044967651,-0.8299996256828308,-0.7177035383275925,0.0,-1.7349996566649484,-0.3500002920602785,-0.7177035212465913,0.0
1759827518.7551906,0,-1.2049998044967651,-0.8299996256828308,-0.7177035438643208,0.0,-1.734999656667384,-0.3500002920607698,-0.7177035212475988,0.0
1759827518.7666214,0,-1.2049998044967651,-0.8299996256828308,-0.7177035463496129,0.0,-1.7349996566693149,-0.3500002920611593,-0.7177035212483975,0.0
1759827518.8066623,0,-1.2049998044967651,-0.8299996256828308,-0.7177034997756486,0.0,-1.7349996566708041,-0.3500002920614598,-0.7177035212490135,0.0
1759827518.812202,0,-1.2049998044967651,-0.8299996256828308,-0.7177035272816993,0.0,-1.7349996566720065,-0.35000029206170236,-0.7177035212495109,0.0
1759827518.8224475,0,-1.2049998044967651,-0.8299996256828308,-0.7177035429687884,0.0,-1.7349996566729737,-0.3500002920618975,-0.717703521249911,0.0
1759827518.8326385,0,-1.2049998044967651,-0.8299996256828308,-0.717703553963732,0.0,-1.7349996566737538,-0.35000029206205485,-0.7177035212502337,0.0
1759827518.8429012,0,-1.2049998044967651,-0.8299996256828308,-0.7177035619208781,0.0,-1.7349996566743842,-0.35000029206218203,-0.7177035212504945,0.0
1759827518.8541098,0,-1.2049998044967651,-0.8299996256828308,-0.7177035666053051,0.0,-1.7349996566748944,-0.35000029206228495,-0.7177035212507056,0.0
1759827518.8644023,0,-1.2049998044967651,-0.8299996256828308,-0.7177035716126667,0.0,-1.7349996566753088,-0.35000029206236855,-0.717703521250877,0.0
1759827518.8757393,0,-1.2049998044967651,-0.8299996256828308,-0.717703574312953,0.0,-1.7349987497243724,-0.35000108384275913,-0.7182532140725394,0.0013317786193776818
1759827518.887004,0,-1.2049998044967651,-0.8299996256828308,-0.7177035767731841,0.0,-1.7349953742195725,-0.35001673795054045,-0.7187432344183208,0.0025194293801993825
1759827518.8977845,0,-1.2049998044967651,-0.8299996256828308,-0.7177035796641906,0.0,-1.7349910880450847,-0.35004206789493786,-0.7191378193987722,0.00347577559852606
1759827518.9085274,0,-1.2049998044967651,-0.8299996256828308,-0.7177035822851359,0.0,-1.7349863360279063,-0.35007283357826185,-0.7194574769498758,0.004250521894454842
1759827518.9189863,0,-1.2049998044967651,-0.8299996256828308,-0.7177035849389899,0.0,-1.7349814112464852,-0.3501061813439026,-0.7197181185744577,0.004882232619364697
1759827518.9290328,0,-1.2049998044967651,-0.8299996256828308,-0.7177035877322044,0.0,-1.7349765033929274,-0.35014022607287243,-0.7199320896689614,0.005400829034150439
1759827518.93911,0,-1.2049998044967651,-0.8299996256828308,-0.7177035900840565,0.0,-1.734971726232238,-0.3501737714071557,-0.7201091624905739,0.005829995935651855
1759827518.9496055,0,-1.2049998044967651,-0.8299996256828308,-0.7177035916607011,0.0,-1.7349671385936185,-0.35020611299839255,-0.7202571738823483,0.006188727297851016
1759827518.9600027,0,-1.2049998044967651,-0.8299996256828308,-0.7177035932322084,0.0,-1.7349627715566192,-0.35023685746314465,-0.7203821309790189,0.006491582477888578
1759827518.9701655,0,-1.2049998044967651,-0.8299996256828308,-0.7177035949627992,0.0,-1.734958636681779,-0.3502658198833539,-0.7204887074529175,0.006749888951449135
1759827518.9803991,0,-1.2049998044967651,-0.8299996256828308,-0.7177035964846752,0.0,-1.7349547269818093,-0.3502929728120323,-0.7205807239842591,0.006972906813196164
1759827518.9907331,0,-1.2049998044967651,-0.8299996256828308,-0.7177035978044266,0.0,-1.7349510260648913,-0.35031838457363434,-0.7206612330362957,0.007168034247630271
1759827519.0020597,0,-1.2049998044967651,-0.8299996256828308,-0.7177035981571437,0.0,-1.7353883143805613,-0.3499756210191568,-0.7203000840134962,0.009654960550564083
1759827519.0122817,0,-1.2049998044967651,-0.8299996256828308,-0.7177035997340724,0.0,-1.7359003374198683,-0.34961097674955205,-0.7199086537682337,0.013924411036858271
1759827519.0235662,0,-1.2049998044967651,-0.8299996256828308,-0.71770360032931,0.0,-1.7362978057189247,-0.3493712125397711,-0.7196065917026193,0.017326365330885194
1759827519.034575,0,-1.2049998044967651,-0.8299996256828308,-0.7177036013036115,0.0,-1.736606222426208,-0.3492213154515925,-0.7193746661793811,0.020047339979691412
1759827519.0450232,0,-1.2049998044967651,-0.8299996256828308,-0.7177036028236827,0.0,-1.7368454027967406,-0.3491355962436212,-0.7191976612693342,0.022232439243111683
1759827519.0564873,0,-1.2049998044967651,-0.8299996256828308,-0.7177036034527386,0.0,-1.7370297536372343,-0.349096258626179,-0.7190652445907679,0.023993049459390382
1759827519.0675275,0,-1.2049998044967651,-0.8299996256828308,-0.7177036045281078,0.0,-1.7371712910059556,-0.3490895557337266,-0.7189679357137599,0.025418160285267097
1759827519.0782132,0,-1.2049998044967651,-0.8299996256828308,-0.7177036059030133,0.0,-1.7372792821792058,-0.34910556022143496,-0.718898386512761,0.026577155995988488
1759827519.0892758,0,-1.2049998044967651,-0.8299996256828308,-0.7177036069289215,0.0,-1.7373605841025166,-0.3491375136918901,-0.7188514814057854,0.02752444237509086
1759827519.099351,0,-1.2049998044967651,-0.8299996256828308,-0.7177036086176951,0.0,-1.7374660672541995,-0.34912191230521367,-0.718734769166346,0.028318986354191594
1759827519.1104228,0,-1.2049998044967651,-0.8299996256828308,-0.7177036094452234,0.0,-1.7376390248718536,-0.34904935371453394,-0.7185328274576935,0.02914862897465408
1759827519.1213386,0,-1.2049998044967651,-0.8299996256828308,-0.7177036103695151,0.0,-1.737772355481614,-0.34900613300206257,-0.7183795885284602,0.029821495627434767
1759827519.1314874,0,-1.2049998044967651,-0.8299996256828308,-0.7177036117761162,0.0,-1.7378749354813186,-0.34898420741602487,-0.7182641903931304,0.03037082392154043
1759827519.141664,0,-1.2049998044967651,-0.8299996256828308,-0.7177036130146632,0.0,-1.737953323051105,-0.34897805869706267,-0.7181788192246967,0.030822917500496424
1759827519.1518958,0,-1.2049998044967651,-0.8299996256828308,-0.7177036140735016,0.0,-1.738012611040857,-0.3489836304243769,-0.7181173841394721,0.03119840017460297
1759827519.1626735,0,-1.2049998044967651,-0.8299996256828308,-0.7177036147227813,0.0,-1.7380566077039328,-0.34899821149266935,-0.7180754734128634,0.03151396296497365
1759827519.1728816,0,-1.2049998044967651,-0.8299996256828308,-0.7177036157002661,0.0,-1.7380886522323464,-0.34901921492528853,-0.718048809910321,0.03178165401540666
1759827519.1831298,0,-1.2049998044967651,-0.8299996256828308,-0.7177036165940844,0.0,-1.7381111577997865,-0.34904504834729627,-0.7180344714790527,0.0320115352726581
1759827519.1933777,0,-1.2049998044967651,-0.8299996256828308,-0.7177036174206587,0.0,-1.7381260286307882,-0.3490745293585079,-0.7180301268151299,0.03221151973881078
1759827519.2064466,0,-1.2049998044967651,-0.8299996256828308,-0.7177036168024102,0.0,-1.7381338883838946,-0.3491084362626785,-0.7180359649999335,0.03239129812672747
1759827519.216906,0,-1.2049998044967651,-0.8299996256828308,-0.7177036178130295,0.0,-1.7381368727215607,-0.3491444070636007,-0.7180483010098976,0.03255219515635472
1759827519.227538,0,-1.2049998044967651,-0.8299996256828308,-0.717703618735829,0.0,-1.738135833655943,-0.3491821303740891,-0.7180661568600833,0.032698459403630434
1759827519.2377932,0,-1.2049998044967651,-0.8299996256828308,-0.7177036197425153,0.0,-1.7394275669304258,-0.3481142126489798,-0.7169714310781985,0.03719740003176944
1759827519.2480307,0,-1.2049998044967651,-0.8299996256828308,-0.7177036206396359,0.0,-1.7404391855347277,-0.34732367424048904,-0.7161129880443456,0.04077973513706341
1759827519.2589493,0,-1.2049998044967651,-0.8299996256828308,-0.7177036211493615,0.0,-1.741230384183512,-0.3467438313907819,-0.7154417265452803,0.043640330552289525
1759827519.2697008,0,-1.2049998044967651,-0.8299996256828308,-0.7177036217340103,0.0,-1.7418489805280066,-0.34632303339136106,-0.7149177771726917,0.04593327948713742
1759827519.279841,0,-1.2049998044967651,-0.8299996256828308,-0.7177036225591865,0.0,-1.7423326241040544,-0.34602181334048715,-0.7145094313928122,0.04777889333887306
1759827519.2901242,0,-1.2049998044967651,-0.8299996256828308,-0.7177036232500313,0.0,-1.7427096035974028,-0.3458115403008888,-0.7141930902375567,0.049270291706785756
1759827519.3009336,0,-1.2049998044967651,-0.8299996256828308,-0.7177036236839047,0.0,-1.7430016332878198,-0.3456711002051365,-0.7139507281432779,0.05048067881298145
1759827519.3125422,0,-1.2049998044967651,-0.8299996256828308,-0.7177036238484931,0.0,-1.7432254966162175,-0.3455849000250957,-0.7137684732990628,0.05146806284094848
1759827519.3229313,0,-1.2049998044967651,-0.8299996256828308,-0.7177036245351243,0.0,-1.7433964194601144,-0.3455385574864788,-0.7136327887310794,0.05227797765745759
1759827519.3333042,0,-1.2049998044967651,-0.8299996256828308,-0.7177036251923603,0.0,-1.7435250943565839,-0.3455227004518127,-0.7135345680744595,0.05294625804101954
1759827519.3439152,0,-1.2049998044967651,-0.8299996256828308,-0.7177036257102891,0.0,-1.7437186784454846,-0.3453936565297725,-0.7133373018978377,0.053520479808984195
1759827519.354821,0,-1.2049998044967651,-0.8299996256828308,-0.7177036261091008,0.0,-1.7440828368811327,-0.34512904685655454,-0.7129163561996263,0.05419359550044574
1759827519.3649805,0,-1.2049998044967651,-0.8299996256828308,-0.7177036267400787,0.0,-1.7443659869317294,-0.34493555783014135,-0.7125889824227404,0.05474351899577833
1759827519.376442,0,-1.2049998044967651,-0.8299996256828308,-0.7177036269383859,0.0,-1.7445843665770653,-0.3447987649015703,-0.7123368878438752,0.05519783029467853
1759827519.3868709,0,-1.2049998044967651,-0.8299996256828308,-0.7177036274773894,0.0,-1.7447524603683922,-0.3447048988774828,-0.7121433196920488,0.05557605414286927
1759827519.4131157,0,-1.2049998044967651,-0.8299996256828308,-0.7177036239315218,0.0,-1.7448697554232966,-0.3446625234427568,-0.7120112517457018,0.05591198825083701
1759827519.417628,0,-1.2049998044967651,-0.8299996256828308,-0.7177036270403114,0.0,-1.7449617925663643,-0.3446365644438648,-0.7119076443563773,0.056191439085112226
1759827519.4279115,0,-1.2049998044967651,-0.8299996256828308,-0.7177036282202458,0.0,-1.745029721155419,-0.3446298390300952,-0.7118322673854718,0.056432460009442735
1759827519.438665,0,-1.2049998044967651,-0.8299996256828308,-0.717703628931968,0.0,-1.74507801256841,-0.3446389319893763,-0.7117800566924817,0.05664368547500238
1759827519.4486973,0,-1.2049998044967651,-0.8299996256828308,-0.7177036296693622,0.0,-1.745110946887778,-0.3446599060725754,-0.7117459622231694,0.05683046042046066
1759827519.4594803,0,-1.2049998044967651,-0.8299996256828308,-0.7177036301143502,0.0,-1.7465681215457047,-0.3434097787058393,-0.7105131127060701,0.057256728009666795
1759827519.470435,0,-1.2049998044967651,-0.8299996256828308,-0.7177036304683249,0.0,-1.747713508887422,-0.34243575008687155,-0.7095462779919105,0.057610363184938194
1759827519.4816778,0,-1.2049998044967651,-0.8299996256828308,-0.7177036307466373,0.0,-1.7486135377693972,-0.3416789882141495,-0.7087892115581585,0.05790758742168939
1759827519.491947,0,-1.2049998044967651,-0.8299996256828308,-0.7177036312216813,0.0,-1.7493220240890623,-0.3410912510569733,-0.708195869463379,0.05815960165975919
1759827519.5022037,0,-1.2049998044967651,-0.8299996256828308,-0.7177036316473568,0.0,-1.749879097049346,-0.3406370712387451,-0.7077321810595985,0.05837615540051636
1759827519.5128994,0,-1.2049998044967651,-0.8299996256828308,-0.7177036319378161,0.0,-1.7503155424278822,-0.34028953367044323,-0.7073721322799846,0.0585654731641909
1759827519.5236504,0,-1.2049998044967651,-0.8299996256828308,-0.7177036322010526,0.0,-1.750656090247538,-0.3400268584244523,-0.7070946751292588,0.058733585007686155
1759827519.5339093,0,-1.2049998044967651,-0.8299996256828308,-0.7177036325438877,0.0,-1.7509208247232384,-0.33983107787449973,-0.7068825106446415,0.05888451111490663
1759827519.5442362,0,-1.2049998044967651,-0.8299996256828308,-0.7177036328453212,0.0,-1.7511248430452642,-0.3396889959462365,-0.7067227990309017,0.05902213884313537
1759827519.554997,0,-1.2049998044967651,-0.8299996256828308,-0.7177036330501867,0.0,-1.751279663664524,-0.3395907855263036,-0.7066058622108943,0.059150077020275256
1759827519.5651927,0,-1.2049998044967651,-0.8299996256828308,-0.7177036333442928,0.0,-1.7515154027602382,-0.33935590299141477,-0.7063817223925642,0.059197903616288725
1759827519.5758667,0,-1.2049998044967651,-0.8299996256828308,-0.7177036335438984,0.0,-1.7519551340506847,-0.33896181194898767,-0.705881625431875,0.05928531600352625
1759827519.5861762,0,-1.2049998044967651,-0.8299996256828308,-0.7177036337945566,0.0,-1.7522980914247368,-0.3386604186874669,-0.705491381072579,0.05937046355209522
1759827519.5974948,0,-1.2049998044967651,-0.8299996256828308,-0.7177036338881919,0.0,-1.75256392210465,-0.3384336772010589,-0.7051888592765543,0.05945561868485056
1759827519.609942,0,-1.2049998044967651,-0.8299996256828308,-0.7177036338571554,0.0,-1.752767973766011,-0.3382675804953553,-0.7049567543790072,0.0595428354709166
1759827519.6200745,0,-1.2049998044967651,-0.8299996256828308,-0.7177036342068845,0.0,-1.7529250097091222,-0.33814674987725274,-0.7047782033024764,0.059628686310339934
1759827519.6301818,0,-1.2049998044967651,-0.8299996256828308,-0.7177036345299754,0.0,-1.7530446533882,-0.3380620963963434,-0.7046423045313946,0.05971373989486271
1759827519.6404212,0,-1.2049998044967651,-0.8299996256828308,-0.7177036347889647,0.0,-1.7531343479379125,-0.33800667114588556,-0.7045406233625474,0.05979869194323677
1759827519.6506126,0,-1.2049998044967651,-0.8299996256828308,-0.71770363502152,0.0,-1.75320008430154,-0.3379747836539762,-0.704466352319767,0.05988383503020988
1759827519.6621127,0,-1.2049998044967651,-0.8299996256828308,-0.7177036350785606,0.0,-1.753245637631824,-0.33796360208796977,-0.7044152621956282,0.05997153002217335
1759827519.672144,0,-1.2049998044967651,-0.8299996256828308,-0.717703635326858,0.0,-1.7532759094533807,-0.33796756781851467,-0.7043816867583689,0.060059391752606654
1759827519.6822648,0,-1.2049998044967651,-0.8299996256828308,-0.7177036355453055,0.0,-1.7532937129194155,-0.3379841055300011,-0.7043624269873725,0.0601478863824088
1759827519.6929138,0,-1.2049998044967651,-0.8299996256828308,-0.7177036356832378,0.0,-1.754860076116125,-0.33662321517240335,-0.7029941891699548,0.05989533365595651
1759827519.703741,0,-1.2049998044967651,-0.8299996256828308,-0.7177036358008788,0.0,-1.7560921607110078,-0.3355547359393696,-0.7019199277594604,0.05971148287161847
1759827519.7138958,0,-1.2049998044967651,-0.8299996256828308,-0.7177036359916578,0.0,-1.7570629328631164,-0.3347155537931903,-0.7010755217261058,0.059580805009395346
1759827519.7241518,0,-1.2049998044967651,-0.8299996256828308,-0.7177036361582587,0.0,-1.7578274550725315,-0.33405827592098936,-0.7004127360345949,0.05949253198188712
1759827519.7344234,0,-1.2049998044967651,-0.8299996256828308,-0.7177036363096363,0.0,-1.7584289017924117,-0.33354554837230577,-0.6998937018237965,0.059438114509365966
1759827519.7448077,0,-1.2049998044967651,-0.8299996256828308,-0.7177036364409801,0.0,-1.7589009202064942,-0.33314820543270146,-0.699488912705669,0.05941102628486953
1759827519.7552104,0,-1.2049998044967651,-0.8299996256828308,-0.7177036365658793,0.0,-1.7592700506846746,-0.3328431050027163,-0.699175056589642,0.05940600401091792
1759827519.765989,0,-1.2049998044967651,-0.8299996256828308,-0.7177036366562586,0.0,-1.759556693557218,-0.33261260171411533,-0.6989342982794562,0.059419503205067094
1759827519.776575,0,-1.2049998044967651,-0.8299996256828308,-0.7177036367687409,0.0,-1.75977765351159,-0.33244178912704225,-0.698751789502586,0.059447833083631
1759827519.7872818,0,-1.2049998044967651,-0.8299996256828308,-0.7174067323721446,0.005235987755982988,-1.7599457923468536,-0.33231938936300764,-0.6986162395316137,0.05948859369547368
1759827519.7987788,0,-1.2049998044967651,-0.8299996256828308,-0.7174060847551749,0.005235987755982988,-1.7600705204861438,-0.3322375229818458,-0.6985195664566756,0.059541010809316314
1759827519.810854,0,-1.204977015185865,-0.830021738724377,-0.7173954948540173,0.005462372338041457,-1.7601595532135257,-0.3321896138237823,-0.6984550905936076,0.05960419815694897
1759827519.8211913,0,-1.2042867644067006,-0.8295628891832183,-0.7169366261510426,0.006065794832252751,-1.7606521114365765,-0.33171962588365633,-0.6978784818779843,0.059560097405313914
1759827519.8314736,0,-1.2042838977422714,-0.8295653997931376,-0.7169384291236557,0.006065794832252751,-1.7610362079338102,-0.3313571780427245,-0.6974277871083889,0.05954165177415713
1759827519.8429303,0,-1.204282733915562,-0.8295664188667345,-0.7169580625016236,0.006065794832252751,-1.7613339349899217,-0.3310814264726048,-0.6970773932599249,0.059545624070349544
1759827519.8539498,0,-1.20428231500583,-0.8295667857364623,-0.7169261047883799,0.006065794832252751,-1.7615640481458963,-0.3308737938152855,-0.6968055865132351,0.059566914581216865
1759827519.8644502,0,-1.2042821854241474,-0.8295668993016927,-0.7169389691285285,0.006065794832252751,-1.7617411491916075,-0.3307197011184807,-0.6965954521769111,0.059601403426326145
1759827519.8756964,0,-1.204282092204324,-0.8295669808476622,-0.7169087699676318,0.006065794832252751,-1.7618756035079552,-0.33060935228942273,-0.69643492650285,0.05964793678323814
1759827519.8871405,0,-1.2042820449949627,-0.8295670221225824,-0.7169409632660788,0.006065794832252751,-1.7619759824912355,-0.33053435518806235,-0.6963140426796052,0.059704768235887766
1759827519.8979,0,-1.2042820670921441,-0.829567002854385,-0.7169273213574832,0.006065794832252751,-1.7620496541297972,-0.33048702911567335,-0.6962242622444739,0.059769082318943303
1759827519.9090495,0,-1.2042820526782492,-0.8295670154450662,-0.7169219905059561,0.006065794832252751,-1.7621016150835154,-0.33046262144882715,-0.6961597491874649,0.059840427775814276
1759827519.9191484,0,-1.2042821087585356,-0.8295669664901197,-0.716959519867655,0.006065794832252751,-1.76213682507576,-0.33045564072685585,-0.6961147728901703,0.059916049783370395
1759827519.9299378,0,-1.2042820896992736,-0.829566983128959,-0.7169670268858003,0.006065794832252751,-1.7631627106510799,-0.3295687881408319,-0.6951272997615506,0.06002820140188687
1759827519.9406893,0,-1.2044020214224296,-0.8296651864016421,-0.716986707122813,0.006579817637512516,-1.764577504339053,-0.3283756359393746,-0.6938363294873509,0.0603376049402452
1759827519.9519796,0,-1.2044019879004841,-0.8296652156652838,-0.7169797591965242,0.006579817637512516,-1.7656886877444316,-0.32744599740336516,-0.6928226943813567,0.06060143501611475
1759827519.962052,0,-1.2044020464951575,-0.8296651645133392,-0.7170040095642894,0.006579817637512516,-1.7665635864104043,-0.3267209202670616,-0.692025001335266,0.0608281330799015
1759827519.9722176,0,-1.2044020634248078,-0.8296651497338156,-0.7169968145526133,0.006579817637512516,-1.7672517581056644,-0.3261576478965176,-0.691398229849268,0.061025963581299206
1759827519.9823728,0,-1.2044020704924434,-0.8296651435638722,-0.71699785756444,0.006579817637512516,-1.7677921443553701,-0.3257225464221428,-0.6909069420005525,0.06120126770957699
1759827519.9931438,0,-1.204402037087285,-0.8296651727259171,-0.7170141458910293,0.006579817637512516,-1.76821433976333,-0.32539041584226536,-0.6905242829404982,0.06135998270549394
1759827520.0154636,0,-1.1994692255246986,-0.8344050355459687,-0.712794485204987,0.05384206807134713,-1.768526763550498,-0.3251604723841001,-0.6902445715475349,0.06152388158467401
1759827520.0215857,0,-1.1978460680603968,-0.8357942012740728,-0.7099367485014879,0.05384206807134713,-1.7687738478152026,-0.32498425745806875,-0.6900240295812536,0.06166773362523379
1759827520.0329533,0,-1.1971613868711857,-0.8365545394563655,-0.7075110254539297,0.054778323294240386,-1.7693787978493414,-0.3244492891007129,-0.6893242949747529,0.061778637217986265
1759827520.043008,0,-1.196913489397182,-0.83676427595528,-0.7059295846184236,0.054778323294240386,-1.7698513050831532,-0.32403694213903705,-0.688775380209276,0.06188379372704961
1759827520.0532212,0,-1.19681585324893,-0.8368457029233216,-0.7047571889805552,0.054778323294240386,-1.7702195621293666,-0.3237214709682695,-0.6883453006761933,0.06198502677345069
1759827520.0635023,0,-1.1967770706030794,-0.836877205785156,-0.7039291876028878,0.054778323294240386,-1.7705056219455453,-0.3234826704773462,-0.688009009576964,0.062083633849035556
1759827520.0738652,0,-1.1967607289554894,-0.8368899101958206,-0.7033181622840715,0.054778323294240386,-1.7707266710422342,-0.323304785453401,-0.6877469567227882,0.06218066857968331
1759827520.0841897,0,-1.1967547365186435,-0.8368941076927268,-0.702897457201575,0.054778323294240386,-1.770896245364983,-0.32317533279800686,-0.6875437355449777,0.0622767705711874
1759827520.0944283,0,-1.1967534389187755,-0.8368945616876621,-0.70259014399081,0.054778323294240386,-1.7710249747648015,-0.3230844721756877,-0.6873872357635589,0.06237236680771216
1759827520.104663,0,-1.1967528611385618,-0.8368945864818527,-0.702359243893116,0.054778323294240386,-1.7711211268871834,-0.3230245829768898,-0.6872680150455373,0.06246793699790999
1759827520.1148722,0,-1.1967528961862275,-0.8368942306497289,-0.7022168758225843,0.054778323294240386,-1.7711912183877245,-0.3229896427625061,-0.6871786221124373,0.06256383285459273
1759827520.1252806,0,-1.1967500825096808,-0.836896373607951,-0.7020931872859588,0.054778323294240386,-1.7712402092829147,-0.32297518787308827,-0.6871133469404573,0.06266073947181777
1759827520.1354527,0,-1.1967522452350001,-0.8368943995192587,-0.7020640707060432,0.054778323294240386,-1.7712723477250591,-0.3229771552282797,-0.6870673493959479,0.06275845207921672
1759827520.1464,0,-1.1967422871489188,-0.836902681958609,-0.7019832941787141,0.054778323294240386,-1.7712902276185676,-0.3229935963617788,-0.6870375365839505,0.06285862949408146
1759827520.1572173,0,-1.196662902657607,-0.8371254832943247,-0.7017049539948763,0.056001902464948114,-1.7728501444577665,-0.3216820262317203,-0.6855112194584954,0.06318908771848031
1759827520.1680827,0,-1.1966614565738325,-0.8371266622285315,-0.7016834743136144,0.056001902464948114,-1.7740748460902607,-0.3206592345621785,-0.684311198675998,0.06347563301520677
1759827520.1788201,0,-1.1966626825076165,-0.8371256162594513,-0.7016981351452921,0.056001902464948114,-1.7750367615583582,-0.3198629754043196,-0.6833673203806563,0.0637279548351142
1759827520.189158,0,-1.1966687051639575,-0.8371205532473904,-0.7017186741543973,0.056001902464948114,-1.7757925645970638,-0.319244387227035,-0.682624605629257,0.06395300998891675
1759827520.199293,0,-1.196673835352792,-0.8371162582289968,-0.7017600883095789,0.056001902464948114,-1.7763859275644964,-0.3187659028221979,-0.6820406453215719,0.06415658267110767
1759827520.234983,0,-1.1874144052087356,-0.8449176130409467,-0.6888258004370891,0.08881373517911255,-1.7768127928713922,-0.31844537708325676,-0.6816206073998412,0.0643993720214883
1759827520.2464151,0,-1.1844697175274632,-0.8472547379818985,-0.680259773375018,0.08881373517911255,-1.7771447720678868,-0.3182058942561159,-0.68129334795186,0.06462329932291086
1759827520.2568214,0,-1.1833627490456853,-0.8481223055142453,-0.6741628842134236,0.08881373517911255,-1.7774022093186144,-0.318029652475896,-0.6810390476879342,0.06483050075601503
1759827520.2678537,0,-1.1825731596340574,-0.8488861453706239,-0.668966171785371,0.09048928058250659,-1.7780107824100506,-0.31749962544256094,-0.6802762547478373,0.06642563749057105
1759827520.278084,0,-1.182420248547845,-0.8489979575895666,-0.6659548612364673,0.09048928058250659,-1.7784833237058313,-0.3171064840346538,-0.6796757821498605,0.0677297693291058
1759827520.2885063,0,-1.1823549010551395,-0.8490424085076334,-0.6637794210615974,0.09048928058250659,-1.7788491173173675,-0.31681897276140003,-0.6792032944171953,0.06880623619622438
1759827520.2987807,0,-1.1823319176293736,-0.849055280149738,-0.6622309358643207,0.09048928058250659,-1.779131248861178,-0.31661276935144567,-0.6788316592642307,0.06970362450121846
1759827520.3094742,0,-1.182311763059567,-0.8490670743830661,-0.6611357850773852,0.09048928058250659,-1.7793471021605953,-0.31647011430087313,-0.6785401926549954,0.07046153208084098
1759827520.3200438,0,-1.1823062646487423,-0.8490685751596363,-0.660350304109449,0.09048928058250659,-1.7795107388486842,-0.316376686906211,-0.6783122057166944,0.07110950497794287
1759827520.3302608,0,-1.1823122298857,-0.8490621183427242,-0.6598474417290997,0.09048928058250659,-1.779633310391003,-0.31632121197359575,-0.6781344587067323,0.07166992588198606
1759827520.3411615,0,-1.1822974272070963,-0.8490720705432359,-0.6594384252110195,0.09048928058250659,-1.77972264671087,-0.31629642024596993,-0.6779973051613817,0.07216380384642462
1759827520.3512697,0,-1.1823109001241092,-0.8490609124383869,-0.659251913724031,0.09048928058250659,-1.7797861097210175,-0.3162948059038288,-0.6778920954481042,0.07260282750873948
1759827520.362514,0,-1.182288129660747,-0.8490776605162209,-0.6590021249068112,0.09048928058250659,-1.7798279049654713,-0.316313112779991,-0.6778133072234301,0.07300289484061165
1759827520.372682,0,-1.1823056549721267,-0.8490639559185867,-0.6589723032571566,0.09048928058250659,-1.7798531046084016,-0.31634598982732387,-0.6777551160974051,0.0733688934743109
1759827520.3834643,0,-1.1819962568346754,-0.849442609370059,-0.6580582146996616,0.09184206712334804,-1.781422838926621,-0.31506896331886214,-0.6753262205402153,0.07267845429397876
1759827520.394269,0,-1.1819925326524956,-0.8494453805328392,-0.658053308477982,0.09184206712334804,-1.7826568083961687,-0.3140623926747452,-0.6734126607129756,0.07217131823126888
1759827520.4129179,0,-1.1711400137062702,-0.8575538752777567,-0.6429317836604821,0.12211945996987826,-1.783611299911551,-0.3132887310774459,-0.6719271910976179,0.07184235673944371
1759827520.4174557,0,-1.1674969258165748,-0.8601418696802295,-0.6328711469680923,0.12211945996987826,-1.784373661083776,-0.31266863146072676,-0.6707382426018818,0.07159538436112818
1759827520.4279437,0,-1.165891046327405,-0.8612689691621818,-0.6246219510245424,0.12211945996987826,-1.784972450303965,-0.31218457159806623,-0.6698009582939554,0.07143879263843432
1759827520.438256,0,-1.16527550956583,-0.8616875260944127,-0.6186774508760747,0.12211945996987826,-1.785441751873881,-0.31180933391840776,-0.6690630223227068,0.07135396692842015
1759827520.4483707,0,-1.1650414318853897,-0.8618371415852558,-0.6144469753550188,0.12211945996987826,-1.7858082879317265,-0.31152135076385756,-0.668483384505527,0.07132621403840862
1759827520.4585438,0,-1.164945832297348,-0.8618917569519927,-0.6113801717962837,0.12211945996987826,-1.7860926908025152,-0.31130397634382484,-0.6680302785796983,0.07134501157218023
1759827520.4687023,0,-1.1649068710306867,-0.8619094505789306,-0.6091997591865352,0.12211945996987826,-1.7863113336750516,-0.3111438359680413,-0.6676784832038272,0.07140178606543177
1759827520.478934,0,-1.1642723834214717,-0.8624982639622242,-0.6058881400815725,0.12385561690690942,-1.7868843115525135,-0.3106344914059122,-0.6665876926802033,0.07287723415923877
1759827520.4890897,0,-1.1642661293870473,-0.8624975183980621,-0.6047965744351981,0.12385561690690942,-1.7873275919866412,-0.310256669515735,-0.6657287267765283,0.07410175938393129
1759827520.4993966,0,-1.1642574259604417,-0.8624998217200132,-0.6040327509040498,0.12385561690690942,-1.7876692554865428,-0.30998061647862324,-0.6650523661965673,0.07513071174409938
1759827520.509544,0,-1.1642590502277679,-0.8624962893796616,-0.6035499938179896,0.12385561690690942,-1.787931389194247,-0.3097831450062228,-0.6645198118608734,0.07600596713433917
1759827520.519818,0,-1.1642547941352537,-0.8624975123382328,-0.603217774299128,0.12385561690690942,-1.7881308427100684,-0.30964693337367166,-0.6641011380467521,0.07676150205759177
1759827520.5298314,0,-1.1642621196811713,-0.8624916072678572,-0.6030434056797878,0.12385561690690942,-1.7882810822123378,-0.3095581619792441,-0.6637724823015713,0.07742214478719112
1759827520.5410724,0,-1.1642215470441124,-0.8625180523844876,-0.6027866862096705,0.12385561690690942,-1.7883912799167587,-0.3095082853069066,-0.6635166307353954,0.07801469471153759
1759827520.551905,0,-1.164220312620092,-0.8625184162795674,-0.6027178448013891,0.12385561690690942,-1.7884700287630662,-0.3094885720912455,-0.6633183678401114,0.07855252961482757
1759827520.562639,0,-1.1642233333096677,-0.8625162486701435,-0.6027011516742374,0.12385561690690942,-1.7885237707947197,-0.3094926935575879,-0.663166051086865,0.07904762844170331
1759827520.572831,0,-1.1642436897346033,-0.862502775100459,-0.6028503760596879,0.12385561690690942,-1.7885579167541397,-0.30951514945699765,-0.6630501265671701,0.07950708001207928
1759827520.5832016,0,-1.1642453471702434,-0.8625019903915023,-0.6029085307723041,0.12385561690690942,-1.7885761269647598,-0.30955262628098007,-0.6629636691442232,0.07994019117617532
1759827520.5936875,0,-1.1642420959827846,-0.8625045470900795,-0.6030107355851445,0.12385561690690942,-1.7895451833262555,-0.3087775677550075,-0.6604271751357743,0.07995813332538401
1759827520.603939,0,-1.1637505927929102,-0.8629835929292279,-0.6016892711372009,0.1252520293643678,-1.790873706406615,-0.30773949329618766,-0.6572426073338906,0.08035581178368617
1759827520.6317434,0,-1.1511057888222087,-0.8709131590683633,-0.582494638419616,0.12016851031658995,-1.7918764777791214,-0.3069733172053157,-0.6548105795144249,0.08081476633862296
1759827520.6420155,0,-1.1468378801037928,-0.8735519656777563,-0.5700861794471843,0.12016851031658995,-1.792663036190541,-0.3063794753295959,-0.6528860179709907,0.0812382257508421
1759827520.6522074,0,-1.1451995594082083,-0.874546271728987,-0.5611741999895462,0.12016851031658995,-1.7932789479188787,-0.3059223103760173,-0.6513633248821663,0.0816343259543128
1759827520.662331,0,-1.1445685793204328,-0.8749161806110705,-0.5548574841755147,0.12011227125632053,-1.7937597883411756,-0.3055739063146406,-0.6501597600029888,0.08200951659358804
1759827520.6730452,0,-1.1443016359045788,-0.8750635143645229,-0.5502136009509727,0.12016851031658995,-1.7941324125928655,-0.3053135967467015,-0.6492122891696974,0.08237240861969783
1759827520.683327,0,-1.144210856327334,-0.8751064942361084,-0.54700120166168,0.12016851031658995,-1.7944194925017534,-0.3051231732171887,-0.6484680364598064,0.08272449464302503
1759827520.6935058,0,-1.144177125077038,-0.8751177631053229,-0.5447439078939302,0.12016851031658995,-1.7946383361824831,-0.3049888868714512,-0.6478863365704495,0.08306864082676686
1759827520.7038589,0,-1.144156286912486,-0.8751234411097658,-0.5431390848627504,0.12016851031658995,-1.7948022065291285,-0.3049003667174052,-0.6474357459481653,0.08340866141691647
1759827520.7151048,0,-1.1441156794871354,-0.8751419890465749,-0.5418338240867527,0.12016851031658995,-1.7950749007053302,-0.3046416800181944,-0.6468014489302122,0.08420161231369272
1759827520.7254496,0,-1.143325800877224,-0.8757770250279062,-0.5388331327485502,0.12059023403930404,-1.795548614331716,-0.3042484091379382,-0.6453314565209127,0.08502734233291162
1759827520.7358215,0,-1.1433301216241114,-0.8757723229149482,-0.5383644976893025,0.12066891790658761,-1.795912957995407,-0.3039566488512494,-0.6441719841834171,0.08575040933555339
1759827520.7461755,0,-1.1433321211045226,-0.8757698201177281,-0.5381011742272293,0.12044528797673244,-1.7961915931643642,-0.3037444277192789,-0.6432571133836325,0.08639390010054405
1759827520.756873,0,-1.14332061441986,-0.8757754814983434,-0.5378304741711016,0.12106070538938489,-1.796402483776138,-0.3035953367387109,-0.6425360180389614,0.0869780378548401
1759827520.7671797,0,-1.1433298607637374,-0.8757697280753729,-0.5377749295036508,0.1211960918519651,-1.7965603483678652,-0.3034955654101113,-0.6419677155635475,0.08751434804031226
1759827520.7778468,0,-1.1433208416958893,-0.8757748164705024,-0.5377758397335227,0.12085297024125305,-1.7966758870575126,-0.30343551545665814,-0.6415212714192687,0.08801640264843563
1759827520.7880418,0,-1.143334063034056,-0.8757674080111088,-0.5379032243631617,0.12062605084966964,-1.7967582456918072,-0.30340651543856195,-0.6411712158701617,0.08848979403474336
1759827520.7987864,0,-1.1433199678668542,-0.8757757329143605,-0.5379144490009645,0.12088169885248065,-1.7968136112845667,-0.3034032903011622,-0.6408988491933856,0.0889453363031131
1759827520.8150582,0,-1.128714421791017,-0.8838758118510464,-0.5188042073573023,0.16402154151270967,-1.7968422088997593,-0.3034292132580051,-0.6406951922341205,0.08942444563195139
1759827520.8205788,0,-1.1237383886644285,-0.8864770524227105,-0.5061111713390316,0.1629242696971195,-1.7968590036303518,-0.30346338250788213,-0.6405342087746302,0.08985456299723726
1759827520.8312836,0,-1.1215632709715717,-0.8875904642278607,-0.49554704418218926,0.1632004575368859,-1.7968615648547162,-0.3035117415847903,-0.6404136325881866,0.09028026489533325
1759827520.842512,0,-1.119546125548264,-0.8888111502615598,-0.4846428930194097,0.16534293591758567,-1.7985871917754614,-0.30221707091214406,-0.6351327024175146,0.090241092142786
1759827520.8531506,0,-1.1192359703778312,-0.888946230704886,-0.47932601472075453,0.16417222395432118,-1.79993596574363,-0.3012024994277274,-0.6309715821360932,0.0902784233398334
1759827520.8638403,0,-1.1191090314705974,-0.8889909461497053,-0.47538356700575474,0.1645708440357839,-1.800989665179648,-0.30040997578397105,-0.6276906302062907,0.09037756449657595
1759827520.8741238,0,-1.1190772941300466,-0.888992272464985,-0.4726840967914278,0.16480723989442686,-1.8018126147419653,-0.29979296532786226,-0.6251008777755724,0.09052416863744969
1759827520.8845289,0,-1.1190563706484888,-0.888992068652703,-0.4708644568347705,0.16397601194137698,-1.8024535866353393,-0.2993161981730196,-0.623058022559114,0.09071041425750272
1759827520.8958867,0,-1.1189974363856159,-0.8890123808543089,-0.46926399082855813,0.16457320852773094,-1.8029491407344471,-0.29895361869514986,-0.621452609455789,0.09093570429343392
1759827520.9061573,0,-1.1190292962553754,-0.8889915394310273,-0.4684322887445743,0.16495715578792353,-1.8033314647493832,-0.29868047340152387,-0.6201898476120156,0.09118646702563296
1759827520.9163883,0,-1.119042959429435,-0.8889817659434673,-0.4680168226841027,0.16411586171727077,-1.8036238348437337,-0.29847933826093986,-0.6192000563761855,0.09145868612940014
1759827520.9271355,0,-1.1190212457041786,-0.888989964083805,-0.46762754029341425,0.16402376998397045,-1.8038436503289847,-0.29833747595315274,-0.618430323608298,0.09175295093540578
1759827520.9378161,0,-1.1190160841565322,-0.8889910443123232,-0.4674073665290245,0.16407515704910006,-1.8040055033431277,-0.2982436918406729,-0.6178366927898096,0.09206602718107464
1759827520.9487069,0,-1.119003316567409,-0.888996486842575,-0.4673250074501525,0.1636317893796522,-1.8041204677137745,-0.2981896085438348,-0.6173853496434996,0.09239727114248997
1759827520.9593608,0,-1.119010564282277,-0.8889927610420421,-0.46730877280502053,0.16400410615985953,-1.804370530791773,-0.2979462052223347,-0.6166678824344137,0.09192352956330296
1759827520.9697003,0,-1.118063157155728,-0.8896514528200435,-0.46455831097652844,0.16587748366651822,-1.8048655607884476,-0.2975342366745759,-0.6147187132900546,0.0916397073256437
1759827520.9799066,0,-1.1180776640967132,-0.8896452979528205,-0.46480158083939876,0.1652438411533116,-1.805248049747823,-0.2972163669609511,-0.6131803363814251,0.09148053460140934
1759827520.99018,0,-1.1180801023477522,-0.889645047827032,-0.46501256191860485,0.16489241963101461,-1.8055418305618984,-0.29697448467496895,-0.6119657819205735,0.09142128040903919
1759827521.0014231,0,-1.1180314786828247,-0.8896688561118891,-0.46496627425286785,0.16542243828108918,-1.805764401228769,-0.2967956367871065,-0.6110090367254425,0.0914487334519336
1759827521.0171487,0,-1.1018225181780799,-0.8967703987160068,-0.44622122286230087,0.15579614993126162,-1.8059255405525858,-0.29667504326892613,-0.610264725306176,0.0915763487605289
1759827521.0276191,0,-1.095843435344534,-0.8993606857299852,-0.4320947574002882,0.1557209694235311,-1.8060436572977314,-0.29659383872481243,-0.6096783920908792,0.0917504977105197
1759827521.037811,0,-1.0935604881786725,-0.9003231171585002,-0.4218436643218083,0.1563672328004071,-1.8061276620375144,-0.29654448033284275,-0.6092175281956412,0.09196130990380755
1759827521.04797,0,-1.0926813451641773,-0.9006752785468667,-0.41460089159558006,0.15568008920561324,-1.8061842951803728,-0.29652129747759737,-0.6088569632511798,0.0922026299272764
1759827521.0581071,0,-1.092340366049298,-0.9007986616335916,-0.4093689696628488,0.1557631279942728,-1.8062188527553067,-0.2965197647857224,-0.6085768258911127,0.09246969945836617
1759827521.0683622,0,-1.0921998539737339,-0.9008405167045218,-0.4056177052929823,0.15568881158565273,-1.806235368322212,-0.29653646753180807,-0.6083615796107456,0.09275975179317007
1759827521.0790782,0,-1.0921200192422025,-0.9008599647915071,-0.40280287118690317,0.15607083850567355,-1.8073710798022227,-0.29570935203411886,-0.6044083739441698,0.09189117837225332
1759827521.0903003,0,-1.0907461665786218,-0.9016430815435493,-0.3972097968527786,0.1565023033713355,-1.8089320373490014,-0.2945941531687028,-0.5992562659271351,0.09098252335297248
1759827521.1010368,0,-1.0907466747410406,-0.9016358589635755,-0.39594615733323413,0.1560878706189211,-1.8101542871498066,-0.2937118096046435,-0.5951933113128529,0.09033109182711398
1759827521.1113641,0,-1.0907663204484215,-0.9016234429705986,-0.3951492293386232,0.1563422215782853,-1.8111115263565083,-0.2930151989601517,-0.5919849109737543,0.08988046273828507
