timestamp,observer_vehicle_id,vehicle_0_x,vehicle_0_y,vehicle_0_theta,vehicle_0_velocity,vehicle_1_x,vehicle_1_y,vehicle_1_theta,vehicle_1_velocity
1759827516.63047,1,0.0,0.0,0.0,0.0,-1.735,-0.35,-0.7801621756414646,0.0
1759827516.6405613,1,0.0,0.0,0.0,0.0,-1.735,-0.35,-0.7801621756414646,0.0
1759827517.3027778,1,-0.2340379571289134,-0.1612045214345045,-0.13939412538545357,0.0,-1.7349996599784263,-0.35000028925446364,-0.7230011404521317,0.0
1759827517.4100132,1,-0.4256642470131876,-0.2931960356915213,-0.2535276591376921,0.0,-1.7349996577811777,-0.35000029112365083,-0.7180963649787699,0.0
1759827517.5080776,1,-0.580984785472781,-0.4001802761048684,-0.34603731389017733,0.0,-1.7349996570913868,-0.3500002917104521,-0.7176961356278841,0.0
1759827517.605949,1,-0.7000688993444041,-0.4822049947557535,-0.416964381038064,0.0,-1.734999656835023,-0.3500002919285394,-0.7176724363859535,0.0
1759827517.7143447,1,-0.7964506946852498,-0.5485924362781608,-0.47436983880838895,0.0,-1.7349996567374888,-0.35000029201151134,-0.7176770662974317,0.0
1759827517.8264139,1,-0.877164816118856,-0.6041880391381873,-0.5224435551470403,0.0,-1.7349996567002555,-0.35000029204318545,-0.7176822543346191,0.0
1759827517.926431,1,-0.9424922630436147,-0.649185354732781,-0.5613528946381786,0.0,-1.7349996566860348,-0.3500002920552829,-0.7176863217286584,0.0
1759827518.027506,1,-0.9922429743103666,-0.6834534696111096,-0.590984655953345,0.0,-1.7349996566806032,-0.35000029205990363,-0.7176895450454985,0.0
1759827518.1179442,1,-1.0336342250197013,-0.7119636174692989,-0.6156374826230793,0.0,-1.7349996566785284,-0.3500002920616686,-0.7176923390107888,0.0
1759827518.218177,1,-1.0672905512560864,-0.7351459765649714,-0.6356833513230195,0.0,-1.734999656677736,-0.35000029206234273,-0.7176943850134307,0.0
1759827518.317715,1,-1.0947063515833486,-0.7540298833710193,-0.6520123329772897,0.0,-1.7349996566774333,-0.35000029206260025,-0.7176961858121018,0.0
1759827518.4110749,1,-1.1157808036111283,-0.7685458917796951,-0.6645643772885117,0.0,-1.7349996566773176,-0.3500002920626986,-0.7176977806174349,0.0
1759827518.5106153,1,-1.1330242293832062,-0.7804231027824732,-0.6748346440590587,0.0,-1.7349996566772734,-0.3500002920627362,-0.7176990495312872,0.0
1759827518.6311204,1,-1.1467330656824262,-0.7898657009923971,-0.682999692453023,0.0,-1.7349996566772565,-0.3500002920627505,-0.7177001140192232,0.0
1759827518.7439404,1,-1.1577676527481968,-0.7974662857393624,-0.6895719452272836,0.0,-1.73499965667725,-0.350000292062756,-0.7177009881758494,0.0
1759827518.871152,1,-1.1666288860456564,-0.8035698720574127,-0.6948497381139113,0.0,-1.7349996566772476,-0.3500002920627581,-0.7182016855241102,0.0012113844016891308
1759827518.9927511,1,-1.1741452041536562,-0.8087470855248938,-0.6993264930883463,0.0,-1.7369063299585923,-0.3486074380014065,-0.7170610180307847,0.024316779552467943
1759827519.0942194,1,-1.1802606326336311,-0.812959371145462,-0.7029688715075606,0.0,-1.7378645151520828,-0.34784536169382746,-0.7158811420845028,0.02620145935973963
1759827519.2255023,1,-1.1850599117917626,-0.8162650977438659,-0.705827345102764,0.0,-1.742374761606043,-0.34427809689199734,-0.7125593428908964,0.04830635276235689
1759827519.331253,1,-1.1889349904189903,-0.8189342382682776,-0.7081353604463809,0.0,-1.7445878302459428,-0.34245616520742833,-0.7098028550744624,0.05035461942730098
1759827519.4455576,1,-1.192050143456298,-0.8210799447200641,-0.7099907604780867,0.0,-1.7500425964851754,-0.33787717440385207,-0.7056312117330268,0.052554883403711214
1759827519.5555224,1,-1.1945627464125574,-0.8228106167960284,-0.7114872788028292,0.0,-1.7526678592407219,-0.3356542881826504,-0.70229562639554,0.052893245075369556
1759827519.6801915,1,-1.1965499585849941,-0.8241794015486231,-0.7126708718666653,0.0,-1.7586493238819723,-0.3306318778493593,-0.6975240156244894,0.0522682129287593
1759827519.810854,1,-1.1981957424556122,-0.8253250511260632,-0.7133006556424994,0.006260609524171416,-1.7615243840512231,-0.3282016771384883,-0.6937801933747211,0.052308114397256036
1759827519.9221573,1,-1.1994338321686513,-0.826273234250392,-0.7137263548947672,0.01140083757676906,-1.7677373605997337,-0.3230817811699653,-0.688530783296891,0.05436491527310052
1759827520.0242212,1,-1.1995942725550646,-0.8278995083283608,-0.7125850874967937,0.020763389805701624,-1.7706326453937415,-0.32067045125362753,-0.6845394897194095,0.05461379103355542
1759827520.1458845,1,-1.1989149209699477,-0.8300332585970006,-0.710186792079525,0.03299918151277892,-1.776681165896345,-0.31575547998982867,-0.678988256941359,0.05441133610041711
1759827520.2542784,1,-1.1955807666641207,-0.8341785101195633,-0.7018636287444022,0.04975463554671943,-1.7794522051016262,-0.3134894988624657,-0.6746884185435842,0.05595826995453527
1759827520.3700933,1,-1.1926821186638121,-0.8378270940750453,-0.693132338148119,0.06328250095513395,-1.785525106963157,-0.30865692588915533,-0.6668855362468715,0.05351611962063159
1759827520.4687023,1,-1.1866881208187667,-0.8435702362632201,-0.6757098265511456,0.08064407032544552,-1.7883760066322523,-0.30636872499352374,-0.6604179207150316,0.054858281473609674
1759827520.5888634,1,-1.1818269313132754,-0.8483409965130503,-0.6611237523904778,0.09460819490002922,-1.7942116532155048,-0.30193465108801165,-0.6483546030767865,0.058184088625024354
1759827520.706878,1,-1.173878893594858,-0.8547844682846206,-0.6375557318949832,0.10488401025378064,-1.796938454543774,-0.299820161048446,-0.6384931807633794,0.05950909295023781
1759827520.8328042,1,-1.162565932335939,-0.8627345941714181,-0.6067507021092693,0.12108109364868677,-1.8034264190397793,-0.2951384917502818,-0.6210121277471485,0.061730875464759305
1759827520.9522324,1,-1.1530332914855428,-0.8693985774529865,-0.5785285762857518,0.13345140186319,-1.8065236330129621,-0.2928430990274375,-0.6069525975890403,0.06198514627928458
1759827521.0726576,1,-1.139967712196216,-0.8771197315392084,-0.5429542910390883,0.14123625849305083,-1.813371076594894,-0.2881628571254269,-0.5861974426335769,0.05901587004664598
1759827521.19267,1,-1.1293455947884736,-0.8833503968546009,-0.5136124123596411,0.146048193847402,-1.81663900460756,-0.28586619038129296,-0.569827471667171,0.05872290103563161
1759827521.3092334,1,-1.1144524962701434,-0.8906780200072744,-0.47824631519080146,0.14844318701408035,-1.8232319256005556,-0.2816927337602054,-0.5482240698716843,0.059078524201351644
1759827521.4285073,1,-1.1024547327822538,-0.8965000715286665,-0.44967393227753855,0.14997018730899467,-1.8263450416553222,-0.27966090425662465,-0.5317496127558601,0.059095276416439954
1759827521.5285537,1,-1.0856740752829106,-0.9034108942998104,-0.42010742293607184,0.155201587525234,-1.8304934812240883,-0.276936068331315,-0.5186814366596998,0.031331672634430034
1759827521.6253946,1,-1.072561258647093,-0.9087849115384158,-0.39725197970730924,0.15886049672257493,-1.8323556009029418,-0.27573023348457065,-0.510028718433549,0.028992994294462116
1759827521.7165093,1,-1.0551227949798678,-0.9151802534571749,-0.3780574727784077,0.16138558407426218,-1.8331261706431747,-0.27520213514350145,-0.5055558414331404,0.02839031958913686
1759827521.8066688,1,-1.040521843509463,-0.9204688681659683,-0.36212983778065044,0.16356985289961076,-1.8260996647955292,-0.2795267062903227,-0.5166567966707516,0.054647857534338345
1759827521.9224262,1,-1.0214811073267718,-0.9270123147681165,-0.3524214703317384,0.16629978492884556,-1.822508106579994,-0.2817590209462426,-0.5286445741231464,0.05697429568096578
1759827522.0203476,1,-1.0058136328683007,-0.9323704580755937,-0.344588388548465,0.1692244084338255,-1.8112892937199525,-0.2894366692622871,-0.5554027907063697,0.09580493229347432
1759827522.1159208,1,-0.9864134508468392,-0.9390375350986387,-0.3419812937989695,0.180869868693486,-1.806119381922338,-0.2931102129924594,-0.5795000383015435,0.09835844946956107
1759827522.2077386,1,-0.9701395981335358,-0.9446521808788007,-0.339880974396875,0.19093367122102334,-1.8043155891160274,-0.294532984967477,-0.5949266570917554,0.09867208494924903
1759827522.3172803,1,-0.9494631526996967,-0.9518626436436056,-0.34048666953967804,0.1920548105390955,-1.7895639694534073,-0.306179413173215,-0.6332141097301031,0.10988357216294764
1759827522.4106371,1,-0.9323545893851891,-0.9578240644223911,-0.341077759285336,0.19269516968744535,-1.7828334548698372,-0.31172698565982754,-0.6659697178904184,0.10893922399676789
1759827522.4989934,1,-0.9112490725506595,-0.9653266284010508,-0.3415232096674019,0.19831314028329275,-1.780471146762738,-0.31386393020361547,-0.6853474593921669,0.10778272239697657
1759827522.6027162,1,-0.8938500991425933,-0.9715299849566373,-0.3418674844874804,0.20291994351760573,-1.762171770638591,-0.3307480416644102,-0.7190812122424537,0.13398790068981797
1759827522.692754,1,-0.8716375649118404,-0.9794384727259339,-0.34047821495361646,0.20931966343391534,-1.7538610687143774,-0.3386707679174097,-0.7456690877188065,0.13451694027107164
1759827522.78915,1,-0.8542162089863082,-0.985689365804834,-0.3392433014222758,0.21440035541749242,-1.7505841802979287,-0.34200264534419655,-0.7615261740374114,0.13423365086339636
1759827522.88598,1,-0.8310356216213419,-0.9938178598443351,-0.3349202093815906,0.22155889444903087,-1.7317479626247732,-0.36090909611059124,-0.7789185090635371,0.15230964039704983
1759827522.9782777,1,-0.8116726350176031,-1.0005964493249344,-0.33097749999409776,0.2275012269038576,-1.7228710494527029,-0.36993643385295505,-0.7913450872951677,0.15317126199757133
1759827523.0690973,1,-0.7880316365460078,-1.0085418781197568,-0.32426033520393516,0.22620555342021292,-1.7197285813642156,-0.3732298728522372,-0.7969675768805362,0.15293634900342537
1759827523.16682,1,-0.7680989986728973,-1.015176586138321,-0.31769568932203485,0.22520740167244657,-1.6971963334286855,-0.39625404437132705,-0.7989316302619636,0.17959172526196265
1759827523.259702,1,-0.7490636696608297,-1.021340255043902,-0.311085528968055,0.22577025555811062,-1.6866118352334754,-0.4069826375113983,-0.7987906373714827,0.18175359703394445
1759827523.3641584,1,-0.7286707282375217,-1.0276967666353682,-0.301405109328632,0.2276851875381436,-1.6689103377084729,-0.4245205555686522,-0.7945275115212949,0.17788308091718785
1759827523.4558527,1,-0.7043306984976362,-1.0347435124205033,-0.28847889599920884,0.23552763565397042,-1.6612195192968309,-0.4320392762042123,-0.7893203743344985,0.17755178772277816
1759827523.551482,1,-0.6837821331754885,-1.040603484986782,-0.2759890701272575,0.2419940732331128,-1.6578666697844857,-0.4352562870860793,-0.7851614212377552,0.17741639537583387
1759827523.6435757,1,-0.6665847937771716,-1.0454554809458763,-0.26555512830227684,0.24721529265978007,-1.6348986688483713,-0.45733792186416133,-0.775657460402842,0.18854452179752665
1759827523.7472184,1,-0.6429119622306353,-1.0512302200348305,-0.24777559585965683,0.25204233988408314,-1.6231719357459566,-0.4684804329925466,-0.7671687642300583,0.18969062849963245
1759827523.8458037,1,-0.6204015027214916,-1.0563432388202971,-0.23162019722893096,0.2554351628619719,-1.6028614067801943,-0.4873610804256104,-0.7573928725476057,0.19107529113601052
1759827523.950968,1,-0.5952010436482981,-1.06136265747714,-0.20948388410880167,0.2573972230058472,-1.5931030943834497,-0.49629740393872723,-0.7495341178599076,0.19130419484074387
1759827524.048864,1,-0.5727708997566068,-1.0654533825408876,-0.19102835307498542,0.259388228753464,-1.572977806525772,-0.5145939811801776,-0.7413539796465619,0.1953786665106954
1759827524.1484623,1,-0.5479716975650409,-1.069260932290878,-0.16808931886975517,0.2610988931266712,-1.5632287307807404,-0.5233578423432662,-0.735245631075828,0.1956814928338978
1759827524.238199,1,-0.5272206847613459,-1.0723277139751892,-0.14892146550611718,0.26208052931387715,-1.5600793734753806,-0.5261024600048028,-0.7317726990495567,0.19572640803150085
1759827524.3331864,1,-0.5004768555265965,-1.0751820868350832,-0.12629968922100018,0.2600067559840646,-1.5338184773144488,-0.5495403121925534,-0.7246605480965256,0.2061088958844972
1759827524.4318337,1,-0.47973429815662716,-1.0773095615441486,-0.10877717569691298,0.25820259771078935,-1.5206729064070235,-0.5611525142017206,-0.7192598039887466,0.2070774474018411
1759827524.5400617,1,-0.45281588113822036,-1.0791586590012685,-0.09092165175962251,0.2600308698186262,-1.4959043596128565,-0.5825207294785735,-0.7096285089275626,0.2103643611927623
1759827524.6455476,1,-0.4306665681962808,-1.0805969282783456,-0.07625525158824475,0.26185407254630794,-1.4841566522281762,-0.592481964959987,-0.7018880266894418,0.2107258501874413
1759827524.771537,1,-0.4017737158897417,-1.0818421730506966,-0.0631003829167312,0.26305139798176885,-1.4568915250852819,-0.6148457649878456,-0.6872785966647638,0.2180233657754105
1759827524.886912,1,-0.36942959729462954,-1.0828823753971453,-0.05266441462727504,0.2569995076552414,-1.4438379603505946,-0.6252831588841686,-0.6753803848259249,0.21817457493775602
1759827524.9998562,1,-0.3430444099019518,-1.0836756649278056,-0.044318337401177195,0.252346998522387,-1.4121967799493027,-0.6494555637523681,-0.6510894685343002,0.25376683137752987
1759827525.122981,1,-0.3110953557022173,-1.0843984595353084,-0.03750950906154515,0.2627610921548767,-1.396686667423694,-0.6608302791253674,-0.630847365387479,0.25724175106424846
1759827525.2373831,1,-0.28506378317566416,-1.0849616441659569,-0.03200969659593082,0.27119177427911817,-1.364285614308726,-0.6825052475494934,-0.601073814330073,0.24738727477630656
1759827525.3581467,1,-0.2525999576233492,-1.0854783009947289,-0.026254369363770746,0.271552076563195,-1.3484939085921792,-0.6925990440143881,-0.5774067222564947,0.24688132829473458
1759827525.4867651,1,-0.21836107719390513,-1.0858574075015497,-0.020487061604253898,0.2650935240977378,-1.3146466646244017,-0.7128147477925886,-0.5478539773323203,0.2349780260211268
1759827525.598409,1,-0.1904909756080203,-1.0861342297127645,-0.015617165310408038,0.25944020855015737,-1.2982247971928662,-0.7221980405458449,-0.5254581684755683,0.2344709487640468
1759827525.720035,1,-0.1542292395933009,-1.08623260973116,-0.00995081444462272,0.27065520169017154,-1.262181074203531,-0.7417960137313475,-0.4983198331033687,0.25138317068625843
1759827525.840104,1,-0.12520208948283315,-1.0862852977305866,-0.005362483017595243,0.27944110863938193,-1.244583053022323,-0.7509447325084456,-0.47758833915428367,0.253471857945502
1759827525.9710534,1,-0.09216153242844002,-1.086180083464413,-0.0014781955800009232,0.28210022936111806,-1.2053549994138593,-0.7701244694636942,-0.452564630100637,0.2574155874084314
1759827526.0959363,1,-0.05490465439965847,-1.0859690487898663,0.0014221005310256322,0.27455959619606474,-1.1866065375696555,-0.7789092436986397,-0.4339947763730503,0.2582957577786279
1759827526.2241066,1,-0.02460305713931405,-1.085781226961688,0.0035860008118171792,0.2686327182412462,-1.1481108503495756,-0.7959697776763223,-0.4129207279567576,0.24789972923278558
1759827526.332965,1,0.01104308180191409,-1.0855450764978622,0.004495127579816966,0.27482115238168875,-1.1300083061956392,-0.8037047514183453,-0.3979881980289923,0.24682015852538483
1759827526.4609284,1,0.04282903704871126,-1.0853457119583219,0.005035520981475092,0.2790220010162742,-1.0904312559767215,-0.8198219839579889,-0.3775528893755415,0.24866874086932172
1759827526.5654848,1,0.07655460043998202,-1.0851684267649278,0.004721205355202193,0.2817427308214092,-1.0717135187240507,-0.8271566582120388,-0.3628194785416798,0.24895098822161216
1759827526.6937041,1,0.1143219090507245,-1.0850361576906624,0.004065196107351034,0.27626646236747215,-1.0323605195171484,-0.8416895577815984,-0.34367529683908665,0.2563505667012453
1759827526.8027017,1,0.14501611097387102,-1.0849341102024077,0.003487642517630317,0.27193092924694795,-1.0137278273182702,-0.8482887236543643,-0.32989014220943136,0.25719904840487234
1759827526.9284432,1,0.1809708301894947,-1.084881157005141,0.0030631173520391636,0.27701100222556035,-0.974983180714429,-0.8612089697176893,-0.31249431294701224,0.25452645918833394
1759827527.0379643,1,0.21015330366101503,-1.0848399842305032,0.0027173331180833605,0.2810095854864395,-0.956655669036877,-0.8670773025880971,-0.3002245570409035,0.25463782389093254
1759827527.1633246,1,0.24491595104886496,-1.084806163287586,0.0030179902293661115,0.28113808371046,-0.9132809332494053,-0.8801002423116965,-0.28224992534704,0.2781931453459178
1759827527.275565,1,0.27690843538910936,-1.0847664496683698,0.0034008998254900042,0.2813180930659462,-0.8924642384047677,-0.8860492948714811,-0.2687724109456344,0.28081629286134546
1759827527.3995078,1,0.3092238814768558,-1.0847148450635349,0.0040240964852761305,0.2814045717835219,-0.8501577070146601,-0.8972583796508542,-0.25273628271758813,0.2743925477943659
1759827527.5166118,1,0.3478598063751112,-1.08461178564357,0.004775005953794819,0.2901979138022952,-0.8299391728032939,-0.9023735670093953,-0.24089322203391347,0.2738436909945425
1759827527.6149526,1,0.37979953205643097,-1.0845221110163248,0.005398162563722451,0.29739302628545955,-0.7884824213050833,-0.9123946306790107,-0.2279458903369477,0.2836970285700872
1759827527.7102623,1,0.41470740980647464,-1.0844071308783447,0.005705992880989882,0.2933551446285336,-0.7690558536584955,-0.9169109926995974,-0.21906052026115835,0.28459873638934424
1759827527.810799,1,0.44357310103114966,-1.0843111827696463,0.005919754964864796,0.2900371467437546,-0.7610596995651762,-0.9186634441425017,-0.21439273944257156,0.2848551243584828
1759827527.9190226,1,0.4783501001281894,-1.084214179963555,0.005603202977372941,0.28521989519600877,-0.7107840017744868,-0.9296668668559627,-0.20387639022581477,0.2903990317714005
1759827528.0298338,1,0.5068542916670392,-1.0841376832115446,0.005249126889057955,0.28151549588245267,-0.6860971018839985,-0.934903529952978,-0.1962557480774831,0.2911762539651187
1759827528.1328785,1,0.5404171426030546,-1.0840950756343959,0.0044297235474010585,0.287496507208072,-0.6408494109584638,-0.9437506042185021,-0.18491938347933834,0.2964886294532478
1759827528.2341273,1,0.5680487729632642,-1.084064447776367,0.003757431723980734,0.2924241055590719,-0.6197051450747116,-0.9476974497758561,-0.17661884428472605,0.2972626706539379
1759827528.3259985,1,0.600415406062572,-1.084072904766252,0.0032071198087613075,0.2929436949786615,-0.612331344997536,-0.948975335657978,-0.17236978255969862,0.297335039147224
1759827528.4230278,1,0.6273918407143919,-1.0840832553865418,0.002722649419327277,0.29335661540045094,-0.5651759601502773,-0.9570871841839665,-0.16333174902761563,0.2876772669631608
1759827528.5162034,1,0.6614105168402095,-1.0841159082022207,0.002574083276620471,0.2956970766129481,-0.5426909640163082,-0.9608312447640609,-0.15670049370093983,0.28701787162433684
1759827528.6112947,1,0.6895330660548928,-1.084143574530774,0.0024429958464215595,0.29761189005457317,-0.5339019469529518,-0.962215681930821,-0.1532422103834995,0.28689034078113057
1759827528.7090023,1,0.7227812079187768,-1.084171523984968,0.002547064198817309,0.29396811135516326,-0.48374718838350494,-0.9699674093037621,-0.1453708938677776,0.28494057809323864
1759827528.798364,1,0.7506722046305643,-1.0841944280435338,0.0026555714598429586,0.29087176303608786,-0.4605213239445064,-0.973453296588591,-0.1403297438839119,0.28501492131370393
1759827528.9140801,1,0.7837215988979807,-1.0842081080784733,0.0028401798449187673,0.2907603883718212,-0.4157758689733839,-0.9797876119345892,-0.13359757085769675,0.29964740791013783
1759827529.007643,1,0.8101723565617283,-1.0842164296295684,0.0030416267323972158,0.2906442887625793,-0.39550229809309834,-0.9825508259439577,-0.12891141961665267,0.30095264354164347
1759827529.1099334,1,0.8430241406661201,-1.0842183992883447,0.003147149700450647,0.29216122912495135,-0.3873261870113233,-0.9836050249607052,-0.12594300977696724,0.30106023085395495
1759827529.2018154,1,0.8695905986394902,-1.0842185812646363,0.003221739111353479,0.29341160863074844,-0.3422708678917486,-0.9894609182194546,-0.12115046811621981,0.28117706405439646
1759827529.2991176,1,0.8959859214144139,-1.084221392926669,0.0032316037454134883,0.29420144216144667,-0.3200986659366972,-0.992287269684492,-0.11828212488108357,0.2797903132369231
1759827529.3959844,1,0.9237188813052913,-1.0842289251163544,0.0030330072801821395,0.29455822356235944,-0.31123388422432463,-0.993379822489737,-0.11648934948223592,0.2791998803458387
1759827529.5094602,1,0.9574678901157448,-1.084253669165858,0.002798773556114866,0.2956197440301171,-0.25924802930211444,-0.9995341611992592,-0.1103484055248444,0.27955043781865774
1759827529.6079683,1,0.9855081223300797,-1.084276043090463,0.0025802601052311897,0.2965437594088915,-0.23403428969090834,-1.0024277518297016,-0.10637793591752184,0.27973770010938775
1759827529.7051837,1,1.011905048060546,-1.0843011361614423,0.0024162120451718945,0.29603212497531944,-0.1874230115265059,-1.0073963185743329,-0.10027713794973632,0.3311363250469835
1759827529.7997134,1,1.0398785629703016,-1.0843329044420018,0.00230449198240104,0.29440450076232627,-0.16571982831320997,-1.0095880089719502,-0.09560943907894395,0.3355706442247666
1759827529.894093,1,1.0733558610796456,-1.0843685240797547,0.0024505014862204817,0.29595686248538644,-0.15729705249828774,-1.0103762458965204,-0.09248106196442502,0.3366526707775453
1759827529.991989,1,1.1013740434697292,-1.0843970781399124,0.0025771894320655666,0.29763730717410763,-0.1130834867985865,-1.0144473834360785,-0.08765472491859987,0.27254459220719013
1759827530.0780003,1,1.1234594468853047,-1.0844181440469425,0.002693567353355751,0.2992703232942572,-0.09279491182696345,-1.0162783384756997,-0.0849579523049739,0.26766567960821297
1759827530.1787977,1,1.1537269102192091,-1.084355891755205,0.004924722187584567,0.3054625275517446,-0.08345713357056596,-1.0170827311700195,-0.08257681965456812,0.26606308962181313
1759827530.2758422,1,1.1819905618284419,-1.0842076214166958,0.007423592881942031,0.309625249451486,-0.03415003926229457,-1.0213607943202172,-0.07947108925227672,0.28713353640962613
1759827530.3702507,1,1.213006323721542,-1.0838416694970079,0.013729956887688447,0.3116303458670974,-0.010764684804837756,-1.0233478722122686,-0.07757842760355894,0.2890927114427827
1759827530.4659374,1,1.2371546376679847,-1.0835182874584675,0.018790569713736244,0.3134648032578378,-0.0013011843423142706,-1.024132070087766,-0.07674147998531307,0.28973226035719124
1759827530.581686,1,1.269031626292332,-1.082450283870716,0.031537151736784175,0.3128666358669535,0.0534162998319389,-1.0288370188691078,-0.07701352208955999,0.3033787124191948
1759827530.6858995,1,1.300737181596135,-1.0808088086951433,0.04749103476950638,0.3121594481925732,0.0798838999028891,-1.0311284982833293,-0.07829634644599966,0.30495772418096134
1759827530.807617,1,1.331183776725991,-1.0787702702789825,0.06528553133270708,0.31080890248635457,0.1316602352243266,-1.036276855348457,-0.0872946245317798,0.31584459659408215
1759827530.9200544,1,1.3661346296595411,-1.0751757606526087,0.08943907446835632,0.30450525319512156,0.15582769771948188,-1.0388562188196468,-0.09580506260171957,0.31669763312551297
1759827531.0352592,1,1.3944911925379604,-1.0720887559878145,0.11075405874877689,0.2991149933241416,0.20189780255721446,-1.044632878740666,-0.10913829213317087,0.3092512831228462
1759827531.1390495,1,1.4283844352913204,-1.0667584004032231,0.1390178998236435,0.30533830326999506,0.22328554423519392,-1.047533173528938,-0.12009248501499577,0.3083856922131321
1759827531.2590947,1,1.4557857889469918,-1.0622625715702003,0.1627738684024681,0.30996608837146666,0.2632536983673897,-1.0533925475039978,-0.13207636809496404,0.26560267987156994
1759827531.3704953,1,1.4882611273044397,-1.0552766161618266,0.19312346156574656,0.3050837038734632,0.2819580518178362,-1.0562932638062075,-0.14089689809203126,0.2616225584662617
1759827531.4843616,1,1.514536381537016,-1.04945337901698,0.2179413068344537,0.30117287839128176,0.32720500511780237,-1.0635089020126094,-0.14881691332072963,0.29851714846933264
1759827531.5981824,1,1.5482852697094471,-1.0400230038129241,0.2508182358003079,0.3089764826948539,0.3487572696991043,-1.0670426005749547,-0.15470326400700463,0.3014654448026279
1759827531.7157621,1,1.5833224652633207,-1.0287286381498826,0.2845112086866971,0.29939682646738874,0.3913131625244336,-1.0739091500245188,-0.1577109017662482,0.2786565533256176
1759827531.836826,1,1.6113873620683217,-1.0194593503151663,0.31294593699675244,0.29213574622622024,0.4118038194439955,-1.0772448624877768,-0.15924835626739417,0.276382532739593
1759827531.9556313,1,1.64519748210956,-1.005972421802161,0.3473470150491459,0.3026709779509855,0.4543478981014902,-1.0839019167117503,-0.15670792855364785,0.27282181562858676
1759827532.0666707,1,1.6726878395822717,-0.9947475318556337,0.37579510515802084,0.3115434877738936,0.4747198795237595,-1.087035472811491,-0.15433257483819904,0.2724608292937281
1759827532.1826348,1,1.7051796496405283,-0.9796311475615836,0.41084785996584544,0.30897234132179563,0.5200855074524595,-1.0935227709764086,-0.14642439471958818,0.2859760274066105
1759827532.2929654,1,1.734081055793591,-0.9653555590805551,0.44083139193097465,0.30998258964852915,0.541817401367335,-1.096488447654573,-0.13956422733318383,0.2873606045137213
1759827532.4066544,1,1.7637154873470229,-0.9492339857419816,0.47527762973683707,0.31440521722541837,0.584808187650847,-1.1017595005536867,-0.12874048410524128,0.28724411805453137
1759827532.5109713,1,1.795238359464971,-0.9301589086335427,0.5124618337925648,0.30909256226764076,0.6052325213457376,-1.104090365553186,-0.11981496883631014,0.2871627389332412
1759827532.6113832,1,1.8213637310853033,-0.9140113888166862,0.5458367062067648,0.3048065411299621,0.6466304278910755,-1.1083420760347509,-0.10712943843930756,0.2944622995722404
1759827532.7170663,1,1.8503438166301747,-0.8937237157006581,0.5835816815615654,0.30203398948464527,0.6662237111303874,-1.110156743946335,-0.09723306023838874,0.2951172724890269
1759827532.841079,1,1.8737818652734644,-0.8768878068732864,0.617025886523967,0.2996964979041435,0.7091510683823302,-1.1135909429241093,-0.08359961888146386,0.2790687276836043
1759827532.937622,1,1.9011434544565078,-0.8542350636972326,0.6575984265714903,0.30277155432455805,0.7284975680196883,-1.1149595519936852,-0.07366531985905711,0.2777952878518651
1759827533.0431283,1,1.923338275813638,-0.8354439798331399,0.6929994994238662,0.30520720815279556,0.7681872094509811,-1.1173458424395024,-0.06057206889650121,0.27668155707078823
1759827533.1371088,1,1.9481338348550468,-0.8115432521051975,0.7331714114584195,0.31361256076019756,0.7857838049795987,-1.1182314647484262,-0.05149776304111943,0.276918797892931
1759827533.247154,1,1.968162211436286,-0.791735249695948,0.7680363444557128,0.3204110769041024,0.8202389172410972,-1.119656286497973,-0.040942483799069576,0.248692151619187
1759827533.354542,1,1.9903577346665169,-0.7668046606232487,0.8085531209555674,0.3169731054294728,0.8364107220727904,-1.120199347760662,-0.03342838422664098,0.24560090567622384
1759827533.4736626,1,2.0078968415614153,-0.7467196462888833,0.8417022760134225,0.31419425590586425,0.8793513108398202,-1.1211147765922094,-0.01817486186715856,0.28325671883059583
1759827533.5637972,1,2.0280005805492918,-0.7205564174791481,0.881459341479273,0.3122881593160968,0.8984641407974899,-1.1212962664296364,-0.0067736365610826564,0.28625991921687904
1759827533.6477141,1,2.0435694666972033,-0.6997951196118465,0.9134323270880492,0.31074154478645244,0.9053542135701664,-1.1212297669079323,-0.0002981743249572187,0.28709253741044155
1759827533.743991,1,2.0614574504113,-0.6726611749502535,0.9507420427835674,0.3082632450060454,0.947841902274463,-1.1203892079308444,0.018531197080884763,0.25608572147181774
1759827533.831726,1,2.076220155400946,-0.6499288646176901,0.9836879093739843,0.3062423271084474,0.9674277380363852,-1.119764027658459,0.03403307111718168,0.2541728253937675
1759827533.9279323,1,2.0891305851866466,-0.6282251544147301,1.0120750857897667,0.30559955011721807,0.975950040309931,-1.1193269793079963,0.043449348149392227,0.25367598045506395
1759827534.0330396,1,2.101729849602027,-0.605284835548192,1.0432693337008867,0.305892044885413,1.0226054385325534,-1.1159629712676136,0.06718258066241178,0.26743357153293684
1759827534.1162999,1,2.113802503708357,-0.5814465086100817,1.0723871371968021,0.3098727776552196,1.043302269295897,-1.11414104141928,0.08586973111176129,0.2692715112887507
1759827534.1928844,1,2.125379489222375,-0.555998811734025,1.1049413731556725,0.3172787482667903,1.050630625347782,-1.1133022869745768,0.09590263750177534,0.26919172907900524
1759827534.2757268,1,2.1349513412965697,-0.5345308965290269,1.132578056086267,0.32342989460862875,1.0873778309651818,-1.1088660739498652,0.11719233955124136,0.24766714546503588
1759827534.3559844,1,2.14525704165381,-0.5073127594796123,1.1652891733484743,0.317205400996567,1.1045650243990277,-1.106554730321755,0.13399867259266798,0.24604445559934957
1759827534.4369547,1,2.153895457351912,-0.484456830444097,1.1939506081876838,0.31198522327271233,1.1115277496617342,-1.1054623002762896,0.14431642640170253,0.24550178833632638
1759827534.5198815,1,2.161425690922345,-0.4618787110007267,1.2192504402792412,0.31156826311262814,1.1494812204156621,-1.0990614170866888,0.16605907891287805,0.2633406146657956
1759827534.6128612,1,2.168861275667998,-0.4369542475322629,1.249435705154068,0.3147667549617125,1.1686612144234942,-1.0955511772594644,0.1844932747490445,0.2649098340505144
1759827534.7025328,1,2.1748786414811527,-0.41629420834880004,1.2746023738816288,0.3169312135485186,1.1755432525882752,-1.0940939827648244,0.1948599633832665,0.2653003199611053
1759827534.7919965,1,2.180970553217298,-0.3895379184933878,1.3050375344744554,0.31369805878645385,1.2126428947479682,-1.0859988469564354,0.2170895621825546,0.23345210354159993
1759827534.8704507,1,2.186054078517758,-0.36715902406442086,1.3309937669377987,0.31037617466514467,1.229328826919196,-1.0821191716709626,0.23390800435727493,0.2316096361587009
1759827534.9767716,1,2.1911950260123256,-0.3378492000390023,1.3601953918169554,0.308475811613175,1.2377170341813097,-1.080002589434345,0.244706975501796,0.23017235923850338
1759827535.0734,1,2.1952595914680133,-0.313960617054901,1.3847325318574126,0.306466412461533,1.2801027160895837,-1.0680323429776288,0.27480154082507074,0.24950466140426558
1759827535.158303,1,2.1989227141724124,-0.2840868032869632,1.408904563690499,0.3060045326017246,1.2989931927817115,-1.0623282432419556,0.29801020571939624,0.2512018482696387
1759827535.2569969,1,2.201850671062636,-0.25941698900435006,1.42942968153738,0.30532502271164397,1.3079020102079033,-1.0593536864840953,0.3129117022683028,0.2518715385514681
1759827535.3495083,1,2.2041336116694907,-0.23516042766562983,1.4464122055214477,0.30179299780511304,1.3464591918306512,-1.0453481010926438,0.3449062902221335,0.24418817579728685
1759827535.4433632,1,2.2063847403543133,-0.20938812839815732,1.4624409585748956,0.2960442907364676,1.3652812620449966,-1.0380831185078028,0.3710799684522614,0.24385836977819117
1759827535.5363097,1,2.208576442048574,-0.1780222654104034,1.4770427526082115,0.29760843735671644,1.3721034606306433,-1.035176937861386,0.3853593409417281,0.24290569063632048
1759827535.621909,1,2.2100677150921877,-0.1526469889268886,1.4887558305156479,0.2989694235376563,1.408304719119066,-1.0191405984678297,0.41667852811474165,0.24628147620886878
1759827535.7150977,1,2.2112952566721984,-0.13156399501838892,1.4985050771369173,0.2998468953287977,1.4261489123748285,-1.010847081304317,0.4428901752075962,0.24772975618271723
1759827535.8049283,1,2.2126812587120166,-0.10193324131197984,1.507287447836135,0.30330383114773585,1.4328455308285526,-1.0074187412049511,0.45718924990689114,0.2473066382499613
1759827535.9020455,1,2.213771308880331,-0.07760905190746763,1.5144632155187043,0.30600063730483007,1.4690988819423485,-0.9880084383095206,0.49184434367177526,0.24037949070748885
1759827535.989439,1,2.214712698321007,-0.04747675436483697,1.520361056647608,0.30847388635159523,1.4857111597012371,-0.9786387272037108,0.5189673491151622,0.24006332103682226
1759827536.0719984,1,2.2155378900295073,-0.022367421377757345,1.5252421287277116,0.31037119109985,1.4914701960491656,-0.975119294768874,0.5336970250319818,0.24009282050089026
1759827536.167712,1,2.216286793327316,0.007481195924527593,1.5294370055749638,0.30593085995272634,1.5262354364989072,-0.9528410927958421,0.5682876114130394,0.2467688089096563
1759827536.2651372,1,2.217028048827464,0.032291833908783096,1.5329860552481434,0.30238222150958743,1.5428983817472883,-0.9416547727147969,0.5976057493552094,0.24829384402853144
1759827536.3698106,1,2.2178936439346795,0.06418632081202026,1.5365862484778585,0.3039749714232054,1.5732938197854094,-0.9189399136482973,0.636363277662889,0.25641878042912253
1759827536.4686582,1,2.2186015496686657,0.09047849683487326,1.5396241339093601,0.3052686471518284,1.5872094568384867,-0.9079002295347266,0.6665643572793867,0.25800822100399934
1759827536.564936,1,2.219425833531834,0.12325768016340999,1.5430312343273176,0.30415009081106376,1.5920434165877129,-0.9036291220087805,0.6820556507598594,0.2578444580092751
1759827536.684165,1,2.2200133240911066,0.1495882923548854,1.5458675249517324,0.30345418753029707,1.6295528071939525,-0.8703888023099158,0.7237671877289845,0.265623177830184
1759827536.789839,1,2.2206938710686055,0.1811921903946376,1.5493081210307023,0.29803767856175584,1.6474395076286668,-0.8538142616592672,0.7579893981546749,0.267271434174782
1759827536.9176497,1,2.221181347346121,0.20634571930379383,1.5521132179646449,0.29402853108706306,1.6783848627189086,-0.8220408751115004,0.7976459061537713,0.2670670126154415
1759827537.0335727,1,2.2217206333745625,0.23950871529870826,1.556267366983161,0.3005141054189658,1.6925556982419374,-0.806729221462331,0.8265622370431382,0.267378908861231
1759827537.1579533,1,2.2220537235511584,0.276173728280047,1.5609413121299254,0.2945122032244389,1.7195474799175168,-0.7762493158123508,0.8558726189950588,0.25530152471055595
1759827537.2661746,1,2.222369186210358,0.3062010106327663,1.5650390447997897,0.289360746796696,1.7321716219228533,-0.7614703949499013,0.8764297607991662,0.25455792813390427
1759827537.3929794,1,2.222329842081562,0.3418121248396104,1.5692704757382936,0.2928148375207957,1.7596347063275213,-0.7271004974193717,0.9037367931163415,0.27176891959710997
1759827537.5102572,1,2.2224313231212376,0.3722429888025257,1.5728746881764712,0.2958160724450267,1.7724074142304385,-0.7105769098687545,0.9243700951560498,0.27387587027172716
1759827537.6354501,1,2.2221221084447547,0.4078008695995985,1.575818299608231,0.3012468649045328,1.7982842044427718,-0.6748843040852761,0.9527215552927639,0.26261174409560745
1759827537.7433891,1,2.221797463222267,0.440737230475682,1.57801108179312,0.3002224246183071,1.8102315639466673,-0.6577951616545603,0.974327801223031,0.26226221768136326
1759827537.8711534,1,2.2214737677598935,0.47264363259104863,1.579188113748648,0.2935547967185361,1.8331892930392517,-0.6226346576643765,1.0001990552890754,0.259678201019805
1759827537.99592,1,2.2212329494331646,0.5119221778846212,1.578928041597734,0.29819428107295326,1.8438226739905497,-0.6057244608001165,1.0191914190437747,0.25908226595454725
1759827538.1188595,1,2.220874617069843,0.543342186351367,1.5786505391257144,0.3018802991376294,1.8680622747088433,-0.5639456616572501,1.0486242000294963,0.28198613910178955
1759827538.23023,1,2.2205684021316046,0.5800300247395543,1.577083655077273,0.301927944667534,1.879316114509412,-0.5437603340197302,1.0712395037525533,0.2844047825298139
1759827538.355403,1,2.2203697004114376,0.6141060037992642,1.5755748705649937,0.29799309801950874,1.89995790765066,-0.5037924033956857,1.0998036731323315,0.27963714758321906
1759827538.4754696,1,2.220601170889824,0.6483184435001074,1.5736996497617957,0.29063665375604436,1.9094027404337919,-0.4846580967760573,1.1208842358710236,0.2795496888911353
1759827538.595856,1,2.2207830549968146,0.6879521065123952,1.5718335422468355,0.29594374632128984,1.9274890428983755,-0.4459309386703491,1.144748971046335,0.2701291635934804
1759827538.7076752,1,2.2208066553980457,0.7199924033305161,1.5703415605049607,0.3002453063889292,1.9358631951902978,-0.42728774324259894,1.1618878746916208,0.26962631747715693
1759827538.835013,1,2.2209662766132574,0.757724427357609,1.5692805713215612,0.2986222486249393,1.953626714989032,-0.3842942830662558,1.1855302281992406,0.2761824205880689
1759827538.9504735,1,2.2210792461124833,0.7925641835105667,1.568511016360141,0.2983745544915856,1.961908537316755,-0.36344548330218013,1.2035723302877772,0.2773834312342243
1759827539.0768619,1,2.221399771606979,0.8273070379225629,1.5681075677032523,0.2991309753586748,1.9782664923333955,-0.3183277351370064,1.22511938498447,0.29491197278197845
1759827539.1887343,1,2.221633176089287,0.8675647455755056,1.56838976377939,0.3028491714327369,1.9857971699447898,-0.2967337880706377,1.2411007462356332,0.29662343174462463
1759827539.3173869,1,2.2216328142190815,0.899581859113943,1.5686613950763773,0.3058689920737144,2.0010404452389143,-0.250424549827588,1.2595617105701837,0.30415321053136274
1759827539.430592,1,2.2215993203458706,0.9368134898947641,1.5693755626129762,0.30630042462793483,2.008079628890038,-0.2282972066163767,1.272557087550388,0.30503272522300223
1759827539.561774,1,2.2218756551774943,0.9775508296525705,1.5702367109808248,0.2974550580273561,2.0219918724793877,-0.18363956523244773,1.2871932688124612,0.283146438520266
1759827539.6652422,1,2.2222632538998286,1.0110638365173874,1.5710142073380333,0.2902705419347762,2.028324623520655,-0.16272424208933522,1.2967836127708923,0.2816112303510715
1759827539.7702076,1,2.222493963096488,1.0502965851987804,1.5718313812872329,0.29548457622927604,2.040278183910795,-0.11980930041342773,1.3093623334418634,0.30581402165919536
1759827539.8690357,1,2.222635268768528,1.0827963882544747,1.5725094910513844,0.2997774403684898,2.045728528467744,-0.09979051990999567,1.3180062883289319,0.30807041743432173
1759827539.9830751,1,2.2227502657346183,1.1201454025429078,1.5731359595745176,0.296060191663418,2.0564068488569576,-0.05992276305655982,1.3291641384971928,0.28355991074801107
1759827540.096318,1,2.2228577637136566,1.1505034069089908,1.5736383749699296,0.2932107738561183,2.0613072381759494,-0.04086191800740024,1.337262509110319,0.28144696165839733
1759827540.193524,1,2.2226440234500924,1.1854211741039067,1.5738699795981614,0.29921206818488205,2.070464489523709,-0.004944503777326915,1.345156407048277,0.2581965067345708
1759827540.2922673,1,2.222440750521423,1.2145517958657719,1.5740367611355617,0.30419092228924793,2.074694577869138,0.012256398549639684,1.3499258141857844,0.2562067679785872
1759827540.3819592,1,2.222345134105157,1.2494656795047387,1.5739970946245012,0.3051286894860124,2.0761098521238384,0.017956544601732002,1.3518506312537892,0.25552943157775687
1759827540.48638,1,2.22228817438778,1.2782140788501473,1.573958848720476,0.30592275376801215,2.0878367278446506,0.07606981520378808,1.363310248271894,0.3275189891337572
1759827540.5801482,1,2.222354732440814,1.3131465389695918,1.5737093697515134,0.30416471459183925,2.0933449811339755,0.10332945138378632,1.3720733603406448,0.3341218853400493
1759827540.6766636,1,2.2222093259467655,1.3404005790430031,1.5735092298280642,0.3027847011009617,2.0952518596931533,0.11438555498835482,1.377102511334363,0.33575216950431613
1759827540.7780273,1,2.2222927314810748,1.373879044654898,1.573117577461286,0.2992014234719659,2.1049406747147166,0.16101649189196904,1.388629415977007,0.28207042832761225
1759827540.8675067,1,2.22252687178495,1.4024239335960453,1.5727345456322281,0.29625323909075485,2.1091037341445067,0.18252768826366178,1.3967558386278793,0.2781979795983966
1759827540.9687521,1,2.222525682783027,1.4295616298310454,1.5723233025006929,0.2959758429649275,2.1109481986830927,0.19207332172984842,1.4015027037955938,0.27696877031437417
1759827541.070429,1,2.222575722104673,1.4575599416037308,1.5717832064445667,0.2978078947338592,2.1194136360599205,0.2437544858646805,1.4111826502063556,0.2894765619333794
1759827541.164896,1,2.222769056705876,1.4912036127591868,1.5711747049728013,0.29753856175324966,2.1232847801494477,0.26798474106781073,1.4182366428111859,0.29054305365717675
1759827541.2590415,1,2.2230215338034283,1.5197796231955947,1.570605832074686,0.29732776632434627,2.12467356021307,0.27736980711306836,1.4219370010947354,0.2908734378361175
1759827541.358704,1,2.222996236674198,1.5471192444612678,1.570187474317082,0.2994208325238639,2.1325007713028494,0.3348362961174463,1.4307533250445907,0.3275730016132401
1759827541.4563901,1,2.2230095573849495,1.5766778529949848,1.5699048646598233,0.303448335088654,2.1362208819425357,0.3625002144614792,1.4374574232556403,0.33098339106296626
1759827541.5520895,1,2.223052037521022,1.6056143201539352,1.5697001307078102,0.3060696023889962,2.1374291472998017,0.372698411210842,1.4409223035811078,0.33176109262382314
1759827541.6462352,1,2.2231652192129654,1.635935615933726,1.5696167156132412,0.30733346871374967,2.144270219246901,0.4180473625546404,1.4466863366860718,0.2765293561377856
1759827541.7298772,1,2.2230874730977117,1.6599277131845778,1.5695666293620179,0.308264412040388,2.1471900944018754,0.4389387251962468,1.4499938541457138,0.2723214976442588
1759827541.83057,1,2.2233610924311336,1.6913525073835491,1.5699546862116203,0.29951602520454135,2.1485524041389263,0.44851033530386153,1.4525245080338127,0.2709797720194296
1759827541.9238408,1,2.2235016372082193,1.7158759734596392,1.570309772591458,0.2927365445059293,2.154293897566444,0.5003335640412199,1.4573045791623724,0.313369569142679
1759827542.0325797,1,2.223607453933257,1.7468737603415285,1.5710261604930489,0.296201206731949,2.1571412932586975,0.5257919492145031,1.460633062494186,0.3168173789157395
1759827542.1289685,1,2.223697696665497,1.7725866565310522,1.5716177694417686,0.29902947889156684,2.1620728555388684,0.5687750942690571,1.4649626806118454,0.3018356412724513
1759827542.215013,1,2.2239140867324823,1.805835061243586,1.572169848778956,0.299731705338188,2.1641358494636975,0.5871706988769937,1.4678938343819983,0.30077955634828757
1759827542.3146813,1,2.223838993158203,1.83164972170994,1.5726016975230293,0.30036005463105403,2.1651196418955534,0.5962113345894309,1.4697360961595716,0.30037253352741833
1759827542.4108949,1,2.223836682620412,1.8630792404879746,1.5727595391547529,0.299712589673548,2.1702730433141784,0.6442474227903617,1.4740035711248298,0.292660722512287
1759827542.507266,1,2.223920806380799,1.8891437377021314,1.572898885095071,0.299219930295564,2.1727013058119766,0.6675479868087155,1.4764894027629065,0.2921063031908259
1759827542.5986466,1,2.2240279859589718,1.9228502039641082,1.572927714350537,0.3027971198255107,2.1735625946594266,0.6758947919134715,1.478152942444206,0.29187459267469495
1759827542.7191322,1,2.2239837399656515,1.9499673125346033,1.5729765401904965,0.30561900744828757,2.1786403243068952,0.7337970501778379,1.4840937552770395,0.3045950540912885
1759827542.8253477,1,2.2240270554049624,1.982841314725006,1.573063949401949,0.3018971348376741,2.181100422468414,0.7618386958329416,1.4885257790151316,0.30585936832194444
1759827542.9442384,1,2.2240415533003457,2.0091872390994543,1.573140382871884,0.2989777804655556,2.1851472593632066,0.8106710951410291,1.4939946048940276,0.2966578582250438
1759827543.049848,1,2.2240391551964853,2.0430582226884066,1.5731669709904257,0.3032085324333641,2.1869656251028107,0.8335843774547391,1.498129038205324,0.29590745395694007
1759827543.1735163,1,2.2239284634645546,2.0751973972401143,1.5732368928000622,0.3039424350296841,2.190214730473496,0.8797817639750938,1.5020971586489322,0.3049734230676173
1759827543.281433,1,2.223861232073465,2.107098344913103,1.5733600978820388,0.30174468401303334,2.191744529059836,0.9015416948777886,1.5045768903008776,0.3057726355553617
1759827543.4072118,1,2.2240852704285468,2.1446244481550245,1.5736397174473375,0.29640835288379974,2.1951860809660078,0.9444638753053779,1.5071949036915109,0.2799234326163469
1759827543.5297797,1,2.2242572877603575,2.1752268226862417,1.5738888264102506,0.29212996365826643,2.196741272269088,0.9654032223544203,1.5090411188587085,0.2774991636576065
1759827543.6529398,1,2.2242803926745145,2.2109550384831023,1.574300566501043,0.2964109089208519,2.199854045834421,1.0111806403898096,1.5120212341842398,0.2760013234026663
1759827543.7729275,1,2.2241139208917775,2.244460353788134,1.5746393407734403,0.3008999672141486,2.2013301203445814,1.0332667927516799,1.5133784234132286,0.27588109909286007
1759827543.8893156,1,2.224079398757967,2.279725817595101,1.574987944209099,0.30590274216822727,2.2038656511894055,1.082651949537593,1.5164912020045065,0.30393196490402663
1759827544.013985,1,2.224070047922266,2.3188565425498684,1.5751504979903428,0.29799518431424576,2.2050730382737824,1.1058025235380278,1.5187632880441857,0.30625358897800825
1759827544.1342852,1,2.224100838647739,2.350435960629299,1.5752591539464682,0.2917621437926218,2.2076727501380056,1.1593194685270154,1.5225198642998723,0.31486810789182956
1759827544.2471795,1,2.2240099396331328,2.3867976002123297,1.5752894848944765,0.2958595816906015,2.208894708960202,1.1846546313003665,1.5252541712214118,0.31574525500474876
1759827544.3617175,1,2.2240814565039972,2.424080787957894,1.5752315149336777,0.30037381170179356,2.2111738860316645,1.231875283407534,1.528430142877242,0.3117769484282959
1759827544.47658,1,2.224003344322171,2.459565510987699,1.5752090675642523,0.3048647903221823,2.2121938164029964,1.254343578537562,1.530741728831759,0.31146136529511453
1759827544.599975,1,2.223904087100338,2.498164103566591,1.5750321818021416,0.3010142827733164,2.214689308848273,1.2989796749122764,1.5337349524103194,0.277025253434365
1759827544.7143333,1,2.2238273151814494,2.5295597290797938,1.5748548672808738,0.29804645817845177,2.21581782552769,1.3204133221563357,1.5351681702778766,0.2738770757585871
1759827544.833402,1,2.2237132720646535,2.5663065726923033,1.5745570024102213,0.29962756786673866,2.216986974823723,1.3721145708099107,1.5378480662902307,0.33053873667551953
1759827544.9465723,1,2.2238283402829673,2.597793719711829,1.5742771846659358,0.300857378966808,2.2176070783868655,1.3967062411053208,1.5389515966071297,0.3356196017529811
1759827545.0703855,1,2.2239222779220174,2.6345735308906137,1.574168547797847,0.29763122595922054,2.219798325140657,1.4428489574772172,1.5414108294039555,0.28720151637921665
1759827545.175991,1,2.2240305554528548,2.6708632684159395,1.5740963990376629,0.2993723351133476,2.2208037269008716,1.4644734754019069,1.5427446333195343,0.28326859355221634
1759827545.2963393,1,2.2239323470950136,2.705353100521141,1.5740729987143878,0.30467788439939414,2.22214359229055,1.5100492107235688,1.5448526788569177,0.2976450737715952
1759827545.4089134,1,2.2239162104962804,2.7438045346857773,1.5740712907986762,0.30074840654763046,2.2227685075448163,1.531362187146873,1.5461344685251743,0.2988633427035905
1759827545.5344548,1,2.223856286311168,2.7747174698595503,1.5740719723620311,0.2976315193842607,2.2238397996021777,1.582445121007195,1.5476159973249013,0.31827193431945955
1759827545.637866,1,2.223820397395024,2.8108971129242986,1.574084939130118,0.29982438672320527,2.224445253319974,1.6065525946235137,1.5483596896851692,0.3199963864506584
1759827545.7374306,1,2.223791400906862,2.8406757977096837,1.574094346433441,0.30161400296462876,2.2258108616791117,1.6491500107216555,1.5493496651995942,0.30506900720519237
1759827545.8398552,1,2.2238532456973217,2.8768385152942173,1.574093970987365,0.30163780672920754,2.2264037919234454,1.6692443688303202,1.5501338590627618,0.3038305965557146
1759827545.940608,1,2.223657458186676,2.904901331757235,1.5741121124086963,0.3016383730105801,2.227741002388732,1.708298409277692,1.551039977468923,0.28736160536628447
1759827546.0411594,1,2.223554325650607,2.9389676614827587,1.5740745826128033,0.30082134230909285,2.2283137094830843,1.7269231897347919,1.5517187778000843,0.2858727381937755
1759827546.1428428,1,2.2235147491713434,2.9670743231151087,1.574035670151007,0.30015641864581477,2.22923797312266,1.7671361754859354,1.5526102120914755,0.2914384276091886
1759827546.2403293,1,2.2235536147273414,3.001530366863653,1.573841566120788,0.30025882770382234,2.229670164069408,1.7858494213517935,1.5531898624579725,0.2918581474308508
1759827546.3412685,1,2.223641167790664,3.0299636077346714,1.573694635862601,0.3002982802102136,2.2305054205723276,1.826645617014164,1.554167462741043,0.2933813660362302
1759827546.443416,1,2.223783836137263,3.0643770045433696,1.5735314443395654,0.29890821213451296,2.2309091856769374,1.8459191158789998,1.5548825631772063,0.29353306733228995
1759827546.5465004,1,2.2239367791738345,3.0924460012636166,1.5733898885312494,0.29771512241431286,2.231606566941684,1.8876898709498848,1.5559315021410145,0.3014198259937506
1759827546.6424315,1,2.224128070015567,3.1270695404054667,1.5732789047771292,0.2982915881142431,2.231944840181626,1.9066993608883915,1.556665311845482,0.3020565775640712
1759827546.7294235,1,2.2241118715843253,3.154332156410482,1.5732122709405947,0.2986885428871051,2.2320447673486643,1.913282837953166,1.5570247583682069,0.30225946469345993
1759827546.8268292,1,2.224111789655851,3.1880549864086802,1.5730417880542358,0.30282460445459625,2.232972376975665,1.9632970205638098,1.5586447404757668,0.2973805023817949
1759827546.9215088,1,2.224110149211842,3.2158798494744203,1.5729335219126706,0.3062641480327041,2.233416700125088,1.9871759675952712,1.558867875139556,0.29700564368865934
1759827547.0164967,1,2.224201629452048,3.2490420001243914,1.5728196904943412,0.29883675234730034,2.2335753736483754,1.9959626754278674,1.5596422665940954,0.29691371065377664
1759827547.1310177,1,2.224367136675526,3.2764999447379215,1.5727236745547382,0.292760341072957,2.2341513778152646,2.0562212290676247,1.5610402008997548,0.3144062903827475
1759827547.2172234,1,2.224327584469491,3.303475855047785,1.5727552045293567,0.2945470389062824,2.234525675699158,2.0832225546079814,1.56080105025273,0.31583369143294515
1759827547.3443613,1,2.2243592327588537,3.3320374638552623,1.5728789847041655,0.3027706973934754,2.235596745920754,2.1250175426413374,1.5616462701164557,0.2782612482842786
1759827547.44157,1,2.224485344582496,3.3664425346279527,1.573188660465685,0.2997179087015638,2.236058197734942,2.143462897974152,1.562524018141417,0.27523555507890973
1759827547.550886,1,2.224626692227176,3.3942890797039955,1.5734858229452369,0.29712510655512614,2.2363913789763346,2.18609024221864,1.5629543403694344,0.29803941853912863
1759827547.649165,1,2.2244892192174737,3.427220289441641,1.5739569410214833,0.2985230639380858,2.236587785436686,2.2057438861010668,1.5629897808943531,0.2998047490766119
1759827547.7382967,1,2.2244528625484565,3.4547537614585844,1.5743436995071656,0.2996312177546853,2.236600970970982,2.212552709226762,1.5629239376765358,0.3003296846482337
1759827547.839099,1,2.22445749537053,3.4889780650950253,1.5746237970843395,0.30006015693353466,2.23727999124569,2.265777493021516,1.563541433169485,0.30001067466797393
1759827547.9339318,1,2.2245202015320533,3.5171554396263884,1.5748979285939606,0.3010003039270981,2.2376323959068687,2.291014502405258,1.5628113003922586,0.2999848646038442
1759827548.0402637,1,2.224253739092762,3.54957343321814,1.5749315579313472,0.30432212881351317,2.238004004863746,2.337485644664884,1.563198250627157,0.31261459900459343
1759827548.136024,1,2.224031298039112,3.5764630966057216,1.5749651841745276,0.3076929582213056,2.2382206757550014,2.35863014532554,1.562869377544372,0.3136990039675509
1759827548.227535,1,2.2238033544236213,3.610614957554332,1.577259115539112,0.31093496884114685,2.2382671535618455,2.366254575829446,1.5634609658938707,0.31408090864374427
1759827548.3217077,1,2.223621984576838,3.6388808922358673,1.5793598169477312,0.3142954167867021,2.239023289379945,2.416660128382654,1.5637705622296771,0.3052831681276927
1759827548.4195924,1,2.2230980339148787,3.665759287540256,1.5832634120621625,0.3126652541690193,2.2393345813125176,2.4413717838112277,1.5629447218075525,0.30459699211116825
1759827548.5172212,1,2.222616179369585,3.693563305396467,1.5910579032188998,0.30732725498407965,2.239500142974631,2.451158197183157,1.563482038810689,0.30474912608884924
1759827548.614819,1,2.221362155896037,3.7263906942578027,1.6060160111436679,0.30660093131140037,2.2406203437451517,2.5013249171456597,1.561244718989972,0.28962106132783083
1759827548.7212834,1,2.22019735270525,3.7538917974700845,1.621184867757886,0.30642251921974856,2.2411256901437175,2.5262624991899276,1.557366307714725,0.28843648360130386
1759827548.833746,1,2.217321320693642,3.7865687882670493,1.645595564890545,0.3101989867111247,2.2426000407771567,2.5752908618019834,1.54516731266603,0.31643211793578296
1759827548.948725,1,2.2145897656680225,3.8135359842375967,1.6691448941326466,0.31253953078575974,2.2435356974363625,2.59908301608814,1.5322312095664365,0.31869661844572433
1759827549.0678139,1,2.2093183489142176,3.845841848453055,1.7043505114730115,0.31773590843720256,2.247279951848193,2.646791507293128,1.5108807211027424,0.32149869449998764
1759827549.1828434,1,2.20471230397209,3.871883905670119,1.733498893301255,0.3213088468875822,2.2494767783946186,2.669755446156872,1.4913049225123625,0.3212259888365535
1759827549.2938223,1,2.197448384615189,3.9023153927590455,1.7725295516484576,0.3169946920262196,2.2553807751310853,2.7103698112552115,1.4691360218911307,0.2736359208543179
1759827549.4057038,1,2.1873276066007823,3.936872028292682,1.8170608267076305,0.3176487814116155,2.2583769842885735,2.7297112132987262,1.451289696724221,0.26894610144891656
1759827549.5128808,1,2.1780053749030457,3.9663974150841446,1.858947232401186,0.3179484600527168,2.2646741599921536,2.7721272713441114,1.4351350218935837,0.28357282382672117
1759827549.6337786,1,2.1653950001042275,3.998734202550443,1.904416777576266,0.3120294909105349,2.2678385115683874,2.792009199279338,1.4233719759593688,0.2842749269629408
1759827549.7447796,1,2.154771260103388,4.025062942824647,1.9443402003987693,0.3073318911437022,2.2751684707506126,2.839627927299049,1.4151952465842181,0.2996643203074592
1759827549.8553262,1,2.1400433744939766,4.054838861540712,1.9901892346287304,0.3101257888689653,2.2787956390393544,2.86230303330745,1.410060053230166,0.300743668190656
1759827549.9687338,1,2.127868782147269,4.0785966280022725,2.027748870131066,0.3124943143866194,2.2856858099605466,2.906847836849291,1.4110298471265985,0.30048692407854277
1759827550.0725453,1,2.110963352682163,4.1065878606580934,2.073117611095989,0.31219657522415106,2.288888920258958,2.9276169375434264,1.4132804168843474,0.3003021381007456
1759827550.1922479,1,2.097208549055578,4.1286526736546,2.1099597190967994,0.31209229876414646,2.2947936467666654,2.9663908368527228,1.4210550424866892,0.26878062801165087
1759827550.2999914,1,2.0782980340534722,4.154382477242078,2.1552837601047212,0.3169074301260872,2.297396126469245,2.9845861170489703,1.4281985584991694,0.2659133872602626
1759827550.4179986,1,2.059448263021803,4.177838418386487,2.19588422887103,0.31877858859042746,2.302455528084481,3.0254399079686403,1.440301521519061,0.2631834315048505
1759827550.5352936,1,2.0394693950500438,4.200569870672539,2.2409078738906993,0.3179933826809014,2.3046886250323926,3.0450211031132812,1.4502479513582238,0.2627992812047946
1759827550.6444876,1,2.0146795734605156,4.225715234405371,2.292598261261607,0.3092435324401466,2.3085656948314095,3.0860829575718305,1.464516385882092,0.2728490360623726
1759827550.7566648,1,1.9945528103667354,4.245822260962578,2.3370037689116807,0.3018011800273839,2.3102431810235977,3.1058166503970637,1.4760101349901207,0.27390857334055735
1759827550.8737013,1,1.968802677976988,4.267141705403395,2.3880008813465756,0.31384692777635026,2.313082095875668,3.148675622777658,1.4949946740923203,0.2717474863555896
1759827550.9819953,1,1.9475886303002732,4.2838646088144205,2.430050323465165,0.32330355336432903,2.3141939748076044,3.1690846753178192,1.5106988094317526,0.27197472575438303
1759827551.1056066,1,1.920675906500316,4.302269569031798,2.48018633496156,0.3184306888193692,2.315566408335061,3.2100495008777434,1.5319282971834085,0.2603003869244923
1759827551.2182813,1,1.894753788757103,4.318410859943026,2.524865288911463,0.3176929528898379,2.3159450434079436,3.2296482900749997,1.5488980441467546,0.2596190644250554
1759827551.3395064,1,1.8681708156189802,4.3332320552524335,2.5724864342942944,0.3204856192693745,2.3158664562403986,3.269196057469093,1.5703875542493289,0.2504270598117166
1759827551.4646559,1,1.83543946708583,4.348963590864995,2.629041947627443,0.31825786491400504,2.3155402612936737,3.2880364857806414,1.586872068683057,0.24914396598211327
1759827551.580721,1,1.8093616084135564,4.361041393862652,2.675267594992465,0.316129641316293,2.3133157028513054,3.3310570006073927,1.6134914296769498,0.26630233027913075
1759827551.6930747,1,1.7780547467276309,4.372654810502966,2.7280801313638037,0.3131240660459443,2.3119091787669857,3.35141259996443,1.6342467787449166,0.2679064667531666
1759827551.7934027,1,1.7526587778336413,4.381901542087523,2.7718658029968184,0.3099952837242119,2.309119530475568,3.3863196899391204,1.6604451954833412,0.2384760112555255
1759827551.9023767,1,1.7208749407790915,4.390468132592401,2.820985981975966,0.3140660866347436,2.3074251701169026,3.402745958412817,1.6797103342144766,0.23578245846837692
1759827552.0084372,1,1.6952794357571197,4.396922591816652,2.8609927422419745,0.3171133425119197,2.303284115712282,3.4358251118045304,1.7043461225862315,0.22574476753635525
1759827552.117419,1,1.6637141483011626,4.402786177306341,2.9020008463212856,0.31320432327269787,2.3010016140175242,3.4514580499345113,1.7221639324114135,0.22453155651009962
1759827552.216772,1,1.6321780485569992,4.407726300369841,2.9377418244337177,0.3108960435783151,2.295109951615656,3.4841604337826837,1.7469567052447021,0.23472713229730394
1759827552.3092282,1,1.6023467250282106,4.411299595157963,2.9674160418089377,0.3095090098809378,2.2922115880061087,3.498845900895108,1.7645801935119974,0.23520838100159192
1759827552.4031143,1,1.5779002923498466,4.414218653424873,2.991984875548887,0.3078485464762654,2.2908585528773107,3.5046710591409367,1.7746889877040417,0.23529129236859406
1759827552.504402,1,1.5465138357439023,4.417046519057289,3.013083182989518,0.307268455138987,2.2822572277238273,3.541752527162054,1.8036504240759856,0.22487302226109748
1759827552.6038463,1,1.5209929406517433,4.419299346722662,3.030292551132087,0.306449599405046,2.277778520121517,3.559629969001087,1.8285733956324335,0.22469441529429707
1759827552.6943927,1,1.490122163915702,4.4211182191056215,3.043242838058504,0.3054777725876417,2.2760830663370086,3.5655196439801067,1.8409071196504245,0.22392713170414516
1759827552.7872643,1,1.4645262177414888,4.422751208576073,3.053998692844717,0.30440677470810035,2.262869275769956,3.604846768286271,1.8830372719198218,0.22980477359149534
1759827552.882317,1,1.4325873310115005,4.424877178047103,3.0625375722142136,0.3012269158787075,2.2561390456285464,3.6235243576081575,1.9189385045805032,0.23102917207948062
1759827552.9791987,1,1.406523266277395,4.426745433594332,3.0694694446818147,0.29846663324145134,2.2530272870388983,3.630953977205276,1.9407055744306427,0.2315837837581186
1759827553.0820394,1,1.3750446584437064,4.428144763603944,3.075155377425662,0.30049826309747285,2.234553839810013,3.6707275129446972,1.9863014402102537,0.24737963183398837
1759827553.1694999,1,1.3487128440283767,4.429438459118046,3.079905307331923,0.30261958939099665,2.2258495725687504,3.6884007756758677,2.0226566928013137,0.2500284328030723
1759827553.2636068,1,1.3159350646049772,4.4309516011853605,3.0854451859638234,0.3056968739367169,2.221752409208854,3.695631127680121,2.043722148280897,0.25020627751085
1759827553.3564136,1,1.2902074163099415,4.431616326919988,3.089926746815681,0.3080002910884223,2.2011964094551986,3.731376464678032,2.087658240977856,0.2441864945018664
1759827553.446135,1,1.2590963523163528,4.43309810882991,3.0957340739769137,0.29947330775022823,2.1914715666320994,3.747310891386223,2.1217347869235605,0.2445852365457953
