timestamp,vehicle_id,x,y,theta,velocity,gps_available,dt,gps_x,gps_y,gps_theta,gps_velocity,control_steering,control_acceleration
1759827516.63047,1,-1.735,-0.35,-0.7801621756414647,0.0,False,0.01,nan,nan,nan,nan,0.0,0.0
1759827516.6405613,1,-1.735,-0.35,-0.7801621756414647,0.0,False,0.010091304779052734,nan,nan,nan,nan,0.0,0.0
1759827517.3027778,1,-1.7349996599784263,-0.35000028925446364,-0.7230011404521317,0.0,True,0.1,-1.734999656677246,-0.3500002920627594,-0.7177035212516785,0.0,0.0,0.0
1759827517.4100132,1,-1.7349996577811777,-0.35000029112365083,-0.7180963649787699,0.0,True,0.1,-1.734999656677246,-0.3500002920627594,-0.7177035212516785,0.0,0.0,0.0
1759827517.5080776,1,-1.7349996570913868,-0.3500002917104521,-0.7176961356278841,0.0,True,0.09806442260742188,-1.734999656677246,-0.3500002920627594,-0.7177035212516785,0.0,0.0,0.0
1759827517.605949,1,-1.734999656835023,-0.3500002919285394,-0.7176724363859535,0.0,True,0.09787130355834961,-1.734999656677246,-0.3500002920627594,-0.7177035212516785,0.0,0.0,0.0
1759827517.7143447,1,-1.7349996567374888,-0.35000029201151134,-0.7176770662974317,0.0,True,0.1,-1.734999656677246,-0.3500002920627594,-0.7177035212516785,0.0,0.0,0.0
1759827517.8264139,1,-1.7349996567002555,-0.35000029204318545,-0.7176822543346191,0.0,True,0.1,-1.734999656677246,-0.3500002920627594,-0.7177035212516785,0.0,0.0,0.0
1759827517.926431,1,-1.7349996566860348,-0.3500002920552829,-0.7176863217286584,0.0,True,0.1,-1.734999656677246,-0.3500002920627594,-0.7177035212516785,0.0,0.0,0.0
1759827518.027506,1,-1.7349996566806032,-0.35000029205990363,-0.7176895450454985,0.0,True,0.1,-1.734999656677246,-0.3500002920627594,-0.7177035212516785,0.0,0.0,0.0
1759827518.1179442,1,-1.7349996566785284,-0.3500002920616686,-0.7176923390107888,0.0,True,0.0904381275177002,-1.734999656677246,-0.3500002920627594,-0.7177035212516785,0.0,0.0,0.0
1759827518.218177,1,-1.734999656677736,-0.35000029206234273,-0.7176943850134307,0.0,True,0.1,-1.734999656677246,-0.3500002920627594,-0.7177035212516785,0.0,0.0,0.0
1759827518.317715,1,-1.7349996566774333,-0.35000029206260025,-0.7176961858121018,0.0,True,0.09953784942626953,-1.734999656677246,-0.3500002920627594,-0.7177035212516785,0.0,0.0,0.0
1759827518.4110749,1,-1.7349996566773176,-0.3500002920626986,-0.7176977806174349,0.0,True,0.09335994720458984,-1.734999656677246,-0.3500002920627594,-0.7177035212516785,0.0,0.0,0.0
1759827518.5106153,1,-1.7349996566772734,-0.3500002920627362,-0.7176990495312872,0.0,True,0.09954047203063965,-1.734999656677246,-0.3500002920627594,-0.7177035212516785,0.0,0.0,0.0
1759827518.6311204,1,-1.7349996566772565,-0.3500002920627505,-0.7177001140192232,0.0,True,0.1,-1.734999656677246,-0.3500002920627594,-0.7177035212516785,0.0,0.0,0.0
1759827518.7439404,1,-1.73499965667725,-0.350000292062756,-0.7177009881758494,0.0,True,0.1,-1.734999656677246,-0.3500002920627594,-0.7177035212516785,0.0,0.0,0.0
1759827518.871152,1,-1.7349996566772476,-0.3500002920627581,-0.7177016855241103,0.0,True,0.1,-1.734999656677246,-0.3500002920627594,-0.7177035212516785,0.0,0.12113844016891306,-0.05
1759827518.9927511,1,-1.7371867086452728,-0.34810208744145077,-0.7161143840359543,0.024897893854954663,True,0.1,-1.7396975755691528,-0.3459169566631317,-0.7139339447021484,0.024897893854954663,0.12113844016891306,-0.05
1759827519.0942194,1,-1.738021123565389,-0.34737593114653537,-0.7149826094590299,0.024897893854954663,True,0.1,-1.7396975755691528,-0.3459169566631317,-0.7139339447021484,0.024897893854954663,0.12515388617537226,-0.05
1759827519.2255023,1,-1.742990271828481,-0.3431043978953415,-0.7113939030998964,0.04866621598329744,True,0.1,-1.7483326196670532,-0.33849266171455383,-0.7069070935249329,0.04866621598329744,0.12515388617537226,-0.05
1759827519.331253,1,-1.7448840790798412,-0.34146791793333203,-0.7088217513348383,0.04866621598329744,True,0.1,-1.7483326196670532,-0.33849266171455383,-0.7069070935249329,0.04866621598329744,0.13272272765875215,-0.05
1759827519.4455576,1,-1.7507763432486287,-0.33645590018568444,-0.7043866499938662,0.0506493445846438,True,0.1,-1.7567944526672363,-0.3313208818435669,-0.6997482776641846,0.0506493445846438,0.13272272765875215,-0.05
1759827519.5555224,1,-1.7530215806367724,-0.33453514503266013,-0.7012481627693887,0.0506493445846438,True,0.1,-1.7567944526672363,-0.3313208818435669,-0.6997482776641846,0.0506493445846438,0.1406621064876603,-0.05
1759827519.6801915,1,-1.759432440178567,-0.32915821228327596,-0.696206496609614,0.049839614098468925,True,0.1,-1.7657482624053955,-0.32384809851646423,-0.6917607188224792,0.049839614098468925,0.1406621064876603,-0.05
1759827519.810854,1,-1.7618751849428191,-0.3270972810237321,-0.6926980408100594,0.049839614098468925,True,0.1,-1.7657482624053955,-0.32384809851646423,-0.6917607188224792,0.049839614098468925,0.14983606277023753,-0.05
1759827519.9221573,1,-1.768561181326111,-0.3215820506497462,-0.6871325622309712,0.0520831508603104,True,0.1,-1.7751706838607788,-0.31611815094947815,-0.682915985584259,0.0520831508603104,0.14984745204841232,-0.05
1759827520.0242212,1,-1.7711081808529383,-0.31946714971930446,-0.6833189571392886,0.0520831508603104,True,0.1,-1.7751706838607788,-0.31611815094947815,-0.682915985584259,0.0520831508603104,0.16029569887266604,-0.05
1759827520.1458845,1,-1.7774932030338602,-0.31428853343946234,-0.6775350244464047,0.05112894395802191,True,0.1,-1.783889889717102,-0.3090929388999939,-0.6741067171096802,0.05112894395802191,0.21194413302757198,-0.05
1759827520.2542784,1,-1.7799255337760462,-0.312302412636579,-0.6733989819426647,0.05112894395802191,True,0.1,-1.783889889717102,-0.3090929388999939,-0.6741067171096802,0.05112894395802191,0.3479890460024464,-0.05
1759827520.3700933,1,-1.7863785999482291,-0.3071864835576525,-0.6651157839161428,0.0474843774183844,True,0.1,-1.7926608324050903,-0.30219438672065735,-0.6583686470985413,0.0474843774183844,0.3479890460024464,-0.05
1759827520.4687023,1,-1.7888545880022084,-0.3052057908198413,-0.6590165476189576,0.0474843774183844,True,0.09860897064208984,-1.7926608324050903,-0.30219438672065735,-0.6583686470985413,0.0474843774183844,0.4987840639845693,-0.05
1759827520.5888634,1,-1.7950920332403353,-0.30044365614940177,-0.6461758179581825,0.05022469874173459,True,0.1,-1.801400899887085,-0.2955995798110962,-0.6345195174217224,0.05022469874173459,0.4987840639845693,-0.05
1759827520.706878,1,-1.7974602726357747,-0.298606049266426,-0.6368939412292605,0.05022469874173459,True,0.1,-1.801400899887085,-0.2955995798110962,-0.6345195174217224,0.05022469874173459,0.6,-0.05
1759827520.8328042,1,-1.8044531575735443,-0.29356276619894967,-0.6182874520774284,0.05193935462781731,True,0.1,-1.8113558292388916,-0.28853702545166016,-0.6009044647216797,0.05193935462781731,0.6,-0.05
1759827520.9522324,1,-1.8071030832195494,-0.2916073011812963,-0.6052378473607671,0.05193935462781731,True,0.1,-1.8113558292388916,-0.28853702545166016,-0.6009044647216797,0.05193935462781731,0.6,-0.05
1759827521.0726576,1,-1.8144814683895722,-0.28664406870204023,-0.5831792051916693,0.04859988318592108,True,0.1,-1.8215124607086182,-0.2818688452243805,-0.5644555687904358,0.04859988318592108,0.6,-0.05
1759827521.19267,1,-1.8172774527141133,-0.2847152522733322,-0.5678813973663495,0.04859988318592108,True,0.1,-1.8215124607086182,-0.2818688452243805,-0.5644555687904358,0.04859988318592108,0.6,-0.05
1759827521.3092334,1,-1.8243798519782646,-0.28028099434301357,-0.5452542773457232,0.04906448518700709,True,0.1,-1.8313266038894653,-0.2759108245372772,-0.5300140976905823,0.04906448518700709,0.6,-0.02513518452306315
1759827521.4285073,1,-1.8270709655225468,-0.27855226584038134,-0.529997340360703,0.04906448518700709,True,0.1,-1.8313266038894653,-0.2759108245372772,-0.5300140976905823,0.04906448518700709,0.6,-0.012790969468137493
1759827521.5285537,1,-1.8312375411638917,-0.2760382047616551,-0.5172409134769538,0.018232827588504134,True,0.1,-1.8347852230072021,-0.2739153504371643,-0.5180348753929138,0.018232827588504134,0.6,0.02575660515724987
1759827521.6253946,1,-1.8328438686914137,-0.27505960877212937,-0.5093367853367567,0.018232827588504134,True,0.09684085845947266,-1.8347852230072021,-0.2739153504371643,-0.5180348753929138,0.018232827588504134,0.6,0.04027251200395519
1759827521.7165093,1,-1.8334897364792284,-0.274661918427773,-0.5055973955305539,0.018232827588504134,True,0.09111475944519043,-1.8347852230072021,-0.2739153504371643,-0.5180348753929138,0.018232827588504134,0.6,0.07785246196715445
1759827521.8066688,1,-1.8257748406418466,-0.2792393761640731,-0.5184681080773998,0.0475497558501034,True,0.09015941619873047,-1.82332181930542,-0.28077971935272217,-0.5581265687942505,0.0475497558501034,0.6,0.07785246196715445
1759827521.9224262,1,-1.8226833899728236,-0.2810951655455292,-0.5298448415766828,0.0475497558501034,True,0.1,-1.82332181930542,-0.28077971935272217,-0.5581265687942505,0.0475497558501034,0.6,0.09520860522224815
1759827522.0203476,1,-1.8107630625867173,-0.28889495679611105,-0.5587007026957771,0.0901737318076672,True,0.09792137145996094,-1.8080909252166748,-0.29093366861343384,-0.6130518317222595,0.0901737318076672,0.6,0.09520860522224815
1759827522.1159208,1,-1.8063274713765904,-0.291911441767123,-0.5817916135386945,0.0901737318076672,True,0.09557318687438965,-1.8080909252166748,-0.29093366861343384,-0.6130518317222595,0.0901737318076672,0.5170595312141089,0.10347757941265241
1759827522.2077386,1,-1.8047809967343613,-0.2930539422190722,-0.5971593966023665,0.0901737318076672,True,0.09181785583496094,-1.8080909252166748,-0.29093366861343384,-0.6130518317222595,0.0901737318076672,0.5170595312141089,0.10347757941265241
1759827522.3172803,1,-1.7885744312044871,-0.30558560602912344,-0.6390590498993571,0.10332366503781744,True,0.1,-1.7838183641433716,-0.3097097873687744,-0.6955774426460266,0.10332366503781744,0.43974101828070644,0.1479006722949072
1759827522.4106371,1,-1.7826863205206303,-0.31034369470987333,-0.6699608850155627,0.10332366503781744,True,0.09335684776306152,-1.7838183641433716,-0.3097097873687744,-0.6955774426460266,0.10332366503781744,0.29069883480847736,0.1098193692844351
1759827522.4989934,1,-1.7806582686283852,-0.3121243741010209,-0.6892657857928466,0.10332366503781744,True,0.08835625648498535,-1.7838183641433716,-0.3097097873687744,-0.6955774426460266,0.10332366503781744,0.23070032076224933,0.15678634295649618
1759827522.6027162,1,-1.7605751991269876,-0.3302225301483595,-0.7252947668012588,0.13297908354504015,True,0.1,-1.754482388496399,-0.33615291118621826,-0.7580602169036865,0.13297908354504015,0.23070032076224933,0.15678634295649618
1759827522.692754,1,-1.7533951054700347,-0.336930182374056,-0.7503457762518551,0.13297908354504015,True,0.09003782272338867,-1.754482388496399,-0.33615291118621826,-0.7580602169036865,0.13297908354504015,0.07052606874529488,0.14990325667911114
1759827522.78915,1,-1.750491453103448,-0.3397947447290082,-0.7658247668636395,0.13297908354504015,True,0.09639596939086914,-1.754482388496399,-0.33615291118621826,-0.7580602169036865,0.13297908354504015,0.07052606874529488,0.14990325667911114
1759827522.88598,1,-1.7298393013709696,-0.3601623770107781,-0.7845075320456836,0.15353708172770503,True,0.09682989120483398,-1.723686933517456,-0.36636942625045776,-0.7842980623245239,0.15353708172770503,0.03413926879684226,0.20291123980284073
1759827522.9782777,1,-1.7222093526068107,-0.36782595969023946,-0.795829331598803,0.15353708172770503,True,0.09229779243469238,-1.723686933517456,-0.36636942625045776,-0.7842980623245239,0.15353708172770503,-0.01843082096278792,0.14948478110700691
1759827523.0690973,1,-1.719396691112875,-0.3707318752324075,-0.8015835195715191,0.15353708172770503,True,0.0908195972442627,-1.723686933517456,-0.36636942625045776,-0.7842980623245239,0.15353708172770503,-0.04571194887055263,0.19824756155841228
1759827523.16682,1,-1.694781845426242,-0.39546071275140077,-0.8033586363397092,0.18329162025881154,True,0.09772276878356934,-1.6872706413269043,-0.4027921259403229,-0.7819628715515137,0.18329162025881154,-0.04571194887055263,0.19824756155841228
1759827523.259702,1,-1.6856229116889843,-0.4046699132413144,-0.8024232730871166,0.18329162025881154,True,0.09288191795349121,-1.6872706413269043,-0.4027921259403229,-0.7819628715515137,0.18329162025881154,-0.04454115610050202,0.13306056865990232
1759827523.3641584,1,-1.6671204223160045,-0.4229623528900758,-0.7978612300651253,0.17851333255653917,True,0.1,-1.6633597612380981,-0.42634159326553345,-0.7741408348083496,0.17851333255653917,-0.06502049573933633,0.18131042005404038
1759827523.4558527,1,-1.660426524447707,-0.4295226224397324,-0.7929070101210431,0.17851333255653917,True,0.09169435501098633,-1.6633597612380981,-0.42634159326553345,-0.7741408348083496,0.17851333255653917,-0.06797582351828702,0.19731159662481884
1759827523.551482,1,-1.657659390657121,-0.43219795226422864,-0.7888227952182767,0.17851333255653917,True,0.09562921524047852,-1.6633597612380981,-0.42634159326553345,-0.7741408348083496,0.17851333255653917,-0.06797582351828702,0.19731159662481884
1759827523.6435757,1,-1.6325165488503492,-0.456286818335573,-0.7785542489550501,0.19090665339510807,True,0.09209370613098145,-1.6246452331542969,-0.46347576379776,-0.7561288475990295,0.19090665339510807,-0.06797582351828702,0.19731159662481884
1759827523.7472184,1,-1.6224546850653663,-0.46584481523793003,-0.7703727248059451,0.19090665339510807,True,0.1,-1.6246452331542969,-0.46347576379776,-0.7561288475990295,0.19090665339510807,-0.05004140696501125,0.19048760629502107
1759827523.8458037,1,-1.6009634965850397,-0.4858296015135175,-0.7600774556236818,0.19211460751799164,True,0.09858536720275879,-1.5960922241210938,-0.4900401830673218,-0.7445406913757324,0.19211460751799164,-0.05004140696501125,0.19048760629502107
1759827523.950968,1,-1.5926292223835141,-0.49348230883909183,-0.7525813199133893,0.19211460751799164,True,0.1,-1.5960922241210938,-0.4900401830673218,-0.7445406913757324,0.19211460751799164,-0.04344090507761322,0.2019680914439554
1759827524.048864,1,-1.571174947445586,-0.5129886001506392,-0.7440938130058061,0.19656653186267162,True,0.09789586067199707,-1.5666053295135498,-0.5169246196746826,-0.735211193561554,0.19656653186267162,-0.04344090507761322,0.2019680914439554
1759827524.1484623,1,-1.562844505788318,-0.5204810309682946,-0.7383225300764344,0.19656653186267162,True,0.09959840774536133,-1.5666053295135498,-0.5169246196746826,-0.735211193561554,0.19656653186267162,-0.049599659276529096,0.20835245586235426
1759827524.238199,1,-1.5601826355432364,-0.5228143889123187,-0.7349036682169512,0.19656653186267162,True,0.0897367000579834,-1.5666053295135498,-0.5169246196746826,-0.735211193561554,0.19656653186267162,-0.049599659276529096,0.20835245586235426
1759827524.3331864,1,-1.531401450318191,-0.5484203906074067,-0.7278326736474412,0.208523905321667,True,0.09498739242553711,-1.5227068662643433,-0.5560501217842102,-0.7209577560424805,0.208523905321667,-0.08868430102909564,0.25934563895674
1759827524.4318337,1,-1.5201560897867021,-0.5583566478365358,-0.7224205156720966,0.208523905321667,True,0.0986473560333252,-1.5227068662643433,-0.5560501217842102,-0.7209577560424805,0.208523905321667,-0.06560723539670121,0.19326095337679552
1759827524.5400617,1,-1.4939196608649117,-0.5809573157834408,-0.71246820080151,0.21253776973790076,True,0.1,-1.4875767230987549,-0.5862600803375244,-0.7019967436790466,0.21253776973790076,-0.1266756871483743,0.24869257247090032
1759827524.6455476,1,-1.4838479188987457,-0.589532118314702,-0.7049268271533649,0.21253776973790076,True,0.1,-1.4875767230987549,-0.5862600803375244,-0.7019967436790466,0.21253776973790076,-0.09479333333850093,0.19857057031487313
1759827524.771537,1,-1.4548178568010686,-0.6133007417569423,-0.689730360805207,0.2212475773631075,True,0.1,-1.447317123413086,-0.6191607713699341,-0.672357976436615,0.2212475773631075,-0.1674332128033189,0.2538144929274547
1759827524.886912,1,-1.443648173950141,-0.6222820765623576,-0.6788077560346117,0.2212475773631075,True,0.1,-1.447317123413086,-0.6191607713699341,-0.672357976436615,0.2212475773631075,-0.1858227341007499,0.24799934900913484
1759827524.9998562,1,-1.4099355581308501,-0.6478145854437409,-0.6527567085735306,0.2608287950195299,True,0.1,-1.4016908407211304,-0.6535280346870422,-0.6219305396080017,0.2608287950195299,-0.1858227341007499,0.24799934900913484
1759827525.122981,1,-1.3969039760194284,-0.6573687758389465,-0.63384257487402,0.2608287950195299,True,0.1,-1.4016908407211304,-0.6535280346870422,-0.6219305396080017,0.2608287950195299,-0.16752333582818224,0.23428934830419715
1759827525.2373831,1,-1.3622947841544402,-0.6807465901746672,-0.6021180842411091,0.24916253187133072,True,0.1,-1.3533549308776855,-0.6861317157745361,-0.5703709125518799,0.24916253187133072,-0.16752333582818224,0.23428934830419715
1759827525.3581467,1,-1.3489079023268318,-0.6894386372967038,-0.5798564053876358,0.24916253187133072,True,0.1,-1.3533549308776855,-0.6861317157745361,-0.5703709125518799,0.24916253187133072,-0.13420955679655577,0.23407337406944323
1759827525.4867651,1,-1.3128456728322029,-0.7112535287356768,-0.5494276221273431,0.23642783223785768,True,0.1,-1.302817702293396,-0.7167849540710449,-0.5253137350082397,0.23642783223785768,-0.17950555991552442,0.2838145518606441
1759827525.598409,1,-1.2989328306612977,-0.719365841038485,-0.5279716772967866,0.23642783223785768,True,0.1,-1.302817702293396,-0.7167849540710449,-0.5253137350082397,0.23642783223785768,-0.09880552849215007,0.2249449878088247
1759827525.720035,1,-1.2604266253702285,-0.7403565168989371,-0.49981367816456057,0.2556128984084224,True,0.1,-1.250308632850647,-0.7454283237457275,-0.48217833042144775,0.2556128984084224,-0.15932987070354265,0.29311074558218936
1759827525.840104,1,-1.2455919114090312,-0.7481479539440511,-0.4800109257802383,0.2556128984084224,True,0.1,-1.250308632850647,-0.7454283237457275,-0.48217833042144775,0.2556128984084224,-0.08098408380643818,0.222634826446821
1759827525.9710534,1,-1.2036609977198434,-0.7687478673429441,-0.4540127482038194,0.25986451369954194,True,0.1,-1.1920199394226074,-0.7741167545318604,-0.4415227174758911,0.25986451369954194,-0.13573658376825293,0.2810754187666566
1759827526.0959363,1,-1.1875362029297003,-0.7763991812952908,-0.435991004139753,0.25986451369954194,True,0.1,-1.1920199394226074,-0.7741167545318604,-0.4415227174758911,0.25986451369954194,-0.06145206378030821,0.20969304044394668
1759827526.2241066,1,-1.146671795870866,-0.7946751294939223,-0.41442278482088213,0.2484172483447587,True,0.1,-1.1353533267974854,-0.7995301485061646,-0.40925469994544983,0.2484172483447587,-0.11619549165330945,0.26647916137779726
1759827526.332965,1,-1.130981782319114,-0.8014752182731181,-0.4005534932698467,0.2484172483447587,True,0.1,-1.1353533267974854,-0.7995301485061646,-0.40925469994544983,0.2484172483447587,-0.11467734649112593,0.2642340978620032
1759827526.4609284,1,-1.089002996870538,-0.8186948681265281,-0.37924819473198745,0.25079460398376957,True,0.1,-1.0773504972457886,-0.8233375549316406,-0.3730824887752533,0.25079460398376957,-0.11467734649112593,0.2642340978620032
1759827526.5654848,1,-1.072894291236598,-0.8250900873471881,-0.3654862669854726,0.25079460398376957,True,0.1,-1.0773504972457886,-0.8233375549316406,-0.3730824887752533,0.25079460398376957,-0.10353388131573737,0.2597508139991275
1759827526.6937041,1,-1.0311383132138001,-0.8405766890137601,-0.3454598194452707,0.25891744235573105,True,0.1,-1.0202933549880981,-0.8444721102714539,-0.3400760889053345,0.25891744235573105,-0.10353388131573737,0.2597508139991275
1759827526.8027017,1,-1.0151233049323394,-0.8463138072239867,-0.3324796133224215,0.25891744235573105,True,0.1,-1.0202933549880981,-0.8444721102714539,-0.3400760889053345,0.25891744235573105,-0.08485507861584907,0.24632732862816537
1759827526.9284432,1,-0.9739511860952237,-0.860136932351823,-0.3149847523863336,0.2561154309750651,True,0.1,-0.9634824395179749,-0.8635573387145996,-0.31135061383247375,0.2561154309750651,-0.12494092580526939,0.31180404702266257
1759827527.0379643,1,-0.9581740924960521,-0.8652643772380855,-0.30319527724548934,0.2561154309750651,True,0.1,-0.9634824395179749,-0.8635573387145996,-0.31135061383247375,0.2561154309750651,-0.07433908305356063,0.24754470453207147
1759827527.1633246,1,-0.9120163181969593,-0.8791270826005397,-0.28469911055583985,0.28247136922751065,True,0.1,-0.9001659750938416,-0.8825312852859497,-0.27754828333854675,0.28247136922751065,-0.109177684433579,0.3144514131329257
1759827527.275565,1,-0.8943320988028443,-0.8842437709681192,-0.27171411429482717,0.28247136922751065,True,0.1,-0.9001659750938416,-0.8825312852859497,-0.27754828333854675,0.28247136922751065,-0.0472041613457197,0.2336719588631159
1759827527.3995078,1,-0.8492587715772952,-0.8962773544662299,-0.2551566462476682,0.2748058327772605,True,0.1,-0.837773323059082,-0.8991941809654236,-0.25139495730400085,0.2748058327772605,-0.07340951842012444,0.2864188212348168
1759827527.5166118,1,-0.8319991749125968,-0.9007125737281165,-0.24441604632895597,0.2748058327772605,True,0.1,-0.837773323059082,-0.8991941809654236,-0.25139495730400085,0.2748058327772605,-0.06063340496569758,0.2910624916879936
1759827527.6149526,1,-0.7875686491980219,-0.9115265354916093,-0.23083414404863767,0.2857921955995163,True,0.09834074974060059,-0.7769707441329956,-0.914038896560669,-0.23039506375789642,0.2857921955995163,-0.06063340496569758,0.2910624916879936
1759827527.7102623,1,-0.7708872662206353,-0.9154460890619132,-0.22251698912661588,0.2857921955995163,True,0.09530973434448242,-0.7769707441329956,-0.914038896560669,-0.23039506375789642,0.2857921955995163,-0.0522099275917558,0.28004902514535834
1759827527.810799,1,-0.7639974204431936,-0.916974461926992,-0.2180503432476577,0.2857921955995163,True,0.1,-0.7769707441329956,-0.914038896560669,-0.23039506375789642,0.2857921955995163,-0.0522099275917558,0.28004902514535834
1759827527.9190226,1,-0.7089072013718328,-0.9290860848506375,-0.20745693086404238,0.29224902581396006,True,0.1,-0.6925016045570374,-0.9326990842819214,-0.2060634046792984,0.29224902581396006,-0.08360073183998296,0.3476818264075378
1759827528.0298338,1,-0.6878417275054215,-0.9336055102820592,-0.1999541265869862,0.29224902581396006,True,0.1,-0.6925016045570374,-0.9326990842819214,-0.2060634046792984,0.29224902581396006,-0.04101012562261275,0.2508607512535492
1759827528.1328785,1,-0.6399568940836318,-0.9430064652997996,-0.18818444003653667,0.29809364631990476,True,0.1,-0.6284254789352417,-0.9451913237571716,-0.1841527819633484,0.29809364631990476,-0.06690618619595412,0.3097901446834806
1759827528.2341273,1,-0.6216426847468133,-0.9464750363108094,-0.17991459298897539,0.29809364631990476,True,0.1,-0.6284254789352417,-0.9451913237571716,-0.1841527819633484,0.29809364631990476,-0.02630331598596669,0.2363027784229566
1759827528.3259985,1,-0.6155412125262565,-0.9475441969842575,-0.17627976137061196,0.29809364631990476,True,0.09187126159667969,-0.6284254789352417,-0.9451913237571716,-0.1841527819633484,0.29809364631990476,-0.0496610142677163,0.3018096063462711
1759827528.4230278,1,-0.5638420856636692,-0.9565263830808354,-0.16687447392539667,0.2874205097472816,True,0.09702920913696289,-0.5488632917404175,-0.9590790867805481,-0.16432173550128937,0.2874205097472816,-0.0496610142677163,0.3018096063462711
1759827528.5162034,1,-0.5444959153401414,-0.9597937250930914,-0.1606745624690653,0.2874205097472816,True,0.09317564964294434,-0.5488632917404175,-0.9590790867805481,-0.16432173550128937,0.2874205097472816,-0.03394052952562099,0.28468707739994825
1759827528.6112947,1,-0.5368888199303273,-0.9610150849019843,-0.15731937936214635,0.2874205097472816,True,0.09509134292602539,-0.5488632917404175,-0.9590790867805481,-0.16432173550128937,0.2874205097472816,-0.03394052952562099,0.28468707739994825
1759827528.7090023,1,-0.48198833670259633,-0.9695558483658488,-0.14957023050452278,0.2854866912313727,True,0.09770750999450684,-0.4650881588459015,-0.9721555709838867,-0.14741528034210205,0.2854866912313727,-0.05219136810041114,0.35131948618618536
1759827528.798364,1,-0.4619066830896676,-0.9726079173513557,-0.1443362769192369,0.2854866912313727,True,0.08936166763305664,-0.4650881588459015,-0.9721555709838867,-0.14741528034210205,0.2854866912313727,-0.021798022546745344,0.2589025518394155
1759827528.9140801,1,-0.41499376751487704,-0.9792590097822511,-0.13699470162323557,0.30165515181947644,True,0.1,-0.4044519066810608,-0.9807049632072449,-0.13609857857227325,0.30165515181947644,-0.021798022546745344,0.2589025518394155
1759827529.007643,1,-0.3977981398408568,-0.9816183697643754,-0.1325328482230752,0.30165515181947644,True,0.09356284141540527,-0.4044519066810608,-0.9807049632072449,-0.13609857857227325,0.30165515181947644,-0.01837013922011721,0.2509462848781004
1759827529.1099334,1,-0.3904882159906577,-0.9825688004390328,-0.13026782124517666,0.30165515181947644,True,0.1,-0.4044519066810608,-0.9807049632072449,-0.13609857857227325,0.30165515181947644,-0.036339419811408646,0.31759100249774147
1759827529.2018154,1,-0.3410835539154611,-0.9890618509881216,-0.12549400163149294,0.27956678954391606,True,0.09188199043273926,-0.3262925148010254,-0.9910255074501038,-0.12571246922016144,0.27956678954391606,-0.036339419811408646,0.31759100249774147
1759827529.2991176,1,-0.32163283075341365,-0.9915708059568147,-0.12217679405292614,0.27956678954391606,True,0.09730219841003418,-0.3262925148010254,-0.9910255074501038,-0.12571246922016144,0.27956678954391606,-0.018191048884766303,0.23830318758947475
1759827529.3959844,1,-0.31424518654900296,-0.9924890132146599,-0.12079175306273626,0.27956678954391606,True,0.09686684608459473,-0.3262925148010254,-0.9910255074501038,-0.12571246922016144,0.27956678954391606,-0.034777056018418406,0.2993801309442334
1759827529.5094602,1,-0.25738772704261076,-0.9992551446023097,-0.11513616501137136,0.2803138754000425,True,0.1,-0.23944827914237976,-1.0013680458068848,-0.11200033128261566,0.2803138754000425,-0.04943585630076086,0.36631417866741095
1759827529.6079683,1,-0.23582225684082092,-1.001765668287733,-0.11096499037827989,0.2803138754000425,True,0.09850811958312988,-0.23944827914237976,-1.0013680458068848,-0.11200033128261566,0.2803138754000425,-0.025703220015918404,0.2700054931318005
1759827529.7051837,1,-0.1866342733096627,-1.0069767318640341,-0.1040915668985658,0.33731202565147056,True,0.09721541404724121,-0.17637845873832703,-1.0079723596572876,-0.09965589642524719,0.33731202565147056,-0.025703220015918404,0.2700054931318005
1759827529.7997134,1,-0.16818160466513202,-1.0088500150825424,-0.09939063301938944,0.33731202565147056,True,0.09452962875366211,-0.17637845873832703,-1.0079723596572876,-0.09965589642524719,0.33731202565147056,-0.015445256600104429,0.24538911899329593
1759827529.894093,1,-0.16114682305527173,-1.009507300548571,-0.09686577289623877,0.33731202565147056,True,0.09437966346740723,-0.17637845873832703,-1.0079723596572876,-0.09965589642524719,0.33731202565147056,-0.025443262086314533,0.30729830893914445
1759827529.991989,1,-0.11208052361717238,-1.014140962943312,-0.09199525082691906,0.26587947675570356,True,0.09789586067199707,-0.09776808321475983,-1.0154603719711304,-0.09070943295955658,0.26587947675570356,-0.025443262086314533,0.30729830893914445
1759827530.0780003,1,-0.09453654585694733,-1.0157557605995253,-0.08895743420081814,0.26587947675570356,True,0.08601140975952148,-0.09776808321475983,-1.0154603719711304,-0.09070943295955658,0.26587947675570356,-0.009130824724875808,0.2440798750507135
1759827530.1787977,1,-0.08641796458635188,-1.0164726835665239,-0.08711103588327518,0.26587947675570356,True,0.1,-0.09776808321475983,-1.0154603719711304,-0.09070943295955658,0.26587947675570356,-0.009803487155283008,0.31648239948214324
1759827530.2758422,1,-0.03263472909358879,-1.0211471764531912,-0.08416716588936879,0.28959835876207396,True,0.09704446792602539,-0.016698744148015976,-1.022531509399414,-0.08495989441871643,0.28959835876207396,-0.009803487155283008,0.31648239948214324
1759827530.3702507,1,-0.012379577707785604,-1.0228809286587959,-0.08211175576047935,0.28959835876207396,True,0.09440851211547852,-0.016698744148015976,-1.022531509399414,-0.08495989441871643,0.28959835876207396,0.017083885735736715,0.2825763596426336
1759827530.4659374,1,-0.004500196342085285,-1.0235344712146888,-0.08122765945044108,0.28959835876207396,True,0.09568667411804199,-0.016698744148015976,-1.022531509399414,-0.08495989441871643,0.28959835876207396,0.017083885735736715,0.2825763596426336
1759827530.581686,1,0.0551974900359234,-1.0286497239051298,-0.08232597131486763,0.3043075679002886,True,0.1,0.0733485072851181,-1.0302722454071045,-0.08954053372144699,0.3043075679002886,0.04499417808641226,0.34857977565145964
1759827530.6858995,1,0.0779985683705402,-1.030620636859042,-0.08342835047995578,0.3043075679002886,True,0.1,0.0733485072851181,-1.0302722454071045,-0.08954053372144699,0.3043075679002886,0.07313250858987885,0.30868914591774804
1759827530.807617,1,0.13259386759731917,-1.0360035083002925,-0.09321145823691523,0.3158481018747279,True,0.1,0.14688603579998016,-1.0376676321029663,-0.11165641248226166,0.3158481018747279,0.07313250858987885,0.30868914591774804
1759827530.9200544,1,0.15343716515591072,-1.0381731500656537,-0.10095597947476875,0.3158481018747279,True,0.1,0.14688603579998016,-1.0376676321029663,-0.11165641248226166,0.3158481018747279,0.06183162567509015,0.28579060624014774
1759827531.0352592,1,0.20235185391117025,-1.0442326759150693,-0.11496358158090914,0.30739685752439894,True,0.1,0.21368525922298431,-1.0460243225097656,-0.13434582948684692,0.30739685752439894,0.06183162567509015,0.28579060624014774
1759827531.1390495,1,0.22101841723863752,-1.0467031556594968,-0.12535730008779922,0.30739685752439894,True,0.1,0.21368525922298431,-1.0460243225097656,-0.13434582948684692,0.30739685752439894,0.03722484036697438,0.2789571949539156
1759827531.2590947,1,0.2635899909469618,-1.0529188066217654,-0.13772691659072045,0.2602051285560984,True,0.1,0.2739483118057251,-1.0547256469726562,-0.14923416078090668,0.2602051285560984,0.03722484036697438,0.2789571949539156
1759827531.3704953,1,0.2798354061912626,-1.0554088257636014,-0.14632132523970398,0.2602051285560984,True,0.1,0.2739483118057251,-1.0547256469726562,-0.14923416078090668,0.2602051285560984,0.013073000056873951,0.2904900158175638
1759827531.4843616,1,0.32804536495657916,-1.0629797673312547,-0.15449214509198939,0.30228942846477524,True,0.1,0.3393602669239044,-1.0649187564849854,-0.1573062390089035,0.30228942846477524,0.013073000056873951,0.2904900158175638
1759827531.5981824,1,0.3464467105363231,-1.0659584560331397,-0.15994940523339451,0.30228942846477524,True,0.1,0.3393602669239044,-1.0649187564849854,-0.1573062390089035,0.30228942846477524,-0.012152783857040106,0.2696345431248853
1759827531.7157621,1,0.39195642698975497,-1.0732989565730637,-0.16274273105802806,0.27636480824904974,True,0.1,0.4032209813594818,-1.0751136541366577,-0.15725861489772797,0.27636480824904974,-0.012152783857040106,0.2696345431248853
1759827531.836826,1,0.40933538456928503,-1.0761286359324937,-0.1641294415484218,0.27636480824904974,True,0.1,0.4032209813594818,-1.0751136541366577,-0.15725861489772797,0.27636480824904974,-0.02794230252783869,0.26017420604663954
1759827531.9556313,1,0.4550520706209864,-1.0832942723893426,-0.161914385984133,0.2731527267745654,True,0.1,0.4666493535041809,-1.0849783420562744,-0.1502126008272171,0.2731527267745654,-0.05379638783327678,0.32985162481077374
1759827532.0666707,1,0.47251786373240007,-1.0860094741826785,-0.159334941010286,0.2731527267745654,True,0.1,0.4666493535041809,-1.0849783420562744,-0.1502126008272171,0.2731527267745654,-0.04318437054909907,0.26239323512614676
1759827532.1826348,1,0.5210812046712106,-1.0929596146234073,-0.1510413484414812,0.2884867677032067,True,0.1,0.5334869027137756,-1.094454050064087,-0.13332529366016388,0.2884867677032067,-0.0690600125987828,0.31987595327361396
1759827532.2929654,1,0.5396439358477345,-1.0955292688198244,-0.14399618785401813,0.2884867677032067,True,0.1,0.5334869027137756,-1.094454050064087,-0.13332529366016388,0.2884867677032067,-0.03915136642750028,0.243062045417291
1759827532.4066544,1,0.5854631191541267,-1.1011978238267797,-0.13275710973686117,0.28827238045890435,True,0.1,0.5961443781852722,-1.1021771430969238,-0.11548367142677307,0.28827238045890435,-0.06959247323480611,0.3020208391985759
1759827532.5109713,1,0.6029809320501887,-1.1032434344189757,-0.12434695796540751,0.28827238045890435,True,0.1,0.5961443781852722,-1.1021771430969238,-0.11548367142677307,0.28827238045890435,-0.06722129051043702,0.28845923359406545
1759827532.6113832,1,0.6469767895515828,-1.1078347622537859,-0.11090732055642505,0.29639617203857477,True,0.1,0.6559862494468689,-1.1084372997283936,-0.0948963612318039,0.29639617203857477,-0.06722129051043702,0.28845923359406545
1759827532.7170663,1,0.6637988110869132,-1.1094414142040758,-0.10141862899205023,0.29639617203857477,True,0.1,0.6559862494468689,-1.1084372997283936,-0.0948963612318039,0.29639617203857477,-0.0657781057349851,0.2794410106261742
1759827532.841079,1,0.7096747814870716,-1.1132186913789976,-0.08705616093430635,0.27839845758695336,True,0.1,0.7209065556526184,-1.1138461828231812,-0.0732560008764267,0.27839845758695336,-0.0657781057349851,0.2794410106261742
1759827532.937622,1,0.7268453066342013,-1.1144818473033902,-0.07743276606787575,0.27839845758695336,True,0.0965430736541748,0.7209065556526184,-1.1138461828231812,-0.0732560008764267,0.27839845758695336,-0.07298438107159733,0.278036040635956
1759827533.0431283,1,0.7685280876113675,-1.117074532160068,-0.06386672557344397,0.27772577631006884,True,0.1,0.7771737575531006,-1.1173843145370483,-0.05362141132354736,0.27772577631006884,-0.07298438107159733,0.278036040635956
1759827533.1371088,1,0.7838214911582728,-1.1178900992589367,-0.054598437680990486,0.27772577631006884,True,0.09398055076599121,0.7771737575531006,-1.1173843145370483,-0.05362141132354736,0.27772577631006884,-0.03696324422555897,0.2194807317564718
1759827533.247154,1,0.8202021584154436,-1.1194722279203593,-0.044049959717689546,0.24674215406972497,True,0.1,0.8274583220481873,-1.1196459531784058,-0.03922169283032417,0.24674215406972497,-0.08643635128809457,0.27191092852171767
1759827533.354542,1,0.8341030560489072,-1.1199772298717179,-0.03734316597485687,0.24674215406972497,True,0.1,0.8274583220481873,-1.1196459531784058,-0.03922169283032417,0.24674215406972497,-0.11775035169738679,0.2819137155200711
1759827533.4736626,1,0.8800193504749478,-1.121036965742804,-0.02106640970193041,0.28936602870754474,True,0.1,0.8905239105224609,-1.1210757493972778,-0.006517409346997738,0.28936602870754474,-0.11775035169738679,0.2819137155200711
1759827533.5637972,1,0.8964722168874981,-1.1212475334084184,-0.010155760830059535,0.28936602870754474,True,0.0901346206665039,0.8905239105224609,-1.1210757493972778,-0.006517409346997738,0.28936602870754474,-0.12157446233846514,0.2546138487304062
1759827533.6477141,1,0.902070829453439,-1.1212184996950687,-0.003825895788533984,0.28936602870754474,True,0.08391690254211426,0.8905239105224609,-1.1210757493972778,-0.006517409346997738,0.28936602870754474,-0.12157446233846514,0.2546138487304062
1759827533.743991,1,0.9488471125479754,-1.120413132175363,0.016026329981706056,0.2554646670790149,True,0.09627676010131836,0.9625555872917175,-1.1199145317077637,0.037463221698999405,0.2554646670790149,-0.18979108751567075,0.30701503957776866
1759827533.831726,1,0.9658790960075115,-1.119947200792338,0.03100162878749302,0.2554646670790149,True,0.08773517608642578,0.9625555872917175,-1.1199145317077637,0.037463221698999405,0.2554646670790149,-0.1125811849769196,0.2452694853766773
1759827533.9279323,1,0.9732076558503383,-1.1196172274931746,0.04027553237663639,0.2554646670790149,True,0.0962061882019043,0.9625555872917175,-1.1199145317077637,0.037463221698999405,0.2554646670790149,-0.1125811849769196,0.2452694853766773
1759827534.0330396,1,1.0240360722884347,-1.116099442258665,0.06542448405726908,0.2715576803952609,True,0.1,1.0386830568313599,-1.1146728992462158,0.09114672988653183,0.2715576803952609,-0.17752857545119838,0.29121225642402226
1759827534.1162999,1,1.0417048550158092,-1.1146327768692288,0.08354419123229295,0.2715576803952609,True,0.08326029777526855,1.0386830568313599,-1.1146728992462158,0.09114672988653183,0.2715576803952609,-0.07944167179440953,0.2085289661745525
1759827534.1928844,1,1.0477518865709068,-1.113976809700713,0.09293333752664612,0.2715576803952609,True,0.0765845775604248,1.0386830568313599,-1.1146728992462158,0.09114672988653183,0.2715576803952609,-0.15811061101788582,0.2605703885910022
1759827534.2757268,1,1.0879930072923394,-1.1092341590738943,0.11558595552252005,0.24785212149026087,True,0.08284235000610352,1.1002322435379028,-1.1075234413146973,0.1362895667552948,0.24785212149026087,-0.15811061101788582,0.2605703885910022
1759827534.3559844,1,1.1031022906733907,-1.107280130994551,0.13145689464252364,0.24785212149026087,True,0.08025765419006348,1.1002322435379028,-1.1075234413146973,0.1362895667552948,0.24785212149026087,-0.15335844585625935,0.2548847640338292
1759827534.4369547,1,1.1089257074580106,-1.1064089855884716,0.14134414461084077,0.24785212149026087,True,0.08097028732299805,1.1002322435379028,-1.1075234413146973,0.1362895667552948,0.24785212149026087,-0.15335844585625935,0.2548847640338292
1759827534.5198815,1,1.1501754358067011,-1.0996218359875634,0.16465934891154,0.26784137502563216,True,0.08292675018310547,1.1620855331420898,-1.0974085330963135,0.1848422735929489,0.26784137502563216,-0.15335844585625935,0.2548847640338292
1759827534.6128612,1,1.1669152671749752,-1.0966659509540375,0.18213041109553263,0.26784137502563216,True,0.09297966957092285,1.1620855331420898,-1.0974085330963135,0.1848422735929489,0.26784137502563216,-0.14347300373346172,0.23300702365918388
1759827534.7025328,1,1.172948586444709,-1.0954415994074267,0.19243436458427343,0.26784137502563216,True,0.08967161178588867,1.1620855331420898,-1.0974085330963135,0.1848422735929489,0.26784137502563216,-0.14347300373346172,0.23300702365918388
1759827534.7919965,1,1.213654766402655,-1.08662920720763,0.21570878773300528,0.2332049732366903,True,0.08946371078491211,1.2261663675308228,-1.0837006568908691,0.23365652561187744,0.2332049732366903,-0.22319758855421767,0.2790972438446536
1759827534.8704507,1,1.228210096892095,-1.0833063799360951,0.23181931521935262,0.2332049732366903,True,0.07845425605773926,1.2261663675308228,-1.0837006568908691,0.23365652561187744,0.2332049732366903,-0.13701474825398563,0.22542714188516227
1759827534.9767716,1,1.2356098856716777,-1.081476056585536,0.24181797916833858,0.2332049732366903,True,0.1,1.2261663675308228,-1.0837006568908691,0.23365652561187744,0.2332049732366903,-0.22602345711969996,0.27234965533023203
1759827535.0734,1,1.2817922435796518,-1.0686605278342713,0.2741946381861702,0.255317143971759,True,0.09662842750549316,1.2955498695373535,-1.0644692182540894,0.3041507601737976,0.255317143971759,-0.22602345711969996,0.27234965533023203
1759827535.158303,1,1.2982571016192554,-1.0637979522624232,0.2961909688579185,0.255317143971759,True,0.08490300178527832,1.2955498695373535,-1.0644692182540894,0.3041507601737976,0.255317143971759,-0.1961730223151381,0.2420235119005439
1759827535.2569969,1,1.3057801842115084,-1.06137228073943,0.3104566472227859,0.255317143971759,True,0.09869384765625,1.2955498695373535,-1.0644692182540894,0.3041507601737976,0.255317143971759,-0.1961730223151381,0.2420235119005439
1759827535.3495083,1,1.348081396150496,-1.046177195605356,0.34508672453477285,0.24664031486840812,True,0.09251141548156738,1.360818862915039,-1.041161060333252,0.37527331709861755,0.24664031486840812,-0.1961730223151381,0.2420235119005439
1759827535.4433632,1,1.3642629124770287,-1.0400544568540189,0.36945679362804995,0.24664031486840812,True,0.09385490417480469,1.360818862915039,-1.041161060333252,0.37527331709861755,0.24664031486840812,-0.16600740671094805,0.22376214446224812
1759827535.5363097,1,1.370287720849936,-1.037544976846396,0.3829309264266243,0.24664031486840812,True,0.09294652938842773,1.360818862915039,-1.041161060333252,0.37527331709861755,0.24664031486840812,-0.26306325848519485,0.27119505657653936
1759827535.621909,1,1.4098629583957405,-1.0202392992411842,0.41631898408313806,0.2509127872917726,True,0.08559918403625488,1.4220359325408936,-1.0145702362060547,0.4455694258213043,0.2509127872917726,-0.26306325848519485,0.27119505657653936
1759827535.7150977,1,1.4255417400353472,-1.0130946514393873,0.4416094628332683,0.2509127872917726,True,0.09318876266479492,1.4220359325408936,-1.0145702362060547,0.4455694258213043,0.2509127872917726,-0.1364444507177076,0.2033172360682074
1759827535.8049283,1,1.431145110416127,-1.010298676483976,0.45485644737843245,0.2509127872917726,True,0.08983063697814941,1.4220359325408936,-1.0145702362060547,0.4455694258213043,0.2509127872917726,-0.24911362919961277,0.25913862252625425
1759827535.9020455,1,1.471020419914887,-0.9891453095033934,0.49210870706245213,0.24364993691319298,True,0.09711718559265137,1.4825648069381714,-0.982573390007019,0.5220659375190735,0.24364993691319298,-0.24911362919961277,0.25913862252625425
1759827535.989439,1,1.4853073927492622,-0.9812106182439854,0.517247631788857,0.24364993691319298,True,0.08739352226257324,1.4825648069381714,-0.982573390007019,0.5220659375190735,0.24364993691319298,-0.21392019805572993,0.24630676536683632
1759827536.0719984,1,1.4902788057028735,-0.9782324673258963,0.5315672373239515,0.24364993691319298,True,0.08255934715270996,1.4825648069381714,-0.982573390007019,0.5220659375190735,0.24364993691319298,-0.21392019805572993,0.24630676536683632
1759827536.167712,1,1.5283408281168218,-0.9541490720609181,0.5681367675242832,0.252111534078201,True,0.09571361541748047,1.5390576124191284,-0.9469071626663208,0.5982398986816406,0.252111534078201,-0.3072415383812661,0.29912549257648774
1759827536.2651372,1,1.5428507031615106,-0.9445915704423632,0.5960542984283865,0.252111534078201,True,0.09742522239685059,1.5390576124191284,-0.9469071626663208,0.5982398986816406,0.252111534078201,-0.1715547351021094,0.22894891195412914
1759827536.3698106,1,1.575212702129227,-0.9207386629889888,0.6363863292325806,0.26141449141480416,True,0.1,1.5819032192230225,-0.9151551723480225,0.6640854477882385,0.26141449141480416,-0.2698140683650099,0.28788809490348793
1759827536.4686582,1,1.5872611973962025,-0.9113889510556956,0.6651073450548415,0.26141449141480416,True,0.09884762763977051,1.5819032192230225,-0.9151551723480225,0.6640854477882385,0.26141449141480416,-0.1495204710674436,0.2303128023711437
1759827536.564936,1,1.5914908737104225,-0.9077539774367542,0.6796511940214831,0.26141449141480416,True,0.09627771377563477,1.5819032192230225,-0.9151551723480225,0.6640854477882385,0.26141449141480416,-0.23945101266513014,0.28814564859356506
1759827536.684165,1,1.6329170967466722,-0.8715572421207965,0.7243897011289526,0.27048827997730174,True,0.1,1.6455881595611572,-0.85978102684021,0.7596294283866882,0.27048827997730174,-0.23945101266513014,0.28814564859356506
1759827536.789839,1,1.648455179424031,-0.8573979080070553,0.7565015712157468,0.27048827997730174,True,0.1,1.6455881595611572,-0.85978102684021,0.7596294283866882,0.27048827997730174,-0.1426564859197601,0.2516799080808403
1759827536.9176497,1,1.6814031163081649,-0.8239230306180189,0.7978586547809199,0.26948974596984965,True,0.1,1.689713716506958,-0.8147302269935608,0.81913161277771,0.26948974596984965,-0.1426564859197601,0.2516799080808403
1759827537.0335727,1,1.693699508811115,-0.8108461152861866,0.8250578839562657,0.26948974596984965,True,0.1,1.689713716506958,-0.8147302269935608,0.81913161277771,0.26948974596984965,-0.11460908243988577,0.2466607993134914
1759827537.1579533,1,1.7227114518020863,-0.7782213850485198,0.8548529674842307,0.2567142895382705,True,0.1,1.7299314737319946,-0.7697637677192688,0.8589918613433838,0.2567142895382705,-0.1880320703345113,0.3045981266257866
1759827537.2661746,1,1.7335870843688095,-0.7655767685534448,0.8743912099298932,0.2567142895382705,True,0.1,1.7299314737319946,-0.7697637677192688,0.8589918613433838,0.2567142895382705,-0.11830924648843144,0.24558663166242073
1759827537.3929794,1,1.7632733452054776,-0.7289745009944952,0.9027823861293358,0.27656585089222435,True,0.1,1.7707197666168213,-0.7195190787315369,0.9099167585372925,0.27656585089222435,-0.1980541043927051,0.30884464034394676
1759827537.5102572,1,1.7743942767342127,-0.7148179398715019,0.9224604027684071,0.27656585089222435,True,0.1,1.7707197666168213,-0.7195190787315369,0.9099167585372925,0.27656585089222435,-0.10664371278709339,0.23415600829874644
1759827537.6354501,1,1.802181671511541,-0.6766618406158531,0.9519422112654352,0.2640740411411024,True,0.1,1.809561014175415,-0.6661355495452881,0.9626632928848267,0.2640740411411024,-0.18502078148410916,0.29644285231046824
1759827537.7433891,1,1.8125706833418904,-0.6619237328701432,0.9724744155390717,0.2640740411411024,True,0.1,1.809561014175415,-0.6661355495452881,0.9626632928848267,0.2640740411411024,-0.0890437295713955,0.2306170764893504
1759827537.8711534,1,1.8371692056110354,-0.6244776652300665,0.9991304790967179,0.26167610733231556,True,0.1,1.8433178663253784,-0.6147354245185852,1.0060902833938599,0.26167610733231556,-0.15896859871093127,0.28614610099501836
1759827537.99592,1,1.8463488964630952,-0.6100325990929839,1.0163827311002818,0.26167610733231556,True,0.1,1.8433178663253784,-0.6147354245185852,1.0060902833938599,0.26167610733231556,-0.16156277800972596,0.2890848708760862
1759827538.1188595,1,1.8727815240495054,-0.5653719046706507,1.0476330844163488,0.28724284162980346,True,0.1,1.8798433542251587,-0.5529077053070068,1.0636581182479858,0.28724284162980346,-0.16156277800972596,0.2890848708760862
1759827538.23023,1,1.8825949493448975,-0.5481455202770444,1.0687589951252887,0.28724284162980346,True,0.1,1.8798433542251587,-0.5529077053070068,1.0636581182479858,0.28724284162980346,-0.12900845912056802,0.2688463778000228
1759827538.355403,1,1.9048098675057545,-0.5055617469470943,1.098794022846298,0.2813063087552778,True,0.1,1.9102370738983154,-0.4945189952850342,1.1112090349197388,0.2813063087552778,-0.12900845912056802,0.2688463778000228
1759827538.4754696,1,1.9130217220264016,-0.48915265947662234,1.1185790400673428,0.2813063087552778,True,0.1,1.9102370738983154,-0.4945189952850342,1.1112090349197388,0.2813063087552778,-0.09696212950373884,0.2556399813785152
1759827538.595856,1,1.9324742442320242,-0.44760425928932673,1.1428028860486865,0.27136803920824415,True,0.1,1.9372276067733765,-0.4370405077934265,1.1478668451309204,0.27136803920824415,-0.15522942791093008,0.3247339890743697
1759827538.7076752,1,1.9396907194145723,-0.43163443659375084,1.159060820276654,0.27136803920824415,True,0.1,1.9372276067733765,-0.4370405077934265,1.1478668451309204,0.27136803920824415,-0.0905502010084902,0.2594673947252666
1759827538.835013,1,1.9590457052958865,-0.3854277516261119,1.1836745036087564,0.27901207381640775,True,0.1,1.9641674757003784,-0.3726997971534729,1.1919794082641602,0.27901207381640775,-0.14068654977518769,0.32766028896979826
1759827538.9504735,1,1.9662127383042887,-0.3676838708310973,1.20079727011273,0.27901207381640775,True,0.1,1.9641674757003784,-0.3726997971534729,1.1919794082641602,0.27901207381640775,-0.05985863572982275,0.24952224199378426
1759827539.0768619,1,1.9841224300444533,-0.3195292178431373,1.2231978418837999,0.29833025358141296,True,0.1,1.9885787963867188,-0.3069794476032257,1.2284893989562988,0.29833025358141296,-0.09717812158975292,0.30505843654685644
1759827539.1887343,1,1.9907345787764574,-0.3010507293413324,1.237948621279883,0.29833025358141296,True,0.1,1.9885787963867188,-0.3069794476032257,1.2284893989562988,0.29833025358141296,-0.07216450307066502,0.2925596646776896
1759827539.3173869,1,2.0073279040297614,-0.2516798542525057,1.2572130298101953,0.3062228634931981,True,0.1,2.011446475982666,-0.23907014727592468,1.2585457563400269,0.3062228634931981,-0.07216450307066502,0.2925596646776896
1759827539.430592,1,2.013461421667892,-0.23275386263401465,1.269379724140828,0.3062228634931981,True,0.1,2.011446475982666,-0.23907014727592468,1.2585457563400269,0.3062228634931981,-0.055684264207883416,0.2794755117105293
1759827539.561774,1,2.0282395870059338,-0.18473043897441294,1.2840549772324472,0.28200129681711816,True,0.1,2.0322377681732178,-0.17170533537864685,1.2815048694610596,0.28200129681711816,-0.08623328095405824,0.33637571727379095
1759827539.6652422,1,2.0337428888147837,-0.16634459280064112,1.2934961060516565,0.28200129681711816,True,0.1,2.0322377681732178,-0.17170533537864685,1.2815048694610596,0.28200129681711816,-0.045395143688606865,0.2674609570355461
1759827539.7702076,1,2.0467768304959115,-0.12094659846699164,1.3062016854815983,0.309629960277775,True,0.1,2.0496339797973633,-0.11130576580762863,1.3045763969421387,0.309629960277775,-0.08199814895105284,0.3376140700708791
1759827539.8690357,1,2.051584969955757,-0.10370289583014007,1.3146530778652625,0.309629960277775,True,0.09882807731628418,2.0496339797973633,-0.11130576580762863,1.3045763969421387,0.309629960277775,-0.04067107786366009,0.25988568784712995
1759827539.9830751,1,2.0627720231499596,-0.06112868090622633,1.3266127197938058,0.2815994927352687,True,0.1,2.065302610397339,-0.051659151911735535,1.3251866102218628,0.2815994927352687,-0.04067107786366009,0.25988568784712995
1759827540.096318,1,2.066925171182778,-0.04483630928538206,1.3339339195334894,0.2815994927352687,True,0.1,2.065302610397339,-0.051659151911735535,1.3251866102218628,0.2815994927352687,-0.036635968009795405,0.26855538435502546
1759827540.193524,1,2.0763920178238426,-0.006064233310938022,1.3413404946838199,0.256526767138191,True,0.09720587730407715,2.0786473751068115,0.002912250580266118,1.336337685585022,0.256526767138191,-0.06861227640394674,0.33517373744248097
1759827540.2922673,1,2.0799776136940458,0.008907364761140497,1.3459162354066985,0.256526767138191,True,0.09874343872070312,2.0786473751068115,0.002912250580266118,1.336337685585022,0.256526767138191,-0.05012440681986163,0.28200059326145194
1759827540.3819592,1,2.0811075529307654,0.013771061696138821,1.347172567651259,0.256526767138191,True,0.0896918773651123,2.0786473751068115,0.002912250580266118,1.336337685585022,0.256526767138191,-0.07819505421450401,0.3454848943346383
1759827540.48638,1,2.0950760349320507,0.07671296960277849,1.3594020063325702,0.3367933083451068,True,0.1,2.099137306213379,0.09530644863843918,1.3681106567382812,0.3367933083451068,-0.07819505421450401,0.3454848943346383
1759827540.5801482,1,2.1001043459774165,0.10000125217243251,1.3686596049412412,0.3367933083451068,True,0.09376811981201172,2.099137306213379,0.09530644863843918,1.3681106567382812,0.3367933083451068,-0.020043404836668444,0.21537264760399524
1759827540.6766636,1,2.1019861350981968,0.10926571811755578,1.3733849778160332,0.3367933083451068,True,0.09651541709899902,2.099137306213379,0.09530644863843918,1.3681106567382812,0.3367933083451068,-0.048212086032975776,0.2812290472873259
1759827540.7780273,1,2.1119526521589447,0.16098714668328754,1.384885724371979,0.27723527028192807,True,0.1,2.114783525466919,0.17614509165287018,1.391710877418518,0.27723527028192807,-0.07329342293547825,0.34926422955159836
1759827540.8675067,1,2.1154441634814733,0.17966916455870097,1.3927682393736642,0.27723527028192807,True,0.08947944641113281,2.114783525466919,0.17614509165287018,1.391710877418518,0.27723527028192807,-0.031018965332323845,0.2786718212422443
1759827540.9687521,1,2.11690303417122,0.18791470558578555,1.3974711938896327,0.27723527028192807,True,0.1,2.114783525466919,0.17614509165287018,1.391710877418518,0.27723527028192807,-0.031018965332323845,0.2786718212422443
1759827541.070429,1,2.1263632723510146,0.24440086514187287,1.4072389766098325,0.2916020173489161,True,0.1,2.129128932952881,0.2615545392036438,1.411895513534546,0.2916020173489161,-0.053244996522543886,0.3412712083161906
1759827541.164896,1,2.129775239660245,0.26538566648662393,1.4138470099263287,0.2916020173489161,True,0.0944669246673584,2.129128932952881,0.2615545392036438,1.411895513534546,0.2916020173489161,-0.037196473080181036,0.30735533785598684
1759827541.2590415,1,2.131007017140438,0.2733763754595406,1.4174516322701294,0.2916020173489161,True,0.09414553642272949,2.129128932952881,0.2615545392036438,1.411895513534546,0.2916020173489161,-0.037196473080181036,0.30735533785598684
1759827541.358704,1,2.1402395191199006,0.33565390279086604,1.4269139377494833,0.3322820102061316,True,0.09966254234313965,2.1428465843200684,0.3539126217365265,1.4319493770599365,0.3322820102061316,-0.037196473080181036,0.30735533785598684
1759827541.4563901,1,2.1436182294918833,0.35921014853524036,1.4335008479174647,0.3322820102061316,True,0.0976860523223877,2.1428465843200684,0.3539126217365265,1.4319493770599365,0.3322820102061316,-0.01905002484043017,0.2629522715280702
1759827541.5520895,1,2.1447968568239264,0.3679689449194804,1.4370379056199756,0.3322820102061316,True,0.09569931030273438,2.1428465843200684,0.3539126217365265,1.4319493770599365,0.3322820102061316,-0.01905002484043017,0.2629522715280702
1759827541.6462352,1,2.1514555465026297,0.4182287782530086,1.4425362756789584,0.27091057552538306,True,0.0941457748413086,2.15348219871521,0.43366703391075134,1.442435383796692,0.27091057552538306,-0.03445238076380086,0.32728346867415725
1759827541.7298772,1,2.153811289739901,0.43635471090014044,1.4459392427234068,0.27091057552538306,True,0.08364200592041016,2.15348219871521,0.43366703391075134,1.442435383796692,0.27091057552538306,-0.015632283006040026,0.25915969920471066
1759827541.83057,1,2.1548913171367032,0.44496160246400684,1.4479086009434852,0.27091057552538306,True,0.1,2.15348219871521,0.43366703391075134,1.442435383796692,0.27091057552538306,-0.02907932216326259,0.32626061450725097
1759827541.9238408,1,2.1617651443718224,0.5010170265416056,1.4527544279868527,0.3184962427861905,True,0.09327077865600586,2.1637773513793945,0.5174382925033569,1.4535917043685913,0.3184962427861905,-0.02907932216326259,0.32626061450725097
1759827542.0325797,1,2.164434365495394,0.5232475855538834,1.456168857869482,0.3184962427861905,True,0.1,2.1637773513793945,0.5174382925033569,1.4535917043685913,0.3184962427861905,-0.021193349812003603,0.2822947516477427
1759827542.1289685,1,2.169544737294179,0.5683190194996488,1.4608690316758945,0.3006421510310619,True,0.0963888168334961,2.1706666946411133,0.5783811211585999,1.4614237546920776,0.3006421510310619,-0.021193349812003603,0.2822947516477427
1759827542.215013,1,2.1713174578614245,0.5843595507599172,1.4635864604862414,0.3006421510310619,True,0.0860445499420166,2.1706666946411133,0.5783811211585999,1.4614237546920776,0.3006421510310619,-0.02136443754753259,0.28831883757128574
1759827542.3146813,1,2.1721351713730344,0.5920448954281871,1.4652762266877106,0.3006421510310619,True,0.09966826438903809,2.1706666946411133,0.5783811211585999,1.4614237546920776,0.3006421510310619,-0.02136443754753259,0.28831883757128574
1759827542.4108949,1,2.177658130969532,0.6447673224571273,1.4692044296619153,0.29229548987872894,True,0.09621357917785645,2.1792540550231934,0.6600660085678101,1.470396637916565,0.29229548987872894,-0.034442442129481776,0.34926128365619913
1759827542.507266,1,2.1797305664264686,0.6649270218200721,1.472028213966099,0.29229548987872894,True,0.09637117385864258,2.1792540550231934,0.6600660085678101,1.470396637916565,0.29229548987872894,-0.018997998645359004,0.26176441574317233
1759827542.5986466,1,2.180437218940312,0.6720758761092268,1.4732458139295268,0.29229548987872894,True,0.09138059616088867,2.1792540550231934,0.6600660085678101,1.470396637916565,0.29229548987872894,-0.032298441600783434,0.332695049645119
1759827542.7191322,1,2.1863118751432307,0.7351637566108418,1.4793232282810074,0.3065459089035243,True,0.1,2.188115358352661,0.7552969455718994,1.4845988750457764,0.3065459089035243,-0.032298441600783434,0.332695049645119
1759827542.8253477,1,2.188488874516866,0.7592674712075563,1.483832639500048,0.3065459089035243,True,0.1,2.188115358352661,0.7552969455718994,1.4845988750457764,0.3065459089035243,-0.016929083256519206,0.28689645875488184
1759827542.9442384,1,2.1927012524089315,0.8109179028001497,1.4897648524842024,0.2959453737709602,True,0.1,2.1937294006347656,0.8246171474456787,1.4932252168655396,0.2959453737709602,-0.016929083256519206,0.28689645875488184
1759827543.049848,1,2.1942460632319674,0.8306519737332214,1.4937110326542502,0.2959453737709602,True,0.1,2.1937294006347656,0.8246171474456787,1.4932252168655396,0.2959453737709602,-0.012110094467892907,0.2857072859055534
1759827543.1735163,1,2.1979030896745524,0.8797194883110885,1.4977659367601683,0.306178153594913,True,0.1,2.1987156867980957,0.8911774754524231,1.4979853630065918,0.306178153594913,-0.012110094467892907,0.2857072859055534
1759827543.281433,1,2.199254215597648,0.8984650289259917,1.500232227461594,0.306178153594913,True,0.1,2.1987156867980957,0.8911774754524231,1.4979853630065918,0.306178153594913,-0.01241304189050041,0.27401077282092656
1759827543.4072118,1,2.202506961111323,0.9446988447455756,1.5030476686561638,0.2772885309763682,True,0.1,2.2033157348632812,0.9561777114868164,1.501983880996704,0.2772885309763682,-0.01241304189050041,0.27401077282092656
1759827543.5297797,1,2.2037206468611856,0.9623605720776851,1.5046694785889425,0.2772885309763682,True,0.1,2.2033157348632812,0.9561777114868164,1.501983880996704,0.2772885309763682,-0.013288667111609698,0.2776692824084773
1759827543.6529398,1,2.2069942788153067,1.0116302859385493,1.5070973981603437,0.27610972773556647,True,0.1,2.207897663116455,1.0250529050827026,1.5065809488296509,0.27610972773556647,-0.020528570301951987,0.34250111538120714
1759827543.7729275,1,2.2082208926213482,1.0304511796720444,1.5086960914330287,0.27610972773556647,True,0.1,2.207897663116455,1.0250529050827026,1.5065809488296509,0.27610972773556647,-0.012651120805015736,0.26699477685363815
1759827543.8893156,1,2.211433658210052,1.0831999101323861,1.5116828410385539,0.3073505764572568,True,0.1,2.2122504711151123,1.0968410968780518,1.5127553939819336,0.3073505764572568,-0.02054879888065919,0.3347309436808191
1759827544.013985,1,2.2126271919272744,1.1033501567868436,1.5137218003764152,0.3073505764572568,True,0.1,2.2122504711151123,1.0968410968780518,1.5127553939819336,0.3073505764572568,-0.01784737554186755,0.31308556720181113
1759827544.1342852,1,2.2157019190422296,1.1601659482416466,1.517733796720882,0.31617475628987934,True,0.1,2.216499090194702,1.1757705211639404,1.5203427076339722,0.31617475628987934,-0.01784737554186755,0.31308556720181113
1759827544.2471795,1,2.216830381051661,1.1818701602826787,1.5205238132351138,0.31617475628987934,True,0.1,2.216499090194702,1.1757705211639404,1.5203427076339722,0.31617475628987934,-0.011038708573034128,0.28795531401540636
1759827544.3617175,1,2.219220477017906,1.2321050392453092,1.5239828812487364,0.3115426225645817,True,0.1,2.219738721847534,1.2439213991165161,1.5252552032470703,0.3115426225645817,-0.011038708573034128,0.28795531401540636
1759827544.47658,1,2.220093971218183,1.2512949559735738,1.5262262021378206,0.3115426225645817,True,0.1,2.219738721847534,1.2439213991165161,1.5252552032470703,0.3115426225645817,-0.008452904215266344,0.28157788490143615
1759827544.599975,1,2.2221782539150223,1.299374438063281,1.5286986519391998,0.2734073222613648,True,0.1,2.222720146179199,1.3122081756591797,1.528681993484497,0.2734073222613648,-0.014790026360676833,0.34507837694440974
1759827544.7143333,1,2.222950127002993,1.3177402093060375,1.5302997959441011,0.2734073222613648,True,0.1,2.222720146179199,1.3122081756591797,1.528681993484497,0.2734073222613648,-0.008830338289611106,0.2824903439618831
1759827544.833402,1,2.2251229759407143,1.372762715615602,1.5327025854315437,0.33701329444741873,True,0.1,2.2256314754486084,1.3859566450119019,1.5331966876983643,0.33701329444741873,-0.015048008275632796,0.3508441841836642
