timestamp,vehicle_id,x,y,theta,velocity,gps_available,dt,gps_x,gps_y,gps_theta,gps_velocity,control_steering,control_acceleration
1759827516.7850866,0,-1.205,-0.83,-0.7801621756414647,0.0,False,0.01,nan,nan,nan,nan,0.0,0.0
1759827516.79575,0,-1.205,-0.83,-0.7801621756414647,0.0,False,0.010663270950317383,nan,nan,nan,nan,0.0,0.0
1759827516.806462,0,-1.205,-0.83,-0.7801621756414647,0.0,False,0.010712146759033203,nan,nan,nan,nan,0.0,0.0
1759827516.8165455,0,-1.205,-0.83,-0.7801621756414647,0.0,False,0.010083436965942383,nan,nan,nan,nan,0.0,0.0
1759827516.8277593,0,-1.205,-0.83,-0.7801621756414647,0.0,False,0.01121377944946289,nan,nan,nan,nan,0.0,0.0
1759827516.8377738,0,-1.205,-0.83,-0.7801621756414647,0.0,False,0.010014533996582031,nan,nan,nan,nan,0.0,0.0
1759827516.8493667,0,-1.205,-0.83,-0.7801621756414647,0.0,False,0.011592864990234375,nan,nan,nan,nan,0.0,0.0
1759827516.8601975,0,-1.205,-0.83,-0.7801621756414647,0.0,False,0.010830879211425781,nan,nan,nan,nan,0.0,0.0
1759827516.8709671,0,-1.205,-0.83,-0.7801621756414647,0.0,False,0.01076960563659668,nan,nan,nan,nan,0.0,0.0
1759827516.881591,0,-1.205,-0.83,-0.7801621756414647,0.0,False,0.010623931884765625,nan,nan,nan,nan,0.0,0.0
1759827516.8920019,0,-1.205,-0.83,-0.7801621756414647,0.0,False,0.010410785675048828,nan,nan,nan,nan,0.0,0.0
1759827516.9024563,0,-1.205,-0.83,-0.7801621756414647,0.0,False,0.010454416275024414,nan,nan,nan,nan,0.0,0.0
1759827516.9132278,0,-1.205,-0.83,-0.7801621756414647,0.0,False,0.010771512985229492,nan,nan,nan,nan,0.0,0.0
1759827516.9241002,0,-1.205,-0.83,-0.7801621756414647,0.0,False,0.010872364044189453,nan,nan,nan,nan,0.0,0.0
1759827516.9350667,0,-1.205,-0.83,-0.7801621756414647,0.0,False,0.01096653938293457,nan,nan,nan,nan,0.0,0.0
1759827516.945143,0,-1.205,-0.83,-0.7801621756414647,0.0,False,0.010076284408569336,nan,nan,nan,nan,0.0,0.0
1759827516.955937,0,-1.205,-0.83,-0.7801621756414647,0.0,False,0.010793924331665039,nan,nan,nan,nan,0.0,0.0
1759827516.9669018,0,-1.205,-0.83,-0.7801621756414647,0.0,False,0.01096487045288086,nan,nan,nan,nan,0.0,0.0
1759827516.980645,0,-1.2049998061259588,-0.8299996288021405,-0.7229999060682637,0.0,True,0.013743162155151367,-1.2049998044967651,-0.8299996256828308,-0.717703640460968,0.0,0.0,0.0
1759827516.9916072,0,-1.2049998050413424,-0.829999626725497,-0.7181167066423733,0.0,True,0.010962247848510742,-1.2049998044967651,-0.8299996256828308,-0.717703640460968,0.0,0.0,0.0
1759827517.0024443,0,-1.2049998047010528,-0.8299996260739668,-0.7176574848771864,0.0,True,0.010837078094482422,-1.2049998044967651,-0.8299996256828308,-0.717703640460968,0.0,0.0,0.0
1759827517.0137699,0,-1.2049998045745929,-0.8299996258318424,-0.7175959927383726,0.0,True,0.011325597763061523,-1.2049998044967651,-0.8299996256828308,-0.717703640460968,0.0,0.0,0.0
1759827517.0244503,0,-1.2049998045264814,-0.8299996257397265,-0.717591133937038,0.0,True,0.010680437088012695,-1.2049998044967651,-0.8299996256828308,-0.717703640460968,0.0,0.0,0.0
1759827517.0358322,0,-1.2049998045081152,-0.8299996257045619,-0.7175976929473364,0.0,True,0.011381864547729492,-1.2049998044967651,-0.8299996256828308,-0.717703640460968,0.0,0.0,0.0
1759827517.0466964,0,-1.2049998045011003,-0.8299996256911313,-0.7176099706783887,0.0,True,0.0108642578125,-1.2049998044967651,-0.8299996256828308,-0.717703640460968,0.0,0.0,0.0
1759827517.0577457,0,-1.204999804498421,-0.8299996256860013,-0.717621689558726,0.0,True,0.011049270629882812,-1.2049998044967651,-0.8299996256828308,-0.717703640460968,0.0,0.0,0.0
1759827517.0688646,0,-1.2049998044973975,-0.8299996256840418,-0.7176320509638074,0.0,True,0.011118888854980469,-1.2049998044967651,-0.8299996256828308,-0.717703640460968,0.0,0.0,0.0
1759827517.0796175,0,-1.2049998044970067,-0.8299996256832933,-0.7176413248746947,0.0,True,0.01075291633605957,-1.2049998044967651,-0.8299996256828308,-0.717703640460968,0.0,0.0,0.0
1759827517.0897577,0,-1.2049998044968575,-0.8299996256830074,-0.7176494898437618,0.0,True,0.010140180587768555,-1.2049998044967651,-0.8299996256828308,-0.717703640460968,0.0,0.0,0.0
1759827517.0999055,0,-1.2049998044968004,-0.8299996256828983,-0.7176558876872132,0.0,True,0.010147809982299805,-1.2049998044967651,-0.8299996256828308,-0.717703640460968,0.0,0.0,0.0
1759827517.1106377,0,-1.2049998044967787,-0.8299996256828566,-0.7176605244510057,0.0,True,0.010732173919677734,-1.2049998044967651,-0.8299996256828308,-0.717703640460968,0.0,0.0,0.0
1759827517.1219065,0,-1.2049998044967702,-0.8299996256828407,-0.7176641083734019,0.0,True,0.011268854141235352,-1.2049998044967651,-0.8299996256828308,-0.717703640460968,0.0,0.0,0.0
1759827517.1321278,0,-1.2049998044967671,-0.8299996256828346,-0.7176680960981443,0.0,True,0.010221242904663086,-1.2049998044967651,-0.8299996256828308,-0.717703640460968,0.0,0.0,0.0
1759827517.1429102,0,-1.2049998044967658,-0.8299996256828323,-0.7176710647523752,0.0,True,0.010782480239868164,-1.2049998044967651,-0.8299996256828308,-0.717703640460968,0.0,0.0,0.0
1759827517.1534815,0,-1.2049998044967654,-0.8299996256828314,-0.7176737650020488,0.0,True,0.01057124137878418,-1.2049998044967651,-0.8299996256828308,-0.717703640460968,0.0,0.0,0.0
1759827517.1643982,0,-1.2049998044967651,-0.829999625682831,-0.7176759188598609,0.0,True,0.010916709899902344,-1.2049998044967651,-0.8299996256828308,-0.717703640460968,0.0,0.0,0.0
1759827517.1769178,0,-1.2049998044967651,-0.8299996256828309,-0.7176770633215703,0.0,True,0.012519598007202148,-1.2049998044967651,-0.8299996256828308,-0.717703640460968,0.0,0.0,0.0
1759827517.1855593,0,-1.2049998044967651,-0.8299996256828308,-0.7176801901935921,0.0,True,0.008641481399536133,-1.2049998044967651,-0.8299996256828308,-0.717703640460968,0.0,0.0,0.0
1759827517.1965818,0,-1.2049998044967651,-0.8299996256828308,-0.7176815909615222,0.0,True,0.011022567749023438,-1.2049998044967651,-0.8299996256828308,-0.717703640460968,0.0,0.0,0.0
1759827517.2065983,0,-1.2049998044967651,-0.8299996256828308,-0.7176832412914838,0.0,True,0.010016441345214844,-1.2049998044967651,-0.8299996256828308,-0.717703640460968,0.0,0.0,0.0
1759827517.2175117,0,-1.2049998044967651,-0.8299996256828308,-0.7176843017575134,0.0,True,0.010913372039794922,-1.2049998044967651,-0.8299996256828308,-0.717703640460968,0.0,0.0,0.0
1759827517.228905,0,-1.2049998044967651,-0.8299996256828308,-0.7176851172282959,0.0,True,0.011393308639526367,-1.2049998044967651,-0.8299996256828308,-0.717703640460968,0.0,0.0,0.0
1759827517.2396939,0,-1.2049998044967651,-0.8299996256828308,-0.7176861744717122,0.0,True,0.010788917541503906,-1.2049998044967651,-0.8299996256828308,-0.717703640460968,0.0,0.0,0.0
1759827517.2506573,0,-1.2049998044967651,-0.8299996256828308,-0.7176871013252182,0.0,True,0.01096343994140625,-1.2049998044967651,-0.8299996256828308,-0.717703640460968,0.0,0.0,0.0
1759827517.2617285,0,-1.2049998044967651,-0.8299996256828308,-0.7176879308764903,0.0,True,0.011071205139160156,-1.2049998044967651,-0.8299996256828308,-0.717703640460968,0.0,0.0,0.0
1759827517.2723684,0,-1.2049998044967651,-0.8299996256828308,-0.7176888450178005,0.0,True,0.01063990592956543,-1.2049998044967651,-0.8299996256828308,-0.717703640460968,0.0,0.0,0.0
1759827517.283669,0,-1.2049998044967651,-0.8299996256828308,-0.7176894794126412,0.0,True,0.01130056381225586,-1.2049998044967651,-0.8299996256828308,-0.717703640460968,0.0,0.0,0.0
1759827517.2947214,0,-1.2049998044967651,-0.8299996256828308,-0.7176901648514669,0.0,True,0.011052370071411133,-1.2049998044967651,-0.8299996256828308,-0.717703640460968,0.0,0.0,0.0
1759827517.305906,0,-1.2049998044967651,-0.8299996256828308,-0.7176907820164509,0.0,True,0.0111846923828125,-1.2049998044967651,-0.8299996256828308,-0.717703640460968,0.0,0.0,0.0
1759827517.3165736,0,-1.2049998044967651,-0.8299996256828308,-0.7176914986507761,0.0,True,0.010667562484741211,-1.2049998044967651,-0.8299996256828308,-0.717703640460968,0.0,0.0,0.0
1759827517.3277795,0,-1.2049998044967651,-0.8299996256828308,-0.7176920160217168,0.0,True,0.011205911636352539,-1.2049998044967651,-0.8299996256828308,-0.717703640460968,0.0,0.0,0.0
1759827517.3379016,0,-1.2049998044967651,-0.8299996256828308,-0.7176927526655401,0.0,True,0.010122060775756836,-1.2049998044967651,-0.8299996256828308,-0.717703640460968,0.0,0.0,0.0
1759827517.3494847,0,-1.2049998044967651,-0.8299996256828308,-0.7176930741225149,0.0,True,0.011583089828491211,-1.2049998044967651,-0.8299996256828308,-0.717703640460968,0.0,0.0,0.0
1759827517.3604715,0,-1.2049998044967651,-0.8299996256828308,-0.7176935328992116,0.0,True,0.010986804962158203,-1.2049998044967651,-0.8299996256828308,-0.717703640460968,0.0,0.0,0.0
1759827517.3710647,0,-1.2049998044967651,-0.8299996256828308,-0.7176940539743555,0.0,True,0.010593175888061523,-1.2049998044967651,-0.8299996256828308,-0.717703640460968,0.0,0.0,0.0
1759827517.395286,0,-1.2049998044967651,-0.8299996256828308,-0.7176920654610761,0.0,True,0.024221420288085938,-1.2049998044967651,-0.8299996256828308,-0.717703640460968,0.0,0.0,0.0
1759827517.4064753,0,-1.2049998044967651,-0.8299996256828308,-0.7176931810987242,0.0,True,0.01118922233581543,-1.2049998044967651,-0.8299996256828308,-0.717703640460968,0.0,0.0,0.0
1759827517.4179666,0,-1.2049998044967651,-0.8299996256828308,-0.717694170748663,0.0,True,0.01149129867553711,-1.2049998044967651,-0.8299996256828308,-0.717703640460968,0.0,0.0,0.0
1759827517.428156,0,-1.2049998044967651,-0.8299996256828308,-0.7176951444950248,0.0,True,0.010189294815063477,-1.2049998044967651,-0.8299996256828308,-0.717703640460968,0.0,0.0,0.0
1759827517.439609,0,-1.2049998044967651,-0.8299996256828308,-0.7176957074520196,0.0,True,0.01145315170288086,-1.2049998044967651,-0.8299996256828308,-0.717703640460968,0.0,0.0,0.0
1759827517.4500155,0,-1.2049998044967651,-0.8299996256828308,-0.7176963093561817,0.0,True,0.010406494140625,-1.2049998044967651,-0.8299996256828308,-0.717703640460968,0.0,0.0,0.0
1759827517.460018,0,-1.2049998044967651,-0.8299996256828308,-0.7176968541690094,0.0,True,0.010002374649047852,-1.2049998044967651,-0.8299996256828308,-0.717703640460968,0.0,0.0,0.0
1759827517.4707808,0,-1.2049998044967651,-0.8299996256828308,-0.7176971902493943,0.0,True,0.010762929916381836,-1.2049998044967651,-0.8299996256828308,-0.717703640460968,0.0,0.0,0.0
1759827517.481768,0,-1.2049998044967651,-0.8299996256828308,-0.7176974478542189,0.0,True,0.010987043380737305,-1.2049998044967651,-0.8299996256828308,-0.717703640460968,0.0,0.0,0.0
1759827517.4929454,0,-1.2049998044967651,-0.8299996256828308,-0.7176976624106999,0.0,True,0.011177539825439453,-1.2049998044967651,-0.8299996256828308,-0.717703640460968,0.0,0.0,0.0
1759827517.5035665,0,-1.2049998044967651,-0.8299996256828308,-0.7176979371976593,0.0,True,0.010621070861816406,-1.2049998044967651,-0.8299996256828308,-0.717703640460968,0.0,0.0,0.0
1759827517.5144951,0,-1.2049998044967651,-0.8299996256828308,-0.7176981517426348,0.0,True,0.010928630828857422,-1.2049998044967651,-0.8299996256828308,-0.717703640460968,0.0,0.0,0.0
1759827517.5253205,0,-1.2049998044967651,-0.8299996256828308,-0.7176983638899195,0.0,True,0.010825395584106445,-1.2049998044967651,-0.8299996256828308,-0.717703640460968,0.0,0.0,0.0
1759827517.5361679,0,-1.2049998044967651,-0.8299996256828308,-0.7176985609804092,0.0,True,0.010847330093383789,-1.2049998044967651,-0.8299996256828308,-0.717703640460968,0.0,0.0,0.0
1759827517.5466957,0,-1.2049998044967651,-0.8299996256828308,-0.717698780038571,0.0,True,0.010527849197387695,-1.2049998044967651,-0.8299996256828308,-0.717703640460968,0.0,0.0,0.0
1759827517.5581205,0,-1.2049998044967651,-0.8299996256828308,-0.7176988907640833,0.0,True,0.011424779891967773,-1.2049998044967651,-0.8299996256828308,-0.717703640460968,0.0,0.0,0.0
1759827517.5696487,0,-1.2049998044967651,-0.8299996256828308,-0.717699001894406,0.0,True,0.011528253555297852,-1.2049998044967651,-0.8299996256828308,-0.717703640460968,0.0,0.0,0.0
1759827517.5903444,0,-1.2049998044967651,-0.8299996256828308,-0.7176983147616962,0.0,True,0.02069568634033203,-1.2049998044967651,-0.8299996256828308,-0.717703640460968,0.0,0.0,0.0
1759827517.6019258,0,-1.2049998044967651,-0.8299996256828308,-0.7176986949399264,0.0,True,0.0115814208984375,-1.2049998044967651,-0.8299996256828308,-0.717703640460968,0.0,0.0,0.0
1759827517.6134152,0,-1.2049998044967651,-0.8299996256828308,-0.7176990750879924,0.0,True,0.011489391326904297,-1.2049998044967651,-0.8299996256828308,-0.717703640460968,0.0,0.0,0.0
1759827517.624076,0,-1.2049998044967651,-0.8299996256828308,-0.7176994489157664,0.0,True,0.010660648345947266,-1.2049998044967651,-0.8299996256828308,-0.717703640460968,0.0,0.0,0.0
1759827517.634365,0,-1.2049998044967651,-0.8299996256828308,-0.7176997744326687,0.0,True,0.010289192199707031,-1.2049998044967651,-0.8299996256828308,-0.717703640460968,0.0,0.0,0.0
1759827517.6457133,0,-1.2049998044967651,-0.8299996256828308,-0.7176999555283032,0.0,True,0.011348247528076172,-1.2049998044967651,-0.8299996256828308,-0.717703640460968,0.0,0.0,0.0
1759827517.656027,0,-1.2049998044967651,-0.8299996256828308,-0.7177001827654692,0.0,True,0.010313749313354492,-1.2049998044967651,-0.8299996256828308,-0.717703640460968,0.0,0.0,0.0
1759827517.6661804,0,-1.2049998044967651,-0.8299996256828308,-0.7177003851519608,0.0,True,0.01015329360961914,-1.2049998044967651,-0.8299996256828308,-0.717703640460968,0.0,0.0,0.0
1759827517.6762772,0,-1.2049998044967651,-0.8299996256828308,-0.7177005567427308,0.0,True,0.01009678840637207,-1.2049998044967651,-0.8299996256828308,-0.717703640460968,0.0,0.0,0.0
1759827517.6865032,0,-1.2049998044967651,-0.8299996256828308,-0.7177006928154697,0.0,True,0.010226011276245117,-1.2049998044967651,-0.8299996256828308,-0.717703640460968,0.0,0.0,0.0
1759827517.6967587,0,-1.2049998044967651,-0.8299996256828308,-0.7177008094059367,0.0,True,0.010255575180053711,-1.2049998044967651,-0.8299996256828308,-0.717703640460968,0.0,0.0,0.0
1759827517.7075417,0,-1.2049998044967651,-0.8299996256828308,-0.7177008824800879,0.0,True,0.010782957077026367,-1.2049998044967651,-0.8299996256828308,-0.717703640460968,0.0,0.0,0.0
1759827517.717548,0,-1.2049998044967651,-0.8299996256828308,-0.7177010015774741,0.0,True,0.010006189346313477,-1.2049998044967651,-0.8299996256828308,-0.717703640460968,0.0,0.0,0.0
1759827517.7288716,0,-1.2049998044967651,-0.8299996256828308,-0.7177010352852804,0.0,True,0.011323690414428711,-1.2049998044967651,-0.8299996256828308,-0.717703640460968,0.0,0.0,0.0
1759827517.7399154,0,-1.2049998044967651,-0.8299996256828308,-0.7177010948490352,0.0,True,0.011043787002563477,-1.2049998044967651,-0.8299996256828308,-0.717703640460968,0.0,0.0,0.0
1759827517.751111,0,-1.2049998044967651,-0.8299996256828308,-0.7177011543862584,0.0,True,0.011195659637451172,-1.2049998044967651,-0.8299996256828308,-0.717703640460968,0.0,0.0,0.0
1759827517.7613213,0,-1.2049998044967651,-0.8299996256828308,-0.7177012702404681,0.0,True,0.010210275650024414,-1.2049998044967651,-0.8299996256828308,-0.717703640460968,0.0,0.0,0.0
1759827517.772804,0,-1.2049998044967651,-0.8299996256828308,-0.7177013125457883,0.0,True,0.011482715606689453,-1.2049998044967651,-0.8299996256828308,-0.717703640460968,0.0,0.0,0.0
1759827517.8112233,0,-1.2049998044967651,-0.8299996256828308,-0.7177002001649591,0.0,True,0.038419246673583984,-1.2049998044967651,-0.8299996256828308,-0.717703640460968,0.0,0.0,0.0
1759827517.8221974,0,-1.2049998044967651,-0.8299996256828308,-0.7177006579128502,0.0,True,0.01097416877746582,-1.2049998044967651,-0.8299996256828308,-0.717703640460968,0.0,0.0,0.0
1759827517.833596,0,-1.2049998044967651,-0.8299996256828308,-0.7177010567919435,0.0,True,0.011398553848266602,-1.2049998044967651,-0.8299996256828308,-0.717703640460968,0.0,0.0,0.0
1759827517.8449438,0,-1.2049998044967651,-0.8299996256828308,-0.7177013504534102,0.0,True,0.011347770690917969,-1.2049998044967651,-0.8299996256828308,-0.717703640460968,0.0,0.0,0.0
1759827517.8561723,0,-1.2049998044967651,-0.8299996256828308,-0.7177015719490214,0.0,True,0.011228561401367188,-1.2049998044967651,-0.8299996256828308,-0.717703640460968,0.0,0.0,0.0
1759827517.8670218,0,-1.2049998044967651,-0.8299996256828308,-0.7177017530476686,0.0,True,0.010849475860595703,-1.2049998044967651,-0.8299996256828308,-0.717703640460968,0.0,0.0,0.0
1759827517.8778687,0,-1.2049998044967651,-0.8299996256828308,-0.7177018934944854,0.0,True,0.010846853256225586,-1.2049998044967651,-0.8299996256828308,-0.717703640460968,0.0,0.0,0.0
1759827517.8886523,0,-1.2049998044967651,-0.8299996256828308,-0.7177020066030515,0.0,True,0.010783672332763672,-1.2049998044967651,-0.8299996256828308,-0.717703640460968,0.0,0.0,0.0
1759827517.8998754,0,-1.2049998044967651,-0.8299996256828308,-0.7177020849968905,0.0,True,0.011223077774047852,-1.2049998044967651,-0.8299996256828308,-0.717703640460968,0.0,0.0,0.0
1759827517.9112453,0,-1.2049998044967651,-0.8299996256828308,-0.7177021478626937,0.0,True,0.011369943618774414,-1.2049998044967651,-0.8299996256828308,-0.717703640460968,0.0,0.0,0.0
1759827517.9218,0,-1.2049998044967651,-0.8299996256828308,-0.7177022282590091,0.0,True,0.01055455207824707,-1.2049998044967651,-0.8299996256828308,-0.717703640460968,0.0,0.0,0.0
1759827517.9326801,0,-1.2049998044967651,-0.8299996256828308,-0.7177022885358983,0.0,True,0.010880231857299805,-1.2049998044967651,-0.8299996256828308,-0.717703640460968,0.0,0.0,0.0
1759827517.9435468,0,-1.2049998044967651,-0.8299996256828308,-0.7177023419258681,0.0,True,0.010866641998291016,-1.2049998044967651,-0.8299996256828308,-0.717703640460968,0.0,0.0,0.0
1759827517.9537861,0,-1.2049998044967651,-0.8299996256828308,-0.7177024067473621,0.0,True,0.010239362716674805,-1.2049998044967651,-0.8299996256828308,-0.717703640460968,0.0,0.0,0.0
1759827517.9640772,0,-1.2049998044967651,-0.8299996256828308,-0.7177024616395737,0.0,True,0.010291099548339844,-1.2049998044967651,-0.8299996256828308,-0.717703640460968,0.0,0.0,0.0
1759827517.9746008,0,-1.2049998044967651,-0.8299996256828308,-0.7177025035536317,0.0,True,0.010523557662963867,-1.2049998044967651,-0.8299996256828308,-0.717703640460968,0.0,0.0,0.0
1759827518.0122979,0,-1.2049998044967651,-0.8299996256828308,-0.7177019434284642,0.0,True,0.03769707679748535,-1.2049998044967651,-0.8299996256828308,-0.717703640460968,0.0,0.0,0.0
1759827518.0223818,0,-1.2049998044967651,-0.8299996256828308,-0.7177021721811805,0.0,True,0.010083913803100586,-1.2049998044967651,-0.8299996256828308,-0.717703640460968,0.0,0.0,0.0
1759827518.0336685,0,-1.2049998044967651,-0.8299996256828308,-0.7177023568381671,0.0,True,0.011286735534667969,-1.2049998044967651,-0.8299996256828308,-0.717703640460968,0.0,0.0,0.0
1759827518.0450218,0,-1.2049998044967651,-0.8299996256828308,-0.7177024911792813,0.0,True,0.011353254318237305,-1.2049998044967651,-0.8299996256828308,-0.717703640460968,0.0,0.0,0.0
1759827518.0558717,0,-1.2049998044967651,-0.8299996256828308,-0.7177026007312719,0.0,True,0.010849952697753906,-1.2049998044967651,-0.8299996256828308,-0.717703640460968,0.0,0.0,0.0
1759827518.0672455,0,-1.2049998044967651,-0.8299996256828308,-0.7177026753471427,0.0,True,0.011373758316040039,-1.2049998044967651,-0.8299996256828308,-0.717703640460968,0.0,0.0,0.0
1759827518.078543,0,-1.2049998044967651,-0.8299996256828308,-0.7177027355832486,0.0,True,0.011297464370727539,-1.2049998044967651,-0.8299996256828308,-0.717703640460968,0.0,0.0,0.0
1759827518.0891688,0,-1.2049998044967651,-0.8299996256828308,-0.7177027960613707,0.0,True,0.010625839233398438,-1.2049998044967651,-0.8299996256828308,-0.717703640460968,0.0,0.0,0.0
1759827518.0999858,0,-1.2049998044967651,-0.8299996256828308,-0.7177028424856182,0.0,True,0.01081705093383789,-1.2049998044967651,-0.8299996256828308,-0.717703640460968,0.0,0.0,0.0
1759827518.1108577,0,-1.2049998044967651,-0.8299996256828308,-0.7177028802342278,0.0,True,0.01087188720703125,-1.2049998044967651,-0.8299996256828308,-0.717703640460968,0.0,0.0,0.0
1759827518.121593,0,-1.2049998044967651,-0.8299996256828308,-0.7177029148157246,0.0,True,0.010735273361206055,-1.2049998044967651,-0.8299996256828308,-0.717703640460968,0.0,0.0,0.0
1759827518.1323164,0,-1.2049998044967651,-0.8299996256828308,-0.7177029452416939,0.0,True,0.010723352432250977,-1.2049998044967651,-0.8299996256828308,-0.717703640460968,0.0,0.0,0.0
1759827518.143736,0,-1.2049998044967651,-0.8299996256828308,-0.7177029625243279,0.0,True,0.011419534683227539,-1.2049998044967651,-0.8299996256828308,-0.717703640460968,0.0,0.0,0.0
1759827518.1549582,0,-1.2049998044967651,-0.8299996256828308,-0.7177029828571975,0.0,True,0.011222362518310547,-1.2049998044967651,-0.8299996256828308,-0.717703640460968,0.0,0.0,0.0
1759827518.166337,0,-1.2049998044967651,-0.8299996256828308,-0.7177030012454129,0.0,True,0.011378765106201172,-1.2049998044967651,-0.8299996256828308,-0.717703640460968,0.0,0.0,0.0
1759827518.1775546,0,-1.2049998044967651,-0.8299996256828308,-0.7177030220376004,0.0,True,0.011217594146728516,-1.2049998044967651,-0.8299996256828308,-0.717703640460968,0.0,0.0,0.0
1759827518.1986642,0,-1.2049998044967651,-0.8299996256828308,-0.7177029247963524,0.0,True,0.021109580993652344,-1.2049998044967651,-0.8299996256828308,-0.717703640460968,0.0,0.0,0.0
1759827518.2099612,0,-1.2049998044967651,-0.8299996256828308,-0.7177029777921575,0.0,True,0.011296987533569336,-1.2049998044967651,-0.8299996256828308,-0.717703640460968,0.0,0.0,0.0
1759827518.2208261,0,-1.2049998044967651,-0.8299996256828308,-0.717703033761552,0.0,True,0.010864973068237305,-1.2049998044967651,-0.8299996256828308,-0.717703640460968,0.0,0.0,0.0
1759827518.2315323,0,-1.2049998044967651,-0.8299996256828308,-0.7177030799029946,0.0,True,0.010706186294555664,-1.2049998044967651,-0.8299996256828308,-0.717703640460968,0.0,0.0,0.0
1759827518.242968,0,-1.2049998044967651,-0.8299996256828308,-0.7177031089977479,0.0,True,0.011435747146606445,-1.2049998044967651,-0.8299996256828308,-0.717703640460968,0.0,0.0,0.0
1759827518.2543705,0,-1.2049998044967651,-0.8299996256828308,-0.7177031337409456,0.0,True,0.011402368545532227,-1.2049998044967651,-0.8299996256828308,-0.717703640460968,0.0,0.0,0.0
1759827518.2652483,0,-1.2049998044967651,-0.8299996256828308,-0.7177031605663267,0.0,True,0.010877847671508789,-1.2049998044967651,-0.8299996256828308,-0.717703640460968,0.0,0.0,0.0
1759827518.2765458,0,-1.2049998044967651,-0.8299996256828308,-0.7177031798573985,0.0,True,0.011297464370727539,-1.2049998044967651,-0.8299996256828308,-0.717703640460968,0.0,0.0,0.0
1759827518.28801,0,-1.2049998044967651,-0.8299996256828308,-0.7177031957596665,0.0,True,0.011464118957519531,-1.2049998044967651,-0.8299996256828308,-0.717703640460968,0.0,0.0,0.0
1759827518.2991827,0,-1.2049998044967651,-0.8299996256828308,-0.7177032134465069,0.0,True,0.011172771453857422,-1.2049998044967651,-0.8299996256828308,-0.717703640460968,0.0,0.0,0.0
1759827518.3105896,0,-1.2049998044967651,-0.8299996256828308,-0.7177032279357061,0.0,True,0.011406898498535156,-1.2049998044967651,-0.8299996256828308,-0.717703640460968,0.0,0.0,0.0
1759827518.3217669,0,-1.2049998044967651,-0.8299996256828308,-0.7177032436663708,0.0,True,0.011177301406860352,-1.2049998044967651,-0.8299996256828308,-0.717703640460968,0.0,0.0,0.0
1759827518.3319442,0,-1.2049998044967651,-0.8299996256828308,-0.7177032661910268,0.0,True,0.010177373886108398,-1.2049998044967651,-0.8299996256828308,-0.717703640460968,0.0,0.0,0.0
1759827518.3427513,0,-1.2049998044967651,-0.8299996256828308,-0.7177032806790393,0.0,True,0.010807037353515625,-1.2049998044967651,-0.8299996256828308,-0.717703640460968,0.0,0.0,0.0
1759827518.353331,0,-1.2049998044967651,-0.8299996256828308,-0.7177032952171096,0.0,True,0.010579824447631836,-1.2049998044967651,-0.8299996256828308,-0.717703640460968,0.0,0.0,0.0
1759827518.3649247,0,-1.2049998044967651,-0.8299996256828308,-0.7177033012239455,0.0,True,0.01159358024597168,-1.2049998044967651,-0.8299996256828308,-0.717703640460968,0.0,0.0,0.0
1759827518.3759859,0,-1.2049998044967651,-0.8299996256828308,-0.7177033118985428,0.0,True,0.01106119155883789,-1.2049998044967651,-0.8299996256828308,-0.717703640460968,0.0,0.0,0.0
1759827518.397928,0,-1.2049998044967651,-0.8299996256828308,-0.71770325312918,0.0,True,0.021942138671875,-1.2049998044967651,-0.8299996256828308,-0.717703640460968,0.0,0.0,0.0
1759827518.4080667,0,-1.2049998044967651,-0.8299996256828308,-0.7177032894607915,0.0,True,0.010138750076293945,-1.2049998044967651,-0.8299996256828308,-0.717703640460968,0.0,0.0,0.0
1759827518.4192696,0,-1.2049998044967651,-0.8299996256828308,-0.7177033165580315,0.0,True,0.011202812194824219,-1.2049998044967651,-0.8299996256828308,-0.717703640460968,0.0,0.0,0.0
1759827518.4307873,0,-1.2049998044967651,-0.8299996256828308,-0.7177033361606817,0.0,True,0.011517763137817383,-1.2049998044967651,-0.8299996256828308,-0.717703640460968,0.0,0.0,0.0
1759827518.4420724,0,-1.2049998044967651,-0.8299996256828308,-0.7177033536376278,0.0,True,0.011285066604614258,-1.2049998044967651,-0.8299996256828308,-0.717703640460968,0.0,0.0,0.0
1759827518.453431,0,-1.2049998044967651,-0.8299996256828308,-0.7177033680499321,0.0,True,0.011358499526977539,-1.2049998044967651,-0.8299996256828308,-0.717703640460968,0.0,0.0,0.0
1759827518.465021,0,-1.2049998044967651,-0.8299996256828308,-0.7177033793792624,0.0,True,0.011590003967285156,-1.2049998044967651,-0.8299996256828308,-0.717703640460968,0.0,0.0,0.0
1759827518.4754186,0,-1.2049998044967651,-0.8299996256828308,-0.7177033955223759,0.0,True,0.010397672653198242,-1.2049998044967651,-0.8299996256828308,-0.717703640460968,0.0,0.0,0.0
1759827518.4856484,0,-1.2049998044967651,-0.8299996256828308,-0.7177034099646971,0.0,True,0.010229825973510742,-1.2049998044967651,-0.8299996256828308,-0.717703640460968,0.0,0.0,0.0
1759827518.4963517,0,-1.2049998044967651,-0.8299996256828308,-0.7177034197060621,0.0,True,0.010703325271606445,-1.2049998044967651,-0.8299996256828308,-0.717703640460968,0.0,0.0,0.0
1759827518.5066962,0,-1.2049998044967651,-0.8299996256828308,-0.717703429804434,0.0,True,0.010344505310058594,-1.2049998044967651,-0.8299996256828308,-0.717703640460968,0.0,0.0,0.0
1759827518.516918,0,-1.2049998044967651,-0.8299996256828308,-0.7177034392043744,0.0,True,0.010221719741821289,-1.2049998044967651,-0.8299996256828308,-0.717703640460968,0.0,0.0,0.0
1759827518.528242,0,-1.2049998044967651,-0.8299996256828308,-0.7177034427730096,0.0,True,0.011324167251586914,-1.2049998044967651,-0.8299996256828308,-0.717703640460968,0.0,0.0,0.0
1759827518.5383873,0,-1.2049998044967651,-0.8299996256828308,-0.7177034516141774,0.0,True,0.010145187377929688,-1.2049998044967651,-0.8299996256828308,-0.717703640460968,0.0,0.0,0.0
1759827518.5485806,0,-1.2049998044967651,-0.8299996256828308,-0.717703459477109,0.0,True,0.010193347930908203,-1.2049998044967651,-0.8299996256828308,-0.717703640460968,0.0,0.0,0.0
1759827518.5588405,0,-1.2049998044967651,-0.8299996256828308,-0.7177034661776727,0.0,True,0.010259866714477539,-1.2049998044967651,-0.8299996256828308,-0.717703640460968,0.0,0.0,0.0
1759827518.5701444,0,-1.2049998044967651,-0.8299996256828308,-0.7177034683790069,0.0,True,0.011303901672363281,-1.2049998044967651,-0.8299996256828308,-0.717703640460968,0.0,0.0,0.0
1759827518.581428,0,-1.2049998044967651,-0.8299996256828308,-0.7177034713825936,0.0,True,0.011283636093139648,-1.2049998044967651,-0.8299996256828308,-0.717703640460968,0.0,0.0,0.0
1759827518.6121829,0,-1.2049998044967651,-0.8299996256828308,-0.7177034116360339,0.0,True,0.030754804611206055,-1.2049998044967651,-0.8299996256828308,-0.717703640460968,0.0,0.0,0.0
1759827518.6224113,0,-1.2049998044967651,-0.8299996256828308,-0.7177034386802212,0.0,True,0.010228395462036133,-1.2049998044967651,-0.8299996256828308,-0.717703640460968,0.0,0.0,0.0
1759827518.633655,0,-1.2049998044967651,-0.8299996256828308,-0.7177034605037989,0.0,True,0.011243820190429688,-1.2049998044967651,-0.8299996256828308,-0.717703640460968,0.0,0.0,0.0
1759827518.6448748,0,-1.2049998044967651,-0.8299996256828308,-0.7177034769823631,0.0,True,0.01121973991394043,-1.2049998044967651,-0.8299996256828308,-0.717703640460968,0.0,0.0,0.0
1759827518.656224,0,-1.2049998044967651,-0.8299996256828308,-0.7177034892754541,0.0,True,0.011349201202392578,-1.2049998044967651,-0.8299996256828308,-0.717703640460968,0.0,0.0,0.0
1759827518.6673841,0,-1.2049998044967651,-0.8299996256828308,-0.7177034995173202,0.0,True,0.011160135269165039,-1.2049998044967651,-0.8299996256828308,-0.717703640460968,0.0,0.0,0.0
1759827518.6776438,0,-1.2049998044967651,-0.8299996256828308,-0.7177035101250642,0.0,True,0.010259628295898438,-1.2049998044967651,-0.8299996256828308,-0.717703640460968,0.0,0.0,0.0
1759827518.6888268,0,-1.2049998044967651,-0.8299996256828308,-0.7177035163699017,0.0,True,0.011183023452758789,-1.2049998044967651,-0.8299996256828308,-0.717703640460968,0.0,0.0,0.0
1759827518.6999547,0,-1.2049998044967651,-0.8299996256828308,-0.7177035217698595,0.0,True,0.011127948760986328,-1.2049998044967651,-0.8299996256828308,-0.717703640460968,0.0,0.0,0.0
1759827518.711375,0,-1.2049998044967651,-0.8299996256828308,-0.7177035259221967,0.0,True,0.011420249938964844,-1.2049998044967651,-0.8299996256828308,-0.717703640460968,0.0,0.0,0.0
1759827518.7227,0,-1.2049998044967651,-0.8299996256828308,-0.7177035300612893,0.0,True,0.01132512092590332,-1.2049998044967651,-0.8299996256828308,-0.717703640460968,0.0,0.0,0.0
1759827518.7335439,0,-1.2049998044967651,-0.8299996256828308,-0.7177035350316743,0.0,True,0.010843753814697266,-1.2049998044967651,-0.8299996256828308,-0.717703640460968,0.0,0.0,0.0
1759827518.7449527,0,-1.2049998044967651,-0.8299996256828308,-0.7177035383275925,0.0,True,0.011408805847167969,-1.2049998044967651,-0.8299996256828308,-0.717703640460968,0.0,0.0,0.0
1759827518.7551906,0,-1.2049998044967651,-0.8299996256828308,-0.7177035438643209,0.0,True,0.010237932205200195,-1.2049998044967651,-0.8299996256828308,-0.717703640460968,0.0,0.0,0.0
1759827518.7666214,0,-1.2049998044967651,-0.8299996256828308,-0.7177035463496129,0.0,True,0.011430740356445312,-1.2049998044967651,-0.8299996256828308,-0.717703640460968,0.0,0.0,0.0
1759827518.8066623,0,-1.2049998044967651,-0.8299996256828308,-0.7177034997756486,0.0,True,0.04004096984863281,-1.2049998044967651,-0.8299996256828308,-0.717703640460968,0.0,0,0
1759827518.812202,0,-1.2049998044967651,-0.8299996256828308,-0.7177035272816994,0.0,True,0.005539655685424805,-1.2049998044967651,-0.8299996256828308,-0.717703640460968,0.0,0,0
1759827518.8224475,0,-1.2049998044967651,-0.8299996256828308,-0.7177035429687884,0.0,True,0.010245561599731445,-1.2049998044967651,-0.8299996256828308,-0.717703640460968,0.0,0,0
1759827518.8326385,0,-1.2049998044967651,-0.8299996256828308,-0.717703553963732,0.0,True,0.010190963745117188,-1.2049998044967651,-0.8299996256828308,-0.717703640460968,0.0,0,0
1759827518.8429012,0,-1.2049998044967651,-0.8299996256828308,-0.717703561920878,0.0,True,0.010262727737426758,-1.2049998044967651,-0.8299996256828308,-0.717703640460968,0.0,0,0
1759827518.8541098,0,-1.2049998044967651,-0.8299996256828308,-0.7177035666053051,0.0,True,0.011208534240722656,-1.2049998044967651,-0.8299996256828308,-0.717703640460968,0.0,0,0
1759827518.8644023,0,-1.2049998044967651,-0.8299996256828308,-0.7177035716126667,0.0,True,0.010292530059814453,-1.2049998044967651,-0.8299996256828308,-0.717703640460968,0.0,0,0
1759827518.8757393,0,-1.2049998044967651,-0.8299996256828308,-0.717703574312953,0.0,True,0.011337041854858398,-1.2049998044967651,-0.8299996256828308,-0.717703640460968,0.0,0,0
1759827518.887004,0,-1.2049998044967651,-0.8299996256828308,-0.7177035767731841,0.0,True,0.011264562606811523,-1.2049998044967651,-0.8299996256828308,-0.717703640460968,0.0,0,0
1759827518.8977845,0,-1.2049998044967651,-0.8299996256828308,-0.7177035796641906,0.0,True,0.010780572891235352,-1.2049998044967651,-0.8299996256828308,-0.717703640460968,0.0,0,0
1759827518.9085274,0,-1.2049998044967651,-0.8299996256828308,-0.7177035822851359,0.0,True,0.010742902755737305,-1.2049998044967651,-0.8299996256828308,-0.717703640460968,0.0,0,0
1759827518.9189863,0,-1.2049998044967651,-0.8299996256828308,-0.7177035849389899,0.0,True,0.010458946228027344,-1.2049998044967651,-0.8299996256828308,-0.717703640460968,0.0,0,0
1759827518.9290328,0,-1.2049998044967651,-0.8299996256828308,-0.7177035877322044,0.0,True,0.01004648208618164,-1.2049998044967651,-0.8299996256828308,-0.717703640460968,0.0,0,0
1759827518.93911,0,-1.2049998044967651,-0.8299996256828308,-0.7177035900840565,0.0,True,0.010077238082885742,-1.2049998044967651,-0.8299996256828308,-0.717703640460968,0.0,0,0
1759827518.9496055,0,-1.2049998044967651,-0.8299996256828308,-0.7177035916607011,0.0,True,0.010495424270629883,-1.2049998044967651,-0.8299996256828308,-0.717703640460968,0.0,0,0
1759827518.9600027,0,-1.2049998044967651,-0.8299996256828308,-0.7177035932322084,0.0,True,0.010397195816040039,-1.2049998044967651,-0.8299996256828308,-0.717703640460968,0.0,0,0
1759827518.9701655,0,-1.2049998044967651,-0.8299996256828308,-0.7177035949627992,0.0,True,0.010162830352783203,-1.2049998044967651,-0.8299996256828308,-0.717703640460968,0.0,0,0
1759827518.9803991,0,-1.2049998044967651,-0.8299996256828308,-0.7177035964846752,0.0,True,0.010233640670776367,-1.2049998044967651,-0.8299996256828308,-0.717703640460968,0.0,0,0
1759827518.9907331,0,-1.2049998044967651,-0.8299996256828308,-0.7177035978044266,0.0,True,0.010334014892578125,-1.2049998044967651,-0.8299996256828308,-0.717703640460968,0.0,0,0
1759827519.0020597,0,-1.2049998044967651,-0.8299996256828308,-0.7177035981571436,0.0,True,0.01132655143737793,-1.2049998044967651,-0.8299996256828308,-0.717703640460968,0.0,0,0
1759827519.0122817,0,-1.2049998044967651,-0.8299996256828308,-0.7177035997340724,0.0,True,0.01022195816040039,-1.2049998044967651,-0.8299996256828308,-0.717703640460968,0.0,0,0
1759827519.0235662,0,-1.2049998044967651,-0.8299996256828308,-0.71770360032931,0.0,True,0.011284589767456055,-1.2049998044967651,-0.8299996256828308,-0.717703640460968,0.0,0,0
1759827519.034575,0,-1.2049998044967651,-0.8299996256828308,-0.7177036013036115,0.0,True,0.011008739471435547,-1.2049998044967651,-0.8299996256828308,-0.717703640460968,0.0,0,0
1759827519.0450232,0,-1.2049998044967651,-0.8299996256828308,-0.7177036028236827,0.0,True,0.010448217391967773,-1.2049998044967651,-0.8299996256828308,-0.717703640460968,0.0,0,0
1759827519.0564873,0,-1.2049998044967651,-0.8299996256828308,-0.7177036034527386,0.0,True,0.011464118957519531,-1.2049998044967651,-0.8299996256828308,-0.717703640460968,0.0,0,0
1759827519.0675275,0,-1.2049998044967651,-0.8299996256828308,-0.7177036045281078,0.0,True,0.011040210723876953,-1.2049998044967651,-0.8299996256828308,-0.717703640460968,0.0,0,0
1759827519.0782132,0,-1.2049998044967651,-0.8299996256828308,-0.7177036059030133,0.0,True,0.01068568229675293,-1.2049998044967651,-0.8299996256828308,-0.717703640460968,0.0,0,0
1759827519.0892758,0,-1.2049998044967651,-0.8299996256828308,-0.7177036069289215,0.0,True,0.0110626220703125,-1.2049998044967651,-0.8299996256828308,-0.717703640460968,0.0,0,0
1759827519.099351,0,-1.2049998044967651,-0.8299996256828308,-0.7177036086176951,0.0,True,0.010075092315673828,-1.2049998044967651,-0.8299996256828308,-0.717703640460968,0.0,0,0
1759827519.1104228,0,-1.2049998044967651,-0.8299996256828308,-0.7177036094452234,0.0,True,0.011071920394897461,-1.2049998044967651,-0.8299996256828308,-0.717703640460968,0.0,0,0
1759827519.1213386,0,-1.2049998044967651,-0.8299996256828308,-0.7177036103695151,0.0,True,0.010915756225585938,-1.2049998044967651,-0.8299996256828308,-0.717703640460968,0.0,0,0
1759827519.1314874,0,-1.2049998044967651,-0.8299996256828308,-0.7177036117761162,0.0,True,0.010148763656616211,-1.2049998044967651,-0.8299996256828308,-0.717703640460968,0.0,0,0
1759827519.141664,0,-1.2049998044967651,-0.8299996256828308,-0.7177036130146632,0.0,True,0.010176658630371094,-1.2049998044967651,-0.8299996256828308,-0.717703640460968,0.0,0,0
1759827519.1518958,0,-1.2049998044967651,-0.8299996256828308,-0.7177036140735016,0.0,True,0.010231733322143555,-1.2049998044967651,-0.8299996256828308,-0.717703640460968,0.0,0,0
1759827519.1626735,0,-1.2049998044967651,-0.8299996256828308,-0.7177036147227813,0.0,True,0.010777711868286133,-1.2049998044967651,-0.8299996256828308,-0.717703640460968,0.0,0,0
1759827519.1728816,0,-1.2049998044967651,-0.8299996256828308,-0.7177036157002661,0.0,True,0.0102081298828125,-1.2049998044967651,-0.8299996256828308,-0.717703640460968,0.0,0,0
1759827519.1831298,0,-1.2049998044967651,-0.8299996256828308,-0.7177036165940844,0.0,True,0.010248184204101562,-1.2049998044967651,-0.8299996256828308,-0.717703640460968,0.0,0,0
1759827519.1933777,0,-1.2049998044967651,-0.8299996256828308,-0.7177036174206588,0.0,True,0.010247945785522461,-1.2049998044967651,-0.8299996256828308,-0.717703640460968,0.0,0,0
1759827519.2064466,0,-1.2049998044967651,-0.8299996256828308,-0.7177036168024102,0.0,True,0.013068914413452148,-1.2049998044967651,-0.8299996256828308,-0.717703640460968,0.0,0,0
1759827519.216906,0,-1.2049998044967651,-0.8299996256828308,-0.7177036178130294,0.0,True,0.010459423065185547,-1.2049998044967651,-0.8299996256828308,-0.717703640460968,0.0,0,0
1759827519.227538,0,-1.2049998044967651,-0.8299996256828308,-0.717703618735829,0.0,True,0.010632038116455078,-1.2049998044967651,-0.8299996256828308,-0.717703640460968,0.0,0,0
1759827519.2377932,0,-1.2049998044967651,-0.8299996256828308,-0.7177036197425153,0.0,True,0.010255098342895508,-1.2049998044967651,-0.8299996256828308,-0.717703640460968,0.0,0,0
1759827519.2480307,0,-1.2049998044967651,-0.8299996256828308,-0.7177036206396359,0.0,True,0.010237455368041992,-1.2049998044967651,-0.8299996256828308,-0.717703640460968,0.0,0,0
1759827519.2589493,0,-1.2049998044967651,-0.8299996256828308,-0.7177036211493615,0.0,True,0.010918617248535156,-1.2049998044967651,-0.8299996256828308,-0.717703640460968,0.0,0,0
1759827519.2697008,0,-1.2049998044967651,-0.8299996256828308,-0.7177036217340103,0.0,True,0.010751485824584961,-1.2049998044967651,-0.8299996256828308,-0.717703640460968,0.0,0,0
1759827519.279841,0,-1.2049998044967651,-0.8299996256828308,-0.7177036225591866,0.0,True,0.010140180587768555,-1.2049998044967651,-0.8299996256828308,-0.717703640460968,0.0,0,0
1759827519.2901242,0,-1.2049998044967651,-0.8299996256828308,-0.7177036232500313,0.0,True,0.010283231735229492,-1.2049998044967651,-0.8299996256828308,-0.717703640460968,0.0,0,0
1759827519.3009336,0,-1.2049998044967651,-0.8299996256828308,-0.7177036236839047,0.0,True,0.01080942153930664,-1.2049998044967651,-0.8299996256828308,-0.717703640460968,0.0,0,0
1759827519.3125422,0,-1.2049998044967651,-0.8299996256828308,-0.7177036238484931,0.0,True,0.011608600616455078,-1.2049998044967651,-0.8299996256828308,-0.717703640460968,0.0,0,0
1759827519.3229313,0,-1.2049998044967651,-0.8299996256828308,-0.7177036245351243,0.0,True,0.010389089584350586,-1.2049998044967651,-0.8299996256828308,-0.717703640460968,0.0,0,0
1759827519.3333042,0,-1.2049998044967651,-0.8299996256828308,-0.7177036251923603,0.0,True,0.01037287712097168,-1.2049998044967651,-0.8299996256828308,-0.717703640460968,0.0,0,0
1759827519.3439152,0,-1.2049998044967651,-0.8299996256828308,-0.7177036257102891,0.0,True,0.01061105728149414,-1.2049998044967651,-0.8299996256828308,-0.717703640460968,0.0,0,0
1759827519.354821,0,-1.2049998044967651,-0.8299996256828308,-0.7177036261091008,0.0,True,0.010905742645263672,-1.2049998044967651,-0.8299996256828308,-0.717703640460968,0.0,0,0
1759827519.3649805,0,-1.2049998044967651,-0.8299996256828308,-0.7177036267400787,0.0,True,0.010159492492675781,-1.2049998044967651,-0.8299996256828308,-0.717703640460968,0.0,0,0
1759827519.376442,0,-1.2049998044967651,-0.8299996256828308,-0.7177036269383859,0.0,True,0.011461496353149414,-1.2049998044967651,-0.8299996256828308,-0.717703640460968,0.0,0,0
1759827519.3868709,0,-1.2049998044967651,-0.8299996256828308,-0.7177036274773894,0.0,True,0.010428905487060547,-1.2049998044967651,-0.8299996256828308,-0.717703640460968,0.0,0,0
1759827519.4131157,0,-1.2049998044967651,-0.8299996256828308,-0.7177036239315218,0.0,True,0.0262448787689209,-1.2049998044967651,-0.8299996256828308,-0.717703640460968,0.0,0,0
1759827519.417628,0,-1.2049998044967651,-0.8299996256828308,-0.7177036270403114,0.0,True,0.004512310028076172,-1.2049998044967651,-0.8299996256828308,-0.717703640460968,0.0,0,0
1759827519.4279115,0,-1.2049998044967651,-0.8299996256828308,-0.7177036282202458,0.0,True,0.010283470153808594,-1.2049998044967651,-0.8299996256828308,-0.717703640460968,0.0,0,0
1759827519.438665,0,-1.2049998044967651,-0.8299996256828308,-0.717703628931968,0.0,True,0.010753393173217773,-1.2049998044967651,-0.8299996256828308,-0.717703640460968,0.0,0,0
1759827519.4486973,0,-1.2049998044967651,-0.8299996256828308,-0.7177036296693622,0.0,True,0.010032415390014648,-1.2049998044967651,-0.8299996256828308,-0.717703640460968,0.0,0,0
1759827519.4594803,0,-1.2049998044967651,-0.8299996256828308,-0.7177036301143502,0.0,True,0.010782957077026367,-1.2049998044967651,-0.8299996256828308,-0.717703640460968,0.0,0,0
1759827519.470435,0,-1.2049998044967651,-0.8299996256828308,-0.7177036304683249,0.0,True,0.010954618453979492,-1.2049998044967651,-0.8299996256828308,-0.717703640460968,0.0,0,0
1759827519.4816778,0,-1.2049998044967651,-0.8299996256828308,-0.7177036307466373,0.0,True,0.011242866516113281,-1.2049998044967651,-0.8299996256828308,-0.717703640460968,0.0,0,0
1759827519.491947,0,-1.2049998044967651,-0.8299996256828308,-0.7177036312216813,0.0,True,0.0102691650390625,-1.2049998044967651,-0.8299996256828308,-0.717703640460968,0.0,0,0
1759827519.5022037,0,-1.2049998044967651,-0.8299996256828308,-0.7177036316473568,0.0,True,0.010256767272949219,-1.2049998044967651,-0.8299996256828308,-0.717703640460968,0.0,0,0
1759827519.5128994,0,-1.2049998044967651,-0.8299996256828308,-0.7177036319378161,0.0,True,0.010695695877075195,-1.2049998044967651,-0.8299996256828308,-0.717703640460968,0.0,0,0
1759827519.5236504,0,-1.2049998044967651,-0.8299996256828308,-0.7177036322010526,0.0,True,0.010751008987426758,-1.2049998044967651,-0.8299996256828308,-0.717703640460968,0.0,0,0
1759827519.5339093,0,-1.2049998044967651,-0.8299996256828308,-0.7177036325438877,0.0,True,0.010258913040161133,-1.2049998044967651,-0.8299996256828308,-0.717703640460968,0.0,0,0
1759827519.5442362,0,-1.2049998044967651,-0.8299996256828308,-0.7177036328453212,0.0,True,0.010326862335205078,-1.2049998044967651,-0.8299996256828308,-0.717703640460968,0.0,0,0
1759827519.554997,0,-1.2049998044967651,-0.8299996256828308,-0.7177036330501867,0.0,True,0.010760784149169922,-1.2049998044967651,-0.8299996256828308,-0.717703640460968,0.0,0,0
1759827519.5651927,0,-1.2049998044967651,-0.8299996256828308,-0.7177036333442928,0.0,True,0.010195732116699219,-1.2049998044967651,-0.8299996256828308,-0.717703640460968,0.0,0,0
1759827519.5758667,0,-1.2049998044967651,-0.8299996256828308,-0.7177036335438984,0.0,True,0.010673999786376953,-1.2049998044967651,-0.8299996256828308,-0.717703640460968,0.0,0,0
1759827519.5861762,0,-1.2049998044967651,-0.8299996256828308,-0.7177036337945566,0.0,True,0.010309457778930664,-1.2049998044967651,-0.8299996256828308,-0.717703640460968,0.0,0,0
1759827519.5974948,0,-1.2049998044967651,-0.8299996256828308,-0.7177036338881919,0.0,True,0.011318683624267578,-1.2049998044967651,-0.8299996256828308,-0.717703640460968,0.0,0,0
1759827519.609942,0,-1.2049998044967651,-0.8299996256828308,-0.7177036338571554,0.0,True,0.012447118759155273,-1.2049998044967651,-0.8299996256828308,-0.717703640460968,0.0,0,0
1759827519.6200745,0,-1.2049998044967651,-0.8299996256828308,-0.7177036342068845,0.0,True,0.010132551193237305,-1.2049998044967651,-0.8299996256828308,-0.717703640460968,0.0,0,0
1759827519.6301818,0,-1.2049998044967651,-0.8299996256828308,-0.7177036345299754,0.0,True,0.010107278823852539,-1.2049998044967651,-0.8299996256828308,-0.717703640460968,0.0,0,0
1759827519.6404212,0,-1.2049998044967651,-0.8299996256828308,-0.7177036347889647,0.0,True,0.010239362716674805,-1.2049998044967651,-0.8299996256828308,-0.717703640460968,0.0,0,0
1759827519.6506126,0,-1.2049998044967651,-0.8299996256828308,-0.71770363502152,0.0,True,0.01019144058227539,-1.2049998044967651,-0.8299996256828308,-0.717703640460968,0.0,0,0
1759827519.6621127,0,-1.2049998044967651,-0.8299996256828308,-0.7177036350785606,0.0,True,0.011500120162963867,-1.2049998044967651,-0.8299996256828308,-0.717703640460968,0.0,0,0
1759827519.672144,0,-1.2049998044967651,-0.8299996256828308,-0.717703635326858,0.0,True,0.01003122329711914,-1.2049998044967651,-0.8299996256828308,-0.717703640460968,0.0,0,0
1759827519.6822648,0,-1.2049998044967651,-0.8299996256828308,-0.7177036355453055,0.0,True,0.010120868682861328,-1.2049998044967651,-0.8299996256828308,-0.717703640460968,0.0,0,0
1759827519.6929138,0,-1.2049998044967651,-0.8299996256828308,-0.7177036356832378,0.0,True,0.010648965835571289,-1.2049998044967651,-0.8299996256828308,-0.717703640460968,0.0,0,0
1759827519.703741,0,-1.2049998044967651,-0.8299996256828308,-0.7177036358008788,0.0,True,0.010827302932739258,-1.2049998044967651,-0.8299996256828308,-0.717703640460968,0.0,0,0
1759827519.7138958,0,-1.2049998044967651,-0.8299996256828308,-0.7177036359916578,0.0,True,0.01015472412109375,-1.2049998044967651,-0.8299996256828308,-0.717703640460968,0.0,0,0
1759827519.7241518,0,-1.2049998044967651,-0.8299996256828308,-0.7177036361582587,0.0,True,0.010256052017211914,-1.2049998044967651,-0.8299996256828308,-0.717703640460968,0.0,0,0
1759827519.7344234,0,-1.2049998044967651,-0.8299996256828308,-0.7177036363096363,0.0,True,0.010271549224853516,-1.2049998044967651,-0.8299996256828308,-0.717703640460968,0.0,0,0
1759827519.7448077,0,-1.2049998044967651,-0.8299996256828308,-0.7177036364409801,0.0,True,0.010384321212768555,-1.2049998044967651,-0.8299996256828308,-0.717703640460968,0.0,0,0
1759827519.7552104,0,-1.2049998044967651,-0.8299996256828308,-0.7177036365658793,0.0,True,0.010402679443359375,-1.2049998044967651,-0.8299996256828308,-0.717703640460968,0.0,0,0
1759827519.765989,0,-1.2049998044967651,-0.8299996256828308,-0.7177036366562586,0.0,True,0.010778665542602539,-1.2049998044967651,-0.8299996256828308,-0.717703640460968,0.0,0,0
1759827519.776575,0,-1.2049998044967651,-0.8299996256828308,-0.717703636768741,0.0,True,0.010586023330688477,-1.2049998044967651,-0.8299996256828308,-0.717703640460968,0.0,0,0
1759827519.7872818,0,-1.2049998044967651,-0.8299996256828308,-0.71770363687315,0.0,True,0.010706663131713867,-1.2049998044967651,-0.8299996256828308,-0.717703640460968,0.0,0.5235987755982988,0.029690450100537787
1759827519.7987788,0,-1.2049998044967651,-0.8299996256828308,-0.7177036369198202,0.0,True,0.011497020721435547,-1.2049998044967651,-0.8299996256828308,-0.717703640460968,0.0,0.5235987755982988,0.02975521646453754
1759827519.810854,0,-1.204977652051745,-0.8300190259289222,-0.7177010059411071,0.0002263845820584687,True,0.012075185775756836,-1.2049652338027954,-0.8300299048423767,-0.7176963686943054,0.0002263845820584687,0.5235987755982988,0.030551108708975323
1759827519.8211913,0,-1.2049693037720928,-0.8300263373340139,-0.7176994560491057,0.0002263845820584687,True,0.010337352752685547,-1.2049652338027954,-0.8300299048423767,-0.7176963686943054,0.0002263845820584687,0.5235987755982988,0.03229498574023944
1759827519.8314736,0,-1.2049661185997138,-0.8300291269092352,-0.7176982979708377,0.0002263845820584687,True,0.010282278060913086,-1.2049652338027954,-0.8300299048423767,-0.7176963686943054,0.0002263845820584687,0.5235987755982988,0.032010461434815986
1759827519.8429303,0,-1.2049648254671381,-0.8300302592201111,-0.7176973764056527,0.0002263845820584687,True,0.011456727981567383,-1.2049652338027954,-0.8300299048423767,-0.7176963686943054,0.0002263845820584687,0.5235987755982988,0.02996418277138151
1759827519.8539498,0,-1.2049643600172248,-0.8300306668576184,-0.7176967766920619,0.0002263845820584687,True,0.011019468307495117,-1.2049652338027954,-0.8300299048423767,-0.7176963686943054,0.0002263845820584687,0.5235987755982988,0.033105979872569344
1759827519.8644502,0,-1.2049642160412313,-0.8300307930442682,-0.717696366719224,0.0002263845820584687,True,0.010500431060791016,-1.2049652338027954,-0.8300299048423767,-0.7176963686943054,0.0002263845820584687,0.5235987755982988,0.031782648302304914
1759827519.8756964,0,-1.2049641124668837,-0.8300308836536098,-0.717696003821775,0.0002263845820584687,True,0.011246204376220703,-1.2049652338027954,-0.8300299048423767,-0.7176963686943054,0.0002263845820584687,0.5235987755982988,0.03476990362156554
1759827519.8871405,0,-1.2049640600142568,-0.8300309295164913,-0.7176957547875205,0.0002263845820584687,True,0.011444091796875,-1.2049652338027954,-0.8300299048423767,-0.7176963686943054,0.0002263845820584687,0.5235987755982988,0.0315281606939534
1759827519.8979,0,-1.204964084567771,-0.830030908108296,-0.7176956324572394,0.0002263845820584687,True,0.010759592056274414,-1.2049652338027954,-0.8300299048423767,-0.7176963686943054,0.0002263845820584687,0.5235987755982988,0.03288134182822319
1759827519.9090495,0,-1.20496406855352,-0.830030922098937,-0.7176954991382836,0.0002263845820584687,True,0.011149406433105469,-1.2049652338027954,-0.8300299048423767,-0.7176963686943054,0.0002263845820584687,0.5235987755982988,0.03340242827490361
1759827519.9191484,0,-1.2049641308650547,-0.8300308677046403,-0.7176954873240096,0.0002263845820584687,True,0.010098934173583984,-1.2049652338027954,-0.8300299048423767,-0.7176963686943054,0.0002263845820584687,0.5235987755982988,0.029648428820351815
1759827519.9299378,0,-1.20496410968886,-0.8300308861928786,-0.7176954017001318,0.0002263845820584687,True,0.01078939437866211,-1.2049652338027954,-0.8300299048423767,-0.7176963686943054,0.0002263845820584687,0.5235987755982988,0.028890020856833596
1759827519.9406893,0,-1.2049641040696146,-0.830030891098921,-0.7176953666760948,0.0002263845820584687,True,0.010751485824584961,-1.2049652338027954,-0.8300299048423767,-0.7176963686943054,0.0002263845820584687,0.5235987755982988,0.031175837514907892
1759827519.9519796,0,-1.2049640668237194,-0.8300309236147388,-0.7176953105622363,0.0002263845820584687,True,0.011290311813354492,-1.2049652338027954,-0.8300299048423767,-0.7176963686943054,0.0002263845820584687,0.5235987755982988,0.0318655798965166
1759827519.962052,0,-1.2049641319281394,-0.8300308667785272,-0.7176953715411933,0.0002263845820584687,True,0.010072469711303711,-1.2049652338027954,-0.8300299048423767,-0.7176963686943054,0.0002263845820584687,0.5235987755982988,0.029446031226133894
1759827519.9722176,0,-1.2049641507388498,-0.8300308503568228,-0.7176953725202413,0.0002263845820584687,True,0.01016545295715332,-1.2049652338027954,-0.8300299048423767,-0.7176963686943054,0.0002263845820584687,0.5235987755982988,0.030165620508056115
1759827519.9823728,0,-1.2049641585917252,-0.8300308435012811,-0.7176953767031922,0.0002263845820584687,True,0.010155200958251953,-1.2049652338027954,-0.8300299048423767,-0.7176963686943054,0.0002263845820584687,0.5235987755982988,0.030061695790961317
1759827519.9931438,0,-1.204964121475309,-0.8300308759039495,-0.7176953430140376,0.0002263845820584687,True,0.010771036148071289,-1.2049652338027954,-0.8300299048423767,-0.7176963686943054,0.0002263845820584687,0.5235987755982988,0.028429831108127083
1759827520.0154636,0,-1.1996083243012663,-0.8346392274884459,-0.7130172258326617,0.05273999617520804,True,0.022319793701171875,-1.19684636592865,-0.8370089530944824,-0.7021313905715942,0.05273999617520804,0.5235987755982988,0.029365353388525986
1759827520.0215857,0,-1.1978080379131024,-0.8361844508031461,-0.7098361556925497,0.05273999617520804,True,0.006122112274169922,-1.19684636592865,-0.8370089530944824,-0.7021313905715942,0.05273999617520804,0.5235987755982988,0.028842711128346334
1759827520.0329533,0,-1.1970399933765128,-0.8368432491892814,-0.707274117077036,0.05273999617520804,True,0.011367559432983398,-1.19684636592865,-0.8370089530944824,-0.7021313905715942,0.05273999617520804,0.5235987755982988,0.029418866508204355
1759827520.043008,0,-1.1967663541630382,-0.8370772684449779,-0.7054979809726198,0.05273999617520804,True,0.010054826736450195,-1.19684636592865,-0.8370089530944824,-0.7021313905715942,0.05273999617520804,0.5235987755982988,0.02771070066136174
1759827520.0532212,0,-1.1966591777749265,-0.8371684569169786,-0.704206980038002,0.05273999617520804,True,0.010213136672973633,-1.19684636592865,-0.8370089530944824,-0.7021313905715942,0.05273999617520804,0.5235987755982988,0.028760180332597217
1759827520.0635023,0,-1.1966170290333933,-0.8372039768020902,-0.7032753302119978,0.05273999617520804,True,0.010281085968017578,-1.19684636592865,-0.8370089530944824,-0.7021313905715942,0.05273999617520804,0.5235987755982988,0.027711833758957555
1759827520.0738652,0,-1.1965995515050762,-0.8372184663112396,-0.7026032076209567,0.05273999617520804,True,0.010362863540649414,-1.19684636592865,-0.8370089530944824,-0.7021313905715942,0.05273999617520804,0.5235987755982988,0.028323332446889705
1759827520.0841897,0,-1.1965933772488875,-0.8372233966158593,-0.7021244465227419,0.05273999617520804,True,0.010324478149414062,-1.19684636592865,-0.8370089530944824,-0.7021313905715942,0.05273999617520804,0.5235987755982988,0.027305341857201234
1759827520.0944283,0,-1.1965922760211665,-0.8372240887669717,-0.7017874572022436,0.05273999617520804,True,0.0102386474609375,-1.19684636592865,-0.8370089530944824,-0.7021313905715942,0.05273999617520804,0.5235987755982988,0.02770762408885243
1759827520.104663,0,-1.1965918739896568,-0.8372242487036826,-0.7015499546300212,0.05273999617520804,True,0.010234594345092773,-1.19684636592865,-0.8370089530944824,-0.7021313905715942,0.05273999617520804,0.5235987755982988,0.029422402358253358
1759827520.1148722,0,-1.1965920784606736,-0.8372239447252353,-0.7013860801693994,0.05273999617520804,True,0.010209321975708008,-1.19684636592865,-0.8370089530944824,-0.7021313905715942,0.05273999617520804,0.5235987755982988,0.028910507955447796
1759827520.1252806,0,-1.196589072226648,-0.8372263921153776,-0.7012671912418185,0.05273999617520804,True,0.010408401489257812,-1.19684636592865,-0.8370089530944824,-0.7021313905715942,0.05273999617520804,0.5235987755982988,0.03057935813572345
1759827520.1354527,0,-1.1965915441834984,-0.8372242367700056,-0.7011989363135136,0.05273999617520804,True,0.010172128677368164,-1.19684636592865,-0.8370089530944824,-0.7021313905715942,0.05273999617520804,0.5235987755982988,0.027348072579841974
1759827520.1464,0,-1.19658055162757,-0.8372334792645421,-0.7011276510758542,0.05273999617520804,True,0.010947227478027344,-1.19684636592865,-0.8370089530944824,-0.7021313905715942,0.05273999617520804,0.5235987755982988,0.02901005392340499
1759827520.1572173,0,-1.196578342882602,-0.8372353090683177,-0.7010945782947324,0.05273999617520804,True,0.010817289352416992,-1.19684636592865,-0.8370089530944824,-0.7021313905715942,0.05273999617520804,0.5235987755982988,0.029884567833540786
1759827520.1680827,0,-1.1965767535741323,-0.8372366287402024,-0.7010774421924211,0.05273999617520804,True,0.010865449905395508,-1.19684636592865,-0.8370089530944824,-0.7021313905715942,0.05273999617520804,0.5235987755982988,0.030490286751704516
1759827520.1788201,0,-1.1965781147130756,-0.8372354659884896,-0.7010784336697391,0.05273999617520804,True,0.010737419128417969,-1.19684636592865,-0.8370089530944824,-0.7021313905715942,0.05273999617520804,0.5235987755982988,0.029113436542555493
1759827520.189158,0,-1.1965847847124804,-0.837229828223419,-0.7010998801226389,0.05273999617520804,True,0.01033782958984375,-1.19684636592865,-0.8370089530944824,-0.7021313905715942,0.05273999617520804,0.5235987755982988,0.028989716393020913
1759827520.199293,0,-1.1965904578638487,-0.8372250408723932,-0.7011264491959697,0.05273999617520804,True,0.01013493537902832,-1.19684636592865,-0.8370089530944824,-0.7021313905715942,0.05273999617520804,0.5235987755982988,0.027239517474634066
1759827520.234983,0,-1.1864216837275843,-0.845454510109721,-0.6867535724214626,0.08919758807983519,True,0.0356900691986084,-1.1816409826278687,-0.8492720723152161,-0.6581138968467712,0.08919758807983519,0.5235987755982988,0.027109395017980077
1759827520.2464151,0,-1.1831656954665881,-0.8480606656240575,-0.6772661176516408,0.08919758807983519,True,0.011432170867919922,-1.1816409826278687,-0.8492720723152161,-0.6581138968467712,0.08919758807983519,0.5235987755982988,0.02984117194112402
1759827520.2568214,0,-1.1819469979859965,-0.8490314386892622,-0.6704816624810093,0.08919758807983519,True,0.010406255722045898,-1.1816409826278687,-0.8492720723152161,-0.6581138968467712,0.08919758807983519,0.5235987755982988,0.028929122743718824
1759827520.2678537,0,-1.181463321206956,-0.8494136630049527,-0.6656170141765969,0.08919758807983519,True,0.011032342910766602,-1.1816409826278687,-0.8492720723152161,-0.6581138968467712,0.08919758807983519,0.5235987755982988,0.027550384800641578
1759827520.278084,0,-1.181298960767366,-0.8495413838887361,-0.6622682741659425,0.08919758807983519,True,0.010230302810668945,-1.1816409826278687,-0.8492720723152161,-0.6581138968467712,0.08919758807983519,0.5235987755982988,0.02729483873211594
1759827520.2885063,0,-1.1812303233211636,-0.8495932942998342,-0.6598610315892337,0.08919758807983519,True,0.010422229766845703,-1.1816409826278687,-0.8492720723152161,-0.6581138968467712,0.08919758807983519,0.5235987755982988,0.02818702431532568
1759827520.2987807,0,-1.181207572895412,-0.8496093764640026,-0.6581679680710693,0.08919758807983519,True,0.010274410247802734,-1.1816409826278687,-0.8492720723152161,-0.6581138968467712,0.08919758807983519,0.5235987755982988,0.030659827408182315
1759827520.3094742,0,-1.1811872340363392,-0.84962380020754,-0.656917424376033,0.08919758807983519,True,0.010693550109863281,-1.1816409826278687,-0.8492720723152161,-0.6581138968467712,0.08919758807983519,0.5235987755982988,0.027625973548460293
1759827520.3200438,0,-1.1811825381789556,-0.8496263779799508,-0.6560563346265926,0.08919758807983519,True,0.010569572448730469,-1.1816409826278687,-0.8492720723152161,-0.6581138968467712,0.08919758807983519,0.5235987755982988,0.02867599289247278
1759827520.3302608,0,-1.1811900779282216,-0.8496197921589702,-0.6555005032857153,0.08919758807983519,True,0.010216951370239258,-1.1816409826278687,-0.8492720723152161,-0.6581138968467712,0.08919758807983519,0.5235987755982988,0.02893741024843077
1759827520.3411615,0,-1.1811743792606728,-0.8496313341762418,-0.6550437700189384,0.08919758807983519,True,0.010900735855102539,-1.1816409826278687,-0.8492720723152161,-0.6581138968467712,0.08919758807983519,0.5235987755982988,0.02873306804653529
1759827520.3512697,0,-1.181189689496087,-0.8496191565094413,-0.6548360985837753,0.08919758807983519,True,0.010108232498168945,-1.1816409826278687,-0.8492720723152161,-0.6581138968467712,0.08919758807983519,0.5235987755982988,0.028693787580702044
1759827520.362514,0,-1.181164803769094,-0.8496380340898525,-0.6545829278020978,0.08919758807983519,True,0.01124429702758789,-1.1816409826278687,-0.8492720723152161,-0.6581138968467712,0.08919758807983519,0.5235987755982988,0.03088729895171402
1759827520.372682,0,-1.1811843217327467,-0.8496228361689235,-0.654555215937199,0.08919758807983519,True,0.010168075561523438,-1.1816409826278687,-0.8492720723152161,-0.6581138968467712,0.08919758807983519,0.5235987755982988,0.03137539607626756
1759827520.3834643,0,-1.1811751759149247,-0.8496297691567469,-0.6544904006063987,0.08919758807983519,True,0.010782241821289062,-1.1816409826278687,-0.8492720723152161,-0.6581138968467712,0.08919758807983519,0.5235987755982988,0.029637966090910288
1759827520.394269,0,-1.1811710635066475,-0.8496328649061609,-0.6544748689041189,0.08919758807983519,True,0.01080465316772461,-1.1816409826278687,-0.8492720723152161,-0.6581138968467712,0.08919758807983519,0.5235987755982988,0.028730735053679735
