timestamp,observer_vehicle_id,vehicle_0_x,vehicle_0_y,vehicle_0_theta,vehicle_0_velocity,vehicle_1_x,vehicle_1_y,vehicle_1_theta,vehicle_1_velocity
1759683860.4746776,0,-1.205,-0.83,-0.7801621756414646,0.0,-0.2840365571975708,-0.05729844093322754,1.767460579743583,0.0
1759683860.484833,0,-1.205,-0.83,-0.7801621756414646,0.0,-0.518626503294688,-0.10462206118336644,-3.032567235611761,0.0
1759683860.496156,0,-1.205,-0.83,-0.7801621756414646,0.0,-0.7125336483239868,-0.14373877631895987,-0.7785895088835584,0.0
1759683860.5076625,0,-1.205,-0.83,-0.7801621756414646,0.0,-0.8731762374069688,-0.17614506230111762,1.1159321590134799,0.0
1759683860.5189338,0,-1.205,-0.83,-0.7801621756414646,0.0,-1.0066370493973433,-0.20306799267381567,2.716933620654288,0.0
1759683860.529693,0,-1.205,-0.83,-0.7801621756414646,0.0,-1.1178630001517167,-0.22550550435337222,-2.2057883225929205,0.0
1759683860.5407176,0,-1.205,-0.83,-0.7801621756414646,0.0,-1.2107432439320982,-0.24424215295460192,-0.09687315336242694,0.0
1759683860.5519083,0,-1.205,-0.83,-0.7801621756414646,0.0,-1.288471486591346,-0.2599222019060352,1.6960359353715122,0.0
1759683860.5631597,0,-1.205,-0.83,-0.7801621756414646,0.0,-1.3536706343433664,-0.273074767734973,-3.054631993474222,0.0
1759683860.5740654,0,-1.205,-0.83,-0.7801621756414646,0.0,-1.4085180966784152,-0.2841390973126486,-0.8335506141815291,0.0
1759683860.584587,0,-1.205,-0.83,-0.7801621756414646,0.0,-1.4547896991730165,-0.29347342634614165,1.0678238411664644,0.0
1759683860.5946052,0,-1.205,-0.83,-0.7801621756414646,0.0,-1.4939418879510618,-0.30137156241087704,2.7032979622095175,0.0
1759683860.6052969,0,-1.205,-0.83,-0.7801621756414646,0.0,-1.5271081030251503,-0.308062153348013,-2.165613480692711,0.0
1759683860.6156137,0,-1.205,-0.83,-0.7801621756414646,0.0,-1.5552821542513215,-0.31374567953196686,-0.08443326948967186,0.0
1759683860.6257792,0,-1.205,-0.83,-0.7801621756414646,0.0,-1.5792726020291088,-0.31858525112979136,1.7159874745469408,0.0
1759683860.636889,0,-1.205,-0.83,-0.7801621756414646,0.0,-1.5997145556560326,-0.3227089881726867,-3.0017068009842087,0.0
1759683860.6471112,0,-1.205,-0.83,-0.7801621756414646,0.0,-1.6171965612807737,-0.32623561754943564,-0.8216051189005753,0.0
1759683860.6577373,0,-1.205,-0.83,-0.7801621756414646,0.0,-1.632169130102014,-0.32925602048167435,1.0765562327163514,0.0
1759683860.6708827,0,-1.2049998061259588,-0.8299993923703829,-0.7230016924469549,0.0,-1.6449683654313898,-0.331837998790194,2.738182543876604,0.0
1759683860.681518,0,-1.2049998050413424,-0.8299993889710365,-0.718120078218913,0.0,-1.6559829911981252,-0.33405996940596194,-2.082846162701766,0.0
1759683860.6924667,0,-1.2049998047010528,-0.829999387904519,-0.7176593156570164,0.0,-1.665477042572022,-0.33597519590790076,-0.03386587583361298,0.0
1759683860.703785,0,-1.2049998045745929,-0.8299993875081751,-0.7175975308235074,0.0,-1.6736729896756786,-0.3376285569950937,1.7704733002034534,0.0
1759683860.7142293,0,-1.2049998045264814,-0.8299993873573868,-0.717593232443761,0.0,-1.6807746252571492,-0.3390611635965431,-2.9158859059873894,0.0
1759683860.725057,0,-1.2049998045081152,-0.8299993872998241,-0.7176003913696665,0.0,-1.686936469671196,-0.34030418696537096,-0.7811420541782315,0.0
1759683860.7362268,0,-1.2049998045011003,-0.8299993872778391,-0.7176110255116868,0.0,-1.6922907461980985,-0.3413843003857836,1.1108806643575344,0.0
1759683860.7470262,0,-1.204999804498421,-0.8299993872694416,-0.7176230215870198,0.0,-1.6969887641163077,-0.3423320273433474,2.7946920699603615,0.0
1759683860.7585347,0,-1.2049998044973975,-0.829999387266234,-0.7176327730734915,0.0,-1.701170000063514,-0.3431755043355792,-1.9899010862327078,0.0
1759683860.768959,0,-1.2049998044970067,-0.8299993872650089,-0.7176427220724584,0.0,-1.7048913000565273,-0.3439261988586655,0.03499631193504651,0.0
1759683860.7804348,0,-1.2049998044968575,-0.8299993872645409,-0.7176496401135122,0.0,-1.7082032570503092,-0.3445943169842123,1.8371549963043476,0.0
1759683860.791308,0,-1.2049998044968004,-0.8299993872643622,-0.7176561657358675,0.0,-1.7111508987747752,-0.3451889421159489,-2.842109081786561,0.0
1759683860.8022912,0,-1.2049998044967787,-0.8299993872642939,-0.7176614833477846,0.0,-1.7111508987747752,-0.3451889421159489,-2.842109081786561,0.0
1759683860.8135252,0,-1.2049998044967702,-0.8299993872642678,-0.7176657491699228,0.0,-1.7111508987747752,-0.3451889421159489,-2.842109081786561,0.0
1759683860.8240914,0,-1.2049998044967671,-0.8299993872642578,-0.7176698603126148,0.0,-1.7111508987747752,-0.3451889421159489,-2.842109081786561,0.0
1759683860.8349414,0,-1.2049998044967658,-0.829999387264254,-0.7176730794102646,0.0,-1.7111508987747752,-0.3451889421159489,-2.842109081786561,0.0
1759683860.846326,0,-1.2049998044967654,-0.8299993872642526,-0.7176755103964716,0.0,-1.7111508987747752,-0.3451889421159489,-2.842109081786561,0.0
1759683860.8569033,0,-1.2049998044967651,-0.829999387264252,-0.7176781329032558,0.0,-1.7111508987747752,-0.3451889421159489,-2.842109081786561,0.0
1759683860.8728309,0,-1.2049998044967651,-0.8299993872642518,-0.7176778385966021,0.0,-1.7111508987747752,-0.3451889421159489,-2.842109081786561,0.0
1759683860.883787,0,-1.2049998044967651,-0.8299993872642517,-0.7176805797611827,0.0,-1.7111508987747752,-0.3451889421159489,-2.842109081786561,0.0
1759683860.8938224,0,-1.2049998044967651,-0.8299993872642517,-0.7176833248803209,0.0,-1.7111508987747752,-0.3451889421159489,-2.842109081786561,0.0
1759683860.9050217,0,-1.2049998044967651,-0.8299993872642517,-0.7176850053049328,0.0,-1.7111508987747752,-0.3451889421159489,-2.842109081786561,0.0
1759683860.91525,0,-1.2049998044967651,-0.8299993872642517,-0.7176867609808149,0.0,-1.7111508987747752,-0.3451889421159489,-2.842109081786561,0.0
1759683860.9257464,0,-1.2049998044967651,-0.8299993872642517,-0.7176881082039515,0.0,-1.7111508987747752,-0.3451889421159489,-2.842109081786561,0.0
1759683860.9363472,0,-1.2049998044967651,-0.8299993872642517,-0.717689203636283,0.0,-1.7111508987747752,-0.3451889421159489,-2.842109081786561,0.0
1759683860.947426,0,-1.2049998044967651,-0.8299993872642517,-0.7176900069163779,0.0,-1.7111508987747752,-0.3451889421159489,-2.842109081786561,0.0
1759683860.958936,0,-1.2049998044967651,-0.8299993872642517,-0.717690631968555,0.0,-1.7111508987747752,-0.3451889421159489,-2.842109081786561,0.0
1759683860.9690545,0,-1.2049998044967651,-0.8299993872642517,-0.7176916629543513,0.0,-1.7111508987747752,-0.3451889421159489,-2.842109081786561,0.0
1759683860.9800456,0,-1.2049998044967651,-0.8299993872642517,-0.7176923163643494,0.0,-1.7111508987747752,-0.3451889421159489,-2.842109081786561,0.0
1759683860.9904845,0,-1.2049998044967651,-0.8299993872642517,-0.7176930597342093,0.0,-1.7111508987747752,-0.3451889421159489,-2.842109081786561,0.0
1759683861.001617,0,-1.2049998044967651,-0.8299993872642517,-0.7176935513440839,0.0,-1.7111508987747752,-0.3451889421159489,-2.842109081786561,0.0
1759683861.0122094,0,-1.2049998044967651,-0.8299993872642517,-0.7176941575505857,0.0,-1.7111508987747752,-0.3451889421159489,-2.842109081786561,0.0
1759683861.022723,0,-1.2049998044967651,-0.8299993872642517,-0.71769473248888,0.0,-1.7111508987747752,-0.3451889421159489,-2.842109081786561,0.0
1759683861.0341709,0,-1.2049998044967651,-0.8299993872642517,-0.7176950474214152,0.0,-1.7158913936779014,-0.3461452208801058,-2.419834399424289,0.0
1759683861.0449467,0,-1.2049998044967651,-0.8299993872642517,-0.7176955241888159,0.0,-1.719648423663627,-0.3469031096797078,-2.0851649869961784,0.0
1759683861.0554535,0,-1.2049998044967651,-0.8299993872642517,-0.7176960311902008,0.0,-1.7226344949496386,-0.34750547644044166,-1.8191711763119465,0.0
1759683861.0680435,0,-1.2049998044967651,-0.8299993872642517,-0.7176960905377676,0.0,-1.7250085901760228,-0.3479843920168681,-1.607691082333139,0.0
1759683861.076987,0,-1.2049998044967651,-0.8299993872642517,-0.7176969055662799,0.0,-1.7269089910213555,-0.34836775135147663,-1.4384068241020596,0.0
1759683861.088593,0,-1.2049998044967651,-0.8299993872642517,-0.7176971145441371,0.0,-1.728429136587973,-0.3486744034950797,-1.3029950159669226,0.0
1759683861.0992239,0,-1.2049998044967651,-0.8299993872642517,-0.7176974932651756,0.0,-1.7296496937709898,-0.3489206210184418,-1.1942699973146302,0.0
1759683861.110176,0,-1.2049998044967651,-0.8299993872642517,-0.7176977987329902,0.0,-1.730631798215348,-0.34911873654087483,-1.1067859158499447,0.0
1759683861.120948,0,-1.2049998044967651,-0.8299993872642517,-0.7176981199956352,0.0,-1.7314242054838316,-0.3492785853032719,-1.0361997145274318,0.0
1759683861.1320279,0,-1.2049998044967651,-0.8299993872642517,-0.7176983767988254,0.0,-1.732064932921364,-0.3494078363740242,-0.979124877259612,0.0
1759683861.143521,0,-1.2049998044967651,-0.8299993872642517,-0.7176985710949816,0.0,-1.7325840949453344,-0.34951256459941527,-0.9328788664006874,0.0
1759683861.1541908,0,-1.2049998044967651,-0.8299993872642517,-0.7176988970810836,0.0,-1.7330649303549799,-0.3496095613688866,-0.890046920786179,0.0
1759683861.165018,0,-1.2049998044967651,-0.8299993872642517,-0.7176991782854003,0.0,-1.7334458623501798,-0.3496864050708717,-0.8561141900140006,0.0
1759683861.175074,0,-1.2049998044967651,-0.8299993872642517,-0.717699536875763,0.0,-1.7337486669135131,-0.34974748847661785,-0.8291409090776544,0.0
1759683861.1858163,0,-1.2049998044967651,-0.8299993872642517,-0.7176997614671237,0.0,-1.733989773031007,-0.34979612573175245,-0.8076636137190636,0.0
1759683861.1972268,0,-1.2049998044967651,-0.8299993872642517,-0.717699889235135,0.0,-1.7341821055648237,-0.34983492411072004,-0.7905309806743903,0.0
1759683861.207431,0,-1.2049998044967651,-0.8299993872642517,-0.7177001741623208,0.0,-1.7343361398208974,-0.3498659967499795,-0.7768098887028362,0.0
1759683861.218041,0,-1.2049998044967651,-0.8299993872642517,-0.7177003867734122,0.0,-1.7344597446213452,-0.3498909309917056,-0.7657993974114926,0.0
1759683861.2287543,0,-1.2049998044967651,-0.8299993872642517,-0.7177005706549462,0.0,-1.734559166558239,-0.34991098693288597,-0.7569430717156335,0.0
1759683861.2389176,0,-1.2049998044967651,-0.8299993872642517,-0.7177008038844566,0.0,-1.7346393851063389,-0.3499271690606188,-0.7497973490409583,0.0
1759683861.2489562,0,-1.2049998044967651,-0.8299993872642517,-0.7177010256947742,0.0,-1.7347042715666374,-0.34994025831508124,-0.7440173809211402,0.0
1759683861.2599506,0,-1.2049998044967651,-0.8299993872642517,-0.7177011278126244,0.0,-1.734756822177765,-0.34995085911404666,-0.7393362678569496,0.0
1759683861.2712445,0,-1.2049998044967651,-0.8299993872642517,-0.7177012095384967,0.0,-1.7347994752414007,-0.34995946332517114,-0.73553681036009,0.0
1759683861.2815766,0,-1.2049998044967651,-0.8299993872642517,-0.7177013981861329,0.0,-1.734839097869345,-0.3499674562201025,-0.7320072985746096,0.0
1759683861.2918923,0,-1.2049998044967651,-0.8299993872642517,-0.7177015761907413,0.0,-1.734870546594844,-0.3499738002303734,-0.7292059031840176,0.0
1759683861.303231,0,-1.2049998044967651,-0.8299993872642517,-0.7177016507494205,0.0,-1.7348955426560402,-0.3499788425736303,-0.726979299418464,0.0
1759683861.3141067,0,-1.2049998044967651,-0.8299993872642517,-0.7177017759078445,0.0,-1.7349154729495626,-0.34998286302230674,-0.7252039450433315,0.0
1759683861.3256197,0,-1.2049998044967651,-0.8299993872642517,-0.7177018542580615,0.0,-1.7349313941941706,-0.349986074743536,-0.7237857094694017,0.0
1759683861.3368783,0,-1.2049998044967651,-0.8299993872642517,-0.7177019656176853,0.0,-1.734944150625911,-0.3499886480412674,-0.7226493896818348,0.0
1759683861.3476567,0,-1.2049998044967651,-0.8299993872642517,-0.7177021175559357,0.0,-1.7349544035682685,-0.3499907163213198,-0.7217360761848662,0.0
1759683861.3589134,0,-1.2049998044967651,-0.8299993872642517,-0.717702226336769,0.0,-1.7349626607320456,-0.34999238200191507,-0.7210005430216714,0.0
1759683861.369454,0,-1.2049998044967651,-0.8299993872642517,-0.7177023826803453,0.0,-1.7349693332513094,-0.34999372801928363,-0.7204061671157234,0.0
1759683861.3808522,0,-1.2049998044967651,-0.8299993872642517,-0.7177024689389704,0.0,-1.7349753623665296,-0.34999494424564176,-0.7198691044742579,0.0
1759683861.3918304,0,-1.2049998044967651,-0.8299993872642517,-0.717702584113919,0.0,-1.734980139389308,-0.3499959078930103,-0.7194435759550472,0.0
1759683861.402207,0,-1.2049998044967651,-0.8299993872642517,-0.7177027322026853,0.0,-1.734983936595669,-0.34999667388640976,-0.7191053277040494,0.0
1759683861.4125023,0,-1.2049998044967651,-0.8299993872642517,-0.7177028683009077,0.0,-1.7349869626636985,-0.3499972843215341,-0.7188357710560384,0.0
1759683861.4232674,0,-1.2049998044967651,-0.8299993872642517,-0.717702960652808,0.0,-1.734989378892406,-0.34999777173650864,-0.718620537788014,0.0
1759683861.4341,0,-1.2049998044967651,-0.8299993872642517,-0.7177030441327652,0.0,-1.7349913129396723,-0.3499981618831848,-0.7184482563676702,0.0
1759683861.4448497,0,-1.2049998044967651,-0.8299993872642517,-0.7177031308448818,0.0,-1.7349928651041402,-0.3499984749943576,-0.7183099923739369,0.0
1759683861.4558756,0,-1.2049998044967651,-0.8299993872642517,-0.7177032010084652,0.0,-1.734994113546716,-0.3499987268370761,-0.7181987833751118,0.0
1759683861.4722333,0,-1.2049998044967651,-0.8299993872642517,-0.7177030151971628,0.0,-1.7349951143631792,-0.34999892872729016,-0.7181096324609663,0.0
1759683861.478259,0,-1.2049998044967651,-0.8299993872642517,-0.7177033954101137,0.0,-1.734995929007256,-0.34999909306178417,-0.7180370654451005,0.0
1759683861.4893713,0,-1.2049998044967651,-0.8299993872642517,-0.7177034705489724,0.0,-1.7349966707775935,-0.3499992426957857,-0.717970989889699,0.0
1759683861.5000694,0,-1.2049998044967651,-0.8299993872642517,-0.7177035449429852,0.0,-1.7349972585541167,-0.3499993612653062,-0.7179186318237674,0.0
1759683861.5107927,0,-1.2049998044967651,-0.8299993872642517,-0.7177036150236749,0.0,-1.734997725483219,-0.34999945545681865,-0.7178770386267701,0.0
1759683861.5214622,0,-1.2049998044967651,-0.8299993872642517,-0.7177036845903774,0.0,-1.7349980973774328,-0.34999953047736954,-0.7178439109651507,0.0
1759683861.5326314,0,-1.2049998044967651,-0.8299993872642517,-0.717703731202473,0.0,-1.7349983941719482,-0.3499995903483953,-0.717817473048378,0.0
1759683861.543514,0,-1.2049998044967651,-0.8299993872642517,-0.7177037920201013,0.0,-1.7349986317272206,-0.3499996382693544,-0.7177963120558712,0.0
1759683861.5548582,0,-1.2049998044967651,-0.8299993872642517,-0.7177038356391989,0.0,-1.734998822258218,-0.34999967670431753,-0.717779339900404,0.0
1759683861.5656574,0,-1.2049998044967651,-0.8299993872642517,-0.7177039025107881,0.0,-1.7349989755686372,-0.34999970763094046,-0.7177656832864969,0.0
1759683861.5769954,0,-1.2049998044967651,-0.8299993872642517,-0.7177039481632352,0.0,-1.7349990991663722,-0.3499997325637569,-0.7177546734245901,0.0
1759683861.5879126,0,-1.2049998044967651,-0.8299993872642517,-0.7177040096019027,0.0,-1.7349991991180884,-0.3499997527265681,-0.7177457699071033,0.0
1759683861.5984924,0,-1.2049998044967651,-0.8299993872642517,-0.7177040795399883,0.0,-1.7349992901990774,-0.34999977109992725,-0.717737656577904,0.0
1759683861.609162,0,-1.2049998044967651,-0.8299993872642517,-0.7177041401126107,0.0,-1.7349993623675883,-0.34999978565815715,-0.7177312279379235,0.0
1759683861.6200097,0,-1.2049998044967651,-0.8299993872642517,-0.7177041901760663,0.0,-1.7349994196858465,-0.3499997972207121,-0.7177261221315309,0.0
1759683861.6304748,0,-1.2049998044967651,-0.8299993872642517,-0.7177042490494152,0.0,-1.734999465345061,-0.34999980643134054,-0.717722054891568,0.0
1759683861.6412315,0,-1.2049998044967651,-0.8299993872642517,-0.7177042947693426,0.0,-1.7349995017958626,-0.34999981378439715,-0.7177188079203258,0.0
1759683861.6525211,0,-1.2049998044967651,-0.8299993872642517,-0.717704323849567,0.0,-1.7349995309526918,-0.3499998196660735,-0.7177162106828927,0.0
1759683861.663267,0,-1.2049998044967651,-0.8299993872642517,-0.7177043702537276,0.0,-1.73499955435047,-0.34999982438600225,-0.7177141264513013,0.0
1759683861.6779032,0,-1.2049998044967651,-0.8299993872642517,-0.7177043182347749,0.0,-1.734999573094303,-0.3499998281671116,-0.7177124567846563,0.0
1759683861.688732,0,-1.2049998044967651,-0.8299993872642517,-0.7177043862498351,0.0,-1.7349995882236922,-0.3499998312190954,-0.717711109086142,0.0
1759683861.7000234,0,-1.2049998044967651,-0.8299993872642517,-0.7177044413439688,0.0,-1.7349996018935419,-0.3499998339766528,-0.7177098914007324,0.0
1759683861.7104955,0,-1.2049998044967651,-0.8299993872642517,-0.717704508925916,0.0,-1.7349996127188478,-0.3499998361603932,-0.7177089271021179,0.0
1759683861.7213826,0,-1.2049998044967651,-0.8299993872642517,-0.7177045577613566,0.0,-1.7349996213093482,-0.3499998378933163,-0.7177081618759553,0.0
1759683861.7321544,0,-1.2049998044967651,-0.8299993872642517,-0.7177046031402199,0.0,-1.7349996281448685,-0.3499998392722152,-0.7177075529801987,0.0
1759683861.7424593,0,-1.2049998044967651,-0.8299993872642517,-0.717704653380622,0.0,-1.7349996336004896,-0.3499998403727531,-0.7177070670033803,0.0
1759683861.752651,0,-1.2049998044967651,-0.8299993872642517,-0.717704699341045,0.0,-1.7349996379659136,-0.3499998412533705,-0.7177066781393302,0.0
1759683861.7628298,0,-1.2049998044967651,-0.8299993872642517,-0.7177047393082105,0.0,-1.7349996414674398,-0.3499998419597176,-0.7177063662297399,0.0
1759683861.77355,0,-1.2049998044967651,-0.8299993872642517,-0.7177047644545187,0.0,-1.7349996442811009,-0.34999984252730487,-0.717706115593925,0.0
1759683861.7840781,0,-1.2049998044967651,-0.8299993872642517,-0.7177047923395072,0.0,-1.7349996465481614,-0.3499998429846288,-0.7177059136482898,0.0
1759683861.795641,0,-1.2049998044967651,-0.8299993872642517,-0.7177048016195062,0.0,-1.734999648377188,-0.3499998433535901,-0.7177057507219251,0.0
1759683861.806609,0,-1.2049998044967651,-0.8299993872642517,-0.7177048251221354,0.0,-1.734999649857737,-0.3499998436522546,-0.7177056188373017,0.0
1759683861.8172233,0,-1.2049998044967651,-0.8299993872642517,-0.7177048554695169,0.0,-1.7349996512092214,-0.34999984392488354,-0.717705498449512,0.0
1759683861.8276258,0,-1.2049998044967651,-0.8299993872642517,-0.717704887216609,0.0,-1.7349996522814937,-0.3499998441411882,-0.7177054029334398,0.0
1759683861.838209,0,-1.2049998044967651,-0.8299993872642517,-0.7177049131978297,0.0,-1.7349996531341907,-0.3499998443131989,-0.717705326976742,0.0
1759683861.8488736,0,-1.2049998044967651,-0.8299993872642517,-0.7177049361692216,0.0,-1.7349996538139225,-0.34999984445031823,-0.7177052664274537,0.0
1759683861.859757,0,-1.2049998044967651,-0.8299993872642517,-0.7177049551751882,0.0,-1.7349996543570159,-0.34999984455987404,-0.7177052180496709,0.0
1759683861.9022202,0,-1.2049998044967651,-0.8299993872642517,-0.7177045910535114,0.0,-1.7349996547773947,-0.34999984464467515,-0.7177051806030985,0.0
1759683861.905696,0,-1.2049998044967651,-0.8299993872642517,-0.7177048166433391,0.0,-1.7349996551202886,-0.3499998447138456,-0.7177051500587281,0.0
1759683861.9158504,0,-1.2049998044967651,-0.8299993872642517,-0.7177049282631582,0.0,-1.7349996553981335,-0.349999844769894,-0.7177051253088141,0.0
1759683861.926831,0,-1.2049998044967651,-0.8299993872642517,-0.7177049954290364,0.0,-1.7349996556531244,-0.3499998448213322,-0.7177051025946806,0.0
1759683861.9369504,0,-1.2049998044967651,-0.8299993872642517,-0.7177050537767791,0.0,-1.73499965585521,-0.34999984486209806,-0.717705084593241,0.0
1759683861.9473848,0,-1.2049998044967651,-0.8299993872642517,-0.7177050953070214,0.0,-1.7349996560157037,-0.3499998448944737,-0.7177050702967668,0.0
1759683861.9583433,0,-1.2049998044967651,-0.8299993872642517,-0.717705122681739,0.0,-1.7349996561434127,-0.3499998449202359,-0.717705058920678,0.0
1759683861.9696944,0,-1.2049998044967651,-0.8299993872642517,-0.7177051417622948,0.0,-1.7349996562452559,-0.34999984494078024,-0.7177050498486702,0.0
1759683861.9804504,0,-1.2049998044967651,-0.8299993872642517,-0.7177051643892511,0.0,-1.7349996563267405,-0.34999984495721775,-0.7177050425901753,0.0
1759683861.9915698,0,-1.2049998044967651,-0.8299993872642517,-0.7177051811805448,0.0,-1.7349996563920755,-0.34999984497039743,-0.7177050367702561,0.0
1759683862.002547,0,-1.2049998044967651,-0.8299993872642517,-0.7177051977291917,0.0,-1.7349996564446057,-0.3499998449809941,-0.7177050320909524,0.0
1759683862.013816,0,-1.2049998044967651,-0.8299993872642517,-0.7177052106502018,0.0,-1.7349996564869354,-0.34999984498953307,-0.7177050283203142,0.0
1759683862.0252326,0,-1.2049998044967651,-0.8299993872642517,-0.7177052220756082,0.0,-1.7349996565211283,-0.34999984499643066,-0.7177050252744621,0.0
1759683862.0360773,0,-1.2049998044967651,-0.8299993872642517,-0.7177052380313214,0.0,-1.7349996565521093,-0.34999984500268033,-0.7177050225147311,0.0
1759683862.0468512,0,-1.2049998044967651,-0.8299993872642517,-0.7177052532985222,0.0,-1.7349996565766728,-0.34999984500763537,-0.7177050203266787,0.0
1759683862.0571756,0,-1.2049998044967651,-0.8299993872642517,-0.7177052703058598,0.0,-1.7349996565962067,-0.3499998450115759,-0.7177050185866223,0.0
1759683862.0681133,0,-1.2049998044967651,-0.8299993872642517,-0.7177052809246565,0.0,-1.7349996566117696,-0.34999984501471526,-0.7177050172003233,0.0
1759683862.0788994,0,-1.2049998044967651,-0.8299993872642517,-0.7177052919797546,0.0,-1.7349996566242023,-0.3499998450172233,-0.7177050160928303,0.0
1759683862.0895708,0,-1.2049998044967651,-0.8299993872642517,-0.7177053033119289,0.0,-1.7349996566341612,-0.34999984501923226,-0.7177050152057152,0.0
1759683862.1003842,0,-1.2049998044967651,-0.8299993872642517,-0.7177053130639877,0.0,-1.7349996566421573,-0.34999984502084525,-0.7177050144934543,0.0
1759683862.1111505,0,-1.2049998044967651,-0.8299993872642517,-0.7177053227444983,0.0,-1.7349996566485937,-0.34999984502214365,-0.7177050139201089,0.0
1759683862.1215065,0,-1.2049998044967651,-0.8299993872642517,-0.717705334486773,0.0,-1.7349996566537902,-0.34999984502319187,-0.7177050134572197,0.0
1759683862.13266,0,-1.2049998044967651,-0.8299993872642517,-0.7177053406286493,0.0,-1.734999656657992,-0.34999984502403947,-0.7177050130829413,0.0
1759683862.1431699,0,-1.2049998044967651,-0.8299993872642517,-0.7177053506697497,0.0,-1.7349996566618096,-0.3499998450248096,-0.7177050127428696,0.0
1759683862.1537766,0,-1.2049998044967651,-0.8299993872642517,-0.7177053596572662,0.0,-1.7349996566648376,-0.3499998450254204,-0.7177050124731428,0.0
1759683862.1641943,0,-1.2049998044967651,-0.8299993872642517,-0.7177053690661097,0.0,-1.7349996566672456,-0.3499998450259062,-0.7177050122586273,0.0
1759683862.1749039,0,-1.2049998044967651,-0.8299993872642517,-0.7177053762903327,0.0,-1.734999656669165,-0.3499998450262934,-0.717705012087651,0.0
1759683862.1863184,0,-1.2049998044967651,-0.8299993872642517,-0.7177053799089279,0.0,-1.7349996566706976,-0.3499998450266026,-0.7177050119511336,0.0
1759683862.197252,0,-1.2049998044967651,-0.8299993872642517,-0.7177053867271503,0.0,-1.734999656671925,-0.3499998450268502,-0.7177050118417817,0.0
1759683862.2081878,0,-1.2049998044967651,-0.8299993872642517,-0.7177053937369955,0.0,-1.7349996566729107,-0.3499998450270491,-0.7177050117539655,0.0
1759683862.2183833,0,-1.2049998044967651,-0.8299993872642517,-0.7177054038790766,0.0,-1.7349996566737051,-0.3499998450272093,-0.7177050116832067,0.0
1759683862.2290294,0,-1.2049998044967651,-0.8299993872642517,-0.7177054109902167,0.0,-1.7349996566743464,-0.3499998450273387,-0.7177050116260848,0.0
1759683862.240302,0,-1.2049998044967651,-0.8299993872642517,-0.7177054150153772,0.0,-1.734999656674865,-0.34999984502744336,-0.7177050115798903,0.0
1759683862.2510192,0,-1.2049998044967651,-0.8299993872642517,-0.7177054217280379,0.0,-1.7349996566753383,-0.3499998450275388,-0.7177050115377335,0.0
1759683862.2619524,0,-1.2049998044967651,-0.8299993872642517,-0.7177054274565045,0.0,-1.7349996566757133,-0.3499998450276144,-0.7177050115043276,0.0
1759683862.2735848,0,-1.2049998044967651,-0.8299993872642517,-0.7177054305412867,0.0,-1.734999656676011,-0.34999984502767445,-0.7177050114778063,0.0
1759683862.282848,0,-1.2049998044967651,-0.8299993872642517,-0.7177054427782109,0.0,-1.7349996566762487,-0.3499998450277224,-0.7177050114566406,0.0
1759683862.2942305,0,-1.2049998044967651,-0.8299993872642517,-0.7177054457988437,0.0,-1.7349996566764383,-0.34999984502776066,-0.7177050114397495,0.0
1759683862.304872,0,-1.2049998044967651,-0.8299993872642517,-0.7177054514611036,0.0,-1.7349996566765902,-0.3499998450277913,-0.717705011426223,0.0
1759683862.3160748,0,-1.2049998044967651,-0.8299993872642517,-0.7177054551889235,0.0,-1.7349996566767119,-0.34999984502781584,-0.7177050114153704,0.0
1759683862.326434,0,-1.2049998044967651,-0.8299993872642517,-0.7177054617950063,0.0,-1.73499965667681,-0.3499998450278356,-0.717705011406632,0.0
1759683862.3379364,0,-1.2049998044967651,-0.8299993872642517,-0.7177054644290095,0.0,-1.734999656676889,-0.3499998450278516,-0.717705011399588,0.0
1759683862.3487797,0,-1.2049998044967651,-0.8299993872642517,-0.7177054694088891,0.0,-1.734999656676953,-0.3499998450278645,-0.7177050113938908,0.0
1759683862.3596196,0,-1.2049998044967651,-0.8299993872642517,-0.7177054743294811,0.0,-1.734999656677005,-0.34999984502787496,-0.7177050113892711,0.0
1759683862.3700593,0,-1.2049998044967651,-0.8299993872642517,-0.7177054800981573,0.0,-1.7349996566770527,-0.34999984502788456,-0.7177050113850281,0.0
1759683862.380841,0,-1.2049998044967651,-0.8299993872642517,-0.7177054844195894,0.0,-1.7349996566770904,-0.34999984502789216,-0.7177050113816605,0.0
1759683862.392084,0,-1.2049998044967651,-0.8299993872642517,-0.7177054873397708,0.0,-1.7349996566771204,-0.34999984502789827,-0.7177050113789825,0.0
1759683862.4024596,0,-1.2049998044967651,-0.8299993872642517,-0.7177054926032617,0.0,-1.7349996566771446,-0.34999984502790316,-0.7177050113768448,0.0
1759683862.4131684,0,-1.2049998044967651,-0.8299993872642517,-0.7177054966457952,0.0,-1.734999656677164,-0.34999984502790704,-0.7177050113751351,0.0
1759683862.4242692,0,-1.2049998044967651,-0.8299993872642517,-0.7177054995314904,0.0,-1.7349996566771793,-0.34999984502791015,-0.7177050113737647,0.0
1759683862.435563,0,-1.2049998044967651,-0.8299993872642517,-0.7177055021074246,0.0,-1.7349996566771915,-0.3499998450279126,-0.7177050113726638,0.0
1759683862.4466112,0,-1.2049998044967651,-0.8299993872642517,-0.717705505463364,0.0,-1.7349996566772015,-0.3499998450279146,-0.7177050113717768,0.0
1759683862.4577904,0,-1.2049998044967651,-0.8299993872642517,-0.7177055085724291,0.0,-1.7349996566772095,-0.3499998450279162,-0.7177050113710604,0.0
1759683862.5008059,0,-1.2049998044967651,-0.8299993872642517,-0.7177054552836566,0.0,-1.7349978831739499,-0.35000139332401753,-0.7183018633944938,0.0014467031019266595
1759683862.5078273,0,-1.2049998044967651,-0.8299993872642517,-0.7177054837474763,0.0,-1.7349945135034683,-0.35001814041810925,-0.7187828462598285,0.0026125531539372207
1759683862.5190847,0,-1.2049998044967651,-0.8299993872642517,-0.7177055009814826,0.0,-1.7349902064819067,-0.3500442253315267,-0.7191723209062741,0.0035565987571939657
1759683862.529151,0,-1.2049998044967651,-0.8299993872642517,-0.7177055148398033,0.0,-1.734985406626308,-0.35007560410526434,-0.7194894678721965,0.0043253310042101235
1759683862.539571,0,-1.2049998044967651,-0.8299993872642517,-0.7177055244208593,0.0,-1.7349804053961866,-0.3501095403408089,-0.7197494483608246,0.004955498855193415
1759683862.5498657,0,-1.2049998044967651,-0.8299993872642517,-0.7177055317067307,0.0,-1.7349753927343141,-0.3501442175984145,-0.7199640941375209,0.005475781044897058
1759683862.5610914,0,-1.2049998044967651,-0.8299993872642517,-0.7177055360079693,0.0,-1.734970475342505,-0.35017850334957673,-0.7201430764849251,0.005909619714184996
1759683862.5714478,0,-1.2049998044967651,-0.8299993872642517,-0.7177055406566843,0.0,-1.7349657298388137,-0.3502116676790866,-0.7202934438175871,0.006274099217592019
1759683862.5826797,0,-1.2049998044967651,-0.8299993872642517,-0.7177055433560025,0.0,-1.7349611778093026,-0.3502433557581237,-0.7204214013640822,0.0065842604030943675
1759683862.59351,0,-1.2049998044967651,-0.8299993872642517,-0.7177055462249271,0.0,-1.7353960522434118,-0.34991164236806893,-0.7201077298967179,0.009347548269390115
1759683862.6041622,0,-1.2049998044967651,-0.8299993872642517,-0.7177055489962515,0.0,-1.7359003748731023,-0.3495644975263564,-0.719751829748372,0.013976159974686526
1759683862.614309,0,-1.2049998044967651,-0.8299993872642517,-0.7177055520282067,0.0,-1.7362920940088187,-0.34934169559137207,-0.7194767062373991,0.017666784662144913
1759683862.6243834,0,-1.2049998044967651,-0.8299993872642517,-0.7177055547000251,0.0,-1.736596073391307,-0.34920789308380573,-0.7192652877385027,0.020618968872412567
1759683862.6345956,0,-1.2049998044967651,-0.8299993872642517,-0.7177055568226365,0.0,-1.7368314092571695,-0.34913747978908094,-0.7191044595757731,0.02298810183405509
1759683862.6457355,0,-1.2049998044967651,-0.8299993872642517,-0.7177055576926143,0.0,-1.7370124802764995,-0.34911230840072743,-0.7189846900793648,0.024895256845937283
1759683862.6570778,0,-1.2049998044967651,-0.8299993872642517,-0.7177055584740515,0.0,-1.7371508974510184,-0.3491188626382941,-0.7188978071992406,0.02643683612424626
1759683862.6685994,0,-1.2049998044967651,-0.8299993872642517,-0.7177055592993451,0.0,-1.7372556911025516,-0.34914742208515703,-0.718837384472885,0.02768862443747417
1759683862.6788297,0,-1.2049998044967651,-0.8299993872642517,-0.7177055616000771,0.0,-1.7373345814580823,-0.34919019310376914,-0.7187970825767925,0.028710314880881518
1759683862.6939297,0,-1.2049998044967651,-0.8299993872642517,-0.7177055591399739,0.0,-1.7373907111291786,-0.3492451843424789,-0.7187772940000553,0.02954930543539226
1759683862.7045438,0,-1.2049998044967651,-0.8299993872642517,-0.7177055618512593,0.0,-1.7374828858028617,-0.3492357000082157,-0.7186696119714332,0.030244664792693932
1759683862.7150838,0,-1.2049998044967651,-0.8299993872642517,-0.7177055645036372,0.0,-1.7376455033197267,-0.3491707910145436,-0.7184739170573552,0.031040032046401277
1759683862.7264605,0,-1.2049998044967651,-0.8299993872642517,-0.7177055660314409,0.0,-1.7377702759497047,-0.34913390426848945,-0.7183260906265636,0.03168566139814798
1759683862.7367103,0,-1.2049998044967651,-0.8299993872642517,-0.7177055683471547,0.0,-1.7378658704422285,-0.349117104354232,-0.7182151239587614,0.03221319656731312
1759683862.7481308,0,-1.2049998044967651,-0.8299993872642517,-0.7177055694253943,0.0,-1.7379381158191567,-0.34911584278730223,-0.7181342496477251,0.032648901835823134
1759683862.7590117,0,-1.2049998044967651,-0.8299993872642517,-0.7177055708873112,0.0,-1.7379921650036227,-0.3491258326756961,-0.7180768829626993,0.033011989040864345
1759683862.7690618,0,-1.2049998044967651,-0.8299993872642517,-0.717705572874074,0.0,-1.7380321064385602,-0.34914371879267525,-0.7180376787967727,0.033317037441686015
1759683862.7793336,0,-1.2049998044967651,-0.8299993872642517,-0.7177055744218954,0.0,-1.7380607725771005,-0.34916760295045995,-0.7180132106046144,0.03357647609723018
1759683862.7897074,0,-1.2049998044967651,-0.8299993872642517,-0.7177055756894681,0.0,-1.7380804184786491,-0.3491960444409319,-0.7180006985609116,0.033800008352706315
1759683862.8006494,0,-1.2049998044967651,-0.8299993872642517,-0.7177055764530937,0.0,-1.738092661677632,-0.3492282843793342,-0.7179982879356164,0.03399587840836703
1759683862.8107748,0,-1.2049998044967651,-0.8299993872642517,-0.7177055777719552,0.0,-1.7380992053797715,-0.34926298339315526,-0.7180035402027921,0.03416898155226283
1759683862.8218806,0,-1.2049998044967651,-0.8299993872642517,-0.7177055783596309,0.0,-1.73899637209318,-0.3485107933932315,-0.7172141177873775,0.03650555477090533
1759683862.8322706,0,-1.2049998044967651,-0.8299993872642517,-0.7177055794371903,0.0,-1.7401364487601299,-0.34759887020465235,-0.7162670818929897,0.04049297505568968
1759683862.8424318,0,-1.2049998044967651,-0.8299993872642517,-0.7177055805966681,0.0,-1.741028445663675,-0.3469269919708471,-0.7155256382763712,0.04367036750060211
1759683862.8525844,0,-1.2049998044967651,-0.8299993872642517,-0.7177055816442923,0.0,-1.7417261017752088,-0.3464364328347503,-0.7149461093108861,0.04621081853239634
1759683862.8641763,0,-1.2049998044967651,-0.8299993872642517,-0.7177055817938935,0.0,-1.7422692344910535,-0.3460851899270175,-0.7144966748301659,0.048247868748919856
1759683862.875432,0,-1.2049998044967651,-0.8299993872642517,-0.7177055822855394,0.0,-1.7426914017196486,-0.34583889550570474,-0.7141495692408574,0.04988864530166467
1759683862.910551,0,-1.2049998044967651,-0.8299993872642517,-0.7177055715678691,0.0,-1.7429909986764824,-0.3457053330504629,-0.7139166240259885,0.05121039678909482
1759683862.921162,0,-1.2049998044967651,-0.8299993872642517,-0.7177055761271038,0.0,-1.7432223594924336,-0.34562465125717473,-0.713740257325103,0.052291658417364245
1759683862.9326038,0,-1.2049998044967651,-0.8299993872642517,-0.7177055799342629,0.0,-1.7433983974290255,-0.34558546867785617,-0.7136105000349117,0.0531809959010058
1759683862.9435532,0,-1.2049998044967651,-0.8299993872642517,-0.7177055829506482,0.0,-1.7438640149814137,-0.34524262113706805,-0.7130987171551666,0.05413412802766889
1759683862.9537122,0,-1.2049998044967651,-0.8299993872642517,-0.7177055855125047,0.0,-1.7442264482144623,-0.3449904321331346,-0.712700072494621,0.054904652052628324
1759683862.963715,0,-1.2049998044967651,-0.8299993872642517,-0.7177055875040246,0.0,-1.7445080375096529,-0.3448078786660978,-0.7123903957206327,0.05553170557548504
1759683862.975006,0,-1.2049998044967651,-0.8299993872642517,-0.7177055885492046,0.0,-1.7447249859195961,-0.3446806573893911,-0.7121523565376195,0.056046998073445736
1759683862.985033,0,-1.2049998044967651,-0.8299993872642517,-0.7177055898507394,0.0,-1.7448919461098955,-0.3445948565068538,-0.7119697563253857,0.056473291999276844
1759683862.9958863,0,-1.2049998044967651,-0.8299993872642517,-0.7177055906325336,0.0,-1.7450187418192267,-0.34454223511141835,-0.7118320266526414,0.05683021113357227
1759683863.0081277,0,-1.2049998044967651,-0.8299993872642517,-0.717705590837479,0.0,-1.7451127158599853,-0.3445171466081714,-0.7117313406142852,0.05713401134374231
1759683863.0186043,0,-1.2049998044967651,-0.8299993872642517,-0.7177055916875581,0.0,-1.7451817587926501,-0.3445117700540063,-0.7116586803109217,0.05739404254442372
1759683863.0293167,0,-1.2049998044967651,-0.8299993872642517,-0.7177055923798115,0.0,-1.7452307004749925,-0.3445222575223277,-0.7116087677744548,0.057619778511137996
1759683863.0407639,0,-1.2049998044967651,-0.8299993872642517,-0.7177055927658493,0.0,-1.745263018848457,-0.3445462378397158,-0.7115778727820452,0.05781939693117933
1759683863.0522203,0,-1.2049998044967651,-0.8299993872642517,-0.7177055931566194,0.0,-1.745281911403349,-0.3445811290702053,-0.7115624262743494,0.05799854244357209
1759683863.062383,0,-1.2049998044967651,-0.8299993872642517,-0.7177055939319104,0.0,-1.7462643238902387,-0.343723029716085,-0.7106917584557578,0.05808952294609846
1759683863.0737376,0,-1.2049998044967651,-0.8299993872642517,-0.7177055942822292,0.0,-1.747614654450423,-0.3425715277899668,-0.7095758022498092,0.05833229822135558
1759683863.096907,0,-1.2049998044967651,-0.8299993872642517,-0.7177055916219075,0.0,-1.7486522791716061,-0.3417011470568987,-0.7087255946733668,0.05855578865198783
1759683863.1009905,0,-1.2049998044967651,-0.8299993872642517,-0.717705594636918,0.0,-1.749482397149328,-0.3410082919103665,-0.7080460003446303,0.05874159265437628
1759683863.1119525,0,-1.2049998044967651,-0.8299993872642517,-0.7177055954383073,0.0,-1.7501353277781595,-0.3404710058738016,-0.7075148694067307,0.05890624358120281
1759683863.1223936,0,-1.2049998044967651,-0.8299993872642517,-0.7177055961031584,0.0,-1.7506487253867193,-0.34005609834776357,-0.7071006805895885,0.05905380568017423
1759683863.133219,0,-1.2049998044967651,-0.8299993872642517,-0.7177055965706884,0.0,-1.7510506917871462,-0.33973929176813406,-0.7067802007877496,0.05918864922829241
1759683863.1440115,0,-1.2049998044967651,-0.8299993872642517,-0.7177055969908004,0.0,-1.751363928666415,-0.33950075349067727,-0.706534493847074,0.05931368740911398
1759683863.1555002,0,-1.2049998044967651,-0.8299993872642517,-0.7177055972286581,0.0,-1.751605393627448,-0.33932610556696247,-0.7063496696212608,0.059432260533265224
1759683863.1668074,0,-1.2049998044967651,-0.8299993872642517,-0.7177055975208387,0.0,-1.7519133477410267,-0.3390319697754256,-0.7060714042456586,0.05948861193202445
1759683863.1775482,0,-1.2049998044967651,-0.8299993872642517,-0.7177055979341755,0.0,-1.752427108705269,-0.33857557241074665,-0.7055116887060944,0.059572116740715136
1759683863.1875706,0,-1.2049998044967651,-0.8299993872642517,-0.7177055984518681,0.0,-1.7528289260214533,-0.3382243637236011,-0.7050739797148153,0.05965380989607029
1759683863.1977923,0,-1.2049998044967651,-0.8299993872642517,-0.717705598856714,0.0,-1.7531423541560764,-0.33795658223207653,-0.7047327545315359,0.05973466884418397
1759683863.2087553,0,-1.2049998044967651,-0.8299993872642517,-0.7177055990723886,0.0,-1.7533853194190747,-0.3377559491519369,-0.7044686101261307,0.05981629092503041
1759683863.219231,0,-1.2049998044967651,-0.8299993872642517,-0.7177055993735806,0.0,-1.7535729334813954,-0.33760806180384295,-0.7042650652315591,0.05989815308235711
1759683863.2305493,0,-1.2049998044967651,-0.8299993872642517,-0.7177055995174655,0.0,-1.753715909081758,-0.3375033835495013,-0.70411052582575,0.05998183590450285
1759683863.241792,0,-1.2049998044967651,-0.8299993872642517,-0.7177055996977781,0.0,-1.7538233991091081,-0.3374332566743976,-0.7039949963492019,0.06006725875417485
1759683863.2532196,0,-1.2049998044967651,-0.8299993872642517,-0.7177055998714543,0.0,-1.7539023836320307,-0.3373912128879771,-0.7039108654499742,0.060154770070581044
1759683863.2640789,0,-1.2049998044967651,-0.8299993872642517,-0.7177056001528825,0.0,-1.7539589005912066,-0.33737123194110535,-0.7038514823750519,0.06024349147563603
1759683863.2742233,0,-1.2049998044967651,-0.8299993872642517,-0.7177056005273048,0.0,-1.7539978049264866,-0.33736836297607725,-0.7038114824411024,0.06033245104382326
1759683863.2843485,0,-1.2049998044967651,-0.8299993872642517,-0.7177056008554228,0.0,-1.7554659693475396,-0.33609456763618256,-0.7025159694402809,0.05982700805135153
1759683863.2994347,0,-1.2049998044967651,-0.8299993872642517,-0.7177056004621853,0.0,-1.7566129251418543,-0.33510174146280636,-0.7015071513522054,0.059450918108498556
1759683863.3099728,0,-1.2049998044967651,-0.8299993872642517,-0.7177056008417324,0.0,-1.757517385891913,-0.3343201190042109,-0.7007139255230845,0.05916780120875245
1759683863.3202732,0,-1.2049998044967651,-0.8299993872642517,-0.7177056012389595,0.0,-1.7582307601470875,-0.33370597612939285,-0.7000906485766747,0.05895796116163766
1759683863.3306258,0,-1.2049998044967651,-0.8299993872642517,-0.7177056015646067,0.0,-1.7587926991898266,-0.33322554710358404,-0.6996021661874852,0.05880654115406542
1759683863.3412247,0,-1.2049998044967651,-0.8299993872642517,-0.7177056018099535,0.0,-1.7592340288804504,-0.33285254028704636,-0.6992211853488184,0.058702237752190634
1759683863.3513072,0,-1.2049998044967651,-0.8299993872642517,-0.71770560208644,0.0,-1.7595800064981693,-0.3325648386052975,-0.698925148704451,0.058634849190870655
1759683863.3615837,0,-1.2049998044967651,-0.8299993872642517,-0.717705602304754,0.0,-1.7598495446989717,-0.3323461724606565,-0.6986973246487335,0.05859757304063571
1759683863.3725145,0,-1.2049998044967651,-0.8299993872642517,-0.7177056024274737,0.0,-1.7600570609086055,-0.33218435056190043,-0.6985250742516685,0.058585839592042215
1759683863.3838148,0,-1.2049998044967651,-0.8299993872642517,-0.7177056025159239,0.0,-1.760334837633662,-0.33190142395179884,-0.6982640328939477,0.05850558300822338
1759683863.3939292,0,-1.2049998044967651,-0.8299993872642517,-0.7177056027431252,0.0,-1.7608140663532397,-0.3314621499604725,-0.6977097524998415,0.05845012197505381
1759683863.4053032,0,-1.2049998044967651,-0.8299993872642517,-0.7177056028267526,0.0,-1.7611874122796372,-0.33112469840054387,-0.6972769713597314,0.05842456747358234
1759683863.416774,0,-1.2049998044967651,-0.8299993872642517,-0.7177056029136537,0.0,-1.7614773857630464,-0.3308680122099601,-0.6969399161845659,0.05842308104431322
1759683863.42701,0,-1.2049998044967651,-0.8299993872642517,-0.7177056031318862,0.0,-1.7617026289079583,-0.3306738911038794,-0.6966772641362837,0.05843892028508331
1759683863.4373229,0,-1.2049998044967651,-0.8299993872642517,-0.7177056033222335,0.0,-1.7618764827136622,-0.3305298378401845,-0.6964737110266662,0.058468948858325445
1759683863.44757,0,-1.2049998044967651,-0.8299993872642517,-0.7177056034950695,0.0,-1.7620095160972233,-0.3304258397392893,-0.696317126329175,0.05851048336756477
1759683863.4576504,0,-1.2049998044967651,-0.8299993872642517,-0.717705603662651,0.0,-1.7621100983937308,-0.3303538813013902,-0.6961978996584922,0.05856124966202601
1759683863.4689052,0,-1.2049998044967651,-0.8299993872642517,-0.7177056037172953,0.0,-1.762183841420649,-0.33030925295092634,-0.6961095330976993,0.05862172293071717
1759683863.4802725,0,-1.2049998044967651,-0.8299993872642517,-0.7174211352701569,0.005235987755982988,-1.7622359459865924,-0.3302869815647863,-0.6960460384040633,0.05869058132822472
1759683863.4936016,0,-1.2049903722530895,-0.8300085458793333,-0.7174164757842072,0.005335992019975884,-1.7622692207203676,-0.33028535492297434,-0.6960041028981273,0.05876998475220975
1759683863.5043092,0,-1.2041777563983835,-0.829453303354493,-0.71691268265194,0.005378351471136424,-1.7637673840516355,-0.3290077005348433,-0.6946145686975818,0.05897846444531622
1759683863.5143628,0,-1.2041765976753338,-0.8294543111759476,-0.7168947136968629,0.005378351471136424,-1.764946392871259,-0.32800774715602005,-0.6935209164877804,0.059160072037667405
1759683863.5248923,0,-1.2041761427581352,-0.829454706888835,-0.7168850651583284,0.005378351471136424,-1.7658735782130972,-0.32722742105999075,-0.6926610930450565,0.059321552558935536
1759683863.5353892,0,-1.204175969841143,-0.8294548572992174,-0.716912060426732,0.005378351471136424,-1.7666024741956554,-0.32662027380496506,-0.6919856268148854,0.05946747902346902
1759683863.5466301,0,-1.2041758845220099,-0.829454931574483,-0.7168966149892111,0.005378351471136424,-1.7671736263228974,-0.3261515256610943,-0.6914571233873901,0.05960261450539345
1759683863.5581086,0,-1.204175845783173,-0.8294549653140061,-0.7169016983688553,0.005378351471136424,-1.767619656147023,-0.3257929342232277,-0.6910453869921537,0.05973000386983113
1759683863.5683298,0,-1.2041758635445732,-0.8294549497774867,-0.7168844286241962,0.005378351471136424,-1.7679680922913559,-0.3255198469621295,-0.6907246897559045,0.059849712260942656
1759683863.5791998,0,-1.2041758535279061,-0.8294549585104896,-0.7169103927648299,0.005378351471136424,-1.768237907241651,-0.32531618460554285,-0.690477534417684,0.059964706985097316
1759683863.5904186,0,-1.2041758406685426,-0.829454969732438,-0.7169008216680675,0.005378351471136424,-1.7684444831008814,-0.3251687655104039,-0.6902896753762858,0.060076927941127234
1759683863.601966,0,-1.2041758272481993,-0.82945498144689,-0.7168766084720141,0.005378351471136424,-1.7687178785831585,-0.32490714032864565,-0.6900254263649374,0.06012423063626108
1759683863.6133423,0,-1.2043198570358946,-0.829563630031051,-0.7169416426956051,0.0059961858753953485,-1.7691920921347852,-0.32449177931932216,-0.6894556086607412,0.06020305936673362
1759683863.623406,0,-1.204319890766024,-0.8295636005841873,-0.71694434405765,0.0059961858753953485,-1.7695622987461694,-0.3241729459054797,-0.6890083272599259,0.06028306589007359
1759683863.6339736,0,-1.2043198905967212,-0.8295636007318032,-0.7169483203123729,0.0059961858753953485,-1.7698500683934704,-0.32393116404122024,-0.6886581929841987,0.06036518355969527
1759683863.6450973,0,-1.2043198761330018,-0.8295636133586818,-0.7169335213983165,0.0059961858753953485,-1.7700722501495973,-0.3237512411188586,-0.6883853317956156,0.060450287693052156
1759683863.6566503,0,-1.2043198594879987,-0.8295636278899041,-0.716928412233676,0.0059961858753953485,-1.770242158683628,-0.323621106909847,-0.6881740270039306,0.060538914826663286
1759683863.6676621,0,-1.2043198671464366,-0.8295636212040819,-0.7169705192022575,0.0059961858753953485,-1.7703709994429424,-0.3235300865928029,-0.68801116881055,0.06062987219932159
1759683863.6790373,0,-1.2043198606616552,-0.8295636268653201,-0.7169528913687622,0.0059961858753953485,-1.7704668127583905,-0.3234709385121671,-0.6878872188437586,0.06072375553150929
1759683863.6906328,0,-1.200093132575535,-0.8336463811101505,-0.7136343352093699,0.047862717250743855,-1.7705360284564546,-0.3234378040890084,-0.6877945544660392,0.06082083668572733
1759683863.7001262,0,-1.1985391847538782,-0.8349814952916805,-0.7110697560643262,0.047862717250743855,-1.7705854179738985,-0.32342324390716265,-0.6877254971361638,0.060917238976971516
1759683863.7118282,0,-1.197917685335945,-0.835513793378737,-0.7091485032819196,0.047862717250743855,-1.7706171694671378,-0.3234265441883224,-0.68767707118681,0.061017424314219075
1759683863.723222,0,-1.1977350202761317,-0.8358678197279318,-0.707730098448776,0.04878504190587837,-1.7721199061463049,-0.3221660141854073,-0.6862351861615477,0.06082880115718067
1759683863.7335744,0,-1.1976575564861158,-0.8359327391969418,-0.7067634450312978,0.04878504190587837,-1.7733030086110093,-0.3211757454180713,-0.6850996055071716,0.06069687520778476
1759683863.7436867,0,-1.1976304844201782,-0.835954743352085,-0.7060749176787422,0.04878504190587837,-1.774235125642427,-0.3203985401835092,-0.6842047230289221,0.06060946479309303
1759683863.7550952,0,-1.1976040046382725,-0.8359763937823402,-0.7055256241325719,0.04878504190587837,-1.7749670080252684,-0.3197928188085293,-0.6835021050062037,0.060559903569059555
1759683863.766491,0,-1.1975938202680365,-0.835984361789205,-0.7051301613863452,0.04878504190587837,-1.7755408380679962,-0.3193231501883019,-0.6829513652712469,0.06054062655778358
1759683863.7777877,0,-1.1975909793662298,-0.8359862603141232,-0.7048670331566006,0.04878504190587837,-1.7759896536868471,-0.31896163318683185,-0.682520843083895,0.060545581443717494
1759683863.7886095,0,-1.1975955942544148,-0.8359819803451931,-0.7047090146100673,0.04878504190587837,-1.7763397854132228,-0.31868573701966557,-0.6821852625707111,0.060569351452073934
1759683863.7990892,0,-1.1976014719763015,-0.8359767472109151,-0.7045933053718906,0.04878504190587837,-1.7766116411272672,-0.31847799048321274,-0.6819250280051476,0.06060790564132296
1759683863.8103793,0,-1.1975937540097865,-0.835983112326281,-0.7044946534054931,0.04878504190587837,-1.7768198400143498,-0.3183264620177905,-0.6817261649089857,0.060660169289953186
1759683863.820947,0,-1.1975996137274965,-0.835978032226529,-0.7044451093284144,0.04878504190587837,-1.7769778033027679,-0.3182192670691262,-0.6815757292856823,0.06072254641147156
1759683863.8311207,0,-1.197606656394815,-0.8359719990653932,-0.7044369803849712,0.04878504190587837,-1.7772258572546875,-0.3179712244698094,-0.6813312676870502,0.06116075087716061
1759683863.8424318,0,-1.197550714841824,-0.8361940376043802,-0.7041767007994219,0.04997271076206772,-1.777683305606676,-0.3175705126554769,-0.680755753676016,0.06158296432511522
1759683863.8526635,0,-1.197559627572668,-0.8361864679299531,-0.7042138222976934,0.04997271076206772,-1.7780392526548714,-0.3172670452371496,-0.6803034519743291,0.061942016714679096
1759683863.8639154,0,-1.1975505502937585,-0.8361941491795108,-0.7041762753445556,0.04997271076206772,-1.778314351759014,-0.31704130868241626,-0.6799492591905023,0.062253812194330196
1759683863.8753448,0,-1.197544914834759,-0.8361989210800035,-0.7041535783407099,0.04997271076206772,-1.7785255654092733,-0.3168769981556787,-0.6796726754731387,0.06252929785764609
1759683863.886602,0,-1.1975448736235657,-0.8361989625145116,-0.7041771877876722,0.04997271076206772,-1.7786864076122813,-0.31676102454063954,-0.6794574023345311,0.06277633949232998
1759683863.9082668,0,-1.1884232848518397,-0.8439996269673119,-0.6925947316101246,0.09001314965924881,-1.7787988491513376,-0.3166965895213922,-0.6792985715582306,0.06302397398772526
1759683863.9188888,0,-1.185232398798333,-0.8465578525960115,-0.6839995397198603,0.09001314965924881,-1.778881662902337,-0.31665971773251683,-0.6791763756007998,0.06324978535234414
1759683863.9303017,0,-1.1839872123016306,-0.8475450441742317,-0.6776482435542711,0.09001314965924881,-1.7789400912820577,-0.3166459891371928,-0.6790841303725,0.06346051563104722
1759683863.9418955,0,-1.183502018636242,-0.8479215033234195,-0.6730896291134861,0.09001314965924881,-1.7799398483495947,-0.31581656992476775,-0.677872938738874,0.06501038783926309
1759683863.9520679,0,-1.1830116352491025,-0.8484688409296633,-0.6691155127619172,0.0918081375611104,-1.7812971078457542,-0.31472729928944143,-0.6763111548686402,0.06661207992517652
1759683863.9632428,0,-1.1829255476357898,-0.848529417733793,-0.6667715999850654,0.0918081375611104,-1.7823588848408969,-0.313893509554081,-0.6750825760542107,0.06792332952556124
1759683863.9740386,0,-1.182900230392001,-0.8485437537270676,-0.665135045553022,0.0918081375611104,-1.7831897229071698,-0.3132575367623466,-0.6741152569400819,0.06900629753284855
1759683863.9851432,0,-1.182881605574289,-0.8485540878899135,-0.6639261021443769,0.0918081375611104,-1.7838383873134303,-0.3127765110577289,-0.673354663331576,0.0699110010601896
1759683863.9954598,0,-1.1828931958144244,-0.8485422161437033,-0.6631559536089418,0.0918081375611104,-1.7843446463582253,-0.31241526447232065,-0.6727562522171738,0.07067351345983716
1759683864.0058527,0,-1.1828951495325208,-0.8485386652353961,-0.6626338213268305,0.0918081375611104,-1.7847380557450634,-0.3121482750263732,-0.6722867729501859,0.07132430710595325
1759683864.0170026,0,-1.18287663944519,-0.8485514208459879,-0.6621941870913916,0.0918081375611104,-1.785040833479059,-0.31195693749654496,-0.671921080670766,0.07188957037783517
1759683864.0275698,0,-1.182883793559151,-0.8485449255228937,-0.6619265575647512,0.0918081375611104,-1.7852722685467046,-0.31182450053138816,-0.671637391888361,0.0723858306923258
1759683864.0382364,0,-1.1828838963066244,-0.8485442090629617,-0.6617838044149037,0.0918081375611104,-1.7854465769784806,-0.31173907871823214,-0.671419538581226,0.07282823281159961
1759683864.0494263,0,-1.1825823691177118,-0.8489348946266727,-0.6608166647298724,0.09328042766705281,-1.7859740863386724,-0.3113058810535612,-0.6706679794965631,0.07308313241101726
1759683864.0605361,0,-1.1825793091999457,-0.8489369869131689,-0.6607458100369644,0.09328042766705281,-1.7863834433474306,-0.3109778709762806,-0.6700774370116744,0.07332704573623824
1759683864.0716624,0,-1.1825777271832836,-0.8489380888824728,-0.6607276063538841,0.09328042766705281,-1.7866999769977763,-0.3107328495336004,-0.6696135124041452,0.0735632849104509
1759683864.0828755,0,-1.182574990188211,-0.8489401808656093,-0.6607467052303605,0.09328042766705281,-1.7869432848978761,-0.3105536661183158,-0.6692495032003566,0.07379471510021429
1759683864.1227095,0,-1.1696875384434795,-0.8585465316618434,-0.6403982852274624,0.12563790569204297,-1.7871018280016917,-0.3104678238476782,-0.6689889077979276,0.07412872568691886
1759683864.1339433,0,-1.1657806631090186,-0.8612896150386212,-0.6282770339012463,0.12563790569204297,-1.7872201222075,-0.3104168273430346,-0.6687849420303149,0.07444381400064537
1759683864.1442118,0,-1.1643103759879185,-0.8623012047533426,-0.6197793748919941,0.12563790569204297,-1.7873070073259187,-0.3103925741044575,-0.6686256046388283,0.07474117343257995
1759683864.1552012,0,-1.1637143951191418,-0.8626975556910326,-0.6136940708443962,0.12563790569204297,-1.7883140280600867,-0.309573938382746,-0.6665464227529648,0.07591710234397396
1759683864.1654174,0,-1.1628918118084193,-0.8634220862998663,-0.607904505613145,0.12749298867988312,-1.7896741717409237,-0.30849987118862776,-0.6639857790361928,0.07681414374789569
1759683864.1762094,0,-1.1627881553653328,-0.8634804331401918,-0.6048396862058101,0.12749298867988312,-1.7907381491887067,-0.307670248237683,-0.6619688826812091,0.07758345167942206
1759683864.1870944,0,-1.1627421253430446,-0.8635019862942843,-0.6026647833486781,0.12749298867988312,-1.791569683674561,-0.3070325408405987,-0.6603800379970401,0.0782539881147382
1759683864.1972654,0,-1.1627485033516547,-0.8634908293670887,-0.6012433806889339,0.12749298867988312,-1.7922196813767812,-0.3065443613455546,-0.6591267608473447,0.07884448267079418
1759683864.2083702,0,-1.1627154168029092,-0.8635077718044791,-0.600089460104187,0.12749298867988312,-1.792724885692727,-0.30617613106980984,-0.6581416243811525,0.07937742488613762
1759683864.218705,0,-1.1627299024217146,-0.8634946115683372,-0.5994526349223079,0.12749298867988312,-1.793116773010053,-0.3059014842667253,-0.6573672066717424,0.07986226116633778
1759683864.2301502,0,-1.1626941841048177,-0.8635157323880897,-0.59882915207734,0.12749298867988312,-1.7934171239636365,-0.3057033309506247,-0.6567630349589629,0.08031581976398536
1759683864.240187,0,-1.1627316268587164,-0.8634893882889356,-0.5986905130759778,0.12749298867988312,-1.7936465782338393,-0.30556378886151986,-0.6562915743001058,0.08073859955824095
1759683864.2504654,0,-1.1627369790874709,-0.8634850362824498,-0.5985412348441352,0.12749298867988312,-1.793819033665907,-0.3054717147839956,-0.6559269565828953,0.08113926534300445
1759683864.2618394,0,-1.1626988631302626,-0.8635096697167088,-0.5983098533687307,0.12749298867988312,-1.7939443638289525,-0.3054198494519737,-0.6556503446639452,0.08152944474443277
1759683864.2727177,0,-1.1627023587022354,-0.863507035704637,-0.59830467263488,0.12749298867988312,-1.7941760688298196,-0.30520147708009926,-0.6552257269160993,0.08152783844866579
1759683864.2832422,0,-1.1621870039259836,-0.8640151408886371,-0.5968117740186553,0.12899690495673372,-1.794627659061548,-0.30482598357008467,-0.6541482466109911,0.0816775214512475
1759683864.2944129,0,-1.1506010320661868,-0.8713511311188078,-0.5816712138515208,0.14162820258066494,-1.7949761947169283,-0.3045429969539039,-0.6533005495288552,0.08185911325787129
1759683864.3056293,0,-1.1461762831115454,-0.8740803856956016,-0.5694141666792332,0.14162820258066494,-1.7952436578867377,-0.30433363585401774,-0.6526337263353649,0.08206740340258657
1759683864.316661,0,-1.1444802843869106,-0.8751032108926511,-0.560477021854576,0.14162820258066494,-1.7954473502849302,-0.30418278182282077,-0.6521093802476288,0.08229710666674568
1759683864.3277457,0,-1.1438206855239055,-0.8754844621892397,-0.5539887313770916,0.14162820258066494,-1.7956004938353707,-0.30407893777720746,-0.6516978806134459,0.08254542016682773
1759683864.338844,0,-1.1435613501245325,-0.8756226316063811,-0.5493064801995388,0.14162820258066494,-1.7957134450088397,-0.3040130157910761,-0.6513759808144057,0.08280998655053726
1759683864.3497636,0,-1.1434649979352876,-0.8756654683071338,-0.5460435727459495,0.14162820258066494,-1.795794476230233,-0.30397758572338135,-0.6511252420794661,0.08308790636414164
1759683864.3597724,0,-1.1434633160886887,-0.8756558788424923,-0.5438819027124665,0.14162820258066494,-1.7958507195447524,-0.30396571855970844,-0.650930458258941,0.08337265764608585
1759683864.370649,0,-1.1434238866133786,-0.8756707464766331,-0.542175277064178,0.14162820258066494,-1.7968328545530832,-0.30319893458075287,-0.647942150507027,0.08403542270578467
1759683864.3820941,0,-1.1425477389926528,-0.8763689585347703,-0.5384678884442927,0.14312657802061934,-1.7981734695538243,-0.302180057236267,-0.6442189708422162,0.08477849925338392
1759683864.3932798,0,-1.1425419639997862,-0.8763679424082002,-0.5376570687905323,0.14312657802061934,-1.7992197443689149,-0.3013921271049884,-0.6412851756189117,0.08544095664784745
1759683864.4034543,0,-1.1425818985092087,-0.8763424588177146,-0.5373643428135849,0.14297183629148497,-1.800037325450426,-0.3007838230448993,-0.6389679088117396,0.08603555471143756
1759683864.415364,0,-1.1425234219972982,-0.8763740512139926,-0.5368093109274467,0.14312657802061934,-1.8006717874274605,-0.30032123401718164,-0.6371451496669175,0.08658847103158648
1759683864.4264977,0,-1.1425336864879152,-0.8763671215622598,-0.5367472331867345,0.14247749902470078,-1.8011633544624568,-0.2999725971956518,-0.6357102532415565,0.08710553433530266
1759683864.4369047,0,-1.1425682947504738,-0.876346952393766,-0.5368039942682138,0.14273780997217886,-1.8015430509965051,-0.2997133030430483,-0.6345806825645676,0.08759126752790303
1759683864.4476829,0,-1.1425659409328592,-0.8763483118424419,-0.536795810133052,0.14312657802061934,-1.8018333521816519,-0.2995261659760143,-0.6336956659752583,0.08805594808266425
1759683864.4589489,0,-1.142544666157497,-0.8763607928455637,-0.5368577100349164,0.14255053045315158,-1.802051752713748,-0.2993979022925336,-0.6330075198296926,0.08850865537262617
1759683864.4703445,0,-1.1425311662449087,-0.8763687974305088,-0.5368887915120085,0.14268392159014323,-1.802212513375407,-0.29931743754256535,-0.6324774272482253,0.08895447954247498
1759683864.4817142,0,-1.1425272828650057,-0.8763714098913077,-0.5369722974757383,0.14279460325916554,-1.8024759346382393,-0.29907859154890637,-0.6317646652124627,0.08866518542652224
1759683864.5010226,0,-1.1274690862608612,-0.8845956574013123,-0.5152988432699119,0.143040694642536,-1.8029353921352305,-0.2987096669551917,-0.6301034310688253,0.08861696991357651
1759683864.5127027,0,-1.1222786497995674,-0.8873114087780045,-0.5009044046251128,0.14351068517016793,-1.8032891343526865,-0.2984301405994742,-0.6287929238164773,0.08865536476446895
1759683864.5238187,0,-1.1203065361212745,-0.8883173393231061,-0.49071365350727403,0.14266190342567464,-1.8035602606129164,-0.29822155937762834,-0.6277575965183503,0.08875996251190311
1759683864.534873,0,-1.1195462780962646,-0.8886869377338956,-0.4833184025470389,0.14326800609417206,-1.8037661042543671,-0.29807015743618126,-0.626939827427966,0.0889180910163315
1759683864.5459414,0,-1.1192485761490771,-0.8888190094879291,-0.47808292570165556,0.14317986410472258,-1.803920097059877,-0.297965146105061,-0.6262946840330416,0.08912037132871294
1759683864.5572894,0,-1.119117942692113,-0.8888686772020638,-0.4743304057714232,0.1427797616559635,-1.8040324683274498,-0.29789836944321685,-0.6257873340920015,0.08936128411676997
1759683864.5683966,0,-1.1190751893354614,-0.8888777373659483,-0.47170721094319784,0.1428432106791334,-1.804111754264641,-0.29786257326222493,-0.6253895418445469,0.08963312483072618
1759683864.579778,0,-1.119044530982011,-0.8888835792189139,-0.46979563124179774,0.1430548392547388,-1.8050802651314437,-0.2971386144066928,-0.6219353840973703,0.0893723688578253
1759683864.5898275,0,-1.11803788659873,-0.8895770083241171,-0.46584888735761115,0.1432345234853093,-1.8063977015136703,-0.2961741129550423,-0.6175404033556005,0.08931589922917679
1759683864.6012244,0,-1.1179951864795532,-0.8895931316636985,-0.46487193782153874,0.14347347627245405,-1.8074261424919582,-0.29542047856763337,-0.6140747038521676,0.08934535268994362
1759683864.612063,0,-1.1180026842212445,-0.8895866926581875,-0.4643810074511903,0.14333982006822124,-1.8082290168386392,-0.29483341397013063,-0.6113374700632113,0.08944035894758422
1759683864.6222665,0,-1.118033062806579,-0.8895705998033726,-0.4641747407256617,0.14381129522225372,-1.8088554251494575,-0.2943781073841642,-0.6091727642986519,0.08958445037731165
1759683864.6322777,0,-1.1180531733034116,-0.8895605100538169,-0.4642143785625143,0.14308554612844043,-1.8093426456251545,-0.2940280959679146,-0.6074613007503369,0.08976754272314963
1759683864.642832,0,-1.1180371468276658,-0.8895680232236486,-0.4642080882369861,0.14242282762993527,-1.8097185862200829,-0.29376386579783464,-0.6061125266766194,0.08998659784483225
1759683864.6538084,0,-1.11801245730898,-0.8895795554536321,-0.4640640331653386,0.1431895626354327,-1.810005393704742,-0.29356969446684333,-0.6050543331521029,0.09023862871491693
