timestamp,vehicle_id,x,y,theta,velocity,gps_available,dt,gps_x,gps_y,gps_theta,gps_velocity,control_steering,control_acceleration
1759683860.291687,1,-1.735,-0.35,-0.7801621756414647,0.0,False,0.01,nan,nan,nan,nan,0.0,0.0
1759683860.3020637,1,-1.735,-0.35,-0.7801621756414647,0.0,False,0.010376691818237305,nan,nan,nan,nan,0.0,0.0
1759683861.0263429,1,-1.7349996599784263,-0.3499998465180397,-0.7230025003705727,0.0,True,0.1,-1.734999656677246,-0.3499998450279236,-0.7177050113677979,0.0,0.0,0.0
1759683861.146537,1,-1.7349996577811777,-0.3499998455262261,-0.718097712279846,0.0,True,0.1,-1.734999656677246,-0.3499998450279236,-0.7177050113677979,0.0,0.0,0.0
1759683861.2696993,1,-1.7349996570913868,-0.34999984521486216,-0.7176976810401392,0.0,True,0.1,-1.734999656677246,-0.3499998450279236,-0.7177050113677979,0.0,0.0,0.0
1759683861.3734765,1,-1.734999656835023,-0.3499998450991424,-0.7176741070174941,0.0,True,0.1,-1.734999656677246,-0.3499998450279236,-0.7177050113677979,0.0,0.0,0.0
1759683861.4827135,1,-1.7349996567374888,-0.34999984505511644,-0.7176788199878423,0.0,True,0.1,-1.734999656677246,-0.3499998450279236,-0.7177050113677979,0.0,0.0,0.0
1759683861.5937843,1,-1.7349996567002555,-0.3499998450383098,-0.7176839460800277,0.0,True,0.1,-1.734999656677246,-0.3499998450279236,-0.7177050113677979,0.0,0.0,0.0
1759683861.696948,1,-1.7349996566860348,-0.34999984503189074,-0.7176879484198189,0.0,True,0.1,-1.734999656677246,-0.3499998450279236,-0.7177050113677979,0.0,0.0,0.0
1759683861.8071134,1,-1.7349996566806032,-0.3499998450294389,-0.7176911272042652,0.0,True,0.1,-1.734999656677246,-0.3499998450279236,-0.7177050113677979,0.0,0.0,0.0
1759683861.9225726,1,-1.7349996566785284,-0.3499998450285024,-0.717693739076374,0.0,True,0.1,-1.734999656677246,-0.3499998450279236,-0.7177050113677979,0.0,0.0,0.0
1759683862.0277874,1,-1.734999656677736,-0.3499998450281447,-0.7176959314289455,0.0,True,0.1,-1.734999656677246,-0.3499998450279236,-0.7177050113677979,0.0,0.0,0.0
1759683862.1331904,1,-1.7349996566774333,-0.349999845028008,-0.7176977858079745,0.0,True,0.1,-1.734999656677246,-0.3499998450279236,-0.7177050113677979,0.0,0.0,0.0
1759683862.243844,1,-1.7349996566773176,-0.34999984502795584,-0.7176993492671304,0.0,True,0.1,-1.734999656677246,-0.3499998450279236,-0.7177050113677979,0.0,0.0,0.0
1759683862.3580549,1,-1.7349996566772734,-0.3499998450279359,-0.7177006530890964,0.0,True,0.1,-1.734999656677246,-0.3499998450279236,-0.7177050113677979,0.0,0.0,0.0
1759683862.4715,1,-1.7349996566772565,-0.3499998450279283,-0.7177017231749403,0.0,True,0.1,-1.734999656677246,-0.3499998450279236,-0.7177050113677979,0.0,0.12112772186421594,-0.05
1759683862.5867264,1,-1.7371445622640418,-0.3481383975942233,-0.7161032351126302,0.026531774506293036,True,0.1,-1.7397054433822632,-0.34590956568717957,-0.7139291167259216,0.026531774506293036,0.12112772186421594,-0.05
1759683862.701945,1,-1.7379628088496548,-0.34742620116590006,-0.7149697516637055,0.026531774506293036,True,0.1,-1.7397054433822632,-0.34590956568717957,-0.7139291167259216,0.026531774506293036,0.12515096599147313,-0.05
1759683862.818811,1,-1.743071966856334,-0.34303514677626357,-0.7113216810535832,0.04988622146072259,True,0.1,-1.7485578060150146,-0.3383001387119293,-0.70674067735672,0.04988622146072259,0.12515096599147313,-0.05
1759683862.931079,1,-1.74501907524521,-0.34135280783054045,-0.7087014893122614,0.04988622146072259,True,0.1,-1.7485578060150146,-0.3383001387119293,-0.70674067735672,0.04988622146072259,0.1328783322772935,-0.05
1759683863.055174,1,-1.7513451388702133,-0.33597632490379375,-0.7040335914022613,0.0508709000801219,True,0.1,-1.7576420307159424,-0.33060747385025024,-0.6990460753440857,0.0508709000801219,0.1328783322772935,-0.05
1759683863.1600745,1,-1.7537557649295148,-0.33391599221197527,-0.7007152696713312,0.0508709000801219,True,0.1,-1.7576420307159424,-0.33060747385025024,-0.6990460753440857,0.0508709000801219,0.14142094143272743,-0.05
1759683863.2690997,1,-1.7597903863003537,-0.32885490705957354,-0.6958252771783187,0.04860113955783026,True,0.1,-1.7658162117004395,-0.323790580034256,-0.6917330622673035,0.04860113955783026,0.14142094143272743,-0.05
1759683863.376546,1,-1.7620897491209673,-0.3269150034289277,-0.6924468730127753,0.04860113955783026,True,0.1,-1.7658162117004395,-0.323790580034256,-0.6917330622673035,0.04860113955783026,0.1498376567497104,-0.05
1759683863.4915411,1,-1.768178011863559,-0.3218885768920557,-0.6872892748370276,0.050329751585219476,True,0.1,-1.7743351459503174,-0.31679651141166687,-0.6836950182914734,0.050329751585219476,0.1498376567497104,-0.05
1759683863.5951498,1,-1.770497412207791,-0.3199612482480272,-0.6837818763573473,0.050329751585219476,True,0.1,-1.7743351459503174,-0.31679651141166687,-0.6836950182914734,0.050329751585219476,0.1593641258010976,-0.05
1759683863.7085087,1,-1.7766415920463925,-0.3149708451513838,-0.6784502432514259,0.049831947353000366,True,0.1,-1.782826542854309,-0.30994129180908203,-0.6752433776855469,0.049831947353000366,0.1593641258010976,-0.05
1759683863.8227673,1,-1.7789823817598625,-0.31305718173092545,-0.6747587632354666,0.049831947353000366,True,0.1,-1.782826542854309,-0.30994129180908203,-0.6752433776855469,0.049831947353000366,0.21211109074785384,-0.05
1759683863.9356363,1,-1.7852904984781968,-0.30802953476723915,-0.6681850784974479,0.05188224481257014,True,0.1,-1.7916924953460693,-0.30291858315467834,-0.664484441280365,0.05188224481257014,0.3403103466625268,-0.05
1759683864.0355933,1,-1.787692818869143,-0.3060987638042327,-0.6639006443439346,0.05188224481257014,True,0.09995698928833008,-1.7916924953460693,-0.30291858315467834,-0.664484441280365,0.05188224481257014,0.3495325874771815,-0.05
1759683864.1504254,1,-1.7939549332328597,-0.3012486839636697,-0.653799362055933,0.04902490043017271,True,0.1,-1.800210952758789,-0.29638350009918213,-0.6456382870674133,0.04902490043017271,0.4968488790175343,-0.05
1759683864.2659767,1,-1.7963356468821436,-0.29938166468101934,-0.6468544710089574,0.04902490043017271,True,0.1,-1.800210952758789,-0.29638350009918213,-0.6456382870674133,0.04902490043017271,0.5194816823570392,-0.05
1759683864.3628545,1,-1.802684631450824,-0.29467861473432166,-0.6318613188235709,0.0495571616459948,True,0.0968778133392334,-1.8089760541915894,-0.2899834215641022,-0.6178387999534607,0.0495571616459948,0.6,-0.05
1759683864.4734092,1,-1.8050461074578812,-0.29289570710809937,-0.6212254263726251,0.0495571616459948,True,0.1,-1.8089760541915894,-0.2899834215641022,-0.6178387999534607,0.0495571616459948,0.6,-0.05
1759683864.5683966,1,-1.8112085788129328,-0.2885807855906685,-0.6031521908741659,0.050473656962278415,True,0.09498739242553711,-1.8174269199371338,-0.28418976068496704,-0.5871027112007141,0.050473656962278415,0.6,-0.05
1759683864.6678271,1,-1.8134734235924233,-0.2869549338876712,-0.5902396820798099,0.050473656962278415,True,0.09943056106567383,-1.8174269199371338,-0.28418976068496704,-0.5871027112007141,0.050473656962278415,0.6,-0.05
1759683864.7906353,1,-1.8200224277168517,-0.282665700131269,-0.5696724541783293,0.04990623104797073,True,0.1,-1.8266329765319824,-0.278298944234848,-0.5543164610862732,0.04990623104797073,0.6,-0.05
1759683864.895353,1,-1.8225030304896943,-0.28099546162031,-0.555606410544307,0.04990623104797073,True,0.1,-1.8266329765319824,-0.278298944234848,-0.5543164610862732,0.04990623104797073,0.6,-0.05
1759683865.001186,1,-1.829025542338089,-0.2770018209543417,-0.5352224420268676,0.04736269070405406,True,0.1,-1.8355441093444824,-0.27299055457115173,-0.5232003331184387,0.04736269070405406,0.6,-0.016771696047300656
1759683865.105875,1,-1.8314983401702412,-0.27544576076570837,-0.5215597268086967,0.04736269070405406,True,0.1,-1.8355441093444824,-0.27299055457115173,-0.5232003331184387,0.04736269070405406,0.6,-0.004654002817009806
1759683865.2182226,1,-1.8347065674129217,-0.27352381124793385,-0.5124964414697004,0.009342408695891624,True,0.1,-1.8371901512145996,-0.27204859256744385,-0.5175110697746277,0.009342408695891624,0.6,0.033368325061858745
1759683865.326969,1,-1.8359304687739626,-0.2727869935630171,-0.5069164923965346,0.009342408695891624,True,0.1,-1.8371901512145996,-0.27204859256744385,-0.5175110697746277,0.009342408695891624,0.6,0.04797605656455355
1759683865.447336,1,-1.830185191411034,-0.27613733502419446,-0.5147097214355636,0.04131783069551324,True,0.1,-1.828864574432373,-0.27696409821510315,-0.5465189218521118,0.04131783069551324,0.6,0.08358107820064598
1759683865.561102,1,-1.8279967745179155,-0.2774278615093681,-0.5227451833857071,0.04131783069551324,True,0.1,-1.828864574432373,-0.27696409821510315,-0.5465189218521118,0.04131783069551324,0.6,0.10538776131904318
1759683865.6733382,1,-1.814394981643089,-0.28621610582088325,-0.5526874962128581,0.09191716717287471,True,0.1,-1.8108959197998047,-0.2887856066226959,-0.6110602617263794,0.09191716717287471,0.6,0.10538776131904318
1759683865.7927506,1,-1.809252261242528,-0.28966033396858915,-0.5771014845738822,0.09191716717287471,True,0.1,-1.8108959197998047,-0.2887856066226959,-0.6110602617263794,0.09191716717287471,0.5132893244406063,0.10849476485096723
1759683865.9190469,1,-1.7939775773608633,-0.30118795550461447,-0.6209732419132372,0.1105646633411941,True,0.1,-1.7902398109436035,-0.30454713106155396,-0.6830783486366272,0.1105646633411941,0.5132893244406063,0.10849476485096723
1759683866.0265374,1,-1.7882434675573775,-0.30573625834221696,-0.6540993136561823,0.1105646633411941,True,0.1,-1.7902398109436035,-0.30454713106155396,-0.6830783486366272,0.1105646633411941,0.3044092755162673,0.12202257506872233
1759683866.1420112,1,-1.774142495714476,-0.31799435838145684,-0.6948476130107828,0.10996880948641298,True,0.1,-1.7708004713058472,-0.32140785455703735,-0.7346051931381226,0.10996880948641298,0.3044092755162673,0.12202257506872233
1759683866.2461367,1,-1.7688591241010494,-0.3228038656543727,-0.723328073093489,0.10996880948641298,True,0.1,-1.7708004713058472,-0.32140785455703735,-0.7346051931381226,0.10996880948641298,0.15896205805287522,0.13513188178984065
1759683866.3606443,1,-1.753431362322731,-0.33738341693222595,-0.752769759843698,0.13076553192106155,True,0.1,-1.749937653541565,-0.3410256505012512,-0.7664440274238586,0.13076553192106155,0.11210140501712829,0.18755362309980836
1759683866.4661028,1,-1.747633577758371,-0.34305630171424806,-0.7718667165885442,0.13076553192106155,True,0.1,-1.749937653541565,-0.3410256505012512,-0.7664440274238586,0.13076553192106155,0.05134502842014399,0.1495431957982151
1759683866.5847445,1,-1.7276448406781701,-0.3628062870695582,-0.788486970937889,0.17283748101712976,True,0.1,-1.7229342460632324,-0.3675500750541687,-0.7818949818611145,0.17283748101712976,0.018325717416807663,0.19780814930780205
1759683866.6904786,1,-1.720083261129821,-0.37042413637627236,-0.7981293165365013,0.17283748101712976,True,0.1,-1.7229342460632324,-0.3675500750541687,-0.7818949818611145,0.17283748101712976,-0.012665747239989145,0.14301237309070522
1759683866.8025646,1,-1.7003076035380547,-0.39022855591464056,-0.8027143423545162,0.1763155453164948,True,0.1,-1.695691466331482,-0.3946649730205536,-0.7821836471557617,0.1763155453164948,-0.04083305603100129,0.1939135375101983
1759683866.9076717,1,-1.6927745389481528,-0.39781312953487147,-0.8037457370667571,0.1763155453164948,True,0.1,-1.695691466331482,-0.3946649730205536,-0.7821836471557617,0.1763155453164948,-0.043703333066062555,0.151419991682559
1759683867.0256293,1,-1.6734044933079142,-0.41695502003941587,-0.799712846850916,0.17219784566913046,True,0.1,-1.668825626373291,-0.4211294949054718,-0.7740213871002197,0.17219784566913046,-0.06632011447092623,0.2037967351878982
1759683867.1330552,1,-1.6659869801860145,-0.42424833312584986,-0.7950773660559989,0.17219784566913046,True,0.1,-1.668825626373291,-0.4211294949054718,-0.7740213871002197,0.17219784566913046,-0.05294783038649875,0.16470904860014293
1759683867.2559865,1,-1.6439308252143634,-0.44551852854066937,-0.7860099154312756,0.18123458470362327,True,0.1,-1.638153076171875,-0.4506779909133911,-0.7611600160598755,0.18123458470362327,-0.06699429464451079,0.20859108294774192
1759683867.3621042,1,-1.6354624706909349,-0.4535997078218575,-0.7784710402393991,0.18123458470362327,True,0.1,-1.638153076171875,-0.4506779909133911,-0.7611600160598755,0.18123458470362327,-0.060266083907769996,0.21915154680187585
1759683867.494199,1,-1.6083535034809158,-0.47899437520299926,-0.7667251655106533,0.21658834372977262,True,0.1,-1.6011446714401245,-0.48530471324920654,-0.7451378107070923,0.21658834372977262,-0.060266083907769996,0.21915154680187585
1759683867.6066928,1,-1.5979332807384754,-0.48862686565378904,-0.7577269418544308,0.21658834372977262,True,0.1,-1.6011446714401245,-0.48530471324920654,-0.7451378107070923,0.21658834372977262,-0.044121909652714564,0.203580873420311
1759683867.7381024,1,-1.570196966703447,-0.5137651795021224,-0.7463740644693182,0.20904565895994745,True,0.1,-1.5624521970748901,-0.5204351544380188,-0.7315581440925598,0.20904565895994745,-0.044121909652714564,0.203580873420311
1759683867.8520377,1,-1.559542352423474,-0.5233025495531708,-0.7383781633580888,0.20904565895994745,True,0.1,-1.5624521970748901,-0.5204351544380188,-0.7315581440925598,0.20904565895994745,-0.0449588449602043,0.20422326492265902
1759683867.968908,1,-1.5334326378837773,-0.5464173085915937,-0.7294124048046271,0.2154653073305066,True,0.1,-1.5271586179733276,-0.5517555475234985,-0.7206282615661621,0.2154653073305066,-0.08756733209324352,0.2551639568836659
1759683868.0895646,1,-1.5234123799068073,-0.5551938365231859,-0.722979449231758,0.2154653073305066,True,0.1,-1.5271586179733276,-0.5517555475234985,-0.7206282615661621,0.2154653073305066,-0.07011560742026823,0.20316473468223212
1759683868.2225635,1,-1.4915259342445524,-0.5824449871181059,-0.7102709060756247,0.2232262872210195,True,0.1,-1.4821853637695312,-0.5901836156845093,-0.6960970163345337,0.2232262872210195,-0.1285828764327661,0.2554351800740014
1759683868.3362584,1,-1.4792791421327318,-0.592776466378504,-0.700626162043136,0.2232262872210195,True,0.1,-1.4821853637695312,-0.5901836156845093,-0.6960970163345337,0.2232262872210195,-0.08700516765102506,0.1905102850843907
1759683868.46587,1,-1.4482488505557092,-0.6178549642569893,-0.6838542745009164,0.2306167556241088,True,0.1,-1.4399948120117188,-0.6241990327835083,-0.6655738353729248,0.2306167556241088,-0.160963939606102,0.24819893333519708
1759683868.584593,1,-1.4363036233735933,-0.627321600868192,-0.6719214817040182,0.2306167556241088,True,0.1,-1.4399948120117188,-0.6241990327835083,-0.6655738353729248,0.2306167556241088,-0.17988086020947236,0.24404079151268396
1759683868.7056365,1,-1.4021746595964304,-0.652758533861043,-0.6450158892310824,0.23637788809218238,True,0.1,-1.3925533294677734,-0.6594334244728088,-0.615046501159668,0.23637788809218238,-0.17988086020947236,0.24404079151268396
1759683868.8266206,1,-1.388995572144332,-0.6622882930770165,-0.6257460371347747,0.23637788809218238,True,0.1,-1.3925533294677734,-0.6594334244728088,-0.615046501159668,0.23637788809218238,-0.1575504510864736,0.2366078163146398
1759683868.949906,1,-1.353642721041078,-0.6859265579539494,-0.5951417179507281,0.24801313244914042,True,0.1,-1.3442564010620117,-0.6916122436523438,-0.5662381052970886,0.24801313244914042,-0.1575504510864736,0.2366078163146398
1759683869.0711167,1,-1.339979667522806,-0.6947257032958143,-0.5738104476430159,0.24801313244914042,True,0.1,-1.3442564010620117,-0.6916122436523438,-0.5662381052970886,0.24801313244914042,-0.13279709795155448,0.2310812113985449
1759683869.2022493,1,-1.3030175707928033,-0.7169354028369544,-0.5444481291978569,0.24068788590534182,True,0.1,-1.2927030324935913,-0.7226431369781494,-0.5220061540603638,0.24068788590534182,-0.1850031575605975,0.2890200432616076
1759683869.3142493,1,-1.2887647263843685,-0.7252017824487786,-0.5237091899264836,0.24068788590534182,True,0.1,-1.2927030324935913,-0.7226431369781494,-0.5220061540603638,0.24068788590534182,-0.10660686175559242,0.22725201281508753
1759683869.4470346,1,-1.248436920478121,-0.7469155349028349,-0.49434545589314993,0.25270607551586927,True,0.1,-1.2370713949203491,-0.7525829672813416,-0.47479093074798584,0.25270607551586927,-0.15918763455398732,0.28703644788744886
1759683869.5684023,1,-1.2329038008726514,-0.7549758068143595,-0.4735738582913882,0.25270607551586927,True,0.1,-1.2370713949203491,-0.7525829672813416,-0.47479093074798584,0.25270607551586927,-0.07283091046981127,0.21528282254306258
1759683869.6896114,1,-1.193202604903462,-0.774189474879462,-0.44817070349945887,0.24426183307766816,True,0.1,-1.1821247339248657,-0.7792260646820068,-0.4376472532749176,0.24426183307766816,-0.12011559745536893,0.267031844914639
1759683869.8136463,1,-1.1779367744041134,-0.781322739288249,-0.43155547119482485,0.24426183307766816,True,0.1,-1.1821247339248657,-0.7792260646820068,-0.4376472532749176,0.24426183307766816,-0.11467466768452894,0.2706108907527727
1759683869.9363725,1,-1.1332720656464093,-0.8010600672540222,-0.40762562564783167,0.28292421508455806,True,0.1,-1.1215757131576538,-0.8059995770454407,-0.39882123470306396,0.28292421508455806,-0.11467466768452894,0.2706108907527727
1759683870.0539293,1,-1.1161109076203581,-0.8083712671765366,-0.39194745399915654,0.28292421508455806,True,0.1,-1.1215757131576538,-0.8059995770454407,-0.39882123470306396,0.28292421508455806,-0.100221545044068,0.2458648653674179
1759683870.1783667,1,-1.0748062130343958,-0.8248436810674725,-0.3704020205169094,0.2498568291399823,True,0.1,-1.063567042350769,-0.829167902469635,-0.3652874827384949,0.2498568291399823,-0.100221545044068,0.2458648653674179
1759683870.2891588,1,-1.058956073477608,-0.8309516359330703,-0.3567345088470759,0.2498568291399823,True,0.1,-1.063567042350769,-0.829167902469635,-0.3652874827384949,0.2498568291399823,-0.09047439474949925,0.2468254013994144
1759683870.4161825,1,-1.0185730497482937,-0.8456530601691831,-0.3389099993469227,0.25093839990813016,True,0.1,-1.0081640481948853,-0.8493676781654358,-0.3364078104496002,0.25093839990813016,-0.13906502378420704,0.313170519133266
1759683870.5363958,1,-1.0030937551798218,-0.8511173154799647,-0.3269861089260573,0.25093839990813016,True,0.1,-1.0081640481948853,-0.8493676781654358,-0.3364078104496002,0.25093839990813016,-0.08910180738564577,0.24881814394089483
1759683870.659094,1,-0.955790324216223,-0.8664638656793499,-0.30604575380014865,0.275267348882317,True,0.1,-0.942684531211853,-0.8705381751060486,-0.29611125588417053,0.275267348882317,-0.12802926119103475,0.3113350751717723
1759683870.7741854,1,-0.9376586310230569,-0.8721303180011474,-0.2911381929945378,0.275267348882317,True,0.1,-0.942684531211853,-0.8705381751060486,-0.29611125588417053,0.275267348882317,-0.05436071481623017,0.2283711749482782
1759683870.8980665,1,-0.8922231381489795,-0.8850517470578718,-0.27166713326588976,0.27620389746525176,True,0.1,-0.88050776720047,-0.8881821036338806,-0.26513800024986267,0.27620389746525176,-0.08549251272545,0.28822271549663453
1759683871.0199366,1,-0.8748142794197167,-0.88979864199442,-0.25873880078568945,0.27620389746525176,True,0.1,-0.88050776720047,-0.8881821036338806,-0.26513800024986267,0.27620389746525176,-0.060416074072564996,0.28522863667081333
1759683871.144129,1,-0.8257413732696315,-0.902309756535788,-0.2420657430493165,0.2817745798731583,True,0.1,-0.8122573494911194,-0.9056230783462524,-0.23971551656723022,0.2817745798731583,-0.060416074072564996,0.28522863667081333
1759683871.2659998,1,-0.8069549483597867,-0.9069220898208066,-0.23145869407300168,0.2817745798731583,True,0.1,-0.8122573494911194,-0.9056230783462524,-0.23971551656723022,0.2817745798731583,-0.04502151839457902,0.2723964786079842
1759683871.3898294,1,-0.7580230114356133,-0.9183097467400289,-0.21909358362357167,0.29227474570884404,True,0.1,-0.745370090007782,-0.9212328195571899,-0.22170239686965942,0.29227474570884404,-0.04502151839457902,0.2723964786079842
1759683871.5130503,1,-0.7393032524808897,-0.9225301889359193,-0.21164770816306344,0.29227474570884404,True,0.1,-0.745370090007782,-0.9212328195571899,-0.22170239686965942,0.29227474570884404,-0.039839001776639904,0.250892308387997
1759683871.6363263,1,-0.6941320227633783,-0.9323204678385022,-0.20288464371236437,0.2597457441252408,True,0.1,-0.6819148063659668,-0.9350229501724243,-0.20744356513023376,0.2597457441252408,-0.06806891319862629,0.3151887345020749
1759683871.7592096,1,-0.6768615290696591,-0.9359804552298974,-0.1974601653879713,0.2597457441252408,True,0.1,-0.6819148063659668,-0.9350229501724243,-0.20744356513023376,0.2597457441252408,-0.04374545855580614,0.2548320184919112
1759683871.885404,1,-0.6262502213261818,-0.9460301161193715,-0.1876605729100138,0.28425793582689063,True,0.1,-0.6122034788131714,-0.9488248229026794,-0.18685567378997803,0.28425793582689063,-0.07346894544589055,0.3249616060101002
1759683872.0073054,1,-0.606899110179719,-0.9497688504539277,-0.1811310195358118,0.28425793582689063,True,0.1,-0.6122034788131714,-0.9488248229026794,-0.18685567378997803,0.28425793582689063,-0.06136824625212256,0.3031784791804153
1759683872.1240954,1,-0.5523898022068232,-0.9593371946459445,-0.16816353826483343,0.3209375726229416,True,0.1,-0.5382187962532043,-0.9617161154747009,-0.16150498390197754,0.3209375726229416,-0.06136824625212256,0.3031784791804153
1759683872.2423825,1,-0.5315432221297027,-0.96284384475008,-0.15916979983205337,0.3209375726229416,True,0.1,-0.5382187962532043,-0.9617161154747009,-0.16150498390197754,0.3209375726229416,-0.035382858369088055,0.27069684625226176
1759683872.3613405,1,-0.48390430033852344,-0.970113252835352,-0.1478637660550124,0.2717842725111732,True,0.1,-0.4710504412651062,-0.9719669818878174,-0.14502742886543274,0.2717842725111732,-0.035382858369088055,0.27069684625226176
1759683872.4829953,1,-0.4656908156553131,-0.9727789204870649,-0.14063892953495838,0.2717842725111732,True,0.1,-0.4710504412651062,-0.9719669818878174,-0.14502742886543274,0.2717842725111732,-0.024695789872730245,0.2792820973802582
1759683872.6089964,1,-0.41551976621559483,-0.9797653018381306,-0.13297209991051417,0.29540614769749846,True,0.1,-0.4025922417640686,-0.9815453886985779,-0.1344088762998581,0.29540614769749846,-0.04103932789190701,0.3447013738258712
1759683872.7195482,1,-0.3963451506314157,-0.9823534947168042,-0.12806858566012025,0.29540614769749846,True,0.1,-0.4025922417640686,-0.9815453886985779,-0.1344088762998581,0.29540614769749846,-0.022223690297987986,0.2610035258967131
1759683872.850579,1,-0.3451076027718165,-0.9889020254470425,-0.12146626335211153,0.28825080430231237,True,0.1,-0.3311123549938202,-0.9906919002532959,-0.12273647636175156,0.28825080430231237,-0.035430038770799754,0.32315098660276287
1759683872.9773183,1,-0.3255280361028254,-0.9913345454187898,-0.1173178572986906,0.28825080430231237,True,0.1,-0.3311123549938202,-0.9906919002532959,-0.12273647636175156,0.28825080430231237,-0.028082122531998266,0.316630741852414
1759683873.119655,1,-0.26364467332825786,-0.9984989297967309,-0.110175236060023,0.3246438447174643,True,0.1,-0.2453272044658661,-1.000598430633545,-0.10917279124259949,0.3246438447174643,-0.028082122531998266,0.316630741852414
1759683873.2377028,1,-0.2399978908493131,-1.0011521996340953,-0.10545585378414302,0.3246438447174643,True,0.1,-0.2453272044658661,-1.000598430633545,-0.10917279124259949,0.3246438447174643,-0.015539745236798908,0.2692381386982105
1759683873.365312,1,-0.18812687966721403,-1.0065906906679896,-0.10001236207233077,0.2878323522616604,True,0.1,-0.1737602800130844,-1.0080912113189697,-0.10129114985466003,0.2878323522616604,-0.015539745236798908,0.2692381386982105
1759683873.4809892,1,-0.16830802478625903,-1.0086105237932863,-0.0967971161767629,0.2878323522616604,True,0.1,-0.1737602800130844,-1.0080912113189697,-0.10129114985466003,0.2878323522616604,-0.016235803873327015,0.27335515029396906
1759683873.6045403,1,-0.12043266320500509,-1.0133260175028216,-0.09329835388866492,0.2816591797707569,True,0.1,-0.10817120224237442,-1.014569640159607,-0.09575606137514114,0.2816591797707569,-0.030201255278186068,0.3358095754830736
1759683873.727423,1,-0.1021425855206565,-1.0150921610883636,-0.09115732483827088,0.2816591797707569,True,0.1,-0.10817120224237442,-1.014569640159607,-0.09575606137514114,0.2816591797707569,-0.021085772614108933,0.26542011219730804
1759683873.8516078,1,-0.04875329682385314,-1.0199332380189763,-0.08663641085663443,0.2975953978678687,True,0.1,-0.03407411649823189,-1.0212637186050415,-0.08608093112707138,0.2975953978678687,-0.02392396096848337,0.33071631313868044
1759683873.9633536,1,-0.028356224857676988,-1.02173518477659,-0.0835035320700328,0.2975953978678687,True,0.1,-0.03407411649823189,-1.0212637186050415,-0.08608093112707138,0.2975953978678687,-0.005728570161457114,0.24368743071490045
1759683874.093995,1,0.02225810354529282,-1.02592718437792,-0.07987039114473404,0.2962008163647187,True,0.1,0.03529682755470276,-1.026993751525879,-0.08122195303440094,0.2962008163647187,0.013325996918176486,0.3114736929040554
1759683874.2224174,1,0.0415938244562967,-1.0274946571318715,-0.0773288553314444,0.2962008163647187,True,0.1,0.03529682755470276,-1.026993751525879,-0.08122195303440094,0.2962008163647187,0.055880926605041736,0.30244987502646975
1759683874.344659,1,0.09584797843739201,-1.032132021446943,-0.08153490120153606,0.2889272202770939,True,0.1,0.11157704144716263,-1.033599615097046,-0.09456495940685272,0.2889272202770939,0.055880926605041736,0.30244987502646975
1759683874.4605207,1,0.11656739343902008,-1.0339508038019887,-0.08510240203814234,0.2889272202770939,True,0.1,0.11157704144716263,-1.033599615097046,-0.09456495940685272,0.2889272202770939,0.06906287160217062,0.285578060687343
1759683874.5805776,1,0.16747761686169974,-1.0392549099556003,-0.09633001242711359,0.2958959241793862,True,0.1,0.18072356283664703,-1.0409446954727173,-0.11637014150619507,0.2958959241793862,0.06906287160217062,0.285578060687343
1759683874.7034137,1,0.18691223447769767,-1.0414034245074266,-0.10497501159085942,0.2958959241793862,True,0.1,0.18072356283664703,-1.0409446954727173,-0.11637014150619507,0.2958959241793862,0.060034071821526425,0.2696194892694498
1759683874.8343408,1,0.23742049747412083,-1.0479374594032684,-0.11956500426548189,0.28417095238371476,True,0.1,0.25117436051368713,-1.0500965118408203,-0.1396026909351349,0.28417095238371476,0.07771505100436116,0.33318598354021195
1759683874.9500103,1,0.25669591776280004,-1.0505816296081179,-0.13064821859448017,0.28417095238371476,True,0.1,0.25117436051368713,-1.0500965118408203,-0.1396026909351349,0.28417095238371476,0.03559925336936942,0.2595522443614033
1759683875.0809536,1,0.3089632256363525,-1.0586355445774025,-0.14555815387643634,0.29218146297898606,True,0.1,0.3233664929866791,-1.0612285137176514,-0.16059109568595886,0.29218146297898606,0.03945847370209421,0.319766856153439
1759683875.2027724,1,0.32890591542207154,-1.061865996485526,-0.15643756830152356,0.29218146297898606,True,0.1,0.3233664929866791,-1.0612285137176514,-0.16059109568595886,0.29218146297898606,-0.009011260642752816,0.29483991008300225
1759683875.3290558,1,0.38347377833640267,-1.0710784395704136,-0.1649416498139864,0.3050363331630281,True,0.1,0.39857831597328186,-1.07382333278656,-0.16611431539058685,0.3050363331630281,-0.009011260642752816,0.29483991008300225
1759683875.4500992,1,0.40430224735292586,-1.0746871668818962,-0.17049692805954564,0.3050363331630281,True,0.1,0.39857831597328186,-1.07382333278656,-0.16611431539058685,0.3050363331630281,-0.041688413303162974,0.2697722211821356
1759683875.5766518,1,0.45433873995468327,-1.0830322734103466,-0.16979060464478835,0.29704690238086223,True,0.1,0.46716880798339844,-1.0850857496261597,-0.15727177262306213,0.29704690238086223,-0.041688413303162974,0.2697722211821356
1759683875.6970983,1,0.4734528329747667,-1.0862090060502851,-0.16843170794207118,0.29704690238086223,True,0.1,0.46716880798339844,-1.0850857496261597,-0.15727177262306213,0.29704690238086223,-0.057561747731194046,0.26406003415224044
1759683875.8195553,1,0.5192710343666975,-1.093157304539765,-0.16050842470122717,0.26095483717257917,True,0.1,0.5316840410232544,-1.094774603843689,-0.14055350422859192,0.26095483717257917,-0.0863852933476057,0.3199355328729582
1759683875.9358861,1,0.5367841641365946,-1.095737515208561,-0.15361561668037993,0.26095483717257917,True,0.1,0.5316840410232544,-1.094774603843689,-0.14055350422859192,0.26095483717257917,-0.058076079477878295,0.26271821333716466
1759683876.0626118,1,0.588532668903159,-1.1023546556957677,-0.13920197704990755,0.30290098468458504,True,0.1,0.6020081639289856,-1.1036248207092285,-0.11437983810901642,0.30290098468458504,-0.09040008281891865,0.3213167070033332
1759683876.1874104,1,0.6083213928971767,-1.104726962503859,-0.1275369432862128,0.30290098468458504,True,0.1,0.6020081639289856,-1.1036248207092285,-0.11437983810901642,0.30290098468458504,-0.042833260738733614,0.23257792341368658
1759683876.2997367,1,0.6553492443069461,-1.1093990599751344,-0.11113723035356315,0.26575749528072845,True,0.1,0.6681178212165833,-1.1102356910705566,-0.0904073640704155,0.26575749528072845,-0.07884668115014826,0.29285751559896134
1759683876.410566,1,0.6733311422709455,-1.1110234510690007,-0.09927571638200838,0.26575749528072845,True,0.1,0.6681178212165833,-1.1102356910705566,-0.0904073640704155,0.26575749528072845,-0.06984280521685626,0.2875297092819072
1759683876.532712,1,0.7227896130720258,-1.1147972410575029,-0.08217497795007844,0.28813695220385194,True,0.1,0.7356323003768921,-1.1154062747955322,-0.06534319370985031,0.28813695220385194,-0.06984280521685626,0.2875297092819072
1759683876.635935,1,0.741697263687783,-1.1160562909110177,-0.0703845796625906,0.28813695220385194,True,0.1,0.7356323003768921,-1.1154062747955322,-0.06534319370985031,0.28813695220385194,-0.06943131044765494,0.26730850471110124
1759683876.7499607,1,0.7861195265362088,-1.118420841260494,-0.05516723215450625,0.29482792815167735,True,0.1,0.7953948974609375,-1.1186408996582031,-0.04450633004307747,0.29482792815167735,-0.06943131044765494,0.26730850471110124
1759683876.866215,1,0.8030975059691112,-1.1191563919881748,-0.045217939169601706,0.29482792815167735,True,0.1,0.7953948974609375,-1.1186408996582031,-0.04450633004307747,0.29482792815167735,-0.08122785566520818,0.25647982895856863
1759683876.9882052,1,0.8464005446605445,-1.1204912846392623,-0.030127732517073014,0.24956452719416966,True,0.1,0.857753574848175,-1.1206530332565308,-0.020974095910787582,0.24956452719416966,-0.08122785566520818,0.25647982895856863
1759683877.0902698,1,0.8629458515240992,-1.120860201602528,-0.020411281492068056,0.24956452719416966,True,0.1,0.857753574848175,-1.1206530332565308,-0.020974095910787582,0.24956452719416966,-0.09832578310270179,0.2615992227832468
1759683877.200963,1,0.9042157704407942,-1.1211974774108118,-0.0052374949427083095,0.27179747453821573,True,0.1,0.9129266142845154,-1.1211045980453491,0.003976631443947554,0.27179747453821573,-0.09832578310270179,0.2615992227832468
1759683877.3205092,1,0.9199810981576058,-1.121171277060147,0.004645437063697244,0.27179747453821573,True,0.1,0.9129266142845154,-1.1211045980453491,0.003976631443947554,0.27179747453821573,-0.116203260560793,0.24833516824318752
1759683877.427099,1,0.9611403342688127,-1.1203232451461431,0.022095331659265582,0.2490298150844422,True,0.1,0.9711876511573792,-1.1199250221252441,0.03593776375055313,0.2490298150844422,-0.1840729624026416,0.2993454346041442
1759683877.5460734,1,0.9768591751882498,-1.1198431379904965,0.03481848987655223,0.2490298150844422,True,0.1,0.9711876511573792,-1.1199250221252441,0.03593776375055313,0.2490298150844422,-0.12924591252429884,0.24800602869277283
1759683877.6570659,1,1.0226054755561218,-1.1169333917639848,0.060885853800067835,0.26899520594504317,True,0.1,1.0342661142349243,-1.1157896518707275,0.08723188191652298,0.26899520594504317,-0.19588025343402293,0.2945762878403097
1759683877.771279,1,1.0400660177078298,-1.1155715007081486,0.08061956707200757,0.26899520594504317,True,0.1,1.0342661142349243,-1.1157896518707275,0.08723188191652298,0.26899520594504317,-0.10228374626142056,0.22416587634341723
1759683877.8867807,1,1.0832651419673718,-1.1105860222075092,0.10906549036062696,0.27120542729297475,True,0.1,1.0932629108428955,-1.1089322566986084,0.13374675810337067,0.27120542729297475,-0.18307462903787552,0.2774338706518872
1759683878.001259,1,1.0997383713826228,-1.1084059022555197,0.12986086895236326,0.27120542729297475,True,0.1,1.0932629108428955,-1.1089322566986084,0.13374675810337067,0.27120542729297475,-0.09781191790362342,0.2167762752199331
1759683878.1121895,1,1.139198976249753,-1.101990428635106,0.15735627200872138,0.2405934697000516,True,0.1,1.1488505601882935,-1.1000117063522339,0.17559686303138733,0.2405934697000516,-0.16297353622804778,0.25798112702882986
1759683878.2401674,1,1.15423539133914,-1.0992962988615644,0.1757244015708892,0.2405934697000516,True,0.1,1.1488505601882935,-1.1000117063522339,0.17559686303138733,0.2405934697000516,-0.173869991294616,0.2642692693308173
1759683878.386173,1,1.2046372144591828,-1.088692463234601,0.2096375797836263,0.27077088350810535,True,0.1,1.2193249464035034,-1.0851466655731201,0.23643045127391815,0.27077088350810535,-0.173869991294616,0.2642692693308173
1759683878.4931912,1,1.223822889321364,-1.0843112061777782,0.23321724838574198,0.27077088350810535,True,0.1,1.2193249464035034,-1.0851466655731201,0.23643045127391815,0.27077088350810535,-0.14063765106829962,0.2258019118713038
1759683878.6266003,1,1.264831678453346,-1.073280140964673,0.26433309970896257,0.23501004917393,True,0.1,1.276062250137329,-1.0698909759521484,0.2832391560077667,0.23501004917393,-0.2264770014976616,0.27063131991834444
1759683878.7401996,1,1.2804295357350213,-1.068811243675904,0.28597271071896646,0.23501004917393,True,0.1,1.276062250137329,-1.0698909759521484,0.2832391560077667,0.23501004917393,-0.14328264266863044,0.22412392665794015
1759683878.8743515,1,1.3231063069313624,-1.0548656016122187,0.31892758811350586,0.2607705946978757,True,0.1,1.33404541015625,-1.0508795976638794,0.34098154306411743,0.2607705946978757,-0.23910113204180483,0.27097916848801706
1759683878.9920878,1,1.3393141191736642,-1.049244998084971,0.34272871639818625,0.2607705946978757,True,0.1,1.33404541015625,-1.0508795976638794,0.34098154306411743,0.2607705946978757,-0.13457111574772718,0.20185242029131142
1759683879.1193311,1,1.3777577380420252,-1.0340996920383618,0.37690695255512185,0.23207661462363896,True,0.1,1.3880350589752197,-1.0296348333358765,0.39821526408195496,0.23207661462363896,-0.251712257598788,0.2575922308905203
1759683879.2341359,1,1.3923367740888541,-1.0280396488713166,0.4000311272008865,0.23207661462363896,True,0.1,1.3880350589752197,-1.0296348333358765,0.39821526408195496,0.23207661462363896,-0.2537113629723251,0.2597582164282409
1759683879.363478,1,1.4338729866324351,-1.0085109141612563,0.44387987308289567,0.2528655043882135,True,0.1,1.4451899528503418,-1.002623200416565,0.47813302278518677,0.2528655043882135,-0.2537113629723251,0.2597582164282409
1759683879.480672,1,1.4495693054818608,-1.0006808569066574,0.47431454735717793,0.2528655043882135,True,0.1,1.4451899528503418,-1.002623200416565,0.47813302278518677,0.2528655043882135,-0.209743992830278,0.24145278415439214
1759683879.6222827,1,1.4906624464836784,-0.977206964351547,0.5205285866193758,0.2609033762400781,True,0.1,1.501768946647644,-0.970169723033905,0.5546872019767761,0.2609033762400781,-0.2895180839964926,0.28529662861468846
1759683879.7440934,1,1.5061496671521646,-0.9678616593314285,0.5536650621816817,0.2609033762400781,True,0.1,1.501768946647644,-0.970169723033905,0.5546872019767761,0.2609033762400781,-0.15108392684377492,0.2169599931306917
1759683879.8748403,1,1.5439338003778185,-0.9420962604736808,0.5992243782149744,0.25313339188278217,True,0.1,1.5540341138839722,-0.9344887137413025,0.6274603605270386,0.25313339188278217,-0.2518723951081707,0.27486277515089136
1759683879.9923708,1,1.5581381716554559,-0.9319086388665625,0.6313449907191178,0.25313339188278217,True,0.1,1.5540341138839722,-0.9344887137413025,0.6274603605270386,0.25313339188278217,-0.11797293008648069,0.21282967346383982
1759683880.1234465,1,1.592724851102357,-0.9047831649408125,0.6706318851638136,0.24357529887585685,True,0.1,1.602000117301941,-0.8969744443893433,0.6862185597419739,0.24357529887585685,-0.22206042956176653,0.27529320323076323
1759683880.2348628,1,1.6057202990830053,-0.8941423844034947,0.696506291241997,0.24357529887585685,True,0.1,1.602000117301941,-0.8969744443893433,0.6862185597419739,0.24357529887585685,-0.20790716085375216,0.27396520533103774
1759683880.3662677,1,1.642068550631507,-0.8619177653412552,0.7380359563623387,0.2670397669984202,True,0.1,1.6519367694854736,-0.8526661992073059,0.7577716708183289,0.2670397669984202,-0.20790716085375216,0.27396520533103774
1759683880.493657,1,1.6556838426276386,-0.8493045395184576,0.7658652604561764,0.2670397669984202,True,0.1,1.6519367694854736,-0.8526661992073059,0.7577716708183289,0.2670397669984202,-0.16186287206584815,0.2537151083015703
1759683880.6222668,1,1.6901734440722969,-0.8142856138085257,0.8046892437169477,0.2711846903249015,True,0.1,1.6994800567626953,-0.8043344616889954,0.8210805654525757,0.2711846903249015,-0.23195478259243707,0.3041847927555883
1759683880.7451625,1,1.7030792902361909,-0.8006443194097789,0.8315740205588114,0.2711846903249015,True,0.1,1.6994800567626953,-0.8043344616889954,0.8210805654525757,0.2711846903249015,-0.11786404952989216,0.23216991058841666
1759683880.8805842,1,1.7357531075644332,-0.7627346524855159,0.8695319031641935,0.2627388621797895,True,0.1,1.7450754642486572,-0.7513678073883057,0.8853351473808289,0.2627388621797895,-0.2101956110169887,0.30197252630602145
1759683881.0038242,1,1.7479638970399753,-0.74802027951719,0.895952652668357,0.2627388621797895,True,0.1,1.7450754642486572,-0.7513678073883057,0.8853351473808289,0.2627388621797895,-0.09251476891063426,0.23126142683432674
1759683881.1414573,1,1.778186488273964,-0.7084120129927041,0.9299840813476861,0.2601849696581855,True,0.1,1.7868796586990356,-0.6965373754501343,0.9396122694015503,0.2601849696581855,-0.16870933086117823,0.2926276797807036
1759683881.2701223,1,1.7894728669901576,-0.6930857474870906,0.9523920262274101,0.2601849696581855,True,0.1,1.7868796586990356,-0.6965373754501343,0.9396122694015503,0.2601849696581855,-0.13661428471224824,0.2780216177626638
1759683881.3943,1,1.8195082492950112,-0.6492310017301155,0.9853319525613271,0.2896686122880908,True,0.1,1.827759027481079,-0.6367617845535278,0.9946886897087097,0.2896686122880908,-0.13661428471224824,0.2780216177626638
1759683881.5169926,1,1.8306915472035132,-0.632283030803639,1.0067925500086643,0.2896686122880908,True,0.1,1.827759027481079,-0.6367617845535278,0.9946886897087097,0.2896686122880908,-0.11048459658285559,0.25638991007788914
1759683881.6502447,1,1.856716899014692,-0.5900072895828666,1.0341423400299048,0.2747813750650523,True,0.1,1.8637877702713013,-0.5782726407051086,1.037964105606079,0.2747813750650523,-0.1768655700147459,0.3165876086344115
1759683881.7798195,1,1.8664278407313613,-0.5737196027927581,1.0524536911307782,0.2747813750650523,True,0.1,1.8637877702713013,-0.5782726407051086,1.037964105606079,0.2747813750650523,-0.1007696991864453,0.24819443640058597
1759683881.9052682,1,1.8917576274436807,-0.5276324896667617,1.0808931217285203,0.28977774759235914,True,0.1,1.898611068725586,-0.5147467851638794,1.0904910564422607,0.28977774759235914,-0.16984965007931052,0.311499367120902
1759683882.0227227,1,1.9011754513898427,-0.509888149699323,1.1008788534976768,0.28977774759235914,True,0.1,1.898611068725586,-0.5147467851638794,1.0904910564422607,0.28977774759235914,-0.07418257445176657,0.2287823765588869
1759683882.1577141,1,1.9222631762420188,-0.46660130330426774,1.1272762472140805,0.2544232440775129,True,0.1,1.9282289743423462,-0.45389533042907715,1.1336402893066406,0.2544232440775129,-0.13291790541010684,0.28526234311700616
1759683882.2773395,1,1.9300956870979842,-0.44995892508255303,1.144382811350642,0.2544232440775129,True,0.1,1.9282289743423462,-0.45389533042907715,1.1336402893066406,0.2544232440775129,-0.12120926893030415,0.29638961520548374
1759683882.4098217,1,1.9514357189876497,-0.40115795336431936,1.1709737335102997,0.29036400253836503,True,0.1,1.9572646617889404,-0.3873642683029175,1.1796047687530518,0.29036400253836503,-0.12120926893030415,0.29638961520548374
1759683882.538065,1,1.9593286344879346,-0.3824054719283255,1.1886031677633717,0.29036400253836503,True,0.1,1.9572646617889404,-0.3873642683029175,1.1796047687530518,0.29036400253836503,-0.08659979992056499,0.2689221947107071
1759683882.6878703,1,1.9797029514117293,-0.3295315996429959,1.2135395298959644,0.2831176435132706,True,0.1,1.9858300685882568,-0.3131134510040283,1.2212754487991333,0.2831176435132706,-0.12871692669444101,0.33351693574969227
1759683882.8165295,1,1.9872498496082902,-0.3092452077435281,1.2306426396888446,0.2831176435132706,True,0.1,1.9858300685882568,-0.3131134510040283,1.2212754487991333,0.2831176435132706,-0.05314975313122616,0.24948791899544867
1759683882.9462345,1,2.005323473137497,-0.2560287279323643,1.2530756508293424,0.3048608656833468,True,0.1,2.010263681411743,-0.24092094600200653,1.2580450773239136,0.3048608656833468,-0.09248178345286284,0.31489753987555225
1759683883.0676572,1,2.0119912443463117,-0.23562210381743545,1.2679311673526739,0.3048608656833468,True,0.1,2.010263681411743,-0.24092094600200653,1.2580450773239136,0.3048608656833468,-0.06162417772893036,0.29124656374143154
1759683883.2079918,1,2.0284243892213656,-0.1814914511381823,1.2872290896981298,0.2962285903647126,True,0.1,2.03316330909729,-0.16552503407001495,1.2880711555480957,0.2962285903647126,-0.06162417772893036,0.29124656374143154
1759683883.3355808,1,2.0345015701535325,-0.16075554863158792,1.29939297103137,0.2962285903647126,True,0.1,2.03316330909729,-0.16552503407001495,1.2880711555480957,0.2962285903647126,-0.04224278376511137,0.2737498726906602
1759683883.4748945,1,2.0488387458208313,-0.10946209103065227,1.3134142203039199,0.2788508549975957,True,0.1,2.053115129470825,-0.09437402337789536,1.3096116781234741,0.2788508549975957,-0.07662582866857548,0.33849128786899785
1759683883.6091602,1,2.0541801531279593,-0.08983347652958681,1.3223471546252723,0.2788508549975957,True,0.1,2.053115129470825,-0.09437402337789536,1.3096116781234741,0.2788508549975957,-0.03869036070363663,0.2635126658944139
1759683883.7386248,1,2.0686257197413274,-0.03271770540321012,1.3358039720701456,0.30502514417210014,True,0.1,2.0729563236236572,-0.01570071652531624,1.3352750539779663,0.30502514417210014,-0.07093334207091573,0.3284122473781186
1759683883.8894658,1,2.0739983610113066,-0.010865942297275952,1.3445837652022128,0.30502514417210014,True,0.1,2.0729563236236572,-0.01570071652531624,1.3352750539779663,0.30502514417210014,-0.05302076808357903,0.2923045593585075
1759683884.0189538,1,2.0878057591665473,0.05064595108058195,1.3594762054787939,0.3119883179415444,True,0.1,2.0920522212982178,0.06986300647258759,1.3628064393997192,0.3119883179415444,-0.05302076808357903,0.2923045593585075
1759683884.1442542,1,2.0929148939771403,0.07417774924880913,1.3692844529402315,0.3119883179415444,True,0.1,2.0920522212982178,0.06986300647258759,1.3628064393997192,0.3119883179415444,-0.031705049392423135,0.263184340846506
1759683884.2623978,1,2.102878749326584,0.12323117248330763,1.3800973219856525,0.2877022220541349,True,0.1,2.1055068969726562,0.1361207365989685,1.3784233331680298,0.2877022220541349,-0.05798918390607888,0.33027509176180553
1759683884.386857,1,2.106575428897106,0.14198943836924527,1.3870436706798488,0.2877022220541349,True,0.1,2.1055068969726562,0.1361207365989685,1.3784233331680298,0.2877022220541349,-0.030227417599709483,0.26419777745082207
1759683884.5116649,1,2.1162218404298634,0.19443016656363396,1.3965432854106101,0.2958262986642154,True,0.1,2.1188700199127197,0.20886000990867615,1.3954741954803467,0.2958262986642154,-0.053201726542082994,0.3269808760050599
1759683884.6464577,1,2.1198055231123893,0.21447886142283323,1.4026071042950043,0.2958262986642154,True,0.1,2.1188700199127197,0.20886000990867615,1.3954741954803467,0.2958262986642154,-0.04319460863457003,0.30546713322632263
1759683884.7919378,1,2.130106117188801,0.2767539307985208,1.4136630656840703,0.3145491100463103,True,0.1,2.1332476139068604,0.2960711121559143,1.4166576862335205,0.3145491100463103,-0.04319460863457003,0.30546713322632263
1759683884.9070957,1,2.1339159224847677,0.30056117989375,1.4210215722347783,0.3145491100463103,True,0.1,2.1332476139068604,0.2960711121559143,1.4166576862335205,0.3145491100463103,-0.02675279758386573,0.2744569833511062
1759683885.0308845,1,2.141454710491082,0.3514206293318264,1.4295646903715111,0.2965854674972177,True,0.1,2.1433985233306885,0.3647257387638092,1.4287978410720825,0.2965854674972177,-0.02675279758386573,0.2744569833511062
1759683885.1503847,1,2.1442421055217,0.3708606248264391,1.4347468125164706,0.2965854674972177,True,0.1,2.1433985233306885,0.3647257387638092,1.4287978410720825,0.2965854674972177,-0.024589670401606867,0.2720753179800839
1759683885.2708974,1,2.150704209088393,0.4177847169147503,1.4405515979011732,0.26566096113821425,True,0.1,2.152487277984619,0.43051615357398987,1.4376976490020752,0.26566096113821425,-0.0421579246328303,0.3368629153344345
1759683885.3893988,1,2.1531178585254556,0.4357153968776722,1.4441368181291665,0.26566096113821425,True,0.1,2.152487277984619,0.43051615357398987,1.4376976490020752,0.26566096113821425,-0.02697309385270863,0.2741400249115789
1759683885.5181134,1,2.1599599587162683,0.4898346007879386,1.4504029215205145,0.29987172005246177,True,0.1,2.161867618560791,0.5048949122428894,1.4506479501724243,0.29987172005246177,-0.0427188221890642,0.33764107961106604
1759683885.6531398,1,2.1625074851061723,0.5105144199956628,1.4547460076018472,0.29987172005246177,True,0.1,2.161867618560791,0.5048949122428894,1.4506479501724243,0.29987172005246177,-0.019345832658800077,0.2440046310485651
1759683885.7766988,1,2.1686893522773434,0.565104256803437,1.4615210188481962,0.3032315348069198,True,0.1,2.170358657836914,0.5802257657051086,1.4632408618927002,0.3032315348069198,-0.03169726455291233,0.3075045902150292
1759683885.8923697,1,2.17097653148833,0.5859640351161788,1.4660764574624725,0.3032315348069198,True,0.1,2.170358657836914,0.5802257657051086,1.4632408618927002,0.3032315348069198,-0.020589879683692303,0.2944023406454373
1759683886.0160418,1,2.1762585247415913,0.6375464641142325,1.4720424275300523,0.2875848731939708,True,0.1,2.1776788234710693,0.6517483592033386,1.4725409746170044,0.2875848731939708,-0.020589879683692303,0.2944023406454373
1759683886.1376007,1,2.178213648079687,0.6572555280754134,1.4758015264010416,0.2875848731939708,True,0.1,2.1776788234710693,0.6517483592033386,1.4725409746170044,0.2875848731939708,-0.015653032330758876,0.2885730987678198
1759683886.2556243,1,2.182911723502636,0.7068392382062811,1.4800867644505855,0.2901601291125008,True,0.1,2.18412446975708,0.7196306586265564,1.47871994972229,0.2901601291125008,-0.015653032330758876,0.2885730987678198
1759683886.378546,1,2.184660629012577,0.725782752824093,1.4826061549672245,0.2901601291125008,True,0.1,2.18412446975708,0.7196306586265564,1.47871994972229,0.2901601291125008,-0.015634901056747808,0.27104452226613157
1759683886.5125823,1,2.189384507356944,0.7788546359027619,1.485956564852172,0.2962989451265413,True,0.1,2.1907031536102295,0.7934126853942871,1.4848213195800781,0.2962989451265413,-0.02863239683850516,0.3432836035521389
1759683886.6487153,1,2.191153696318938,0.7991293211799411,1.4881481008483508,0.2962989451265413,True,0.1,2.1907031536102295,0.7934126853942871,1.4848213195800781,0.2962989451265413,-0.01843279617375515,0.2598388023948205
1759683886.7984557,1,2.196031538381966,0.8597762876143306,1.4930279499211938,0.29116582097767807,True,0.1,2.1975743770599365,0.879323422908783,1.4952515363693237,0.29116582097767807,-0.027083764335007032,0.3147107048986081
1759683886.9266965,1,2.197843355591964,0.8829454605735779,1.4964251638631954,0.29116582097767807,True,0.1,2.1975743770599365,0.879323422908783,1.4952515363693237,0.29116582097767807,-0.01769865852497432,0.2956132904512661
1759683887.0592043,1,2.202045277703353,0.9422167174164721,1.5016284869632655,0.3199954637490515,True,0.1,2.20318865776062,0.9591250419616699,1.504328966140747,0.3199954637490515,-0.025796534049488784,0.36668371432104657
1759683887.192555,1,2.2035912147038594,0.9648605284686471,1.505337536510261,0.3199954637490515,True,0.1,2.20318865776062,0.9591250419616699,1.504328966140747,0.3199954637490515,-0.009085177381219722,0.2692124853168216
1759683887.3222525,1,2.207297096345539,1.0249471693065473,1.510213623860846,0.3146899879410192,True,0.1,2.2083280086517334,1.0426746606826782,1.512117862701416,0.3146899879410192,-0.01708681483429686,0.3348209023631129
1759683887.4462705,1,2.208658108412664,1.0479016343893939,1.5136030640303817,0.3146899879410192,True,0.1,2.2083280086517334,1.0426746606826782,1.512117862701416,0.3146899879410192,-0.002228316574084843,0.24452260131723608
1759683887.5884397,1,2.2116921483887877,1.1024340818623042,1.5168554887304708,0.2855646632280699,True,0.1,2.2125656604766846,1.1185165643692017,1.5162025690078735,0.2855646632280699,-0.010191253763633057,0.31130044200290186
1759683887.7081747,1,2.2128170068633026,1.1232655043201825,1.5188374137389253,0.2855646632280699,True,0.1,2.2125656604766846,1.1185165643692017,1.5162025690078735,0.2855646632280699,-0.008973267094432913,0.3016554782815989
1759683887.8349085,1,2.2157667001767067,1.1795825151333872,1.5211950065717463,0.307897002606364,True,0.1,2.2166075706481934,1.1953846216201782,1.5198891162872314,0.307897002606364,-0.008973267094432913,0.3016554782815989
1759683887.9532242,1,2.216866644665421,1.2010950501825601,1.5225446961385671,0.307897002606364,True,0.1,2.2166075706481934,1.1953846216201782,1.5198891162872314,0.307897002606364,-0.009387789360125964,0.2772754468138929
1759683888.0697775,1,2.2193093833600983,1.2506814553749046,1.52433771929359,0.2908893392886414,True,0.1,2.219956874847412,1.2633702754974365,1.523012638092041,0.2908893392886414,-0.009387789360125964,0.2772754468138929
1759683888.1919737,1,2.2202230536978926,1.2696226898722074,1.525320770279997,0.2908893392886414,True,0.1,2.219956874847412,1.2633702754974365,1.523012638092041,0.2908893392886414,-0.011227082187897253,0.26669947682456224
1759683888.3098614,1,2.2224235582793566,1.3173359725895821,1.5270042042572864,0.28242345844910616,True,0.1,2.222996473312378,1.3293874263763428,1.526537299156189,0.28242345844910616,-0.0181191436762127,0.33781747445791044
1759683888.4335873,1,2.2232472388933795,1.3355615713068925,1.5281263835650813,0.28242345844910616,True,0.1,2.222996473312378,1.3293874263763428,1.526537299156189,0.28242345844910616,-0.012232135385563225,0.26793231182669325
1759683888.551471,1,2.225423123748294,1.3883485320772546,1.5307702235682488,0.29397649967673384,True,0.1,2.226001024246216,1.402820110321045,1.5322837829589844,0.29397649967673384,-0.017293808922422826,0.33722687922263256
1759683888.6708627,1,2.2262267648680183,1.4085124831417746,1.5327084692144624,0.29397649967673384,True,0.1,2.226001024246216,1.402820110321045,1.5322837829589844,0.29397649967673384,-0.006749746003663404,0.2525847318957452
1759683888.7971277,1,2.2281291044025813,1.461602414076012,1.5354293916637722,0.3088013204115686,True,0.1,2.2285852432250977,1.4753423929214478,1.5367909669876099,0.3088013204115686,-0.010442417596124187,0.3096636914765797
1759683888.9181142,1,2.228825122634404,1.4818820779191995,1.537281885997853,0.3088013204115686,True,0.1,2.2285852432250977,1.4753423929214478,1.5367909669876099,0.3088013204115686,-0.006777770793167548,0.299619040328639
1759683889.0357325,1,2.2304899446973594,1.5338400961382428,1.5395026424581566,0.2907505496735464,True,0.1,2.230921745300293,1.547992467880249,1.5398999452590942,0.2907505496735464,-0.006777770793167548,0.299619040328639
1759683889.1520011,1,2.2311021805711877,1.5536870545319856,1.5409036128612446,0.2907505496735464,True,0.1,2.230921745300293,1.547992467880249,1.5398999452590942,0.2907505496735464,-0.005462166716124983,0.2920728771934056
1759683889.270913,1,2.2326001771355046,1.604359396945376,1.5424436810271454,0.2965578611602707,True,0.1,2.2329819202423096,1.6173564195632935,1.542008638381958,0.2965578611602707,-0.005462166716124983,0.2920728771934056
1759683889.3842,1,2.23315549597048,1.6237149976167269,1.5433465502977484,0.2965578611602707,True,0.1,2.2329819202423096,1.6173564195632935,1.542008638381958,0.2965578611602707,-0.005818811964143578,0.2799303173694173
1759683889.5069306,1,2.234516922823827,1.672905753581691,1.5445010924948024,0.2896993114746049,True,0.1,2.2348709106445312,1.6854095458984375,1.5440267324447632,0.2896993114746049,-0.00976888359282313,0.3459175519561567
