timestamp,vehicle_id,x,y,theta,velocity,gps_available,dt,gps_x,gps_y,gps_theta,gps_velocity,control_steering,control_acceleration
1759683860.4746776,0,-1.205,-0.83,-0.7801621756414647,0.0,False,0.01,nan,nan,nan,nan,0.0,0.0
1759683860.484833,0,-1.205,-0.83,-0.7801621756414647,0.0,False,0.010155439376831055,nan,nan,nan,nan,0.0,0.0
1759683860.496156,0,-1.205,-0.83,-0.7801621756414647,0.0,False,0.011322975158691406,nan,nan,nan,nan,0.0,0.0
1759683860.5076625,0,-1.205,-0.83,-0.7801621756414647,0.0,False,0.01150655746459961,nan,nan,nan,nan,0.0,0.0
1759683860.5189338,0,-1.205,-0.83,-0.7801621756414647,0.0,False,0.011271238327026367,nan,nan,nan,nan,0.0,0.0
1759683860.529693,0,-1.205,-0.83,-0.7801621756414647,0.0,False,0.010759115219116211,nan,nan,nan,nan,0.0,0.0
1759683860.5407176,0,-1.205,-0.83,-0.7801621756414647,0.0,False,0.011024713516235352,nan,nan,nan,nan,0.0,0.0
1759683860.5519083,0,-1.205,-0.83,-0.7801621756414647,0.0,False,0.011190652847290039,nan,nan,nan,nan,0.0,0.0
1759683860.5631597,0,-1.205,-0.83,-0.7801621756414647,0.0,False,0.011251449584960938,nan,nan,nan,nan,0.0,0.0
1759683860.5740654,0,-1.205,-0.83,-0.7801621756414647,0.0,False,0.010905742645263672,nan,nan,nan,nan,0.0,0.0
1759683860.584587,0,-1.205,-0.83,-0.7801621756414647,0.0,False,0.010521650314331055,nan,nan,nan,nan,0.0,0.0
1759683860.5946052,0,-1.205,-0.83,-0.7801621756414647,0.0,False,0.010018110275268555,nan,nan,nan,nan,0.0,0.0
1759683860.6052969,0,-1.205,-0.83,-0.7801621756414647,0.0,False,0.010691642761230469,nan,nan,nan,nan,0.0,0.0
1759683860.6156137,0,-1.205,-0.83,-0.7801621756414647,0.0,False,0.010316848754882812,nan,nan,nan,nan,0.0,0.0
1759683860.6257792,0,-1.205,-0.83,-0.7801621756414647,0.0,False,0.01016545295715332,nan,nan,nan,nan,0.0,0.0
1759683860.636889,0,-1.205,-0.83,-0.7801621756414647,0.0,False,0.01110982894897461,nan,nan,nan,nan,0.0,0.0
1759683860.6471112,0,-1.205,-0.83,-0.7801621756414647,0.0,False,0.010222196578979492,nan,nan,nan,nan,0.0,0.0
1759683860.6577373,0,-1.205,-0.83,-0.7801621756414647,0.0,False,0.010626077651977539,nan,nan,nan,nan,0.0,0.0
1759683860.6708827,0,-1.2049998061259588,-0.8299993923703829,-0.7230016924469549,0.0,True,0.01314544677734375,-1.2049998044967651,-0.8299993872642517,-0.7177056074142456,0.0,0.0,0.0
1759683860.681518,0,-1.2049998050413424,-0.8299993889710365,-0.718120078218913,0.0,True,0.0106353759765625,-1.2049998044967651,-0.8299993872642517,-0.7177056074142456,0.0,0.0,0.0
1759683860.6924667,0,-1.2049998047010528,-0.829999387904519,-0.7176593156570164,0.0,True,0.010948657989501953,-1.2049998044967651,-0.8299993872642517,-0.7177056074142456,0.0,0.0,0.0
1759683860.703785,0,-1.2049998045745929,-0.8299993875081751,-0.7175975308235074,0.0,True,0.011318206787109375,-1.2049998044967651,-0.8299993872642517,-0.7177056074142456,0.0,0.0,0.0
1759683860.7142293,0,-1.2049998045264814,-0.8299993873573868,-0.717593232443761,0.0,True,0.010444402694702148,-1.2049998044967651,-0.8299993872642517,-0.7177056074142456,0.0,0.0,0.0
1759683860.725057,0,-1.2049998045081152,-0.8299993872998241,-0.7176003913696665,0.0,True,0.01082754135131836,-1.2049998044967651,-0.8299993872642517,-0.7177056074142456,0.0,0.0,0.0
1759683860.7362268,0,-1.2049998045011003,-0.8299993872778391,-0.7176110255116868,0.0,True,0.011169910430908203,-1.2049998044967651,-0.8299993872642517,-0.7177056074142456,0.0,0.0,0.0
1759683860.7470262,0,-1.204999804498421,-0.8299993872694416,-0.7176230215870198,0.0,True,0.010799407958984375,-1.2049998044967651,-0.8299993872642517,-0.7177056074142456,0.0,0.0,0.0
1759683860.7585347,0,-1.2049998044973975,-0.829999387266234,-0.7176327730734915,0.0,True,0.011508464813232422,-1.2049998044967651,-0.8299993872642517,-0.7177056074142456,0.0,0.0,0.0
1759683860.768959,0,-1.2049998044970067,-0.8299993872650089,-0.7176427220724584,0.0,True,0.010424375534057617,-1.2049998044967651,-0.8299993872642517,-0.7177056074142456,0.0,0.0,0.0
1759683860.7804348,0,-1.2049998044968575,-0.8299993872645409,-0.7176496401135122,0.0,True,0.011475801467895508,-1.2049998044967651,-0.8299993872642517,-0.7177056074142456,0.0,0.0,0.0
1759683860.791308,0,-1.2049998044968004,-0.8299993872643622,-0.7176561657358675,0.0,True,0.010873079299926758,-1.2049998044967651,-0.8299993872642517,-0.7177056074142456,0.0,0.0,0.0
1759683860.8022912,0,-1.2049998044967787,-0.8299993872642939,-0.7176614833477846,0.0,True,0.01098322868347168,-1.2049998044967651,-0.8299993872642517,-0.7177056074142456,0.0,0.0,0.0
1759683860.8135252,0,-1.2049998044967702,-0.8299993872642678,-0.7176657491699228,0.0,True,0.011234045028686523,-1.2049998044967651,-0.8299993872642517,-0.7177056074142456,0.0,0.0,0.0
1759683860.8240914,0,-1.2049998044967671,-0.8299993872642578,-0.7176698603126148,0.0,True,0.010566234588623047,-1.2049998044967651,-0.8299993872642517,-0.7177056074142456,0.0,0.0,0.0
1759683860.8349414,0,-1.2049998044967658,-0.829999387264254,-0.7176730794102646,0.0,True,0.010849952697753906,-1.2049998044967651,-0.8299993872642517,-0.7177056074142456,0.0,0.0,0.0
1759683860.846326,0,-1.2049998044967654,-0.8299993872642526,-0.7176755103964716,0.0,True,0.011384725570678711,-1.2049998044967651,-0.8299993872642517,-0.7177056074142456,0.0,0.0,0.0
1759683860.8569033,0,-1.2049998044967651,-0.829999387264252,-0.7176781329032558,0.0,True,0.010577201843261719,-1.2049998044967651,-0.8299993872642517,-0.7177056074142456,0.0,0.0,0.0
1759683860.8728309,0,-1.2049998044967651,-0.8299993872642518,-0.7176778385966021,0.0,True,0.015927553176879883,-1.2049998044967651,-0.8299993872642517,-0.7177056074142456,0.0,0.0,0.0
1759683860.883787,0,-1.2049998044967651,-0.8299993872642517,-0.7176805797611827,0.0,True,0.010956048965454102,-1.2049998044967651,-0.8299993872642517,-0.7177056074142456,0.0,0.0,0.0
1759683860.8938224,0,-1.2049998044967651,-0.8299993872642517,-0.7176833248803209,0.0,True,0.010035514831542969,-1.2049998044967651,-0.8299993872642517,-0.7177056074142456,0.0,0.0,0.0
1759683860.9050217,0,-1.2049998044967651,-0.8299993872642517,-0.7176850053049328,0.0,True,0.011199235916137695,-1.2049998044967651,-0.8299993872642517,-0.7177056074142456,0.0,0.0,0.0
1759683860.91525,0,-1.2049998044967651,-0.8299993872642517,-0.7176867609808149,0.0,True,0.010228395462036133,-1.2049998044967651,-0.8299993872642517,-0.7177056074142456,0.0,0.0,0.0
1759683860.9257464,0,-1.2049998044967651,-0.8299993872642517,-0.7176881082039515,0.0,True,0.010496377944946289,-1.2049998044967651,-0.8299993872642517,-0.7177056074142456,0.0,0.0,0.0
1759683860.9363472,0,-1.2049998044967651,-0.8299993872642517,-0.717689203636283,0.0,True,0.010600805282592773,-1.2049998044967651,-0.8299993872642517,-0.7177056074142456,0.0,0.0,0.0
1759683860.947426,0,-1.2049998044967651,-0.8299993872642517,-0.7176900069163779,0.0,True,0.011078834533691406,-1.2049998044967651,-0.8299993872642517,-0.7177056074142456,0.0,0.0,0.0
1759683860.958936,0,-1.2049998044967651,-0.8299993872642517,-0.717690631968555,0.0,True,0.011509895324707031,-1.2049998044967651,-0.8299993872642517,-0.7177056074142456,0.0,0.0,0.0
1759683860.9690545,0,-1.2049998044967651,-0.8299993872642517,-0.7176916629543513,0.0,True,0.010118484497070312,-1.2049998044967651,-0.8299993872642517,-0.7177056074142456,0.0,0.0,0.0
1759683860.9800456,0,-1.2049998044967651,-0.8299993872642517,-0.7176923163643494,0.0,True,0.010991096496582031,-1.2049998044967651,-0.8299993872642517,-0.7177056074142456,0.0,0.0,0.0
1759683860.9904845,0,-1.2049998044967651,-0.8299993872642517,-0.7176930597342093,0.0,True,0.010438919067382812,-1.2049998044967651,-0.8299993872642517,-0.7177056074142456,0.0,0.0,0.0
1759683861.001617,0,-1.2049998044967651,-0.8299993872642517,-0.7176935513440839,0.0,True,0.011132478713989258,-1.2049998044967651,-0.8299993872642517,-0.7177056074142456,0.0,0.0,0.0
1759683861.0122094,0,-1.2049998044967651,-0.8299993872642517,-0.7176941575505857,0.0,True,0.010592460632324219,-1.2049998044967651,-0.8299993872642517,-0.7177056074142456,0.0,0.0,0.0
1759683861.022723,0,-1.2049998044967651,-0.8299993872642517,-0.71769473248888,0.0,True,0.010513544082641602,-1.2049998044967651,-0.8299993872642517,-0.7177056074142456,0.0,0.0,0.0
1759683861.0341709,0,-1.2049998044967651,-0.8299993872642517,-0.7176950474214152,0.0,True,0.011447906494140625,-1.2049998044967651,-0.8299993872642517,-0.7177056074142456,0.0,0.0,0.0
1759683861.0449467,0,-1.2049998044967651,-0.8299993872642517,-0.7176955241888159,0.0,True,0.01077580451965332,-1.2049998044967651,-0.8299993872642517,-0.7177056074142456,0.0,0.0,0.0
1759683861.0554535,0,-1.2049998044967651,-0.8299993872642517,-0.7176960311902008,0.0,True,0.010506868362426758,-1.2049998044967651,-0.8299993872642517,-0.7177056074142456,0.0,0.0,0.0
1759683861.0680435,0,-1.2049998044967651,-0.8299993872642517,-0.7176960905377676,0.0,True,0.01258993148803711,-1.2049998044967651,-0.8299993872642517,-0.7177056074142456,0.0,0.0,0.0
1759683861.076987,0,-1.2049998044967651,-0.8299993872642517,-0.7176969055662799,0.0,True,0.008943557739257812,-1.2049998044967651,-0.8299993872642517,-0.7177056074142456,0.0,0.0,0.0
1759683861.088593,0,-1.2049998044967651,-0.8299993872642517,-0.7176971145441371,0.0,True,0.011605978012084961,-1.2049998044967651,-0.8299993872642517,-0.7177056074142456,0.0,0.0,0.0
1759683861.0992239,0,-1.2049998044967651,-0.8299993872642517,-0.7176974932651756,0.0,True,0.01063084602355957,-1.2049998044967651,-0.8299993872642517,-0.7177056074142456,0.0,0.0,0.0
1759683861.110176,0,-1.2049998044967651,-0.8299993872642517,-0.7176977987329902,0.0,True,0.010952234268188477,-1.2049998044967651,-0.8299993872642517,-0.7177056074142456,0.0,0.0,0.0
1759683861.120948,0,-1.2049998044967651,-0.8299993872642517,-0.7176981199956352,0.0,True,0.010771989822387695,-1.2049998044967651,-0.8299993872642517,-0.7177056074142456,0.0,0.0,0.0
1759683861.1320279,0,-1.2049998044967651,-0.8299993872642517,-0.7176983767988254,0.0,True,0.011079788208007812,-1.2049998044967651,-0.8299993872642517,-0.7177056074142456,0.0,0.0,0.0
1759683861.143521,0,-1.2049998044967651,-0.8299993872642517,-0.7176985710949815,0.0,True,0.011493206024169922,-1.2049998044967651,-0.8299993872642517,-0.7177056074142456,0.0,0.0,0.0
1759683861.1541908,0,-1.2049998044967651,-0.8299993872642517,-0.7176988970810836,0.0,True,0.010669708251953125,-1.2049998044967651,-0.8299993872642517,-0.7177056074142456,0.0,0.0,0.0
1759683861.165018,0,-1.2049998044967651,-0.8299993872642517,-0.7176991782854003,0.0,True,0.010827302932739258,-1.2049998044967651,-0.8299993872642517,-0.7177056074142456,0.0,0.0,0.0
1759683861.175074,0,-1.2049998044967651,-0.8299993872642517,-0.717699536875763,0.0,True,0.010056018829345703,-1.2049998044967651,-0.8299993872642517,-0.7177056074142456,0.0,0.0,0.0
1759683861.1858163,0,-1.2049998044967651,-0.8299993872642517,-0.7176997614671237,0.0,True,0.0107421875,-1.2049998044967651,-0.8299993872642517,-0.7177056074142456,0.0,0.0,0.0
1759683861.1972268,0,-1.2049998044967651,-0.8299993872642517,-0.717699889235135,0.0,True,0.01141047477722168,-1.2049998044967651,-0.8299993872642517,-0.7177056074142456,0.0,0.0,0.0
1759683861.207431,0,-1.2049998044967651,-0.8299993872642517,-0.7177001741623208,0.0,True,0.010204315185546875,-1.2049998044967651,-0.8299993872642517,-0.7177056074142456,0.0,0.0,0.0
1759683861.218041,0,-1.2049998044967651,-0.8299993872642517,-0.7177003867734122,0.0,True,0.010609865188598633,-1.2049998044967651,-0.8299993872642517,-0.7177056074142456,0.0,0.0,0.0
1759683861.2287543,0,-1.2049998044967651,-0.8299993872642517,-0.7177005706549462,0.0,True,0.010713338851928711,-1.2049998044967651,-0.8299993872642517,-0.7177056074142456,0.0,0.0,0.0
1759683861.2389176,0,-1.2049998044967651,-0.8299993872642517,-0.7177008038844566,0.0,True,0.010163307189941406,-1.2049998044967651,-0.8299993872642517,-0.7177056074142456,0.0,0.0,0.0
1759683861.2489562,0,-1.2049998044967651,-0.8299993872642517,-0.7177010256947742,0.0,True,0.010038614273071289,-1.2049998044967651,-0.8299993872642517,-0.7177056074142456,0.0,0.0,0.0
1759683861.2599506,0,-1.2049998044967651,-0.8299993872642517,-0.7177011278126244,0.0,True,0.010994434356689453,-1.2049998044967651,-0.8299993872642517,-0.7177056074142456,0.0,0.0,0.0
1759683861.2712445,0,-1.2049998044967651,-0.8299993872642517,-0.7177012095384967,0.0,True,0.011293888092041016,-1.2049998044967651,-0.8299993872642517,-0.7177056074142456,0.0,0.0,0.0
1759683861.2815766,0,-1.2049998044967651,-0.8299993872642517,-0.7177013981861329,0.0,True,0.010332107543945312,-1.2049998044967651,-0.8299993872642517,-0.7177056074142456,0.0,0.0,0.0
1759683861.2918923,0,-1.2049998044967651,-0.8299993872642517,-0.7177015761907413,0.0,True,0.010315656661987305,-1.2049998044967651,-0.8299993872642517,-0.7177056074142456,0.0,0.0,0.0
1759683861.303231,0,-1.2049998044967651,-0.8299993872642517,-0.7177016507494205,0.0,True,0.01133871078491211,-1.2049998044967651,-0.8299993872642517,-0.7177056074142456,0.0,0.0,0.0
1759683861.3141067,0,-1.2049998044967651,-0.8299993872642517,-0.7177017759078446,0.0,True,0.010875701904296875,-1.2049998044967651,-0.8299993872642517,-0.7177056074142456,0.0,0.0,0.0
1759683861.3256197,0,-1.2049998044967651,-0.8299993872642517,-0.7177018542580615,0.0,True,0.011512994766235352,-1.2049998044967651,-0.8299993872642517,-0.7177056074142456,0.0,0.0,0.0
1759683861.3368783,0,-1.2049998044967651,-0.8299993872642517,-0.7177019656176853,0.0,True,0.011258602142333984,-1.2049998044967651,-0.8299993872642517,-0.7177056074142456,0.0,0.0,0.0
1759683861.3476567,0,-1.2049998044967651,-0.8299993872642517,-0.7177021175559357,0.0,True,0.010778427124023438,-1.2049998044967651,-0.8299993872642517,-0.7177056074142456,0.0,0.0,0.0
1759683861.3589134,0,-1.2049998044967651,-0.8299993872642517,-0.717702226336769,0.0,True,0.011256694793701172,-1.2049998044967651,-0.8299993872642517,-0.7177056074142456,0.0,0.0,0.0
1759683861.369454,0,-1.2049998044967651,-0.8299993872642517,-0.7177023826803453,0.0,True,0.010540485382080078,-1.2049998044967651,-0.8299993872642517,-0.7177056074142456,0.0,0.0,0.0
1759683861.3808522,0,-1.2049998044967651,-0.8299993872642517,-0.7177024689389704,0.0,True,0.0113983154296875,-1.2049998044967651,-0.8299993872642517,-0.7177056074142456,0.0,0.0,0.0
1759683861.3918304,0,-1.2049998044967651,-0.8299993872642517,-0.7177025841139191,0.0,True,0.010978221893310547,-1.2049998044967651,-0.8299993872642517,-0.7177056074142456,0.0,0.0,0.0
1759683861.402207,0,-1.2049998044967651,-0.8299993872642517,-0.7177027322026852,0.0,True,0.010376453399658203,-1.2049998044967651,-0.8299993872642517,-0.7177056074142456,0.0,0.0,0.0
1759683861.4125023,0,-1.2049998044967651,-0.8299993872642517,-0.7177028683009077,0.0,True,0.010295391082763672,-1.2049998044967651,-0.8299993872642517,-0.7177056074142456,0.0,0.0,0.0
1759683861.4232674,0,-1.2049998044967651,-0.8299993872642517,-0.717702960652808,0.0,True,0.01076507568359375,-1.2049998044967651,-0.8299993872642517,-0.7177056074142456,0.0,0.0,0.0
1759683861.4341,0,-1.2049998044967651,-0.8299993872642517,-0.7177030441327652,0.0,True,0.010832548141479492,-1.2049998044967651,-0.8299993872642517,-0.7177056074142456,0.0,0.0,0.0
1759683861.4448497,0,-1.2049998044967651,-0.8299993872642517,-0.7177031308448818,0.0,True,0.01074981689453125,-1.2049998044967651,-0.8299993872642517,-0.7177056074142456,0.0,0.0,0.0
1759683861.4558756,0,-1.2049998044967651,-0.8299993872642517,-0.7177032010084652,0.0,True,0.01102590560913086,-1.2049998044967651,-0.8299993872642517,-0.7177056074142456,0.0,0.0,0.0
1759683861.4722333,0,-1.2049998044967651,-0.8299993872642517,-0.7177030151971628,0.0,True,0.0163576602935791,-1.2049998044967651,-0.8299993872642517,-0.7177056074142456,0.0,0.0,0.0
1759683861.478259,0,-1.2049998044967651,-0.8299993872642517,-0.7177033954101137,0.0,True,0.006025791168212891,-1.2049998044967651,-0.8299993872642517,-0.7177056074142456,0.0,0.0,0.0
1759683861.4893713,0,-1.2049998044967651,-0.8299993872642517,-0.7177034705489724,0.0,True,0.011112213134765625,-1.2049998044967651,-0.8299993872642517,-0.7177056074142456,0.0,0.0,0.0
1759683861.5000694,0,-1.2049998044967651,-0.8299993872642517,-0.7177035449429852,0.0,True,0.010698080062866211,-1.2049998044967651,-0.8299993872642517,-0.7177056074142456,0.0,0.0,0.0
1759683861.5107927,0,-1.2049998044967651,-0.8299993872642517,-0.7177036150236749,0.0,True,0.010723352432250977,-1.2049998044967651,-0.8299993872642517,-0.7177056074142456,0.0,0.0,0.0
1759683861.5214622,0,-1.2049998044967651,-0.8299993872642517,-0.7177036845903775,0.0,True,0.010669469833374023,-1.2049998044967651,-0.8299993872642517,-0.7177056074142456,0.0,0.0,0.0
1759683861.5326314,0,-1.2049998044967651,-0.8299993872642517,-0.717703731202473,0.0,True,0.011169195175170898,-1.2049998044967651,-0.8299993872642517,-0.7177056074142456,0.0,0.0,0.0
1759683861.543514,0,-1.2049998044967651,-0.8299993872642517,-0.7177037920201013,0.0,True,0.01088261604309082,-1.2049998044967651,-0.8299993872642517,-0.7177056074142456,0.0,0.0,0.0
1759683861.5548582,0,-1.2049998044967651,-0.8299993872642517,-0.7177038356391989,0.0,True,0.011344194412231445,-1.2049998044967651,-0.8299993872642517,-0.7177056074142456,0.0,0.0,0.0
1759683861.5656574,0,-1.2049998044967651,-0.8299993872642517,-0.7177039025107881,0.0,True,0.010799169540405273,-1.2049998044967651,-0.8299993872642517,-0.7177056074142456,0.0,0.0,0.0
1759683861.5769954,0,-1.2049998044967651,-0.8299993872642517,-0.7177039481632352,0.0,True,0.011337995529174805,-1.2049998044967651,-0.8299993872642517,-0.7177056074142456,0.0,0.0,0.0
1759683861.5879126,0,-1.2049998044967651,-0.8299993872642517,-0.7177040096019027,0.0,True,0.010917186737060547,-1.2049998044967651,-0.8299993872642517,-0.7177056074142456,0.0,0.0,0.0
1759683861.5984924,0,-1.2049998044967651,-0.8299993872642517,-0.7177040795399883,0.0,True,0.010579824447631836,-1.2049998044967651,-0.8299993872642517,-0.7177056074142456,0.0,0.0,0.0
1759683861.609162,0,-1.2049998044967651,-0.8299993872642517,-0.7177041401126107,0.0,True,0.010669708251953125,-1.2049998044967651,-0.8299993872642517,-0.7177056074142456,0.0,0.0,0.0
1759683861.6200097,0,-1.2049998044967651,-0.8299993872642517,-0.7177041901760663,0.0,True,0.01084756851196289,-1.2049998044967651,-0.8299993872642517,-0.7177056074142456,0.0,0.0,0.0
1759683861.6304748,0,-1.2049998044967651,-0.8299993872642517,-0.7177042490494152,0.0,True,0.010465145111083984,-1.2049998044967651,-0.8299993872642517,-0.7177056074142456,0.0,0.0,0.0
1759683861.6412315,0,-1.2049998044967651,-0.8299993872642517,-0.7177042947693426,0.0,True,0.010756731033325195,-1.2049998044967651,-0.8299993872642517,-0.7177056074142456,0.0,0.0,0.0
1759683861.6525211,0,-1.2049998044967651,-0.8299993872642517,-0.7177043238495671,0.0,True,0.011289596557617188,-1.2049998044967651,-0.8299993872642517,-0.7177056074142456,0.0,0.0,0.0
1759683861.663267,0,-1.2049998044967651,-0.8299993872642517,-0.7177043702537276,0.0,True,0.010745763778686523,-1.2049998044967651,-0.8299993872642517,-0.7177056074142456,0.0,0.0,0.0
1759683861.6779032,0,-1.2049998044967651,-0.8299993872642517,-0.7177043182347749,0.0,True,0.01463627815246582,-1.2049998044967651,-0.8299993872642517,-0.7177056074142456,0.0,0.0,0.0
1759683861.688732,0,-1.2049998044967651,-0.8299993872642517,-0.7177043862498351,0.0,True,0.010828733444213867,-1.2049998044967651,-0.8299993872642517,-0.7177056074142456,0.0,0.0,0.0
1759683861.7000234,0,-1.2049998044967651,-0.8299993872642517,-0.7177044413439688,0.0,True,0.01129150390625,-1.2049998044967651,-0.8299993872642517,-0.7177056074142456,0.0,0.0,0.0
1759683861.7104955,0,-1.2049998044967651,-0.8299993872642517,-0.717704508925916,0.0,True,0.01047205924987793,-1.2049998044967651,-0.8299993872642517,-0.7177056074142456,0.0,0.0,0.0
1759683861.7213826,0,-1.2049998044967651,-0.8299993872642517,-0.7177045577613566,0.0,True,0.01088714599609375,-1.2049998044967651,-0.8299993872642517,-0.7177056074142456,0.0,0.0,0.0
1759683861.7321544,0,-1.2049998044967651,-0.8299993872642517,-0.7177046031402199,0.0,True,0.010771751403808594,-1.2049998044967651,-0.8299993872642517,-0.7177056074142456,0.0,0.0,0.0
1759683861.7424593,0,-1.2049998044967651,-0.8299993872642517,-0.717704653380622,0.0,True,0.010304927825927734,-1.2049998044967651,-0.8299993872642517,-0.7177056074142456,0.0,0.0,0.0
1759683861.752651,0,-1.2049998044967651,-0.8299993872642517,-0.717704699341045,0.0,True,0.010191679000854492,-1.2049998044967651,-0.8299993872642517,-0.7177056074142456,0.0,0.0,0.0
1759683861.7628298,0,-1.2049998044967651,-0.8299993872642517,-0.7177047393082105,0.0,True,0.010178804397583008,-1.2049998044967651,-0.8299993872642517,-0.7177056074142456,0.0,0.0,0.0
1759683861.77355,0,-1.2049998044967651,-0.8299993872642517,-0.7177047644545187,0.0,True,0.010720252990722656,-1.2049998044967651,-0.8299993872642517,-0.7177056074142456,0.0,0.0,0.0
1759683861.7840781,0,-1.2049998044967651,-0.8299993872642517,-0.7177047923395072,0.0,True,0.010528087615966797,-1.2049998044967651,-0.8299993872642517,-0.7177056074142456,0.0,0.0,0.0
1759683861.795641,0,-1.2049998044967651,-0.8299993872642517,-0.7177048016195062,0.0,True,0.011562824249267578,-1.2049998044967651,-0.8299993872642517,-0.7177056074142456,0.0,0.0,0.0
1759683861.806609,0,-1.2049998044967651,-0.8299993872642517,-0.7177048251221354,0.0,True,0.01096796989440918,-1.2049998044967651,-0.8299993872642517,-0.7177056074142456,0.0,0.0,0.0
1759683861.8172233,0,-1.2049998044967651,-0.8299993872642517,-0.7177048554695169,0.0,True,0.010614395141601562,-1.2049998044967651,-0.8299993872642517,-0.7177056074142456,0.0,0.0,0.0
1759683861.8276258,0,-1.2049998044967651,-0.8299993872642517,-0.717704887216609,0.0,True,0.010402441024780273,-1.2049998044967651,-0.8299993872642517,-0.7177056074142456,0.0,0.0,0.0
1759683861.838209,0,-1.2049998044967651,-0.8299993872642517,-0.7177049131978297,0.0,True,0.010583162307739258,-1.2049998044967651,-0.8299993872642517,-0.7177056074142456,0.0,0.0,0.0
1759683861.8488736,0,-1.2049998044967651,-0.8299993872642517,-0.7177049361692216,0.0,True,0.010664701461791992,-1.2049998044967651,-0.8299993872642517,-0.7177056074142456,0.0,0.0,0.0
1759683861.859757,0,-1.2049998044967651,-0.8299993872642517,-0.7177049551751882,0.0,True,0.010883331298828125,-1.2049998044967651,-0.8299993872642517,-0.7177056074142456,0.0,0.0,0.0
1759683861.9022202,0,-1.2049998044967651,-0.8299993872642517,-0.7177045910535114,0.0,True,0.04246330261230469,-1.2049998044967651,-0.8299993872642517,-0.7177056074142456,0.0,0.0,0.0
1759683861.905696,0,-1.2049998044967651,-0.8299993872642517,-0.7177048166433391,0.0,True,0.003475666046142578,-1.2049998044967651,-0.8299993872642517,-0.7177056074142456,0.0,0.0,0.0
1759683861.9158504,0,-1.2049998044967651,-0.8299993872642517,-0.7177049282631582,0.0,True,0.010154485702514648,-1.2049998044967651,-0.8299993872642517,-0.7177056074142456,0.0,0.0,0.0
1759683861.926831,0,-1.2049998044967651,-0.8299993872642517,-0.7177049954290364,0.0,True,0.010980606079101562,-1.2049998044967651,-0.8299993872642517,-0.7177056074142456,0.0,0.0,0.0
1759683861.9369504,0,-1.2049998044967651,-0.8299993872642517,-0.7177050537767791,0.0,True,0.010119438171386719,-1.2049998044967651,-0.8299993872642517,-0.7177056074142456,0.0,0.0,0.0
1759683861.9473848,0,-1.2049998044967651,-0.8299993872642517,-0.7177050953070214,0.0,True,0.010434389114379883,-1.2049998044967651,-0.8299993872642517,-0.7177056074142456,0.0,0.0,0.0
1759683861.9583433,0,-1.2049998044967651,-0.8299993872642517,-0.717705122681739,0.0,True,0.010958433151245117,-1.2049998044967651,-0.8299993872642517,-0.7177056074142456,0.0,0.0,0.0
1759683861.9696944,0,-1.2049998044967651,-0.8299993872642517,-0.7177051417622948,0.0,True,0.01135110855102539,-1.2049998044967651,-0.8299993872642517,-0.7177056074142456,0.0,0.0,0.0
1759683861.9804504,0,-1.2049998044967651,-0.8299993872642517,-0.7177051643892511,0.0,True,0.01075601577758789,-1.2049998044967651,-0.8299993872642517,-0.7177056074142456,0.0,0.0,0.0
1759683861.9915698,0,-1.2049998044967651,-0.8299993872642517,-0.7177051811805448,0.0,True,0.011119365692138672,-1.2049998044967651,-0.8299993872642517,-0.7177056074142456,0.0,0.0,0.0
1759683862.002547,0,-1.2049998044967651,-0.8299993872642517,-0.7177051977291917,0.0,True,0.01097726821899414,-1.2049998044967651,-0.8299993872642517,-0.7177056074142456,0.0,0.0,0.0
1759683862.013816,0,-1.2049998044967651,-0.8299993872642517,-0.7177052106502018,0.0,True,0.011269092559814453,-1.2049998044967651,-0.8299993872642517,-0.7177056074142456,0.0,0.0,0.0
1759683862.0252326,0,-1.2049998044967651,-0.8299993872642517,-0.7177052220756082,0.0,True,0.011416435241699219,-1.2049998044967651,-0.8299993872642517,-0.7177056074142456,0.0,0.0,0.0
1759683862.0360773,0,-1.2049998044967651,-0.8299993872642517,-0.7177052380313214,0.0,True,0.010844707489013672,-1.2049998044967651,-0.8299993872642517,-0.7177056074142456,0.0,0.0,0.0
1759683862.0468512,0,-1.2049998044967651,-0.8299993872642517,-0.7177052532985222,0.0,True,0.010773897171020508,-1.2049998044967651,-0.8299993872642517,-0.7177056074142456,0.0,0.0,0.0
1759683862.0571756,0,-1.2049998044967651,-0.8299993872642517,-0.71770527030586,0.0,True,0.010324478149414062,-1.2049998044967651,-0.8299993872642517,-0.7177056074142456,0.0,0.0,0.0
1759683862.0681133,0,-1.2049998044967651,-0.8299993872642517,-0.7177052809246565,0.0,True,0.010937690734863281,-1.2049998044967651,-0.8299993872642517,-0.7177056074142456,0.0,0.0,0.0
1759683862.0788994,0,-1.2049998044967651,-0.8299993872642517,-0.7177052919797546,0.0,True,0.010786056518554688,-1.2049998044967651,-0.8299993872642517,-0.7177056074142456,0.0,0.0,0.0
1759683862.0895708,0,-1.2049998044967651,-0.8299993872642517,-0.7177053033119289,0.0,True,0.010671377182006836,-1.2049998044967651,-0.8299993872642517,-0.7177056074142456,0.0,0.0,0.0
1759683862.1003842,0,-1.2049998044967651,-0.8299993872642517,-0.7177053130639877,0.0,True,0.010813474655151367,-1.2049998044967651,-0.8299993872642517,-0.7177056074142456,0.0,0.0,0.0
1759683862.1111505,0,-1.2049998044967651,-0.8299993872642517,-0.7177053227444983,0.0,True,0.010766267776489258,-1.2049998044967651,-0.8299993872642517,-0.7177056074142456,0.0,0.0,0.0
1759683862.1215065,0,-1.2049998044967651,-0.8299993872642517,-0.717705334486773,0.0,True,0.010355949401855469,-1.2049998044967651,-0.8299993872642517,-0.7177056074142456,0.0,0.0,0.0
1759683862.13266,0,-1.2049998044967651,-0.8299993872642517,-0.7177053406286493,0.0,True,0.011153459548950195,-1.2049998044967651,-0.8299993872642517,-0.7177056074142456,0.0,0.0,0.0
1759683862.1431699,0,-1.2049998044967651,-0.8299993872642517,-0.7177053506697497,0.0,True,0.010509967803955078,-1.2049998044967651,-0.8299993872642517,-0.7177056074142456,0.0,0.0,0.0
1759683862.1537766,0,-1.2049998044967651,-0.8299993872642517,-0.7177053596572662,0.0,True,0.010606765747070312,-1.2049998044967651,-0.8299993872642517,-0.7177056074142456,0.0,0.0,0.0
1759683862.1641943,0,-1.2049998044967651,-0.8299993872642517,-0.7177053690661097,0.0,True,0.010417699813842773,-1.2049998044967651,-0.8299993872642517,-0.7177056074142456,0.0,0.0,0.0
1759683862.1749039,0,-1.2049998044967651,-0.8299993872642517,-0.7177053762903327,0.0,True,0.010709524154663086,-1.2049998044967651,-0.8299993872642517,-0.7177056074142456,0.0,0.0,0.0
1759683862.1863184,0,-1.2049998044967651,-0.8299993872642517,-0.7177053799089279,0.0,True,0.011414527893066406,-1.2049998044967651,-0.8299993872642517,-0.7177056074142456,0.0,0.0,0.0
1759683862.197252,0,-1.2049998044967651,-0.8299993872642517,-0.7177053867271503,0.0,True,0.010933637619018555,-1.2049998044967651,-0.8299993872642517,-0.7177056074142456,0.0,0.0,0.0
1759683862.2081878,0,-1.2049998044967651,-0.8299993872642517,-0.7177053937369955,0.0,True,0.010935783386230469,-1.2049998044967651,-0.8299993872642517,-0.7177056074142456,0.0,0.0,0.0
1759683862.2183833,0,-1.2049998044967651,-0.8299993872642517,-0.7177054038790764,0.0,True,0.010195493698120117,-1.2049998044967651,-0.8299993872642517,-0.7177056074142456,0.0,0.0,0.0
1759683862.2290294,0,-1.2049998044967651,-0.8299993872642517,-0.7177054109902166,0.0,True,0.01064610481262207,-1.2049998044967651,-0.8299993872642517,-0.7177056074142456,0.0,0.0,0.0
1759683862.240302,0,-1.2049998044967651,-0.8299993872642517,-0.7177054150153772,0.0,True,0.011272668838500977,-1.2049998044967651,-0.8299993872642517,-0.7177056074142456,0.0,0.0,0.0
1759683862.2510192,0,-1.2049998044967651,-0.8299993872642517,-0.7177054217280379,0.0,True,0.010717153549194336,-1.2049998044967651,-0.8299993872642517,-0.7177056074142456,0.0,0.0,0.0
1759683862.2619524,0,-1.2049998044967651,-0.8299993872642517,-0.7177054274565045,0.0,True,0.010933160781860352,-1.2049998044967651,-0.8299993872642517,-0.7177056074142456,0.0,0.0,0.0
1759683862.2735848,0,-1.2049998044967651,-0.8299993872642517,-0.7177054305412867,0.0,True,0.011632442474365234,-1.2049998044967651,-0.8299993872642517,-0.7177056074142456,0.0,0.0,0.0
1759683862.282848,0,-1.2049998044967651,-0.8299993872642517,-0.717705442778211,0.0,True,0.009263038635253906,-1.2049998044967651,-0.8299993872642517,-0.7177056074142456,0.0,0.0,0.0
1759683862.2942305,0,-1.2049998044967651,-0.8299993872642517,-0.7177054457988437,0.0,True,0.011382579803466797,-1.2049998044967651,-0.8299993872642517,-0.7177056074142456,0.0,0.0,0.0
1759683862.304872,0,-1.2049998044967651,-0.8299993872642517,-0.7177054514611036,0.0,True,0.01064157485961914,-1.2049998044967651,-0.8299993872642517,-0.7177056074142456,0.0,0.0,0.0
1759683862.3160748,0,-1.2049998044967651,-0.8299993872642517,-0.7177054551889235,0.0,True,0.011202812194824219,-1.2049998044967651,-0.8299993872642517,-0.7177056074142456,0.0,0.0,0.0
1759683862.326434,0,-1.2049998044967651,-0.8299993872642517,-0.7177054617950063,0.0,True,0.010359048843383789,-1.2049998044967651,-0.8299993872642517,-0.7177056074142456,0.0,0.0,0.0
1759683862.3379364,0,-1.2049998044967651,-0.8299993872642517,-0.7177054644290095,0.0,True,0.011502504348754883,-1.2049998044967651,-0.8299993872642517,-0.7177056074142456,0.0,0.0,0.0
1759683862.3487797,0,-1.2049998044967651,-0.8299993872642517,-0.7177054694088891,0.0,True,0.010843276977539062,-1.2049998044967651,-0.8299993872642517,-0.7177056074142456,0.0,0.0,0.0
1759683862.3596196,0,-1.2049998044967651,-0.8299993872642517,-0.7177054743294811,0.0,True,0.01083993911743164,-1.2049998044967651,-0.8299993872642517,-0.7177056074142456,0.0,0.0,0.0
1759683862.3700593,0,-1.2049998044967651,-0.8299993872642517,-0.7177054800981573,0.0,True,0.010439634323120117,-1.2049998044967651,-0.8299993872642517,-0.7177056074142456,0.0,0.0,0.0
1759683862.380841,0,-1.2049998044967651,-0.8299993872642517,-0.7177054844195894,0.0,True,0.01078176498413086,-1.2049998044967651,-0.8299993872642517,-0.7177056074142456,0.0,0.0,0.0
1759683862.392084,0,-1.2049998044967651,-0.8299993872642517,-0.7177054873397708,0.0,True,0.011242866516113281,-1.2049998044967651,-0.8299993872642517,-0.7177056074142456,0.0,0.0,0.0
1759683862.4024596,0,-1.2049998044967651,-0.8299993872642517,-0.7177054926032618,0.0,True,0.010375738143920898,-1.2049998044967651,-0.8299993872642517,-0.7177056074142456,0.0,0.0,0.0
1759683862.4131684,0,-1.2049998044967651,-0.8299993872642517,-0.7177054966457952,0.0,True,0.010708808898925781,-1.2049998044967651,-0.8299993872642517,-0.7177056074142456,0.0,0.0,0.0
1759683862.4242692,0,-1.2049998044967651,-0.8299993872642517,-0.7177054995314904,0.0,True,0.01110076904296875,-1.2049998044967651,-0.8299993872642517,-0.7177056074142456,0.0,0.0,0.0
1759683862.435563,0,-1.2049998044967651,-0.8299993872642517,-0.7177055021074246,0.0,True,0.011293888092041016,-1.2049998044967651,-0.8299993872642517,-0.7177056074142456,0.0,0.0,0.0
1759683862.4466112,0,-1.2049998044967651,-0.8299993872642517,-0.7177055054633641,0.0,True,0.011048078536987305,-1.2049998044967651,-0.8299993872642517,-0.7177056074142456,0.0,0.0,0.0
1759683862.4577904,0,-1.2049998044967651,-0.8299993872642517,-0.7177055085724291,0.0,True,0.011179208755493164,-1.2049998044967651,-0.8299993872642517,-0.7177056074142456,0.0,0.0,0.0
1759683862.5008059,0,-1.2049998044967651,-0.8299993872642517,-0.7177054552836566,0.0,True,0.043015480041503906,-1.2049998044967651,-0.8299993872642517,-0.7177056074142456,0.0,0,0
1759683862.5078273,0,-1.2049998044967651,-0.8299993872642517,-0.7177054837474763,0.0,True,0.007021427154541016,-1.2049998044967651,-0.8299993872642517,-0.7177056074142456,0.0,0,0
1759683862.5190847,0,-1.2049998044967651,-0.8299993872642517,-0.7177055009814826,0.0,True,0.011257410049438477,-1.2049998044967651,-0.8299993872642517,-0.7177056074142456,0.0,0,0
1759683862.529151,0,-1.2049998044967651,-0.8299993872642517,-0.7177055148398033,0.0,True,0.01006627082824707,-1.2049998044967651,-0.8299993872642517,-0.7177056074142456,0.0,0,0
1759683862.539571,0,-1.2049998044967651,-0.8299993872642517,-0.7177055244208592,0.0,True,0.010420083999633789,-1.2049998044967651,-0.8299993872642517,-0.7177056074142456,0.0,0,0
1759683862.5498657,0,-1.2049998044967651,-0.8299993872642517,-0.7177055317067307,0.0,True,0.010294675827026367,-1.2049998044967651,-0.8299993872642517,-0.7177056074142456,0.0,0,0
1759683862.5610914,0,-1.2049998044967651,-0.8299993872642517,-0.7177055360079692,0.0,True,0.011225700378417969,-1.2049998044967651,-0.8299993872642517,-0.7177056074142456,0.0,0,0
1759683862.5714478,0,-1.2049998044967651,-0.8299993872642517,-0.7177055406566843,0.0,True,0.010356426239013672,-1.2049998044967651,-0.8299993872642517,-0.7177056074142456,0.0,0,0
1759683862.5826797,0,-1.2049998044967651,-0.8299993872642517,-0.7177055433560025,0.0,True,0.01123189926147461,-1.2049998044967651,-0.8299993872642517,-0.7177056074142456,0.0,0,0
1759683862.59351,0,-1.2049998044967651,-0.8299993872642517,-0.7177055462249271,0.0,True,0.010830163955688477,-1.2049998044967651,-0.8299993872642517,-0.7177056074142456,0.0,0,0
1759683862.6041622,0,-1.2049998044967651,-0.8299993872642517,-0.7177055489962516,0.0,True,0.010652303695678711,-1.2049998044967651,-0.8299993872642517,-0.7177056074142456,0.0,0,0
1759683862.614309,0,-1.2049998044967651,-0.8299993872642517,-0.7177055520282067,0.0,True,0.010146856307983398,-1.2049998044967651,-0.8299993872642517,-0.7177056074142456,0.0,0,0
1759683862.6243834,0,-1.2049998044967651,-0.8299993872642517,-0.7177055547000251,0.0,True,0.010074377059936523,-1.2049998044967651,-0.8299993872642517,-0.7177056074142456,0.0,0,0
1759683862.6345956,0,-1.2049998044967651,-0.8299993872642517,-0.7177055568226365,0.0,True,0.010212182998657227,-1.2049998044967651,-0.8299993872642517,-0.7177056074142456,0.0,0,0
1759683862.6457355,0,-1.2049998044967651,-0.8299993872642517,-0.7177055576926143,0.0,True,0.011139869689941406,-1.2049998044967651,-0.8299993872642517,-0.7177056074142456,0.0,0,0
1759683862.6570778,0,-1.2049998044967651,-0.8299993872642517,-0.7177055584740515,0.0,True,0.011342287063598633,-1.2049998044967651,-0.8299993872642517,-0.7177056074142456,0.0,0,0
1759683862.6685994,0,-1.2049998044967651,-0.8299993872642517,-0.7177055592993451,0.0,True,0.011521577835083008,-1.2049998044967651,-0.8299993872642517,-0.7177056074142456,0.0,0,0
1759683862.6788297,0,-1.2049998044967651,-0.8299993872642517,-0.7177055616000771,0.0,True,0.010230302810668945,-1.2049998044967651,-0.8299993872642517,-0.7177056074142456,0.0,0,0
1759683862.6939297,0,-1.2049998044967651,-0.8299993872642517,-0.7177055591399739,0.0,True,0.01510000228881836,-1.2049998044967651,-0.8299993872642517,-0.7177056074142456,0.0,0,0
1759683862.7045438,0,-1.2049998044967651,-0.8299993872642517,-0.7177055618512593,0.0,True,0.010614156723022461,-1.2049998044967651,-0.8299993872642517,-0.7177056074142456,0.0,0,0
1759683862.7150838,0,-1.2049998044967651,-0.8299993872642517,-0.7177055645036372,0.0,True,0.010540008544921875,-1.2049998044967651,-0.8299993872642517,-0.7177056074142456,0.0,0,0
1759683862.7264605,0,-1.2049998044967651,-0.8299993872642517,-0.7177055660314409,0.0,True,0.011376619338989258,-1.2049998044967651,-0.8299993872642517,-0.7177056074142456,0.0,0,0
1759683862.7367103,0,-1.2049998044967651,-0.8299993872642517,-0.7177055683471547,0.0,True,0.010249853134155273,-1.2049998044967651,-0.8299993872642517,-0.7177056074142456,0.0,0,0
1759683862.7481308,0,-1.2049998044967651,-0.8299993872642517,-0.7177055694253944,0.0,True,0.011420488357543945,-1.2049998044967651,-0.8299993872642517,-0.7177056074142456,0.0,0,0
1759683862.7590117,0,-1.2049998044967651,-0.8299993872642517,-0.7177055708873112,0.0,True,0.01088094711303711,-1.2049998044967651,-0.8299993872642517,-0.7177056074142456,0.0,0,0
1759683862.7690618,0,-1.2049998044967651,-0.8299993872642517,-0.717705572874074,0.0,True,0.010050058364868164,-1.2049998044967651,-0.8299993872642517,-0.7177056074142456,0.0,0,0
1759683862.7793336,0,-1.2049998044967651,-0.8299993872642517,-0.7177055744218954,0.0,True,0.010271787643432617,-1.2049998044967651,-0.8299993872642517,-0.7177056074142456,0.0,0,0
1759683862.7897074,0,-1.2049998044967651,-0.8299993872642517,-0.7177055756894681,0.0,True,0.010373830795288086,-1.2049998044967651,-0.8299993872642517,-0.7177056074142456,0.0,0,0
1759683862.8006494,0,-1.2049998044967651,-0.8299993872642517,-0.7177055764530937,0.0,True,0.01094198226928711,-1.2049998044967651,-0.8299993872642517,-0.7177056074142456,0.0,0,0
1759683862.8107748,0,-1.2049998044967651,-0.8299993872642517,-0.7177055777719552,0.0,True,0.010125398635864258,-1.2049998044967651,-0.8299993872642517,-0.7177056074142456,0.0,0,0
1759683862.8218806,0,-1.2049998044967651,-0.8299993872642517,-0.7177055783596309,0.0,True,0.011105775833129883,-1.2049998044967651,-0.8299993872642517,-0.7177056074142456,0.0,0,0
1759683862.8322706,0,-1.2049998044967651,-0.8299993872642517,-0.7177055794371903,0.0,True,0.010390043258666992,-1.2049998044967651,-0.8299993872642517,-0.7177056074142456,0.0,0,0
1759683862.8424318,0,-1.2049998044967651,-0.8299993872642517,-0.7177055805966681,0.0,True,0.010161161422729492,-1.2049998044967651,-0.8299993872642517,-0.7177056074142456,0.0,0,0
1759683862.8525844,0,-1.2049998044967651,-0.8299993872642517,-0.7177055816442923,0.0,True,0.010152578353881836,-1.2049998044967651,-0.8299993872642517,-0.7177056074142456,0.0,0,0
1759683862.8641763,0,-1.2049998044967651,-0.8299993872642517,-0.7177055817938935,0.0,True,0.011591911315917969,-1.2049998044967651,-0.8299993872642517,-0.7177056074142456,0.0,0,0
1759683862.875432,0,-1.2049998044967651,-0.8299993872642517,-0.7177055822855394,0.0,True,0.011255741119384766,-1.2049998044967651,-0.8299993872642517,-0.7177056074142456,0.0,0,0
1759683862.910551,0,-1.2049998044967651,-0.8299993872642517,-0.7177055715678691,0.0,True,0.035119056701660156,-1.2049998044967651,-0.8299993872642517,-0.7177056074142456,0.0,0,0
1759683862.921162,0,-1.2049998044967651,-0.8299993872642517,-0.7177055761271038,0.0,True,0.010610818862915039,-1.2049998044967651,-0.8299993872642517,-0.7177056074142456,0.0,0,0
1759683862.9326038,0,-1.2049998044967651,-0.8299993872642517,-0.7177055799342629,0.0,True,0.011441946029663086,-1.2049998044967651,-0.8299993872642517,-0.7177056074142456,0.0,0,0
1759683862.9435532,0,-1.2049998044967651,-0.8299993872642517,-0.7177055829506482,0.0,True,0.010949373245239258,-1.2049998044967651,-0.8299993872642517,-0.7177056074142456,0.0,0,0
1759683862.9537122,0,-1.2049998044967651,-0.8299993872642517,-0.7177055855125047,0.0,True,0.010159015655517578,-1.2049998044967651,-0.8299993872642517,-0.7177056074142456,0.0,0,0
1759683862.963715,0,-1.2049998044967651,-0.8299993872642517,-0.7177055875040246,0.0,True,0.010002851486206055,-1.2049998044967651,-0.8299993872642517,-0.7177056074142456,0.0,0,0
1759683862.975006,0,-1.2049998044967651,-0.8299993872642517,-0.7177055885492045,0.0,True,0.011291027069091797,-1.2049998044967651,-0.8299993872642517,-0.7177056074142456,0.0,0,0
1759683862.985033,0,-1.2049998044967651,-0.8299993872642517,-0.7177055898507394,0.0,True,0.010026931762695312,-1.2049998044967651,-0.8299993872642517,-0.7177056074142456,0.0,0,0
1759683862.9958863,0,-1.2049998044967651,-0.8299993872642517,-0.7177055906325336,0.0,True,0.010853290557861328,-1.2049998044967651,-0.8299993872642517,-0.7177056074142456,0.0,0,0
1759683863.0081277,0,-1.2049998044967651,-0.8299993872642517,-0.717705590837479,0.0,True,0.012241363525390625,-1.2049998044967651,-0.8299993872642517,-0.7177056074142456,0.0,0,0
1759683863.0186043,0,-1.2049998044967651,-0.8299993872642517,-0.7177055916875581,0.0,True,0.01047658920288086,-1.2049998044967651,-0.8299993872642517,-0.7177056074142456,0.0,0,0
1759683863.0293167,0,-1.2049998044967651,-0.8299993872642517,-0.7177055923798115,0.0,True,0.010712385177612305,-1.2049998044967651,-0.8299993872642517,-0.7177056074142456,0.0,0,0
1759683863.0407639,0,-1.2049998044967651,-0.8299993872642517,-0.7177055927658493,0.0,True,0.01144719123840332,-1.2049998044967651,-0.8299993872642517,-0.7177056074142456,0.0,0,0
1759683863.0522203,0,-1.2049998044967651,-0.8299993872642517,-0.7177055931566194,0.0,True,0.011456489562988281,-1.2049998044967651,-0.8299993872642517,-0.7177056074142456,0.0,0,0
1759683863.062383,0,-1.2049998044967651,-0.8299993872642517,-0.7177055939319104,0.0,True,0.010162591934204102,-1.2049998044967651,-0.8299993872642517,-0.7177056074142456,0.0,0,0
1759683863.0737376,0,-1.2049998044967651,-0.8299993872642517,-0.7177055942822292,0.0,True,0.011354684829711914,-1.2049998044967651,-0.8299993872642517,-0.7177056074142456,0.0,0,0
1759683863.096907,0,-1.2049998044967651,-0.8299993872642517,-0.7177055916219075,0.0,True,0.023169279098510742,-1.2049998044967651,-0.8299993872642517,-0.7177056074142456,0.0,0,0
1759683863.1009905,0,-1.2049998044967651,-0.8299993872642517,-0.717705594636918,0.0,True,0.0040836334228515625,-1.2049998044967651,-0.8299993872642517,-0.7177056074142456,0.0,0,0
1759683863.1119525,0,-1.2049998044967651,-0.8299993872642517,-0.7177055954383071,0.0,True,0.01096200942993164,-1.2049998044967651,-0.8299993872642517,-0.7177056074142456,0.0,0,0
1759683863.1223936,0,-1.2049998044967651,-0.8299993872642517,-0.7177055961031584,0.0,True,0.010441064834594727,-1.2049998044967651,-0.8299993872642517,-0.7177056074142456,0.0,0,0
1759683863.133219,0,-1.2049998044967651,-0.8299993872642517,-0.7177055965706884,0.0,True,0.010825395584106445,-1.2049998044967651,-0.8299993872642517,-0.7177056074142456,0.0,0,0
1759683863.1440115,0,-1.2049998044967651,-0.8299993872642517,-0.7177055969908004,0.0,True,0.01079249382019043,-1.2049998044967651,-0.8299993872642517,-0.7177056074142456,0.0,0,0
1759683863.1555002,0,-1.2049998044967651,-0.8299993872642517,-0.7177055972286581,0.0,True,0.011488676071166992,-1.2049998044967651,-0.8299993872642517,-0.7177056074142456,0.0,0,0
1759683863.1668074,0,-1.2049998044967651,-0.8299993872642517,-0.7177055975208386,0.0,True,0.011307239532470703,-1.2049998044967651,-0.8299993872642517,-0.7177056074142456,0.0,0,0
1759683863.1775482,0,-1.2049998044967651,-0.8299993872642517,-0.7177055979341755,0.0,True,0.01074075698852539,-1.2049998044967651,-0.8299993872642517,-0.7177056074142456,0.0,0,0
1759683863.1875706,0,-1.2049998044967651,-0.8299993872642517,-0.7177055984518681,0.0,True,0.010022401809692383,-1.2049998044967651,-0.8299993872642517,-0.7177056074142456,0.0,0,0
1759683863.1977923,0,-1.2049998044967651,-0.8299993872642517,-0.717705598856714,0.0,True,0.010221719741821289,-1.2049998044967651,-0.8299993872642517,-0.7177056074142456,0.0,0,0
1759683863.2087553,0,-1.2049998044967651,-0.8299993872642517,-0.7177055990723886,0.0,True,0.010962963104248047,-1.2049998044967651,-0.8299993872642517,-0.7177056074142456,0.0,0,0
1759683863.219231,0,-1.2049998044967651,-0.8299993872642517,-0.7177055993735806,0.0,True,0.010475635528564453,-1.2049998044967651,-0.8299993872642517,-0.7177056074142456,0.0,0,0
1759683863.2305493,0,-1.2049998044967651,-0.8299993872642517,-0.7177055995174655,0.0,True,0.011318445205688477,-1.2049998044967651,-0.8299993872642517,-0.7177056074142456,0.0,0,0
1759683863.241792,0,-1.2049998044967651,-0.8299993872642517,-0.7177055996977781,0.0,True,0.01124262809753418,-1.2049998044967651,-0.8299993872642517,-0.7177056074142456,0.0,0,0
1759683863.2532196,0,-1.2049998044967651,-0.8299993872642517,-0.7177055998714543,0.0,True,0.011427640914916992,-1.2049998044967651,-0.8299993872642517,-0.7177056074142456,0.0,0,0
1759683863.2640789,0,-1.2049998044967651,-0.8299993872642517,-0.7177056001528825,0.0,True,0.010859251022338867,-1.2049998044967651,-0.8299993872642517,-0.7177056074142456,0.0,0,0
1759683863.2742233,0,-1.2049998044967651,-0.8299993872642517,-0.7177056005273048,0.0,True,0.010144472122192383,-1.2049998044967651,-0.8299993872642517,-0.7177056074142456,0.0,0,0
1759683863.2843485,0,-1.2049998044967651,-0.8299993872642517,-0.7177056008554228,0.0,True,0.010125160217285156,-1.2049998044967651,-0.8299993872642517,-0.7177056074142456,0.0,0,0
1759683863.2994347,0,-1.2049998044967651,-0.8299993872642517,-0.7177056004621853,0.0,True,0.015086174011230469,-1.2049998044967651,-0.8299993872642517,-0.7177056074142456,0.0,0,0
1759683863.3099728,0,-1.2049998044967651,-0.8299993872642517,-0.7177056008417324,0.0,True,0.010538101196289062,-1.2049998044967651,-0.8299993872642517,-0.7177056074142456,0.0,0,0
1759683863.3202732,0,-1.2049998044967651,-0.8299993872642517,-0.7177056012389595,0.0,True,0.010300397872924805,-1.2049998044967651,-0.8299993872642517,-0.7177056074142456,0.0,0,0
1759683863.3306258,0,-1.2049998044967651,-0.8299993872642517,-0.7177056015646066,0.0,True,0.010352611541748047,-1.2049998044967651,-0.8299993872642517,-0.7177056074142456,0.0,0,0
1759683863.3412247,0,-1.2049998044967651,-0.8299993872642517,-0.7177056018099535,0.0,True,0.010598897933959961,-1.2049998044967651,-0.8299993872642517,-0.7177056074142456,0.0,0,0
1759683863.3513072,0,-1.2049998044967651,-0.8299993872642517,-0.7177056020864399,0.0,True,0.010082483291625977,-1.2049998044967651,-0.8299993872642517,-0.7177056074142456,0.0,0,0
1759683863.3615837,0,-1.2049998044967651,-0.8299993872642517,-0.7177056023047541,0.0,True,0.010276556015014648,-1.2049998044967651,-0.8299993872642517,-0.7177056074142456,0.0,0,0
1759683863.3725145,0,-1.2049998044967651,-0.8299993872642517,-0.7177056024274737,0.0,True,0.010930776596069336,-1.2049998044967651,-0.8299993872642517,-0.7177056074142456,0.0,0,0
1759683863.3838148,0,-1.2049998044967651,-0.8299993872642517,-0.7177056025159239,0.0,True,0.011300325393676758,-1.2049998044967651,-0.8299993872642517,-0.7177056074142456,0.0,0,0
1759683863.3939292,0,-1.2049998044967651,-0.8299993872642517,-0.7177056027431252,0.0,True,0.010114431381225586,-1.2049998044967651,-0.8299993872642517,-0.7177056074142456,0.0,0,0
1759683863.4053032,0,-1.2049998044967651,-0.8299993872642517,-0.7177056028267526,0.0,True,0.01137399673461914,-1.2049998044967651,-0.8299993872642517,-0.7177056074142456,0.0,0,0
1759683863.416774,0,-1.2049998044967651,-0.8299993872642517,-0.7177056029136537,0.0,True,0.011470794677734375,-1.2049998044967651,-0.8299993872642517,-0.7177056074142456,0.0,0,0
1759683863.42701,0,-1.2049998044967651,-0.8299993872642517,-0.7177056031318862,0.0,True,0.010236024856567383,-1.2049998044967651,-0.8299993872642517,-0.7177056074142456,0.0,0,0
1759683863.4373229,0,-1.2049998044967651,-0.8299993872642517,-0.7177056033222335,0.0,True,0.010312795639038086,-1.2049998044967651,-0.8299993872642517,-0.7177056074142456,0.0,0,0
1759683863.44757,0,-1.2049998044967651,-0.8299993872642517,-0.7177056034950695,0.0,True,0.010247230529785156,-1.2049998044967651,-0.8299993872642517,-0.7177056074142456,0.0,0,0
1759683863.4576504,0,-1.2049998044967651,-0.8299993872642517,-0.717705603662651,0.0,True,0.010080337524414062,-1.2049998044967651,-0.8299993872642517,-0.7177056074142456,0.0,0,0
1759683863.4689052,0,-1.2049998044967651,-0.8299993872642517,-0.7177056037172953,0.0,True,0.01125478744506836,-1.2049998044967651,-0.8299993872642517,-0.7177056074142456,0.0,0,0
1759683863.4802725,0,-1.2049998044967651,-0.8299993872642517,-0.7177056037767144,0.0,True,0.011367321014404297,-1.2049998044967651,-0.8299993872642517,-0.7177056074142456,0.0,0.5235987755982988,0.028446850655746658
1759683863.4936016,0,-1.2049906535774926,-0.8300073475110006,-0.7177052807918383,0.00010000426399289607,True,0.013329029083251953,-1.2049856185913086,-0.8300117254257202,-0.7177056074142456,0.00010000426399289607,0.5235987755982988,0.02888050076309808
1759683863.5043092,0,-1.2049872336693337,-0.8300103222010997,-0.7177053173802292,0.00010000426399289607,True,0.010707616806030273,-1.2049856185913086,-0.8300117254257202,-0.7177056074142456,0.00010000426399289607,0.5235987755982988,0.030753439022803853
1759683863.5143628,0,-1.2049859461992343,-0.8300114420026888,-0.717705336496353,0.00010000426399289607,True,0.010053634643554688,-1.2049856185913086,-0.8300117254257202,-0.7177056074142456,0.00010000426399289607,0.5235987755982988,0.032552054981642466
1759683863.5248923,0,-1.204985440735703,-0.8300118816836889,-0.7177053267033315,0.00010000426399289607,True,0.010529518127441406,-1.2049856185913086,-0.8300117254257202,-0.7177056074142456,0.00010000426399289607,0.5235987755982988,0.03351602746316491
1759683863.5353892,0,-1.2049852486057113,-0.8300120488063358,-0.7177053267919007,0.00010000426399289607,True,0.010496854782104492,-1.2049856185913086,-0.8300117254257202,-0.7177056074142456,0.00010000426399289607,0.5235987755982988,0.030816508594028992
1759683863.5466301,0,-1.204985153806716,-0.8300121313344343,-0.7177053088328691,0.00010000426399289607,True,0.011240959167480469,-1.2049856185913086,-0.8300117254257202,-0.7177056074142456,0.00010000426399289607,0.5235987755982988,0.032359436033264126
1759683863.5581086,0,-1.2049851107635803,-0.8300121688228034,-0.7177053016284294,0.00010000426399289607,True,0.011478424072265625,-1.2049856185913086,-0.8300117254257202,-0.7177056074142456,0.00010000426399289607,0.5235987755982988,0.031850449669292374
1759683863.5683298,0,-1.2049851304984003,-0.8300121515599614,-0.7177053316208291,0.00010000426399289607,True,0.010221242904663086,-1.2049856185913086,-0.8300117254257202,-0.7177056074142456,0.00010000426399289607,0.5235987755982988,0.033580123451162625
1759683863.5791998,0,-1.2049851193688004,-0.8300121612633166,-0.7177053185022366,0.00010000426399289607,True,0.010869979858398438,-1.2049856185913086,-0.8300117254257202,-0.7177056074142456,0.00010000426399289607,0.5235987755982988,0.030982528714467356
1759683863.5904186,0,-1.2049851050806406,-0.8300121737321617,-0.7177053090115137,0.00010000426399289607,True,0.011218786239624023,-1.2049856185913086,-0.8300117254257202,-0.7177056074142456,0.00010000426399289607,0.5235987755982988,0.031938784225657005
1759683863.601966,0,-1.204985090169168,-0.8300121867482319,-0.7177053003046616,0.00010000426399289607,True,0.011547327041625977,-1.2049856185913086,-0.8300117254257202,-0.7177056074142456,0.00010000426399289607,0.5235987755982988,0.03435932021430024
1759683863.6133423,0,-1.2049850893925258,-0.8300121874255235,-0.7177053037830703,0.00010000426399289607,True,0.011376380920410156,-1.2049856185913086,-0.8300117254257202,-0.7177056074142456,0.00010000426399289607,0.5235987755982988,0.03284121431953984
1759683863.623406,0,-1.2049851268702276,-0.8300121547065735,-0.7177053360120738,0.00010000426399289607,True,0.010063648223876953,-1.2049856185913086,-0.8300117254257202,-0.7177056074142456,0.00010000426399289607,0.5235987755982988,0.03257397872535263
1759683863.6339736,0,-1.2049851266821776,-0.8300121548706533,-0.7177053265919557,0.00010000426399289607,True,0.010567665100097656,-1.2049856185913086,-0.8300117254257202,-0.7177056074142456,0.00010000426399289607,0.5235987755982988,0.03217550544243112
1759683863.6450973,0,-1.2049851106114753,-0.830012168900612,-0.717705312384032,0.00010000426399289607,True,0.0111236572265625,-1.2049856185913086,-0.8300117254257202,-0.7177056074142456,0.00010000426399289607,0.5235987755982988,0.0336541181349343
1759683863.6566503,0,-1.2049850921171061,-0.8300121850464908,-0.7177053008263705,0.00010000426399289607,True,0.011553049087524414,-1.2049856185913086,-0.8300117254257202,-0.7177056074142456,0.00010000426399289607,0.5235987755982988,0.034163994409452586
1759683863.6676621,0,-1.2049851006263983,-0.830012177617719,-0.7177053130379747,0.00010000426399289607,True,0.011011838912963867,-1.2049856185913086,-0.8300117254257202,-0.7177056074142456,0.00010000426399289607,0.5235987755982988,0.029954396595673297
1759683863.6790373,0,-1.2049850934211384,-0.8300121839080347,-0.7177053053117213,0.00010000426399289607,True,0.011375188827514648,-1.2049856185913086,-0.8300117254257202,-0.7177056074142456,0.00010000426399289607,0.5235987755982988,0.031716484582397335
1759683863.6906328,0,-1.2003986449957893,-0.8339650805659297,-0.7140210391984443,0.04661837245882457,True,0.011595487594604492,-1.1978157758712769,-0.8361884355545044,-0.7045621871948242,0.04661837245882457,0.5235987755982988,0.03198815032670382
1759683863.7001262,0,-1.1986745760974624,-0.8354498756829072,-0.7111794028665983,0.04661837245882457,True,0.009493350982666016,-1.1978157758712769,-0.8361884355545044,-0.7045621871948242,0.04661837245882457,0.5235987755982988,0.03269879496493897
1759683863.7118282,0,-1.1979859387901637,-0.8360423346450039,-0.7090289518789952,0.04661837245882457,True,0.01170206069946289,-1.1978157758712769,-0.8361884355545044,-0.7045621871948242,0.04661837245882457,0.5235987755982988,0.03128348432131149
1759683863.723222,0,-1.1977267836106493,-0.8362647276100064,-0.7074831328675621,0.04661837245882457,True,0.01139378547668457,-1.1978157758712769,-0.8361884355545044,-0.7045621871948242,0.04661837245882457,0.5235987755982988,0.03235142759816013
1759683863.7335744,0,-1.1976416879194374,-0.8363373876410408,-0.7063944483215039,0.04661837245882457,True,0.010352373123168945,-1.1978157758712769,-0.8361884355545044,-0.7045621871948242,0.04661837245882457,0.5235987755982988,0.031035160200726414
1759683863.7436867,0,-1.1976123087320638,-0.8363622168851877,-0.7056113022966066,0.04661837245882457,True,0.010112285614013672,-1.1978157758712769,-0.8361884355545044,-0.7045621871948242,0.04661837245882457,0.5235987755982988,0.029404753215546295
1759683863.7550952,0,-1.1975834294103722,-0.8363865679709476,-0.7050045584107654,0.04661837245882457,True,0.011408567428588867,-1.1978157758712769,-0.8361884355545044,-0.7045621871948242,0.04661837245882457,0.5235987755982988,0.029727158106859632
1759683863.766491,0,-1.1975724952338829,-0.8363956292627419,-0.7045774723623737,0.04661837245882457,True,0.011395692825317383,-1.1978157758712769,-0.8361884355545044,-0.7045621871948242,0.04661837245882457,0.5235987755982988,0.03083568837427829
1759683863.7777877,0,-1.197569606116149,-0.836397884581879,-0.7042782010709701,0.04661837245882457,True,0.011296749114990234,-1.1978157758712769,-0.8361884355545044,-0.7045621871948242,0.04661837245882457,0.5235987755982988,0.0302140951224191
1759683863.7886095,0,-1.1975749082772715,-0.8363932243076456,-0.704082877538065,0.04661837245882457,True,0.010821819305419922,-1.1978157758712769,-0.8361884355545044,-0.7045621871948242,0.04661837245882457,0.5235987755982988,0.028436831814287675
1759683863.7990892,0,-1.1975815524552367,-0.8363874716287664,-0.7039559584545358,0.04661837245882457,True,0.01047968864440918,-1.1978157758712769,-0.8361884355545044,-0.7045621871948242,0.04661837245882457,0.5235987755982988,0.028585038114327367
1759683863.8103793,0,-1.1975730773722895,-0.8363945988494036,-0.7038435129251184,0.04661837245882457,True,0.01129007339477539,-1.1978157758712769,-0.8361884355545044,-0.7045621871948242,0.04661837245882457,0.5235987755982988,0.02833013710649943
1759683863.820947,0,-1.1975796309978795,-0.8363889776985116,-0.7037955597445436,0.04661837245882457,True,0.010567665100097656,-1.1978157758712769,-0.8361884355545044,-0.7045621871948242,0.04661837245882457,0.5235987755982988,0.02896875856264288
1759683863.8311207,0,-1.1975874746033806,-0.8363822842531053,-0.7037749352972771,0.04661837245882457,True,0.010173797607421875,-1.1978157758712769,-0.8361884355545044,-0.7045621871948242,0.04661837245882457,0.5235987755982988,0.02792545265298822
1759683863.8424318,0,-1.1975750318529366,-0.8363928324170213,-0.7037302508987064,0.04661837245882457,True,0.011311054229736328,-1.1978157758712769,-0.8361884355545044,-0.7045621871948242,0.04661837245882457,0.5235987755982988,0.030075460023263792
1759683863.8526635,0,-1.1975849241902845,-0.8363844157551362,-0.7037421164064277,0.04661837245882457,True,0.010231733322143555,-1.1978157758712769,-0.8361884355545044,-0.7045621871948242,0.04661837245882457,0.5235987755982988,0.027431205891025323
1759683863.8639154,0,-1.197574856245353,-0.8363929603822305,-0.7037222380816068,0.04661837245882457,True,0.01125192642211914,-1.1978157758712769,-0.8361884355545044,-0.7045621871948242,0.04661837245882457,0.5235987755982988,0.029396851970916252
1759683863.8753448,0,-1.1975686005404431,-0.8363982657641461,-0.7037156754592644,0.04661837245882457,True,0.011429309844970703,-1.1978157758712769,-0.8361884355545044,-0.7045621871948242,0.04661837245882457,0.5235987755982988,0.031075916344665132
1759683863.886602,0,-1.1975685469179458,-0.8363983074731076,-0.7037243635112631,0.04661837245882457,True,0.011257171630859375,-1.1978157758712769,-0.8361884355545044,-0.7045621871948242,0.04661837245882457,0.5235987755982988,0.029496896328315002
1759683863.9082668,0,-1.187569665726862,-0.8445247954397542,-0.6908230009874572,0.091107749011248,True,0.021664857864379883,-1.1823205947875977,-0.8487584590911865,-0.6606478095054626,0.091107749011248,0.5235987755982988,0.026619886940559855
1759683863.9188888,0,-1.1840405247609307,-0.8473767011800615,-0.6813158699058555,0.091107749011248,True,0.010622024536132812,-1.1823205947875977,-0.8487584590911865,-0.6606478095054626,0.091107749011248,0.5235987755982988,0.03049727862282956
1759683863.9303017,0,-1.182668963567894,-0.8484807091716294,-0.6742654357114795,0.091107749011248,True,0.011412858963012695,-1.1823205947875977,-0.8487584590911865,-0.6606478095054626,0.091107749011248,0.5235987755982988,0.031087817687913927
1759683863.9418955,0,-1.1821384418920324,-0.8489042056818008,-0.669182904718074,0.091107749011248,True,0.011593818664550781,-1.1823205947875977,-0.8487584590911865,-0.6606478095054626,0.091107749011248,0.5235987755982988,0.029521472359916253
1759683863.9520679,0,-1.1819733514072461,-0.8490337113379245,-0.6656953875627849,0.091107749011248,True,0.010172367095947266,-1.1823205947875977,-0.8487584590911865,-0.6606478095054626,0.091107749011248,0.5235987755982988,0.02869961619686652
1759683863.9632428,0,-1.1818821109348556,-0.8491037841976121,-0.6630804713272926,0.091107749011248,True,0.011174917221069336,-1.1823205947875977,-0.8487584590911865,-0.6606478095054626,0.091107749011248,0.5235987755982988,0.027748432687733006
1759683863.9740386,0,-1.181857043683466,-0.8491216462507142,-0.6612609999610726,0.091107749011248,True,0.010795831680297852,-1.1823205947875977,-0.8487584590911865,-0.6606478095054626,0.091107749011248,0.5235987755982988,0.027651452932265883
1759683863.9851432,0,-1.1818385810115586,-0.8491345441061154,-0.6599332067179375,0.091107749011248,True,0.011104583740234375,-1.1823205947875977,-0.8487584590911865,-0.6606478095054626,0.091107749011248,0.5235987755982988,0.02904440191463714
1759683863.9954598,0,-1.1818528809292845,-0.8491222582558436,-0.659086207198829,0.091107749011248,True,0.010316610336303711,-1.1823205947875977,-0.8487584590911865,-0.6606478095054626,0.091107749011248,0.5235987755982988,0.02982929873837737
1759683864.0058527,0,-1.1818560629494543,-0.8491189578892212,-0.6584833635777727,0.091107749011248,True,0.010392904281616211,-1.1823205947875977,-0.8487584590911865,-0.6606478095054626,0.091107749011248,0.5235987755982988,0.027786601054435665
1759683864.0170026,0,-1.181836318978705,-0.8491336565789303,-0.6579925661601855,0.091107749011248,True,0.011149883270263672,-1.1823205947875977,-0.8487584590911865,-0.6606478095054626,0.091107749011248,0.5235987755982988,0.027578257015479925
1759683864.0275698,0,-1.181844704247235,-0.8491267186622098,-0.6577322359421665,0.091107749011248,True,0.010567188262939453,-1.1823205947875977,-0.8487584590911865,-0.6606478095054626,0.091107749011248,0.5235987755982988,0.03091149005780707
