timestamp,observer_vehicle_id,vehicle_0_x,vehicle_0_y,vehicle_0_theta,vehicle_0_velocity,vehicle_1_x,vehicle_1_y,vehicle_1_theta,vehicle_1_velocity
1759838026.2175238,0,-1.205,-0.83,-0.7801621756414646,0.0,0.0,0.0,0.0,0.0
1759838026.2280574,0,-1.205,-0.83,-0.7801621756414646,0.0,0.0,0.0,0.0,0.0
1759838026.238881,0,-1.205,-0.83,-0.7801621756414646,0.0,0.0,0.0,0.0,0.0
1759838026.2489715,0,-1.205,-0.83,-0.7801621756414646,0.0,-0.2735264623165131,-0.0551782488822937,1.771808202249175,0.0
1759838026.260484,0,-1.205,-0.83,-0.7801621756414646,0.0,-0.5005658445330959,-0.10097870062627294,-3.0131661487153676,0.0
1759838026.2717466,0,-1.205,-0.83,-0.7801621756414646,0.0,-0.6895541400805968,-0.13910314065026447,-0.7767817707948124,0.0
1759838026.2829962,0,-1.205,-0.83,-0.7801621756414646,0.0,-0.8581247774706612,-0.17310874473471546,1.1176998731230505,0.0
1759838026.2934139,0,-1.205,-0.83,-0.7801621756414646,0.0,-0.9976876055470761,-0.2012626293610816,2.7105340914702274,0.0
1759838026.3041806,0,-1.205,-0.83,-0.7801621756414646,0.0,-1.1134500236995326,-0.22461527855610164,-2.2259491525889645,0.0
1759838026.315599,0,-1.205,-0.83,-0.7801621756414646,0.0,-1.2160329239528656,-0.24530923537954052,-0.0920670284718381,0.0
1759838026.3263104,0,-1.205,-0.83,-0.7801621756414646,0.0,-1.3005733879835637,-0.26236350766239025,1.6909716115560063,0.0
1759838026.3377407,0,-1.205,-0.83,-0.7801621756414646,0.0,-1.370348969807501,-0.27643927344819896,-3.0941281922552215,0.0
1759838026.348145,0,-1.205,-0.83,-0.7801621756414646,0.0,-1.428158730947384,-0.2881011849173396,-0.8324272462081229,0.0
1759838026.3586729,0,-1.205,-0.83,-0.7801621756414646,0.0,-1.4796313984676357,-0.29848469463660016,-0.8131823130342231,0.0
1759838026.369275,0,-1.205,-0.83,-0.7801621756414646,0.0,-1.5219280263719852,-0.3070171346303884,-0.7973681767806424,0.0
1759838026.3797684,0,-1.205,-0.83,-0.7801621756414646,0.0,-1.5567719146519086,-0.314046143812185,-0.7843405189231567,0.0
1759838026.3903883,0,-1.205,-0.83,-0.7801621756414646,0.0,-1.587443175888646,-0.3202334147366681,-0.772872949797698,0.0
1759838026.4005928,0,-1.205,-0.83,-0.7801621756414646,0.0,-1.612535074872299,-0.32529516866401126,-0.7634914286446189,0.0
1759838026.41458,0,-1.2050000425577163,-0.8299997470180194,-0.7229996553999225,0.0,-1.6330175327529477,-0.32942706644052305,-0.7558333150837624,0.0
1759838026.425555,0,-1.205000042795803,-0.8299997456027273,-0.7181160184237037,0.0,-1.6498504205358442,-0.33282274151075636,-0.7495397263479903,0.0
1759838026.4365695,0,-1.2050000428705006,-0.8299997451586908,-0.7176557418306757,0.0,-1.664634396693191,-0.3358050924848676,-0.7440121979159204,0.0
1759838026.448198,0,-1.2050000428982601,-0.829999744993676,-0.7175937526001555,0.0,-1.6766878783840822,-0.33823662460313325,-0.7395055643795342,0.0
1759838026.4585674,0,-1.2050000429088212,-0.8299997449308965,-0.7175909161167304,0.0,-1.6865556961519237,-0.3402272457742618,-0.7358161209785368,0.0
1759838026.4700723,0,-1.205000042912853,-0.8299997449069307,-0.7175971340241922,0.0,-1.6951652472555463,-0.3419640385590492,-0.7325971264397109,0.0
1759838026.481367,0,-1.2050000429143926,-0.8299997448977774,-0.7176087908783089,0.0,-1.7021547221774023,-0.3433740156261026,-0.729983856440855,0.0
1759838026.491654,0,-1.2050000429149808,-0.8299997448942812,-0.7176221629310184,0.0,-1.7078502409089424,-0.34452296470829097,-0.7278543791345533,0.0
1759838026.5028741,0,-1.2050000429152055,-0.8299997448929457,-0.7176319303457923,0.0,-1.712497209584053,-0.34546039124411454,-0.7261169404914419,0.0
1759838026.5134542,0,-1.2050000429152912,-0.8299997448924357,-0.7176411508334404,0.0,-1.7165482717592173,-0.34627760638946514,-0.7246023032169374,0.0
1759838026.524017,0,-1.205000042915324,-0.8299997448922408,-0.7176486922753647,0.0,-1.7198310652518713,-0.3469398397606788,-0.7233749111964056,0.0
1759838026.5349023,0,-1.2050000429153365,-0.8299997448921663,-0.7176545574942494,0.0,-1.7224967891179825,-0.34747759253328847,-0.7223782331508548,0.0
1759838026.5457096,0,-1.2050000429153414,-0.8299997448921379,-0.7176595878471126,0.0,-1.724667028751729,-0.3479153919599699,-0.7215668099483102,0.0
1759838026.5560174,0,-1.2050000429153431,-0.829999744892127,-0.7176642208913933,0.0,-1.7265497416540767,-0.3482951890185236,-0.7208628890960042,0.0
1759838026.5660293,0,-1.2050000429153438,-0.8299997448921229,-0.7176682256324245,0.0,-1.728072499485368,-0.34860237284059914,-0.7202935505690723,0.0
1759838026.5764024,0,-1.205000042915344,-0.8299997448921214,-0.717671249170019,0.0,-1.7293064846271256,-0.34885130294914307,-0.7198321802392489,0.0
1759838026.5870712,0,-1.2050000429153442,-0.8299997448921207,-0.7176736447217884,0.0,-1.7303085172781405,-0.3490534416039298,-0.7194575338038516,0.0
1759838026.59781,0,-1.2050000429153442,-0.8299997448921205,-0.7176757451489024,0.0,-1.7311746467736222,-0.3492281647039311,-0.7191336997174613,0.0
1759838026.613403,0,-1.2050000429153442,-0.8299997448921204,-0.7176752572381844,0.0,-1.7318689480131517,-0.34936822512854215,-0.718874109888509,0.0
1759838026.6236126,0,-1.2050000429153442,-0.8299997448921204,-0.7176781840999773,0.0,-1.7324308444376642,-0.34948157571374056,-0.7186640244264307,0.0
1759838026.633981,0,-1.2050000429153442,-0.8299997448921204,-0.7176806018487198,0.0,-1.7329166644831386,-0.34957957951667173,-0.7184823828919985,0.0
1759838026.6441019,0,-1.2050000429153442,-0.8299997448921204,-0.7176826277118948,0.0,-1.7333064048036393,-0.34965820129014624,-0.7183366642653068,0.0
1759838026.654585,0,-1.2050000429153442,-0.8299997448921204,-0.7176841182293057,0.0,-1.7336196879839199,-0.3497213994709292,-0.7182195319277097,0.0
1759838026.6650283,0,-1.2050000429153442,-0.8299997448921204,-0.7176853892684996,0.0,-1.7338721409282245,-0.34977232645270667,-0.7181251431913812,0.0
1759838026.6762705,0,-1.2050000429153442,-0.8299997448921204,-0.7176862144199525,0.0,-1.7340878476621016,-0.349815840672498,-0.7180444933653936,0.0
1759838026.6867352,0,-1.2050000429153442,-0.8299997448921204,-0.7176872695712042,0.0,-1.7342603953074125,-0.34985064846930425,-0.7179799801380187,0.0
1759838026.6979866,0,-1.2050000429153442,-0.8299997448921204,-0.7176879691532161,0.0,-1.734398643063,-0.3498785369970019,-0.7179282911748097,0.0
1759838026.7096214,0,-1.2050000429153442,-0.8299997448921204,-0.7176885391445875,0.0,-1.7345096544065524,-0.34990093116113324,-0.7178867855371357,0.0
1759838026.7205663,0,-1.2050000429153442,-0.8299997448921204,-0.7176893367441117,0.0,-1.7346043816503383,-0.34992004035643853,-0.7178513683037915,0.0
1759838026.7311308,0,-1.2050000429153442,-0.8299997448921204,-0.7176901815030411,0.0,-1.734679977836446,-0.34993529027005293,-0.7178231039137778,0.0
1759838026.7415535,0,-1.2050000429153442,-0.8299997448921204,-0.7176909604153163,0.0,-1.7347404663253283,-0.3499474925288919,-0.7178004880871184,0.0
1759838026.7520473,0,-1.2050000429153442,-0.8299997448921204,-0.7176916201408757,0.0,-1.7347889814682262,-0.34995727942127736,-0.7177823489323403,0.0
1759838026.7625666,0,-1.2050000429153442,-0.8299997448921204,-0.7176921986893667,0.0,-1.73483020194508,-0.3499655947708146,-0.7177669371543878,0.0
1759838026.772569,0,-1.2050000429153442,-0.8299997448921204,-0.7176928383912013,0.0,-1.7348630355387262,-0.3499722182460524,-0.7177546611184636,0.0
1759838026.783947,0,-1.2050000429153442,-0.8299997448921204,-0.7176930963360952,0.0,-1.7348892131567608,-0.3499774990205757,-0.7177448736616638,0.0
1759838026.7954378,0,-1.2050000429153442,-0.8299997448921204,-0.7176933601597195,0.0,-1.7349101374822653,-0.3499817200556941,-0.7177370503397837,0.0
1759838026.8064609,0,-1.2050000429153442,-0.8299997448921204,-0.717693762000156,0.0,-1.7349279096379089,-0.34998530520796517,-0.7177304055715176,0.0
1759838026.8209488,0,-1.2050000429153442,-0.8299997448921204,-0.7176935136428533,0.0,-1.734941962924113,-0.34998814015787,-0.7177251512381615,0.0
1759838026.8317585,0,-1.2050000429153442,-0.8299997448921204,-0.7176941325334845,0.0,-1.7349531559679707,-0.34999039811505944,-0.7177209663106761,0.0
1759838026.8426871,0,-1.2050000429153442,-0.8299997448921204,-0.7176946884716777,0.0,-1.7349620925934321,-0.34999220088810007,-0.7177176250274651,0.0
1759838026.8540165,0,-1.2050000429153442,-0.8299997448921204,-0.7176950996016878,0.0,-1.7349696535138024,-0.34999372614206364,-0.7177147981017535,0.0
1759838026.8647618,0,-1.2050000429153442,-0.8299997448921204,-0.7176955628907713,0.0,-1.73497564614087,-0.3499949350263978,-0.7177125575396648,0.0
1759838026.8762975,0,-1.2050000429153442,-0.8299997448921204,-0.7176958501474928,0.0,-1.7349804040710173,-0.34999589483703725,-0.7177107786140303,0.0
1759838026.8864586,0,-1.2050000429153442,-0.8299997448921204,-0.7176963255760889,0.0,-1.7349841974340219,-0.3499966600668869,-0.7177093603269851,0.0
1759838026.8967047,0,-1.2050000429153442,-0.8299997448921204,-0.7176967216559369,0.0,-1.7349872287940662,-0.34999727157893784,-0.7177082269425252,0.0
1759838026.907939,0,-1.2050000429153442,-0.8299997448921204,-0.717696922984647,0.0,-1.7349897900230948,-0.3499977882521121,-0.717707269333684,0.0
1759838026.9182255,0,-1.2050000429153442,-0.8299997448921204,-0.7176972452464341,0.0,-1.7349918216393976,-0.34999819808724675,-0.7177065097398673,0.0
1759838026.9293978,0,-1.2050000429153442,-0.8299997448921204,-0.7176974237055891,0.0,-1.7349934356433474,-0.3499985236780216,-0.7177059062856526,0.0
1759838026.9395804,0,-1.2050000429153442,-0.8299997448921204,-0.7176977227605831,0.0,-1.7349947225988478,-0.349998783293767,-0.7177054251104231,0.0
1759838026.9498322,0,-1.2050000429153442,-0.8299997448921204,-0.7176979824113001,0.0,-1.7349957511793337,-0.34999899078787966,-0.7177050405381118,0.0
1759838026.9603465,0,-1.2050000429153442,-0.8299997448921204,-0.7176981818728976,0.0,-1.7349965750178378,-0.3499991569796767,-0.7177047325160543,0.0
1759838026.9705162,0,-1.2050000429153442,-0.8299997448921204,-0.717698405162448,0.0,-1.7349972759648902,-0.34999929838075194,-0.7177044704414459,0.0
1759838026.9806502,0,-1.2050000429153442,-0.8299997448921204,-0.7176986116236819,0.0,-1.7349978330488247,-0.3499994107605202,-0.7177042621553087,0.0
1759838026.9917467,0,-1.2050000429153442,-0.8299997448921204,-0.7176986997005468,0.0,-1.7349982764229255,-0.3499995002017617,-0.717704096383738,0.0
1759838027.0018275,0,-1.2050000429153442,-0.8299997448921204,-0.7176989025274594,0.0,-1.734998630600302,-0.3499995716494719,-0.7177039639616144,0.0
1759838027.0158489,0,-1.2050000429153442,-0.8299997448921204,-0.7176987184110395,0.0,-1.7349989306222042,-0.3499996321724735,-0.7177038517874891,0.0
1759838027.0239158,0,-1.2050000429153442,-0.8299997448921204,-0.7176991751703222,0.0,-1.7349991688109798,-0.3499996802219643,-0.7177037627319324,0.0
1759838027.0353823,0,-1.2050000429153442,-0.8299997448921204,-0.7176992574984489,0.0,-1.7349993576228309,-0.34999971831071675,-0.7177036921377387,0.0
1759838027.0466163,0,-1.2050000429153442,-0.8299997448921204,-0.7176993576477582,0.0,-1.7349995077371274,-0.3499997485930652,-0.7177036360120365,0.0
1759838027.0568464,0,-1.2050000429153442,-0.8299997448921204,-0.7176995524646141,0.0,-1.7349996275279684,-0.3499997727583052,-0.7177035912238635,0.0
1759838027.0681257,0,-1.2050000429153442,-0.8299997448921204,-0.7176996455539904,0.0,-1.7349997232461356,-0.3499997920673981,-0.7177035554361373,0.0
1759838027.0785747,0,-1.2050000429153442,-0.8299997448921204,-0.7176998068861913,0.0,-1.7349998043088588,-0.3499998084200686,-0.717703525127883,0.0
1759838027.088792,0,-1.2050000429153442,-0.8299997448921204,-0.7176999737569734,0.0,-1.7349998686821033,-0.3499998214059938,-0.7177035010595989,0.0
1759838027.1002624,0,-1.2050000429153442,-0.8299997448921204,-0.7177000320005824,0.0,-1.7349999198601846,-0.34999983173007704,-0.7177034819248075,0.0
1759838027.1115968,0,-1.2050000429153442,-0.8299997448921204,-0.7177001113523254,0.0,-1.7349999606639195,-0.3499998399613578,-0.7177034666688438,0.0
1759838027.122381,0,-1.2050000429153442,-0.8299997448921204,-0.7177002383459232,0.0,-1.734999993302138,-0.3499998465454203,-0.7177034544658559,0.0
1759838027.133841,0,-1.2050000429153442,-0.8299997448921204,-0.7177003171523246,0.0,-1.735000020994768,-0.34999985213181606,-0.7177034441119567,0.0
1759838027.1448977,0,-1.2050000429153442,-0.8299997448921204,-0.7177004265431002,0.0,-1.7350000429691455,-0.3499998565646767,-0.7177034358960347,0.0
1759838027.1556396,0,-1.2050000429153442,-0.8299997448921204,-0.7177005528168952,0.0,-1.7350000604575386,-0.34999986009258593,-0.7177034293573614,0.0
1759838027.1670268,0,-1.2050000429153442,-0.8299997448921204,-0.7177006322660802,0.0,-1.735000074401749,-0.34999986290553214,-0.7177034241438099,0.0
1759838027.1777675,0,-1.2050000429153442,-0.8299997448921204,-0.7177007492112999,0.0,-1.7350000855574745,-0.34999986515596115,-0.7177034199728354,0.0
1759838027.1879823,0,-1.2050000429153442,-0.8299997448921204,-0.7177008861096468,0.0,-1.735000095088785,-0.3499998670786991,-0.7177034164092075,0.0
1759838027.1990871,0,-1.2050000429153442,-0.8299997448921204,-0.7177009592731611,0.0,-1.7350001026404314,-0.3499998686020822,-0.7177034135857493,0.0
1759838027.2111194,0,-1.2050000429153442,-0.8299997448921204,-0.717700985119901,0.0,-1.7350001086336833,-0.3499998698110926,-0.7177034113449535,0.0
1759838027.22197,0,-1.2050000429153442,-0.8299997448921204,-0.7177010836085671,0.0,-1.7350001134095314,-0.34999987077451783,-0.7177034095593287,0.0
1759838027.2331219,0,-1.2050000429153442,-0.8299997448921204,-0.7177011648663036,0.0,-1.7350001172238156,-0.3499998715439681,-0.7177034081332194,0.0
1759838027.2447555,0,-1.2050000429153442,-0.8299997448921204,-0.7177012216066814,0.0,-1.7350001204642318,-0.3499998721976528,-0.7177034069216718,0.0
1759838027.2549274,0,-1.2050000429153442,-0.8299997448921204,-0.7177013451810517,0.0,-1.7350001230335368,-0.34999987271595506,-0.7177034059610434,0.0
1759838027.2663236,0,-1.2050000429153442,-0.8299997448921204,-0.717701402640305,0.0,-1.7350001250731113,-0.3499998731273956,-0.7177034051984742,0.0
1759838027.2766201,0,-1.2050000429153442,-0.8299997448921204,-0.7177015031856815,0.0,-1.7350001266984016,-0.34999987345526323,-0.7177034045908001,0.0
1759838027.287812,0,-1.2050000429153442,-0.8299997448921204,-0.7177015581482848,0.0,-1.7350001279955012,-0.3499998737169253,-0.7177034041058321,0.0
1759838027.2981336,0,-1.2050000429153442,-0.8299997448921204,-0.7177016445943512,0.0,-1.7350001290940846,-0.34999987393854104,-0.7177034036950867,0.0
1759838027.3086882,0,-1.2050000429153442,-0.8299997448921204,-0.717701713951076,0.0,-1.7350001299646551,-0.34999987411416,-0.7177034033695922,0.0
1759838027.318828,0,-1.2050000429153442,-0.8299997448921204,-0.7177017913097288,0.0,-1.73500013065657,-0.3499998742537391,-0.7177034031108944,0.0
1759838027.3298228,0,-1.2050000429153442,-0.8299997448921204,-0.7177018308387062,0.0,-1.735000131207333,-0.34999987436484375,-0.7177034029049716,0.0
1759838027.339922,0,-1.2050000429153442,-0.8299997448921204,-0.7177019006642968,0.0,-1.7350001316472932,-0.34999987445359626,-0.7177034027404766,0.0
1759838027.3499494,0,-1.2050000429153442,-0.8299997448921204,-0.7177019663803108,0.0,-1.735000131999608,-0.34999987452466824,-0.7177034026087508,0.0
1759838027.3606634,0,-1.2050000429153442,-0.8299997448921204,-0.7177020031851793,0.0,-1.735000132299628,-0.3499998745851909,-0.7177034024965774,0.0
1759838027.3707526,0,-1.2050000429153442,-0.8299997448921204,-0.7177020587942717,0.0,-1.735000132537775,-0.34999987463323196,-0.7177034024075374,0.0
1759838027.3817825,0,-1.2050000429153442,-0.8299997448921204,-0.7177020831603046,0.0,-1.735000132727081,-0.34999987467142035,-0.7177034023367584,0.0
1759838027.3919559,0,-1.2050000429153442,-0.8299997448921204,-0.7177021349699668,0.0,-1.7350001328780906,-0.3499998747018833,-0.7177034022802979,0.0
1759838027.4025462,0,-1.2050000429153442,-0.8299997448921204,-0.7177021725186776,0.0,-1.7350001329987885,-0.34999987472623156,-0.7177034022351707,0.0
1759838027.4127455,0,-1.2050000429153442,-0.8299997448921204,-0.7177022194188503,0.0,-1.7350001331010199,-0.3499998747468545,-0.717703402196948,0.0
1759838027.4239924,0,-1.2050000429153442,-0.8299997448921204,-0.7177022366247741,0.0,-1.7350001331820517,-0.349999874763201,-0.7177034021666512,0.0
1759838027.434162,0,-1.2050000429153442,-0.8299997448921204,-0.7177022848111676,0.0,-1.7350001332465237,-0.34999987477620687,-0.7177034021425459,0.0
1759838027.4444141,0,-1.2050000429153442,-0.8299997448921204,-0.7177023280460074,0.0,-1.7350001332979397,-0.3499998747865789,-0.7177034021233222,0.0
1759838027.4561,0,-1.2050000429153442,-0.8299997448921204,-0.7177023347578579,0.0,-1.7350001333389813,-0.34999987479485817,-0.7177034021079773,0.0
1759838027.4669998,0,-1.2050000429153442,-0.8299997448921204,-0.7177023659157253,0.0,-1.7350001333736835,-0.34999987480185857,-0.7177034020950026,0.0
1759838027.477899,0,-1.2050000429153442,-0.8299997448921204,-0.7177023990550389,0.0,-1.7350001334012142,-0.3499998748074123,-0.7177034020847093,0.0
1759838027.4885366,0,-1.2050000429153442,-0.8299997448921204,-0.7177024373291907,0.0,-1.7350001334231178,-0.3499998748118309,-0.7177034020765197,0.0
1759838027.4993458,0,-1.2050000429153442,-0.8299997448921204,-0.717702469936695,0.0,-1.7350001334405856,-0.34999987481535466,-0.7177034020699888,0.0
1759838027.5099933,0,-1.2050000429153442,-0.8299997448921204,-0.7177025043388081,0.0,-1.7350001334545537,-0.3499998748181724,-0.7177034020647663,0.0
1759838027.5210164,0,-1.2050000429153442,-0.8299997448921204,-0.7177025298940407,0.0,-1.735000133466404,-0.34999987482056294,-0.7177034020603357,0.0
1759838027.5321064,0,-1.2050000429153442,-0.8299997448921204,-0.7177025545672109,0.0,-1.7350001334758014,-0.34999987482245865,-0.717703402056822,0.0
1759838027.5429075,0,-1.2050000429153442,-0.8299997448921204,-0.7177025850617014,0.0,-1.7350001334832756,-0.3499998748239664,-0.7177034020540275,0.0
1759838027.5540686,0,-1.2050000429153442,-0.8299997448921204,-0.7177026084778753,0.0,-1.7350001334892333,-0.3499998748251682,-0.7177034020518,0.0
1759838027.5644698,0,-1.2050000429153442,-0.8299997448921204,-0.7177026444750734,0.0,-1.7350001334939984,-0.34999987482612943,-0.7177034020500185,0.0
1759838027.574845,0,-1.2050000429153442,-0.8299997448921204,-0.7177026775561294,0.0,-1.7350001334980352,-0.3499998748269438,-0.7177034020485091,0.0
1759838027.5861015,0,-1.2050000429153442,-0.8299997448921204,-0.7177026937812023,0.0,-1.7350001335012366,-0.3499998748275896,-0.7177034020473121,0.0
1759838027.5972373,0,-1.2050000429153442,-0.8299997448921204,-0.7177027129994649,0.0,-1.7350001335037826,-0.3499998748281032,-0.7177034020463603,0.0
1759838027.608104,0,-1.2050000429153442,-0.8299997448921204,-0.7177027371529157,0.0,-1.7350001335058132,-0.3499998748285128,-0.7177034020456011,0.0
1759838027.6245823,0,-1.2050000429153442,-0.8299997448921204,-0.7177026863506769,0.0,-1.7350001335075216,-0.34999987482885747,-0.7177034020449624,0.0
1759838027.6352358,0,-1.2050000429153442,-0.8299997448921204,-0.7177027329377523,0.0,-1.7350001335088756,-0.3499998748291306,-0.7177034020444562,0.0
1759838027.645797,0,-1.2050000429153442,-0.8299997448921204,-0.7177027781051812,0.0,-1.7350001335099516,-0.34999987482934763,-0.7177034020440538,0.0
1759838027.6569278,0,-1.2050000429153442,-0.8299997448921204,-0.7177028084802153,0.0,-1.7350001335108083,-0.34999987482952044,-0.7177034020437336,0.0
1759838027.6671343,0,-1.2050000429153442,-0.8299997448921204,-0.7177028451644993,0.0,-1.7350001335114928,-0.34999987482965855,-0.7177034020434777,0.0
1759838027.6783168,0,-1.2050000429153442,-0.8299997448921204,-0.717702865202348,0.0,-1.7350001335120708,-0.3499998748297752,-0.7177034020432616,0.0
1759838027.6895676,0,-1.2050000429153442,-0.8299997448921204,-0.7177028827977558,0.0,-1.735000133512529,-0.34999987482986755,-0.7177034020430902,0.0
1759838027.7002962,0,-1.2050000429153442,-0.8299997448921204,-0.7177029054362407,0.0,-1.735000133512893,-0.34999987482994105,-0.717703402042954,0.0
1759838027.7134025,0,-1.2050000429153442,-0.8299997448921204,-0.7177029026886519,0.0,-1.7350001335131826,-0.34999987482999945,-0.7177034020428458,0.0
1759838027.7243152,0,-1.2050000429153442,-0.8299997448921204,-0.7177029262675205,0.0,-1.7350001335134138,-0.34999987483004613,-0.7177034020427592,0.0
1759838027.7347026,0,-1.2050000429153442,-0.8299997448921204,-0.7177029535275459,0.0,-1.7350001335136103,-0.34999987483008577,-0.7177034020426857,0.0
1759838027.745331,0,-1.2050000429153442,-0.8299997448921204,-0.717702974600197,0.0,-1.7350001335137661,-0.34999987483011724,-0.7177034020426275,0.0
1759838027.7555804,0,-1.2050000429153442,-0.8299997448921204,-0.7177029961194918,0.0,-1.73500013351389,-0.3499998748301422,-0.7177034020425812,0.0
1759838027.7658694,0,-1.2050000429153442,-0.8299997448921204,-0.7177030143722423,0.0,-1.7350001335139889,-0.34999987483016215,-0.7177034020425442,0.0
1759838027.7765446,0,-1.2050000429153442,-0.8299997448921204,-0.7177030271955918,0.0,-1.7350001335140677,-0.3499998748301781,-0.7177034020425147,0.0
1759838027.787603,0,-1.2050000429153442,-0.8299997448921204,-0.7177030362754895,0.0,-1.7350001335141345,-0.3499998748301915,-0.7177034020424898,0.0
1759838027.7977622,0,-1.2050000429153442,-0.8299997448921204,-0.7177030526906698,0.0,-1.7350001335141876,-0.3499998748302022,-0.7177034020424701,0.0
1759838027.8077812,0,-1.2050000429153442,-0.8299997448921204,-0.717703068606852,0.0,-1.7350001335142298,-0.34999987483021067,-0.7177034020424543,0.0
1759838027.821427,0,-1.2050000429153442,-0.8299997448921204,-0.7177030569288405,0.0,-1.7350001335142633,-0.34999987483021744,-0.7177034020424418,0.0
1759838027.8298829,0,-1.2050000429153442,-0.8299997448921204,-0.7177030868473118,0.0,-1.7350001335142902,-0.3499998748302228,-0.7177034020424317,0.0
1759838027.8406122,0,-1.2050000429153442,-0.8299997448921204,-0.717703097229343,0.0,-1.7350001335143128,-0.34999987483022743,-0.7177034020424231,0.0
1759838027.8508494,0,-1.2050000429153442,-0.8299997448921204,-0.7177031093333905,0.0,-1.7350001335143308,-0.34999987483023104,-0.7177034020424163,0.0
1759838027.8620896,0,-1.2050000429153442,-0.8299997448921204,-0.7177031142137391,0.0,-1.735000133514345,-0.3499998748302339,-0.717703402042411,0.0
1759838027.8735948,0,-1.2050000429153442,-0.8299997448921204,-0.7177031184699381,0.0,-1.7350001335143566,-0.34999987483023626,-0.7177034020424068,0.0
1759838027.884367,0,-1.2050000429153442,-0.8299997448921204,-0.717703128523393,0.0,-1.7350001335143657,-0.34999987483023814,-0.7177034020424035,0.0
1759838027.895517,0,-1.2050000429153442,-0.8299997448921204,-0.7177031363349737,0.0,-1.7350001335143732,-0.3499998748302397,-0.7177034020424006,0.0
1759838027.9063296,0,-1.2050000429153442,-0.8299997448921204,-0.7177031460830783,0.0,-1.7350001335143792,-0.3499998748302409,-0.7177034020423982,0.0
1759838027.9171674,0,-1.2050000429153442,-0.8299997448921204,-0.7177031552790307,0.0,-1.735000133514384,-0.3499998748302419,-0.7177034020423965,0.0
1759838027.9275596,0,-1.2050000429153442,-0.8299997448921204,-0.7177031662324378,0.0,-1.7350001335143879,-0.3499998748302427,-0.717703402042395,0.0
1759838027.9388654,0,-1.2050000429153442,-0.8299997448921204,-0.7177031716565558,0.0,-1.735000133514391,-0.3499998748302433,-0.7177034020423938,0.0
1759838027.9498568,0,-1.2050000429153442,-0.8299997448921204,-0.7177031789042267,0.0,-1.7350001335143936,-0.34999987483024386,-0.7177034020423929,0.0
1759838027.9601493,0,-1.2050000429153442,-0.8299997448921204,-0.7177031893735162,0.0,-1.7350001335143959,-0.3499998748302443,-0.7177034020423921,0.0
1759838027.9712145,0,-1.2050000429153442,-0.8299997448921204,-0.717703195362528,0.0,-1.7350001335143976,-0.34999987483024464,-0.7177034020423915,0.0
1759838027.9817748,0,-1.2050000429153442,-0.8299997448921204,-0.7177032034276731,0.0,-1.735000133514399,-0.34999987483024486,-0.7177034020423909,0.0
1759838027.9931579,0,-1.2050000429153442,-0.8299997448921204,-0.717703207631736,0.0,-1.7350001335143999,-0.3499998748302451,-0.7177034020423905,0.0
1759838028.0045106,0,-1.2050000429153442,-0.8299997448921204,-0.7177032124356231,0.0,-1.7350001335144007,-0.3499998748302453,-0.7177034020423902,0.0
1759838028.0152955,0,-1.2050000429153442,-0.8299997448921204,-0.7177032198897457,0.0,-1.7350001335144016,-0.3499998748302454,-0.71770340204239,0.0
1759838028.0267348,0,-1.2050000429153442,-0.8299997448921204,-0.7177032245636674,0.0,-1.735000133514402,-0.3499998748302455,-0.7177034020423898,0.0
1759838028.0378807,0,-1.2050000429153442,-0.8299997448921204,-0.7177032305162641,0.0,-1.7350001335144025,-0.34999987483024564,-0.7177034020423896,0.0
1759838028.0483947,0,-1.2050000429153442,-0.8299997448921204,-0.7177032385817537,0.0,-1.735000133514403,-0.34999987483024575,-0.7177034020423894,0.0
1759838028.059043,0,-1.2050000429153442,-0.8299997448921204,-0.7177032453727749,0.0,-1.7350001335144034,-0.34999987483024575,-0.7177034020423894,0.0
1759838028.0696132,0,-1.2050000429153442,-0.8299997448921204,-0.7177032517343102,0.0,-1.7350001335144034,-0.34999987483024575,-0.7177034020423894,0.0
1759838028.079964,0,-1.2050000429153442,-0.8299997448921204,-0.7177032582000713,0.0,-1.7350001335144034,-0.34999987483024575,-0.7177034020423894,0.0
1759838028.090831,0,-1.2050000429153442,-0.8299997448921204,-0.7177032624524529,0.0,-1.7350001335144034,-0.34999987483024575,-0.7177034020423894,0.0
1759838028.1008444,0,-1.2050000429153442,-0.8299997448921204,-0.7177032690820582,0.0,-1.7350001335144034,-0.34999987483024575,-0.7177034020423894,0.0
1759838028.111123,0,-1.2050000429153442,-0.8299997448921204,-0.717703274232905,0.0,-1.7350001335144034,-0.34999987483024575,-0.7177034020423894,0.0
1759838028.121554,0,-1.2050000429153442,-0.8299997448921204,-0.71770327845298,0.0,-1.7350001335144034,-0.34999987483024575,-0.7177034020423894,0.0
1759838028.1329517,0,-1.2050000429153442,-0.8299997448921204,-0.717703279911186,0.0,-1.7350001335144034,-0.34999987483024575,-0.7177034020423894,0.0
1759838028.1430507,0,-1.2050000429153442,-0.8299997448921204,-0.7177032852950198,0.0,-1.7350001335144034,-0.34999987483024575,-0.7177034020423894,0.0
1759838028.1540892,0,-1.2050000429153442,-0.8299997448921204,-0.7177032879754375,0.0,-1.7350001335144034,-0.34999987483024575,-0.7177034020423894,0.0
1759838028.1645865,0,-1.2050000429153442,-0.8299997448921204,-0.7177032920810067,0.0,-1.7350001335144034,-0.34999987483024575,-0.7177034020423894,0.0
1759838028.1757808,0,-1.2050000429153442,-0.8299997448921204,-0.7177032944288584,0.0,-1.7350001335144034,-0.34999987483024575,-0.7177034020423894,0.0
1759838028.186226,0,-1.2050000429153442,-0.8299997448921204,-0.7177032986909744,0.0,-1.7350001335144034,-0.34999987483024575,-0.7177034020423894,0.0
1759838028.1963487,0,-1.2050000429153442,-0.8299997448921204,-0.717703303400306,0.0,-1.7350001335144034,-0.34999987483024575,-0.7177034020423894,0.0
1759838028.2066453,0,-1.2050000429153442,-0.8299997448921204,-0.7177033072078718,0.0,-1.7350001335144034,-0.34999987483024575,-0.7177034020423894,0.0
1759838028.2297637,0,-1.2050000429153442,-0.8299997448921204,-0.7177032857484633,0.0,-1.7349992209314844,-0.3500006715268236,-0.7177033978148298,0.00012114177732865274
1759838028.2402608,0,-1.2050000429153442,-0.8299997448921204,-0.7177032958326333,0.0,-1.7349983203198385,-0.35000261191777243,-0.7177033945008323,0.0002188696496344935
1759838028.251426,0,-1.2050000429153442,-0.8299997448921204,-0.7177033043116321,0.0,-1.7349974023039814,-0.35000528962767813,-0.717703392336509,0.00030038642212226784
1759838028.2615595,0,-1.2050000429153442,-0.8299997448921204,-0.7177033127945247,0.0,-1.7349956810691674,-0.3500090605191167,-0.7177033906696377,0.0016959217021713378
1759838028.2717562,0,-1.2050000429153442,-0.8299997448921204,-0.7177033193520703,0.0,-1.734992439071348,-0.35002703125304874,-0.7177033894136893,0.0028145781792942924
1759838028.2831717,0,-1.2050000429153442,-0.8299997448921204,-0.7177033225900615,0.0,-1.734988083963043,-0.350053708191437,-0.7177033885181706,0.003729740894549364
1759838028.2933939,0,-1.2050000429153442,-0.8299997448921204,-0.7177033272858467,0.0,-1.734983087764891,-0.3500854345981901,-0.7177033877986579,0.004482440638474024
1759838028.303562,0,-1.2050000429153442,-0.8299997448921204,-0.717703331372114,0.0,-1.734977951451287,-0.3501193078322616,-0.7177033872933433,0.005096274017804455
1759838028.3135822,0,-1.2050000429153442,-0.8299997448921204,-0.7177033350104605,0.0,-1.7349725075454747,-0.35015437866622134,-0.7177033869149645,0.005617148243160765
1759838028.3240502,0,-1.2050000429153442,-0.8299997448921204,-0.7177033374600797,0.0,-1.7349677639632026,-0.35018720583352914,-0.7177033868616228,0.006006716179547641
1759838028.3350337,0,-1.2050000429153442,-0.8299997448921204,-0.7177033389731307,0.0,-1.7349631622194601,-0.350218590359676,-0.7177033868718594,0.00633484994599197
1759838028.3462808,0,-1.2050000429153442,-0.8299997448921204,-0.717703340224249,0.0,-1.734958747079214,-0.3502482828793551,-0.7177033869333262,0.006614118928885822
1759838028.3565989,0,-1.2050000429153442,-0.8299997448921204,-0.7177033428628441,0.0,-1.7349545439325396,-0.350276158856927,-0.717703387059742,0.006853734418130016
1759838028.3681784,0,-1.2050000429153442,-0.8299997448921204,-0.7177033437553089,0.0,-1.7349505276309354,-0.35030232269193096,-0.7177033871839689,0.007063299625592666
1759838028.3794084,0,-1.2050000429153442,-0.8299997448921204,-0.7177033452871981,0.0,-1.7349477152231418,-0.35032313803408516,-0.7177033875305715,0.007184842748008455
1759838028.3903034,0,-1.2050000429153442,-0.8299997448921204,-0.7177033473321117,0.0,-1.7349450148668282,-0.3503422102977954,-0.7177033878418944,0.007297437506662568
1759838028.4017484,0,-1.2050000429153442,-0.8299997448921204,-0.7177033487006543,0.0,-1.7349424149390216,-0.3503598522984909,-0.7177033879030051,0.007403135247506722
1759838028.4125214,0,-1.2050000429153442,-0.8299997448921204,-0.7177033508695132,0.0,-1.7349399059580812,-0.35037628175814506,-0.717703388066539,0.007502848353724398
1759838028.4240618,0,-1.2050000429153442,-0.8299997448921204,-0.7177033521192158,0.0,-1.7349374499151926,-0.35039179172939794,-0.7177033883475501,0.007599061184413187
1759838028.43578,0,-1.2050000429153442,-0.8299997448921204,-0.7177033532766384,0.0,-1.7349363955729518,-0.3504012085971493,-0.717703388707828,0.007615339483517444
1759838028.4467745,0,-1.2050000429153442,-0.8299997448921204,-0.7177033552775232,0.0,-1.7349352038910908,-0.35041024846728613,-0.7177033891676889,0.007644424180740213
1759838028.4574714,0,-1.2050000429153442,-0.8299997448921204,-0.7177033574424421,0.0,-1.7349339520164297,-0.3504188877757426,-0.7177033896041265,0.007681719360853513
1759838028.4687514,0,-1.2050000429153442,-0.8299997448921204,-0.7177033588566317,0.0,-1.7349326175668291,-0.35042738277125357,-0.7177033900488299,0.007726654024604864
1759838028.4801846,0,-1.2050000429153442,-0.8299997448921204,-0.7177033600985041,0.0,-1.7349311933281721,-0.35043589441829476,-0.7177033904553979,0.007778227714861404
1759838028.491182,0,-1.2050000429153442,-0.8299997448921204,-0.7177033617380761,0.0,-1.7349309508034323,-0.3504393669960323,-0.7177033908809594,0.007765511910122221
1759838028.5014317,0,-1.2050000429153442,-0.8299997448921204,-0.717703363886816,0.0,-1.734930487962249,-0.35044318785721706,-0.7177033913225213,0.007769715705047208
1759838028.5126376,0,-1.2050000429153442,-0.8299997448921204,-0.7177033650090827,0.0,-1.7349298429255975,-0.3504474278175443,-0.7177033917180304,0.007787666486954877
1759838028.523736,0,-1.2050000429153442,-0.8299997448921204,-0.7177033661768668,0.0,-1.7349290273732114,-0.35045216640288657,-0.7177033920922722,0.007816777253783172
1759838028.5337877,0,-1.2050000429153442,-0.8299997448921204,-0.7177033680953464,0.0,-1.7349280760676105,-0.35045735058983957,-0.7177033924327719,0.007853768982474613
1759838028.5450552,0,-1.2050000429153442,-0.8299997448921204,-0.7177033689165846,0.0,-1.734928286388735,-0.35045771074329984,-0.7177033928279208,0.00782718520665747
1759838028.555061,0,-1.2050000429153442,-0.8299997448921204,-0.7177033706044681,0.0,-1.7349282315373626,-0.3504587756118058,-0.7177033931605353,0.007819478281853897
1759838028.5662448,0,-1.2050000429153442,-0.8299997448921204,-0.7177033713271932,0.0,-1.734927931675107,-0.35046067295366634,-0.717703393482388,0.00782779777325412
1759838028.5769622,0,-1.2050000429153442,-0.8299997448921204,-0.7177033723704191,0.0,-1.7349274177214404,-0.35046338208093736,-0.7177033937572678,0.00784860902899137
1759838028.5878508,0,-1.2050000429153442,-0.8299997448921204,-0.717703373286259,0.0,-1.7349267023555421,-0.3504669193374667,-0.7177033940083576,0.00787996648694663
1759838028.5989475,0,-1.2050000429153442,-0.8299997448921204,-0.717703374067117,0.0,-1.7349271666480073,-0.35046563002923853,-0.7177033942824907,0.007846739052882565
1759838028.6093276,0,-1.2050000429153442,-0.8299997448921204,-0.7177033752837865,0.0,-1.7349273072482243,-0.35046536850691584,-0.7177033945749045,0.007834400012857743
1759838028.6201332,0,-1.2050000429153442,-0.8299997448921204,-0.7177033761607046,0.0,-1.7349271811520646,-0.35046610924810784,-0.7177033948319246,0.007838464000286944
1759838028.6329856,0,-1.2050000429153442,-0.8299997448921204,-0.7177033759111602,0.0,-1.7349267614643018,-0.35046805592917135,-0.7177033950475663,0.007858650323074888
1759838028.6430354,0,-1.2050000429153442,-0.8299997448921204,-0.7177033774146863,0.0,-1.734926144526121,-0.35047088297463674,-0.7177033952499703,0.007888370791836095
1759838028.6539202,0,-1.2050000429153442,-0.8299997448921204,-0.7177033783604028,0.0,-1.7349266797890919,-0.35046903364171017,-0.7177033955270453,0.007854630229805235
1759838028.6642282,0,-1.2050000429153442,-0.8299997448921204,-0.7177033794890466,0.0,-1.7349268809930471,-0.350468302153719,-0.717703395759112,0.007841772661654775
1759838028.6747625,0,-1.2050000429153442,-0.8299997448921204,-0.717703380381181,0.0,-1.7349268107692173,-0.3504686325181576,-0.7177033959686564,0.007845069091326694
1759838028.6849108,0,-1.2050000429153442,-0.8299997448921204,-0.7177033813598594,0.0,-1.7349264994713194,-0.3504699740322565,-0.7177033961530871,0.007861189864561701
1759838028.6951516,0,-1.2050000429153442,-0.8299997448921204,-0.7177033821862153,0.0,-1.7349259764555243,-0.35047227416097293,-0.7177033963373539,0.007887706218961043
1759838028.7065516,0,-1.2050000429153442,-0.8299997448921204,-0.7177033824393071,0.0,-1.734926542328534,-0.3504701646709914,-0.7177033965336554,0.007854134935799862
1759838028.7178848,0,-1.2050000429153442,-0.8299997448921204,-0.717703382807656,0.0,-1.7349267441462541,-0.3504693255728589,-0.7177033967382405,0.007842734337841202
1759838028.7285528,0,-1.2050000429153442,-0.8299997448921204,-0.7177033835243574,0.0,-1.7349266692067875,-0.35046959814275264,-0.7177033968939066,0.00784738069779763
1759838028.7391639,0,-1.2050000429153442,-0.8299997448921204,-0.7177033842373177,0.0,-1.734926344245616,-0.3504709472160847,-0.7177033970538582,0.007865095389118646
1759838028.7499003,0,-1.2050000429153442,-0.8299997448921204,-0.7177033848524097,0.0,-1.734925789802227,-0.3504733364422095,-0.7177033972145018,0.007893747990085855
1759838028.7600002,0,-1.2050000429153442,-0.8299997448921204,-0.7177033856620625,0.0,-1.734926438943508,-0.35047085720883087,-0.7177033973887663,0.007855969219591913
1759838028.7700975,0,-1.2050000429153442,-0.8299997448921204,-0.7177033863804567,0.0,-1.7349267431588575,-0.35046955006913977,-0.7177033975573244,0.007839578509061926
1759838028.780183,0,-1.2050000429153442,-0.8299997448921204,-0.7177033870154546,0.0,-1.73492677280213,-0.3504693303395308,-0.7177033977122073,0.007839403250898698
1759838028.7904992,0,-1.2050000429153442,-0.8299997448921204,-0.7177033875082586,0.0,-1.734926548046823,-0.35047019480448166,-0.717703397863419,0.007852773235738995
1759838028.8013427,0,-1.2050000429153442,-0.8299997448921204,-0.7177033878070808,0.0,-1.734926080274274,-0.35047215077577837,-0.7177033979764466,0.00787797150423038
1759838028.8118167,0,-1.2050000429153442,-0.8299997448921204,-0.7177033882503423,0.0,-1.7349254025646537,-0.3504750940452249,-0.7177033980234047,0.00791246863788396
1759838028.8222797,0,-1.2050000429153442,-0.8299997448921204,-0.7177033886957264,0.0,-1.7349259962947565,-0.35047289816983623,-0.7177033981259668,0.007876478571453212
1759838028.83286,0,-1.2050000429153442,-0.8299997448921204,-0.7177033890940319,0.0,-1.7349262450115999,-0.3504718801125849,-0.7177033982459301,0.007862059847102068
1759838028.8442972,0,-1.2050000429153442,-0.8299997448921204,-0.7177033892538862,0.0,-1.7349261967298033,-0.3504720481270962,-0.7177033983983031,0.007865173011190801
1759838028.8545976,0,-1.2050000429153442,-0.8299997448921204,-0.7177033897825211,0.0,-1.734925897996007,-0.3504732798351531,-0.7177033985136843,0.0078813910311334
1759838028.865786,0,-1.2050000429153442,-0.8299997448921204,-0.7177033900548988,0.0,-1.7349266604831655,-0.35047018326180546,-0.717703398660137,0.007839495036280154
1759838028.8770413,0,-1.2050000429153442,-0.8299997448921204,-0.7177033903335364,0.0,-1.7349270423202807,-0.35046842930021194,-0.7177033987958398,0.00782104782716476
1759838028.8885553,0,-1.2050000429153442,-0.8299997448921204,-0.7177033905851928,0.0,-1.734927104186471,-0.3504679671524056,-0.7177033989328695,0.007821044550162609
1759838028.8994703,0,-1.2050000429153442,-0.8299997448921204,-0.7177033910151742,0.0,-1.7349268930823374,-0.3504686873078011,-0.7177033990504025,0.007835286277192828
1759838028.910214,0,-1.2050000429153442,-0.8299997448921204,-0.7177033914694775,0.0,-1.7349264387579273,-0.3504705220424972,-0.7177033991585388,0.007861012798447309
1759838028.9213443,0,-1.2050000429153442,-0.8299997448921204,-0.7177033918053279,0.0,-1.7349270540949555,-0.3504680510385183,-0.7177033992697663,0.007827126024441007
1759838028.9327228,0,-1.2050000429153442,-0.8299997448921204,-0.7177033920834965,0.0,-1.7349273103374283,-0.35046687622495054,-0.7177033993875666,0.007815100187289451
1759838028.9429207,0,-1.2050000429153442,-0.8299997448921204,-0.7177033926094918,0.0,-1.7349272821761768,-0.35046684508574927,-0.7177033994926391,0.007818909277975804
1759838028.9542944,0,-1.2050000429153442,-0.8299997448921204,-0.7177033928481258,0.0,-1.7349269797992595,-0.3504680085368784,-0.7177033995875584,0.007836886800153016
1759838028.96483,0,-1.2050000429153442,-0.8299997448921204,-0.7177033932465555,0.0,-1.7349264509385751,-0.3504702191640382,-0.7177033996685552,0.007865403192253735
1759838028.9754314,0,-1.2050000429153442,-0.8299997448921204,-0.7177033936023154,0.0,-1.7349270383827438,-0.3504679343381599,-0.7177033997543626,0.007831792954979076
1759838028.9860811,0,-1.2050000429153442,-0.8299997448921204,-0.7177033939176205,0.0,-1.73492727597776,-0.35046687460328335,-0.717703399845285,0.007819432393608737
1759838028.9961257,0,-1.2050000429153442,-0.8299997448921204,-0.7177033943119433,0.0,-1.7349272478554303,-0.35046688942201787,-0.7177033999224659,0.007822442373570333
1759838029.0062728,0,-1.2050000429153442,-0.8299997448921204,-0.717703394641415,0.0,-1.7349269764103483,-0.3504679573495154,-0.7177033999700361,0.007838159177217448
1759838029.0174239,0,-1.2050000429153442,-0.8299997448921204,-0.7177033947740235,0.0,-1.7349264555646615,-0.3504701423257172,-0.7177034000213426,0.007865813796039338
1759838029.0283012,0,-1.2050000429153442,-0.8299997448921204,-0.7177033949681721,0.0,-1.7349257264638143,-0.35047332615609605,-0.7177034000584803,0.007902677717792302
1759838029.0394258,0,-1.2050000429153442,-0.8299997448921204,-0.7177033951383969,0.0,-1.734926205031453,-0.35047164240903056,-0.7177034001205117,0.007872234586781693
1759838029.0512412,0,-1.2050000429153442,-0.8299997448921204,-0.7177033952266871,0.0,-1.734926323421948,-0.3504712206737768,-0.7177034001821219,0.007863907964320994
1759838029.0618331,0,-1.2050000429153442,-0.8299997448921204,-0.7177033955229106,0.0,-1.7349261767723332,-0.3504718624064986,-0.717703400248917,0.007870993105450126
1759838029.0727458,0,-1.2050000429153442,-0.8299997448921204,-0.7177033957594983,0.0,-1.7349257777680422,-0.3504735840376874,-0.7177034003084988,0.007891234064089703
1759838029.0828776,0,-1.2050000429153442,-0.8299997448921204,-0.7177033960806511,0.0,-1.734926509772191,-0.35047069893692256,-0.7177034003717777,0.007849602316928174
1759838029.0929198,0,-1.2050000429153442,-0.8299997448921204,-0.7177033963725208,0.0,-1.7349269021224065,-0.350468978049841,-0.7177034004266137,0.00782960310192577
1759838029.1033823,0,-1.2050000429153442,-0.8299997448921204,-0.7177033965730537,0.0,-1.7349269925562634,-0.35046844133394045,-0.7177034004899667,0.007827185651344335
1759838029.1135337,0,-1.2050000429153442,-0.8299997448921204,-0.7177033967931443,0.0,-1.7349268271000218,-0.35046899768898926,-0.7177034005470184,0.007838447932052479
1759838029.124391,0,-1.2050000429153442,-0.8299997448921204,-0.7177033969143576,0.0,-1.7349264107404752,-0.3504706805041675,-0.7177034005897982,0.007861924284619662
1759838029.1358278,0,-1.2050000429153442,-0.8299997448921204,-0.7177033969793757,0.0,-1.7349257551069142,-0.35047347758838426,-0.7177034006288938,0.007896239651346311
1759838029.1466937,0,-1.2050000429153442,-0.8299997448921204,-0.7177033971326825,0.0,-1.734926258474938,-0.35047160968241703,-0.7177034006778844,0.007865861206654525
1759838029.1579893,0,-1.2050000429153442,-0.8299997448921204,-0.7177033972484956,0.0,-1.7349264108065243,-0.35047098321878045,-0.7177034007308181,0.007856859528878551
1759838029.1684496,0,-1.2050000429153442,-0.8299997448921204,-0.7177033974564768,0.0,-1.7349262865095065,-0.35047145979965727,-0.7177034007706717,0.007863518331224869
1759838029.1796534,0,-1.2050000429153442,-0.8299997448921204,-0.7177033975788696,0.0,-1.7349259096646048,-0.3504730459040093,-0.7177034008135353,0.007883469333532041
1759838029.1906064,0,-1.2050000429153442,-0.8299997448921204,-0.7177033977265985,0.0,-1.7349266387829014,-0.3504701345069338,-0.7177034008586929,0.007842721051382048
1759838029.201487,0,-1.2050000429153442,-0.8299997448921204,-0.7177033978791413,0.0,-1.7349270004585133,-0.35046850571436666,-0.717703400902055,0.00782473054980512
1759838029.2129226,0,-1.2050000429153442,-0.8299997448921204,-0.7177033979790935,0.0,-1.7349270468808982,-0.350468142818999,-0.7177034009173042,0.007825007103540728
1759838029.2240498,0,-1.2050000429153442,-0.8299997448921204,-0.7174182708001573,0.005235987755982988,-1.7349268103541662,-0.35046899254661434,-0.717703400949431,0.007839947921007558
1759838029.2423458,0,-1.2049636636783883,-0.8300352383697654,-0.7174021614097899,0.005637246702482366,-1.7349261501997078,-0.3504717028953938,-0.717703400985717,0.007876235981970878
1759838029.2526474,0,-1.204951176957318,-0.8300461549200818,-0.717400086975166,0.005637246702482366,-1.7349253086279324,-0.35047535282365144,-0.717703401012964,0.007919393209597912
1759838029.2627661,0,-1.2049457168005304,-0.8300514263610641,-0.7173626504044704,0.005679552422047988,-1.7349257869992845,-0.350473714379827,-0.7177034010531872,0.007889027522910087
1759838029.2737148,0,-1.2049363857876698,-0.8300614947858549,-0.7173160791183213,0.006326660615348441,-1.7349259115635225,-0.3504732817286971,-0.717703401095753,0.007880071437972992
1759838029.2847853,0,-1.2049296658830841,-0.8300740262073566,-0.7173120024161739,0.006815689441792439,-1.7349257577459556,-0.3504739623143785,-0.7177034011343618,0.007887319766109492
1759838029.2956698,0,-1.2049237178939507,-0.830089261659598,-0.7172880346441176,0.007216781633870109,-1.7349253548464778,-0.35047571175330455,-0.7177034011706835,0.007907616727428778
1759838029.3060071,0,-1.2049236723860017,-0.8300893014974199,-0.7172795209167314,0.007216781633870109,-1.7349260681683127,-0.3504729135930523,-0.7177034012075285,0.007867141316177223
1759838029.3169727,0,-1.2049133300147667,-0.8301233576701856,-0.717230599578555,0.007821897808503788,-1.7349264108681182,-0.35047140080776934,-0.717703401242212,0.007849582412721406
1759838029.3274007,0,-1.204909242900099,-0.830139697656058,-0.7172238279168048,0.008029858007367198,-1.734926464788388,-0.35047103881536507,-0.7177034012748299,0.0078489142874674
1759838029.3380535,0,-1.2049053650851738,-0.830155671371877,-0.7172368110956929,0.008206947324536803,-1.734926251712145,-0.35047181947415035,-0.717703401302102,0.007862341708389377
1759838029.3481407,0,-1.2049018238425901,-0.830170973160765,-0.7172004024352161,0.008357933322990743,-1.7349258076585892,-0.3504736401263956,-0.7177034013254192,0.007886731601841111
1759838029.3590977,0,-1.2049017562088569,-0.8301710321967097,-0.7172185623312322,0.008357933322990743,-1.7349265037249098,-0.3504708509927518,-0.7177034013505658,0.00784813073045779
1759838029.3700848,0,-1.2048960508799094,-0.8301974050861604,-0.7171780141257917,0.008570622363500133,-1.7349268321625357,-0.3504693573116455,-0.7177034013759895,0.007832041168509836
1759838029.3808827,0,-1.2048938159071647,-0.8302084390590642,-0.7172065619298463,0.008645456107765157,-1.7349268698189473,-0.3504690436198844,-0.7177034013997795,0.00783286977431142
1759838029.3922136,0,-1.204893765449738,-0.8302084831038584,-0.7171923179221118,0.008645456107765157,-1.7349266199647673,-0.3504699617722551,-0.717703401417481,0.007848541987840862
1759838029.4029996,0,-1.204891731505811,-0.8302185970642536,-0.7171825703781576,0.008711858734627386,-1.7349261306382695,-0.35047197640574573,-0.7177034014337256,0.007875523764604517
1759838029.413457,0,-1.2048898433733446,-0.8302279268163244,-0.7172161163890084,0.008772622674818677,-1.734925432572372,-0.3504749875216466,-0.7177034014429258,0.007911465288692462
1759838029.4235094,0,-1.2048881565007925,-0.8302363699345785,-0.7172203722976072,0.008825647854333173,-1.7349259171983369,-0.3504732496084775,-0.7177034014671325,0.007881686160407034
1759838029.4378266,0,-1.2001693440947996,-0.8347942119942876,-0.7132442745050317,0.054973159381501935,-1.734925968186408,-0.3504730754205351,-0.7177034014924871,0.007877502168377721
1759838029.4457982,0,-1.1984899883246751,-0.8362391002623422,-0.7102818584353164,0.05499747043809905,-1.734925825959269,-0.3504736932750726,-0.7177034015138753,0.007884460138995695
1759838029.456539,0,-1.1978102011598584,-0.8368201061952737,-0.7080420788516073,0.05499747043809905,-1.7349254340273563,-0.35047537884138963,-0.7177034015300102,0.007904412778819425
1759838029.4680512,0,-1.1974670782797485,-0.8371209365932893,-0.7063059406314399,0.055484261740257564,-1.734926160889478,-0.3504725069738209,-0.7177034015515718,0.007863196287799025
1759838029.4790857,0,-1.1971625634416054,-0.8374089351344616,-0.7048271887866955,0.05668694885691207,-1.7349265165436236,-0.35047092561075277,-0.7177034015713498,0.00784505943738468
1759838029.489734,0,-1.197010303736359,-0.8375592115986215,-0.7037945261870872,0.05734500197252992,-1.7349261150078557,-0.35047091376825434,-0.7177034015890117,0.007906138985568696
1759838029.500536,0,-1.19689747737453,-0.8376782462409925,-0.7029971322125284,0.057879574483821285,-1.7349254272701198,-0.3504726786421308,-0.7177034016050785,0.00797040439137059
1759838029.5120292,0,-1.196801866878136,-0.8377835018637644,-0.7023968337023927,0.05831617116709945,-1.7349244789718055,-0.35047600767006587,-0.7177034016184355,0.008038479435663484
1759838029.5230124,0,-1.1968026909799976,-0.8377821239198305,-0.7020817152585102,0.05831617116709945,-1.7349242435491088,-0.35047537469337203,-0.7177034016328837,0.008717605909386764
1759838029.5343802,0,-1.196678473062374,-0.8379351644733786,-0.7016532729079765,0.05896393075167938,-1.7349228509550874,-0.3504833442353803,-0.717703401649541,0.009278099367573869
1759838029.545579,0,-1.1966334747469787,-0.8379924547677501,-0.7014046101814925,0.059187919547938755,-1.7349205813306092,-0.35049701587256027,-0.7177034016630102,0.009751943906095054
1759838029.5560367,0,-1.1966055728574405,-0.8380345546251149,-0.7012624471333213,0.059378007329406714,-1.7349177232733946,-0.3505144072116101,-0.7177034016750778,0.01015592541413867
1759838029.5668283,0,-1.1965734316173042,-0.8380790663270636,-0.7011305778129282,0.059537389302671904,-1.734914455300162,-0.3505342153498915,-0.7177034016863546,0.010504991923806826
1759838029.5778856,0,-1.1965434819520073,-0.8381205785952106,-0.7010432439979057,0.059672374485868145,-1.7349125081945809,-0.3505492532751306,-0.7177034017007604,0.010718739879596293
1759838029.5885718,0,-1.1965252117543645,-0.8381512076116748,-0.7009829726678353,0.05978821589658115,-1.7349102499237097,-0.35056513326587296,-0.7177034017130369,0.010912563273957778
1759838029.5995867,0,-1.1965044895664498,-0.8381792834120696,-0.7009186885112763,0.059862974830364145,-1.7349077757882234,-0.3505815244195437,-0.7177034017236162,0.011090487413412677
1759838029.6106975,0,-1.1964870389273197,-0.8382043471587334,-0.7008911831800687,0.05993155189064081,-1.7349050778027653,-0.35059843921941647,-0.7177034017308204,0.011258174048362237
1759838029.621071,0,-1.1964837513706807,-0.8382166042484895,-0.7008768466269053,0.0599906165484852,-1.7349023234521808,-0.3506152775143284,-0.7177034017416416,0.011413247930782962
1759838029.63183,0,-1.196471464139294,-0.8382359958654142,-0.7009000624092776,0.06004436938986079,-1.7349013054092428,-0.35062486792280256,-0.7177034017550061,0.011457130284953192
1759838029.6430464,0,-1.187694123860139,-0.8457416275718335,-0.6900690625774872,0.10080069040129025,-1.734899996326036,-0.35063475631639884,-0.7177034017668297,0.011515444356530829
1759838029.6539097,0,-1.1843771933324352,-0.84840289399291,-0.6813830300524246,0.10081788018700463,-1.7348984734370667,-0.35064494730461,-0.7177034017764943,0.011583791833445873
1759838029.664763,0,-1.183005585557455,-0.8494983087152201,-0.6748891629823717,0.10124489397460723,-1.7348967517133853,-0.35065553848874614,-0.7177034017853419,0.011660625691794858
1759838029.6761866,0,-1.1823844117924498,-0.8499937420614342,-0.6700401187178073,0.1015955711507644,-1.7348948243982913,-0.35066667774893245,-0.7177034017926324,0.011745853988620566
1759838029.6868854,0,-1.1820978694525377,-0.8502247421331591,-0.6665121180135197,0.1018902552178755,-1.7348946579926143,-0.35067046353530157,-0.7177034018019024,0.011730745069437484
1759838029.697535,0,-1.1819325231011852,-0.8503617892472143,-0.663918847101336,0.10214053710356459,-1.7348941289260926,-0.35067502730780664,-0.7177034018098539,0.011740564649977216
1759838029.7085423,0,-1.1816585216238258,-0.8505861807161383,-0.661527815169583,0.10275445194698181,-1.7348932933885686,-0.3506804670651908,-0.7177034018176438,0.011770119871067108
1759838029.7196145,0,-1.1814494915359535,-0.8507629196741907,-0.6597191830651559,0.10324947492512125,-1.7348910009567449,-0.35068788886362684,-0.7177034018245012,0.011971327187485212
1759838029.7300365,0,-1.1813016523998903,-0.8508938869619852,-0.6584597432889281,0.10365493783424826,-1.7348884727357792,-0.3506976773939927,-0.7177034018309525,0.012155407554568313
1759838029.740734,0,-1.181167661082637,-0.851014653253295,-0.6574948666743551,0.10398900185334777,-1.7348866191414838,-0.35070200898883575,-0.717703401839061,0.013921873953223217
1759838029.7520254,0,-1.1810427163993718,-0.851128255819774,-0.6567192760813579,0.10426601603050915,-1.7348823133964797,-0.3507262105283467,-0.7177034018462776,0.01536375040462156
1759838029.762525,0,-1.1809653954188297,-0.8511998940148184,-0.6562045969021622,0.10447953627727692,-1.734876202773498,-0.35076305440114786,-0.7177034018530795,0.016565830844400522
1759838029.7729688,0,-1.1808968649986553,-0.8512648293162751,-0.6558080941073413,0.10465743172048468,-1.7348689247410516,-0.35080783267104804,-0.7177034018593047,0.017576771385255763
1759838029.783858,0,-1.180825514304487,-0.8513317338470305,-0.6555311622488675,0.10480726939485889,-1.7348608988115974,-0.3508573501502223,-0.7177034018644268,0.01843672488815287
1759838029.7948315,0,-1.180768214378283,-0.8513875905234989,-0.6553016769819819,0.10493463368792735,-1.734855118971563,-0.35089918861128394,-0.7177034018710096,0.01901621456781817
1759838029.805714,0,-1.1807252946154643,-0.8514322259688082,-0.6551598053955077,0.10504442946428554,-1.7348489370731943,-0.3509417169776111,-0.7177034018765288,0.019523521747345906
1759838029.8165982,0,-1.1806903307202918,-0.8514647772160129,-0.655067290278402,0.10511412057217324,-1.7348425491718942,-0.3509841140104194,-0.7177034018811015,0.01997235620387143
1759838029.8274822,0,-1.180661159546427,-0.851493412279749,-0.655013417793526,0.10517658336376211,-1.734836038154539,-0.3510259748886696,-0.7177034018855761,0.020375406104650218
1759838029.840498,0,-1.1696245196803656,-0.859641356341504,-0.6400592133935202,0.12422738110403504,-1.7348293305055655,-0.3510675830793426,-0.7177034018898594,0.020749955926535186
1759838029.848361,0,-1.1655944935298093,-0.8625177514280066,-0.6287615549414421,0.12422738110403504,-1.7348262823148024,-0.3510939387639437,-0.7177034018948061,0.020886055533339488
1759838029.8590927,0,-1.1636001327677654,-0.8639363696016474,-0.6192453671639782,0.12469998702801015,-1.7348227549206972,-0.3511200447319187,-0.7177034018999036,0.02104045963700861
1759838029.8701508,0,-1.1626293066396398,-0.864613641322622,-0.61208666209099,0.1250432577168336,-1.7348176903139516,-0.35114704151017323,-0.7177034019047663,0.02136955691094962
1759838029.8808923,0,-1.1621267028861912,-0.8649600490816393,-0.6068945512234881,0.125321511531718,-1.7348124824679636,-0.35117503522505666,-0.7177034019094506,0.02167335442831714
1759838029.8915067,0,-1.1618146296765735,-0.8651743864470627,-0.6030503728220951,0.1255521267510441,-1.7348070691890098,-0.3512039705440665,-0.7177034019140089,0.021960898728088533
1759838029.9029813,0,-1.1615643915611193,-0.8653466433302911,-0.600095621558394,0.12574462373613401,-1.7348037482739356,-0.351220849222762,-0.7177034019197793,0.023833635972240697
1759838029.9141552,0,-1.1613947744503907,-0.8654650559471271,-0.597938324378874,0.12590709962914556,-1.734797762201334,-0.3512577119040043,-0.717703401924598,0.025379917383257195
1759838029.9248002,0,-1.1612747576478428,-0.8655447157722522,-0.5964392238326627,0.12602182727687594,-1.7347898110952784,-0.35130726022481823,-0.7177034019287108,0.026685091184265687
1759838029.9356296,0,-1.161164548336652,-0.8656192547273319,-0.5952978994191102,0.1261201536565984,-1.734780535417624,-0.3513648864513062,-0.7177034019326642,0.02779952536573848
1759838029.9459527,0,-1.1610917069107367,-0.8656700466351658,-0.5945586852651151,0.1262055968132768,-1.7347704297211146,-0.3514272046161718,-0.717703401936168,0.02876032223655648
1759838029.9567404,0,-1.1610813743333055,-0.8656753262401138,-0.594195367158856,0.1262055968132768,-1.7347644381231193,-0.351474346657036,-0.717703401939924,0.029333891995987516
1759838029.9668536,0,-1.1609660871965815,-0.8657607415202032,-0.5936140373833052,0.12634743970592432,-1.734757524697343,-0.35152304135662443,-0.7177034019440597,0.029863633493390416
1759838029.977025,0,-1.1609226055642363,-0.8657877275571344,-0.5933798652427564,0.12637862686520715,-1.7347502411274307,-0.3515718178808237,-0.7177034019476726,0.030345655425533864
1759838029.9874637,0,-1.160874406819697,-0.8658193711341237,-0.5931961465794626,0.12641047915975695,-1.7347426531703907,-0.35162046398738117,-0.7177034019510012,0.03079220315595692
1759838029.9981508,0,-1.160828810976382,-0.8658505251868898,-0.5930551236742063,0.12644230661209618,-1.734734803157162,-0.3516689241187261,-0.7177034019538299,0.031212837074843923
1759838030.009364,0,-1.160777491117219,-0.86588652306857,-0.5929034342029846,0.1264741488573206,-1.7347316109986746,-0.35169775211934695,-0.7177034019572798,0.031337734690311925
1759838030.0201201,0,-1.160759221753284,-0.8659018463206672,-0.5929009787006356,0.12650776765004884,-1.7347277416898925,-0.35172675703807293,-0.7177034019594778,0.03149867374795538
1759838030.031532,0,-1.1607214311213347,-0.8659246895123527,-0.5928483709104487,0.12651221113460792,-1.734723289516499,-0.3517564320195879,-0.7177034019618415,0.0316897086830679
1759838030.0426505,0,-1.1486034159779153,-0.8735969602593583,-0.5767968666228833,0.13364744217365532,-1.7347182444006266,-0.351787323477752,-0.7177034019641445,0.031906508096336994
1759838030.054065,0,-1.1439496258128063,-0.8764906330193699,-0.5637852499594662,0.13366195717818605,-1.7347127644308145,-0.3518190981921728,-0.717703401966189,0.03214310961399681
1759838030.0653894,0,-1.1421677301886992,-0.8775754514703704,-0.5542279581193521,0.13366195717818605,-1.734712534878515,-0.35182894878203536,-0.7177034019685496,0.03208443260120275
1759838030.0763872,0,-1.140945957440573,-0.8783080961453352,-0.5461694246111438,0.13387650186783104,-1.7347111735018443,-0.351841315980657,-0.7177034019711167,0.03210149039582014
1759838030.0878315,0,-1.1403564691133654,-0.8786479715819061,-0.5403571342050228,0.13398170780554516,-1.7347081940992475,-0.3518567948092256,-0.717703401973374,0.032274972681252595
1759838030.0988595,0,-1.1399943874895406,-0.8788514593758275,-0.5360745845118698,0.13407451059381806,-1.734704390459104,-0.35187591822602704,-0.7177034019755436,0.032476778730401897
1759838030.1103687,0,-1.1397183405919025,-0.8790049539406515,-0.5328360062977535,0.13415577673744444,-1.7346998163106093,-0.35189848375973554,-0.7177034019774714,0.03270505115876753
1759838030.1211064,0,-1.1397228633635275,-0.8789945539680173,-0.5312155467210482,0.13396903304555755,-1.7346996602817573,-0.3519010568737163,-0.71770340197962,0.03372072001984281
1759838030.1322181,0,-1.139385894232172,-0.8791891038213444,-0.5290485902803793,0.1336985516105285,-1.734696987163073,-0.3519188473312621,-0.717703401982051,0.03459835657664015
1759838030.1435053,0,-1.1392518652123225,-0.8792579565393238,-0.5277695956455896,0.13396847648284468,-1.734692345032201,-0.3519474385740168,-0.7177034019841448,0.0353781808039613
1759838030.1544697,0,-1.1391569874804846,-0.879306352658828,-0.5269042517757905,0.13423483645910378,-1.7346862335794735,-0.35198380975262283,-0.7177034019862077,0.03607966464157983
1759838030.1660156,0,-1.1390531932596284,-0.8793613681631541,-0.5261999523813924,0.13431799699620103,-1.7346789262409343,-0.3520261390127529,-0.717703401988239,0.03672362830300742
1759838030.1772616,0,-1.1390567543074366,-0.8793583129220909,-0.526063512593055,0.13396454091190144,-1.7346768406453839,-0.3520482931705625,-0.7177034019903477,0.03698265617216222
1759838030.1877265,0,-1.1389589636663622,-0.8794115123504374,-0.5256768801318338,0.13414112390766517,-1.7346733251357507,-0.35207449630782806,-0.7177034019923367,0.037268600370301566
1759838030.198739,0,-1.1389052687455314,-0.8794359613347258,-0.5255773829013513,0.1333768276453255,-1.734668819560687,-0.3521038915934078,-0.7177034019941828,0.03756987900026772
1759838030.209079,0,-1.1388892552230887,-0.8794408709907268,-0.5255956230102952,0.13335962265012807,-1.7346635261448282,-0.3521358877243765,-0.7177034019957557,0.03788083186754113
1759838030.2200637,0,-1.1388410338955306,-0.8794661550985895,-0.5255616968989394,0.13313165030171445,-1.734657366776153,-0.35217092155167085,-0.7177034019967563,0.03820824099772982
1759838030.2312865,0,-1.1388261816524996,-0.87947494830222,-0.5255641092193393,0.13372307085629187,-1.7346570496712181,-0.3521819546276482,-0.7177034019979666,0.03819147230356628
1759838030.24545,0,-1.1246141617647798,-0.8871539868588715,-0.5070699027517285,0.14594640152063387,-1.7346550479062095,-0.352197792113072,-0.7177034020000224,0.03827249619900056
1759838030.2559633,0,-1.1193475725796502,-0.8899227342334234,-0.493046086071248,0.14522251095161318,-1.7346520920685873,-0.3522165721136894,-0.7177034020018018,0.03840535116600107
1759838030.2670643,0,-1.1171456906053672,-0.8910552311536206,-0.48245889830630045,0.1450917928854256,-1.7346481817007984,-0.3522387022077565,-0.7177034020033418,0.03858523751254205
1759838030.2787704,0,-1.1161474178220272,-0.8915510781777977,-0.4744803802178167,0.14540769230036357,-1.7346433248981534,-0.3522644740374358,-0.7177034020046513,0.03880830893938269
1759838030.2901876,0,-1.1156694150041488,-0.8917775809597634,-0.46866887724517703,0.14576042242723336,-1.7346440086713428,-0.35226748656791734,-0.7177034020062345,0.03871948452312432
