timestamp,vehicle_id,x,y,theta,velocity,gps_available,dt,gps_x,gps_y,gps_theta,gps_velocity,control_steering,control_acceleration
1759838026.2175238,0,-1.205,-0.83,-0.7801621756414647,0.0,False,0.01,nan,nan,nan,nan,0.0,0.0
1759838026.2280574,0,-1.205,-0.83,-0.7801621756414647,0.0,False,0.010533571243286133,nan,nan,nan,nan,0.0,0.0
1759838026.238881,0,-1.205,-0.83,-0.7801621756414647,0.0,False,0.010823726654052734,nan,nan,nan,nan,0.0,0.0
1759838026.2489715,0,-1.205,-0.83,-0.7801621756414647,0.0,False,0.010090351104736328,nan,nan,nan,nan,0.0,0.0
1759838026.260484,0,-1.205,-0.83,-0.7801621756414647,0.0,False,0.011512517929077148,nan,nan,nan,nan,0.0,0.0
1759838026.2717466,0,-1.205,-0.83,-0.7801621756414647,0.0,False,0.011262655258178711,nan,nan,nan,nan,0.0,0.0
1759838026.2829962,0,-1.205,-0.83,-0.7801621756414647,0.0,False,0.011249542236328125,nan,nan,nan,nan,0.0,0.0
1759838026.2934139,0,-1.205,-0.83,-0.7801621756414647,0.0,False,0.010417699813842773,nan,nan,nan,nan,0.0,0.0
1759838026.3041806,0,-1.205,-0.83,-0.7801621756414647,0.0,False,0.010766744613647461,nan,nan,nan,nan,0.0,0.0
1759838026.315599,0,-1.205,-0.83,-0.7801621756414647,0.0,False,0.011418342590332031,nan,nan,nan,nan,0.0,0.0
1759838026.3263104,0,-1.205,-0.83,-0.7801621756414647,0.0,False,0.010711431503295898,nan,nan,nan,nan,0.0,0.0
1759838026.3377407,0,-1.205,-0.83,-0.7801621756414647,0.0,False,0.01143026351928711,nan,nan,nan,nan,0.0,0.0
1759838026.348145,0,-1.205,-0.83,-0.7801621756414647,0.0,False,0.010404348373413086,nan,nan,nan,nan,0.0,0.0
1759838026.3586729,0,-1.205,-0.83,-0.7801621756414647,0.0,False,0.010527849197387695,nan,nan,nan,nan,0.0,0.0
1759838026.369275,0,-1.205,-0.83,-0.7801621756414647,0.0,False,0.010602235794067383,nan,nan,nan,nan,0.0,0.0
1759838026.3797684,0,-1.205,-0.83,-0.7801621756414647,0.0,False,0.010493278503417969,nan,nan,nan,nan,0.0,0.0
1759838026.3903883,0,-1.205,-0.83,-0.7801621756414647,0.0,False,0.010619878768920898,nan,nan,nan,nan,0.0,0.0
1759838026.4005928,0,-1.205,-0.83,-0.7801621756414647,0.0,False,0.010204553604125977,nan,nan,nan,nan,0.0,0.0
1759838026.41458,0,-1.2050000425577163,-0.8299997470180194,-0.7229996553999225,0.0,True,0.013987302780151367,-1.2050000429153442,-0.8299997448921204,-0.7177034020423889,0.0,0.0,0.0
1759838026.425555,0,-1.205000042795803,-0.8299997456027273,-0.7181160184237037,0.0,True,0.010974884033203125,-1.2050000429153442,-0.8299997448921204,-0.7177034020423889,0.0,0.0,0.0
1759838026.4365695,0,-1.2050000428705006,-0.8299997451586908,-0.7176557418306757,0.0,True,0.011014461517333984,-1.2050000429153442,-0.8299997448921204,-0.7177034020423889,0.0,0.0,0.0
1759838026.448198,0,-1.2050000428982601,-0.829999744993676,-0.7175937526001555,0.0,True,0.01162862777709961,-1.2050000429153442,-0.8299997448921204,-0.7177034020423889,0.0,0.0,0.0
1759838026.4585674,0,-1.2050000429088212,-0.8299997449308965,-0.7175909161167304,0.0,True,0.010369300842285156,-1.2050000429153442,-0.8299997448921204,-0.7177034020423889,0.0,0.0,0.0
1759838026.4700723,0,-1.205000042912853,-0.8299997449069307,-0.7175971340241922,0.0,True,0.011504888534545898,-1.2050000429153442,-0.8299997448921204,-0.7177034020423889,0.0,0.0,0.0
1759838026.481367,0,-1.2050000429143926,-0.8299997448977774,-0.7176087908783089,0.0,True,0.011294841766357422,-1.2050000429153442,-0.8299997448921204,-0.7177034020423889,0.0,0.0,0.0
1759838026.491654,0,-1.2050000429149808,-0.8299997448942812,-0.7176221629310184,0.0,True,0.010286808013916016,-1.2050000429153442,-0.8299997448921204,-0.7177034020423889,0.0,0.0,0.0
1759838026.5028741,0,-1.2050000429152055,-0.8299997448929457,-0.7176319303457923,0.0,True,0.011220216751098633,-1.2050000429153442,-0.8299997448921204,-0.7177034020423889,0.0,0.0,0.0
1759838026.5134542,0,-1.2050000429152912,-0.8299997448924357,-0.7176411508334404,0.0,True,0.010580062866210938,-1.2050000429153442,-0.8299997448921204,-0.7177034020423889,0.0,0.0,0.0
1759838026.524017,0,-1.205000042915324,-0.8299997448922408,-0.7176486922753647,0.0,True,0.010562896728515625,-1.2050000429153442,-0.8299997448921204,-0.7177034020423889,0.0,0.0,0.0
1759838026.5349023,0,-1.2050000429153365,-0.8299997448921663,-0.7176545574942494,0.0,True,0.010885238647460938,-1.2050000429153442,-0.8299997448921204,-0.7177034020423889,0.0,0.0,0.0
1759838026.5457096,0,-1.2050000429153414,-0.8299997448921379,-0.7176595878471126,0.0,True,0.010807275772094727,-1.2050000429153442,-0.8299997448921204,-0.7177034020423889,0.0,0.0,0.0
1759838026.5560174,0,-1.2050000429153431,-0.829999744892127,-0.7176642208913933,0.0,True,0.010307788848876953,-1.2050000429153442,-0.8299997448921204,-0.7177034020423889,0.0,0.0,0.0
1759838026.5660293,0,-1.2050000429153438,-0.8299997448921229,-0.7176682256324245,0.0,True,0.010011911392211914,-1.2050000429153442,-0.8299997448921204,-0.7177034020423889,0.0,0.0,0.0
1759838026.5764024,0,-1.205000042915344,-0.8299997448921214,-0.717671249170019,0.0,True,0.010373115539550781,-1.2050000429153442,-0.8299997448921204,-0.7177034020423889,0.0,0.0,0.0
1759838026.5870712,0,-1.2050000429153442,-0.8299997448921207,-0.7176736447217884,0.0,True,0.010668754577636719,-1.2050000429153442,-0.8299997448921204,-0.7177034020423889,0.0,0.0,0.0
1759838026.59781,0,-1.2050000429153442,-0.8299997448921205,-0.7176757451489024,0.0,True,0.010738849639892578,-1.2050000429153442,-0.8299997448921204,-0.7177034020423889,0.0,0.0,0.0
1759838026.613403,0,-1.2050000429153442,-0.8299997448921204,-0.7176752572381844,0.0,True,0.01559305191040039,-1.2050000429153442,-0.8299997448921204,-0.7177034020423889,0.0,0.0,0.0
1759838026.6236126,0,-1.2050000429153442,-0.8299997448921204,-0.7176781840999773,0.0,True,0.01020956039428711,-1.2050000429153442,-0.8299997448921204,-0.7177034020423889,0.0,0.0,0.0
1759838026.633981,0,-1.2050000429153442,-0.8299997448921204,-0.7176806018487198,0.0,True,0.01036834716796875,-1.2050000429153442,-0.8299997448921204,-0.7177034020423889,0.0,0.0,0.0
1759838026.6441019,0,-1.2050000429153442,-0.8299997448921204,-0.7176826277118948,0.0,True,0.010120868682861328,-1.2050000429153442,-0.8299997448921204,-0.7177034020423889,0.0,0.0,0.0
1759838026.654585,0,-1.2050000429153442,-0.8299997448921204,-0.7176841182293057,0.0,True,0.010483026504516602,-1.2050000429153442,-0.8299997448921204,-0.7177034020423889,0.0,0.0,0.0
1759838026.6650283,0,-1.2050000429153442,-0.8299997448921204,-0.7176853892684996,0.0,True,0.010443449020385742,-1.2050000429153442,-0.8299997448921204,-0.7177034020423889,0.0,0.0,0.0
1759838026.6762705,0,-1.2050000429153442,-0.8299997448921204,-0.7176862144199525,0.0,True,0.011242151260375977,-1.2050000429153442,-0.8299997448921204,-0.7177034020423889,0.0,0.0,0.0
1759838026.6867352,0,-1.2050000429153442,-0.8299997448921204,-0.7176872695712042,0.0,True,0.010464668273925781,-1.2050000429153442,-0.8299997448921204,-0.7177034020423889,0.0,0.0,0.0
1759838026.6979866,0,-1.2050000429153442,-0.8299997448921204,-0.7176879691532161,0.0,True,0.011251449584960938,-1.2050000429153442,-0.8299997448921204,-0.7177034020423889,0.0,0.0,0.0
1759838026.7096214,0,-1.2050000429153442,-0.8299997448921204,-0.7176885391445875,0.0,True,0.01163482666015625,-1.2050000429153442,-0.8299997448921204,-0.7177034020423889,0.0,0.0,0.0
1759838026.7205663,0,-1.2050000429153442,-0.8299997448921204,-0.7176893367441117,0.0,True,0.010944843292236328,-1.2050000429153442,-0.8299997448921204,-0.7177034020423889,0.0,0.0,0.0
1759838026.7311308,0,-1.2050000429153442,-0.8299997448921204,-0.7176901815030412,0.0,True,0.010564565658569336,-1.2050000429153442,-0.8299997448921204,-0.7177034020423889,0.0,0.0,0.0
1759838026.7415535,0,-1.2050000429153442,-0.8299997448921204,-0.7176909604153163,0.0,True,0.010422706604003906,-1.2050000429153442,-0.8299997448921204,-0.7177034020423889,0.0,0.0,0.0
1759838026.7520473,0,-1.2050000429153442,-0.8299997448921204,-0.7176916201408758,0.0,True,0.010493755340576172,-1.2050000429153442,-0.8299997448921204,-0.7177034020423889,0.0,0.0,0.0
1759838026.7625666,0,-1.2050000429153442,-0.8299997448921204,-0.7176921986893667,0.0,True,0.010519266128540039,-1.2050000429153442,-0.8299997448921204,-0.7177034020423889,0.0,0.0,0.0
1759838026.772569,0,-1.2050000429153442,-0.8299997448921204,-0.7176928383912013,0.0,True,0.010002374649047852,-1.2050000429153442,-0.8299997448921204,-0.7177034020423889,0.0,0.0,0.0
1759838026.783947,0,-1.2050000429153442,-0.8299997448921204,-0.7176930963360952,0.0,True,0.011378049850463867,-1.2050000429153442,-0.8299997448921204,-0.7177034020423889,0.0,0.0,0.0
1759838026.7954378,0,-1.2050000429153442,-0.8299997448921204,-0.7176933601597195,0.0,True,0.011490821838378906,-1.2050000429153442,-0.8299997448921204,-0.7177034020423889,0.0,0.0,0.0
1759838026.8064609,0,-1.2050000429153442,-0.8299997448921204,-0.717693762000156,0.0,True,0.01102304458618164,-1.2050000429153442,-0.8299997448921204,-0.7177034020423889,0.0,0.0,0.0
1759838026.8209488,0,-1.2050000429153442,-0.8299997448921204,-0.7176935136428533,0.0,True,0.014487981796264648,-1.2050000429153442,-0.8299997448921204,-0.7177034020423889,0.0,0.0,0.0
1759838026.8317585,0,-1.2050000429153442,-0.8299997448921204,-0.7176941325334845,0.0,True,0.010809659957885742,-1.2050000429153442,-0.8299997448921204,-0.7177034020423889,0.0,0.0,0.0
1759838026.8426871,0,-1.2050000429153442,-0.8299997448921204,-0.7176946884716777,0.0,True,0.010928630828857422,-1.2050000429153442,-0.8299997448921204,-0.7177034020423889,0.0,0.0,0.0
1759838026.8540165,0,-1.2050000429153442,-0.8299997448921204,-0.7176950996016878,0.0,True,0.011329412460327148,-1.2050000429153442,-0.8299997448921204,-0.7177034020423889,0.0,0.0,0.0
1759838026.8647618,0,-1.2050000429153442,-0.8299997448921204,-0.7176955628907713,0.0,True,0.01074528694152832,-1.2050000429153442,-0.8299997448921204,-0.7177034020423889,0.0,0.0,0.0
1759838026.8762975,0,-1.2050000429153442,-0.8299997448921204,-0.7176958501474928,0.0,True,0.01153564453125,-1.2050000429153442,-0.8299997448921204,-0.7177034020423889,0.0,0.0,0.0
1759838026.8864586,0,-1.2050000429153442,-0.8299997448921204,-0.7176963255760889,0.0,True,0.010161161422729492,-1.2050000429153442,-0.8299997448921204,-0.7177034020423889,0.0,0.0,0.0
1759838026.8967047,0,-1.2050000429153442,-0.8299997448921204,-0.7176967216559369,0.0,True,0.010246038436889648,-1.2050000429153442,-0.8299997448921204,-0.7177034020423889,0.0,0.0,0.0
1759838026.907939,0,-1.2050000429153442,-0.8299997448921204,-0.717696922984647,0.0,True,0.011234283447265625,-1.2050000429153442,-0.8299997448921204,-0.7177034020423889,0.0,0.0,0.0
1759838026.9182255,0,-1.2050000429153442,-0.8299997448921204,-0.7176972452464341,0.0,True,0.010286569595336914,-1.2050000429153442,-0.8299997448921204,-0.7177034020423889,0.0,0.0,0.0
1759838026.9293978,0,-1.2050000429153442,-0.8299997448921204,-0.7176974237055891,0.0,True,0.011172294616699219,-1.2050000429153442,-0.8299997448921204,-0.7177034020423889,0.0,0.0,0.0
1759838026.9395804,0,-1.2050000429153442,-0.8299997448921204,-0.7176977227605832,0.0,True,0.010182619094848633,-1.2050000429153442,-0.8299997448921204,-0.7177034020423889,0.0,0.0,0.0
1759838026.9498322,0,-1.2050000429153442,-0.8299997448921204,-0.7176979824113001,0.0,True,0.010251760482788086,-1.2050000429153442,-0.8299997448921204,-0.7177034020423889,0.0,0.0,0.0
1759838026.9603465,0,-1.2050000429153442,-0.8299997448921204,-0.7176981818728976,0.0,True,0.010514259338378906,-1.2050000429153442,-0.8299997448921204,-0.7177034020423889,0.0,0.0,0.0
1759838026.9705162,0,-1.2050000429153442,-0.8299997448921204,-0.717698405162448,0.0,True,0.010169744491577148,-1.2050000429153442,-0.8299997448921204,-0.7177034020423889,0.0,0.0,0.0
1759838026.9806502,0,-1.2050000429153442,-0.8299997448921204,-0.7176986116236819,0.0,True,0.010133981704711914,-1.2050000429153442,-0.8299997448921204,-0.7177034020423889,0.0,0.0,0.0
1759838026.9917467,0,-1.2050000429153442,-0.8299997448921204,-0.7176986997005468,0.0,True,0.011096477508544922,-1.2050000429153442,-0.8299997448921204,-0.7177034020423889,0.0,0.0,0.0
1759838027.0018275,0,-1.2050000429153442,-0.8299997448921204,-0.7176989025274594,0.0,True,0.010080814361572266,-1.2050000429153442,-0.8299997448921204,-0.7177034020423889,0.0,0.0,0.0
1759838027.0158489,0,-1.2050000429153442,-0.8299997448921204,-0.7176987184110395,0.0,True,0.01402139663696289,-1.2050000429153442,-0.8299997448921204,-0.7177034020423889,0.0,0.0,0.0
1759838027.0239158,0,-1.2050000429153442,-0.8299997448921204,-0.7176991751703223,0.0,True,0.008066892623901367,-1.2050000429153442,-0.8299997448921204,-0.7177034020423889,0.0,0.0,0.0
1759838027.0353823,0,-1.2050000429153442,-0.8299997448921204,-0.7176992574984489,0.0,True,0.011466503143310547,-1.2050000429153442,-0.8299997448921204,-0.7177034020423889,0.0,0.0,0.0
1759838027.0466163,0,-1.2050000429153442,-0.8299997448921204,-0.7176993576477582,0.0,True,0.011234045028686523,-1.2050000429153442,-0.8299997448921204,-0.7177034020423889,0.0,0.0,0.0
1759838027.0568464,0,-1.2050000429153442,-0.8299997448921204,-0.7176995524646141,0.0,True,0.010230064392089844,-1.2050000429153442,-0.8299997448921204,-0.7177034020423889,0.0,0.0,0.0
1759838027.0681257,0,-1.2050000429153442,-0.8299997448921204,-0.7176996455539904,0.0,True,0.01127934455871582,-1.2050000429153442,-0.8299997448921204,-0.7177034020423889,0.0,0.0,0.0
1759838027.0785747,0,-1.2050000429153442,-0.8299997448921204,-0.7176998068861913,0.0,True,0.010448932647705078,-1.2050000429153442,-0.8299997448921204,-0.7177034020423889,0.0,0.0,0.0
1759838027.088792,0,-1.2050000429153442,-0.8299997448921204,-0.7176999737569734,0.0,True,0.010217428207397461,-1.2050000429153442,-0.8299997448921204,-0.7177034020423889,0.0,0.0,0.0
1759838027.1002624,0,-1.2050000429153442,-0.8299997448921204,-0.7177000320005824,0.0,True,0.011470317840576172,-1.2050000429153442,-0.8299997448921204,-0.7177034020423889,0.0,0.0,0.0
1759838027.1115968,0,-1.2050000429153442,-0.8299997448921204,-0.7177001113523254,0.0,True,0.011334419250488281,-1.2050000429153442,-0.8299997448921204,-0.7177034020423889,0.0,0.0,0.0
1759838027.122381,0,-1.2050000429153442,-0.8299997448921204,-0.7177002383459232,0.0,True,0.010784149169921875,-1.2050000429153442,-0.8299997448921204,-0.7177034020423889,0.0,0.0,0.0
1759838027.133841,0,-1.2050000429153442,-0.8299997448921204,-0.7177003171523246,0.0,True,0.011460065841674805,-1.2050000429153442,-0.8299997448921204,-0.7177034020423889,0.0,0.0,0.0
1759838027.1448977,0,-1.2050000429153442,-0.8299997448921204,-0.7177004265431002,0.0,True,0.011056661605834961,-1.2050000429153442,-0.8299997448921204,-0.7177034020423889,0.0,0.0,0.0
1759838027.1556396,0,-1.2050000429153442,-0.8299997448921204,-0.7177005528168952,0.0,True,0.010741949081420898,-1.2050000429153442,-0.8299997448921204,-0.7177034020423889,0.0,0.0,0.0
1759838027.1670268,0,-1.2050000429153442,-0.8299997448921204,-0.7177006322660802,0.0,True,0.011387109756469727,-1.2050000429153442,-0.8299997448921204,-0.7177034020423889,0.0,0.0,0.0
1759838027.1777675,0,-1.2050000429153442,-0.8299997448921204,-0.7177007492112999,0.0,True,0.01074075698852539,-1.2050000429153442,-0.8299997448921204,-0.7177034020423889,0.0,0.0,0.0
1759838027.1879823,0,-1.2050000429153442,-0.8299997448921204,-0.7177008861096468,0.0,True,0.010214805603027344,-1.2050000429153442,-0.8299997448921204,-0.7177034020423889,0.0,0.0,0.0
1759838027.1990871,0,-1.2050000429153442,-0.8299997448921204,-0.7177009592731611,0.0,True,0.011104822158813477,-1.2050000429153442,-0.8299997448921204,-0.7177034020423889,0.0,0.0,0.0
1759838027.2111194,0,-1.2050000429153442,-0.8299997448921204,-0.717700985119901,0.0,True,0.012032270431518555,-1.2050000429153442,-0.8299997448921204,-0.7177034020423889,0.0,0.0,0.0
1759838027.22197,0,-1.2050000429153442,-0.8299997448921204,-0.7177010836085671,0.0,True,0.010850667953491211,-1.2050000429153442,-0.8299997448921204,-0.7177034020423889,0.0,0.0,0.0
1759838027.2331219,0,-1.2050000429153442,-0.8299997448921204,-0.7177011648663036,0.0,True,0.011151790618896484,-1.2050000429153442,-0.8299997448921204,-0.7177034020423889,0.0,0.0,0.0
1759838027.2447555,0,-1.2050000429153442,-0.8299997448921204,-0.7177012216066814,0.0,True,0.011633634567260742,-1.2050000429153442,-0.8299997448921204,-0.7177034020423889,0.0,0.0,0.0
1759838027.2549274,0,-1.2050000429153442,-0.8299997448921204,-0.7177013451810517,0.0,True,0.010171890258789062,-1.2050000429153442,-0.8299997448921204,-0.7177034020423889,0.0,0.0,0.0
1759838027.2663236,0,-1.2050000429153442,-0.8299997448921204,-0.717701402640305,0.0,True,0.011396169662475586,-1.2050000429153442,-0.8299997448921204,-0.7177034020423889,0.0,0.0,0.0
1759838027.2766201,0,-1.2050000429153442,-0.8299997448921204,-0.7177015031856815,0.0,True,0.01029658317565918,-1.2050000429153442,-0.8299997448921204,-0.7177034020423889,0.0,0.0,0.0
1759838027.287812,0,-1.2050000429153442,-0.8299997448921204,-0.7177015581482848,0.0,True,0.011191844940185547,-1.2050000429153442,-0.8299997448921204,-0.7177034020423889,0.0,0.0,0.0
1759838027.2981336,0,-1.2050000429153442,-0.8299997448921204,-0.7177016445943512,0.0,True,0.010321617126464844,-1.2050000429153442,-0.8299997448921204,-0.7177034020423889,0.0,0.0,0.0
1759838027.3086882,0,-1.2050000429153442,-0.8299997448921204,-0.717701713951076,0.0,True,0.01055455207824707,-1.2050000429153442,-0.8299997448921204,-0.7177034020423889,0.0,0.0,0.0
1759838027.318828,0,-1.2050000429153442,-0.8299997448921204,-0.7177017913097288,0.0,True,0.010139942169189453,-1.2050000429153442,-0.8299997448921204,-0.7177034020423889,0.0,0.0,0.0
1759838027.3298228,0,-1.2050000429153442,-0.8299997448921204,-0.7177018308387062,0.0,True,0.010994672775268555,-1.2050000429153442,-0.8299997448921204,-0.7177034020423889,0.0,0.0,0.0
1759838027.339922,0,-1.2050000429153442,-0.8299997448921204,-0.7177019006642968,0.0,True,0.010099172592163086,-1.2050000429153442,-0.8299997448921204,-0.7177034020423889,0.0,0.0,0.0
1759838027.3499494,0,-1.2050000429153442,-0.8299997448921204,-0.7177019663803108,0.0,True,0.010027408599853516,-1.2050000429153442,-0.8299997448921204,-0.7177034020423889,0.0,0.0,0.0
1759838027.3606634,0,-1.2050000429153442,-0.8299997448921204,-0.7177020031851793,0.0,True,0.010714054107666016,-1.2050000429153442,-0.8299997448921204,-0.7177034020423889,0.0,0.0,0.0
1759838027.3707526,0,-1.2050000429153442,-0.8299997448921204,-0.7177020587942717,0.0,True,0.01008915901184082,-1.2050000429153442,-0.8299997448921204,-0.7177034020423889,0.0,0.0,0.0
1759838027.3817825,0,-1.2050000429153442,-0.8299997448921204,-0.7177020831603045,0.0,True,0.011029958724975586,-1.2050000429153442,-0.8299997448921204,-0.7177034020423889,0.0,0.0,0.0
1759838027.3919559,0,-1.2050000429153442,-0.8299997448921204,-0.7177021349699668,0.0,True,0.010173320770263672,-1.2050000429153442,-0.8299997448921204,-0.7177034020423889,0.0,0.0,0.0
1759838027.4025462,0,-1.2050000429153442,-0.8299997448921204,-0.7177021725186776,0.0,True,0.010590314865112305,-1.2050000429153442,-0.8299997448921204,-0.7177034020423889,0.0,0.0,0.0
1759838027.4127455,0,-1.2050000429153442,-0.8299997448921204,-0.7177022194188503,0.0,True,0.010199308395385742,-1.2050000429153442,-0.8299997448921204,-0.7177034020423889,0.0,0.0,0.0
1759838027.4239924,0,-1.2050000429153442,-0.8299997448921204,-0.7177022366247741,0.0,True,0.011246919631958008,-1.2050000429153442,-0.8299997448921204,-0.7177034020423889,0.0,0.0,0.0
1759838027.434162,0,-1.2050000429153442,-0.8299997448921204,-0.7177022848111676,0.0,True,0.010169506072998047,-1.2050000429153442,-0.8299997448921204,-0.7177034020423889,0.0,0.0,0.0
1759838027.4444141,0,-1.2050000429153442,-0.8299997448921204,-0.7177023280460073,0.0,True,0.010252237319946289,-1.2050000429153442,-0.8299997448921204,-0.7177034020423889,0.0,0.0,0.0
1759838027.4561,0,-1.2050000429153442,-0.8299997448921204,-0.7177023347578579,0.0,True,0.011685848236083984,-1.2050000429153442,-0.8299997448921204,-0.7177034020423889,0.0,0.0,0.0
1759838027.4669998,0,-1.2050000429153442,-0.8299997448921204,-0.7177023659157253,0.0,True,0.010899782180786133,-1.2050000429153442,-0.8299997448921204,-0.7177034020423889,0.0,0.0,0.0
1759838027.477899,0,-1.2050000429153442,-0.8299997448921204,-0.7177023990550389,0.0,True,0.01089930534362793,-1.2050000429153442,-0.8299997448921204,-0.7177034020423889,0.0,0.0,0.0
1759838027.4885366,0,-1.2050000429153442,-0.8299997448921204,-0.7177024373291907,0.0,True,0.010637521743774414,-1.2050000429153442,-0.8299997448921204,-0.7177034020423889,0.0,0.0,0.0
1759838027.4993458,0,-1.2050000429153442,-0.8299997448921204,-0.717702469936695,0.0,True,0.010809183120727539,-1.2050000429153442,-0.8299997448921204,-0.7177034020423889,0.0,0.0,0.0
1759838027.5099933,0,-1.2050000429153442,-0.8299997448921204,-0.7177025043388081,0.0,True,0.01064753532409668,-1.2050000429153442,-0.8299997448921204,-0.7177034020423889,0.0,0.0,0.0
1759838027.5210164,0,-1.2050000429153442,-0.8299997448921204,-0.7177025298940407,0.0,True,0.01102304458618164,-1.2050000429153442,-0.8299997448921204,-0.7177034020423889,0.0,0.0,0.0
1759838027.5321064,0,-1.2050000429153442,-0.8299997448921204,-0.7177025545672109,0.0,True,0.01109004020690918,-1.2050000429153442,-0.8299997448921204,-0.7177034020423889,0.0,0.0,0.0
1759838027.5429075,0,-1.2050000429153442,-0.8299997448921204,-0.7177025850617014,0.0,True,0.010801076889038086,-1.2050000429153442,-0.8299997448921204,-0.7177034020423889,0.0,0.0,0.0
1759838027.5540686,0,-1.2050000429153442,-0.8299997448921204,-0.7177026084778753,0.0,True,0.011161088943481445,-1.2050000429153442,-0.8299997448921204,-0.7177034020423889,0.0,0.0,0.0
1759838027.5644698,0,-1.2050000429153442,-0.8299997448921204,-0.7177026444750734,0.0,True,0.010401248931884766,-1.2050000429153442,-0.8299997448921204,-0.7177034020423889,0.0,0.0,0.0
1759838027.574845,0,-1.2050000429153442,-0.8299997448921204,-0.7177026775561295,0.0,True,0.010375261306762695,-1.2050000429153442,-0.8299997448921204,-0.7177034020423889,0.0,0.0,0.0
1759838027.5861015,0,-1.2050000429153442,-0.8299997448921204,-0.7177026937812023,0.0,True,0.01125645637512207,-1.2050000429153442,-0.8299997448921204,-0.7177034020423889,0.0,0.0,0.0
1759838027.5972373,0,-1.2050000429153442,-0.8299997448921204,-0.7177027129994649,0.0,True,0.01113581657409668,-1.2050000429153442,-0.8299997448921204,-0.7177034020423889,0.0,0.0,0.0
1759838027.608104,0,-1.2050000429153442,-0.8299997448921204,-0.7177027371529157,0.0,True,0.010866641998291016,-1.2050000429153442,-0.8299997448921204,-0.7177034020423889,0.0,0.0,0.0
1759838027.6245823,0,-1.2050000429153442,-0.8299997448921204,-0.7177026863506768,0.0,True,0.016478300094604492,-1.2050000429153442,-0.8299997448921204,-0.7177034020423889,0.0,0.0,0.0
1759838027.6352358,0,-1.2050000429153442,-0.8299997448921204,-0.7177027329377523,0.0,True,0.010653495788574219,-1.2050000429153442,-0.8299997448921204,-0.7177034020423889,0.0,0.0,0.0
1759838027.645797,0,-1.2050000429153442,-0.8299997448921204,-0.7177027781051812,0.0,True,0.010561227798461914,-1.2050000429153442,-0.8299997448921204,-0.7177034020423889,0.0,0.0,0.0
1759838027.6569278,0,-1.2050000429153442,-0.8299997448921204,-0.7177028084802153,0.0,True,0.011130809783935547,-1.2050000429153442,-0.8299997448921204,-0.7177034020423889,0.0,0.0,0.0
1759838027.6671343,0,-1.2050000429153442,-0.8299997448921204,-0.7177028451644993,0.0,True,0.010206460952758789,-1.2050000429153442,-0.8299997448921204,-0.7177034020423889,0.0,0.0,0.0
1759838027.6783168,0,-1.2050000429153442,-0.8299997448921204,-0.717702865202348,0.0,True,0.011182546615600586,-1.2050000429153442,-0.8299997448921204,-0.7177034020423889,0.0,0.0,0.0
1759838027.6895676,0,-1.2050000429153442,-0.8299997448921204,-0.7177028827977558,0.0,True,0.011250734329223633,-1.2050000429153442,-0.8299997448921204,-0.7177034020423889,0.0,0.0,0.0
1759838027.7002962,0,-1.2050000429153442,-0.8299997448921204,-0.7177029054362407,0.0,True,0.010728597640991211,-1.2050000429153442,-0.8299997448921204,-0.7177034020423889,0.0,0.0,0.0
1759838027.7134025,0,-1.2050000429153442,-0.8299997448921204,-0.7177029026886519,0.0,True,0.013106346130371094,-1.2050000429153442,-0.8299997448921204,-0.7177034020423889,0.0,0.0,0.0
1759838027.7243152,0,-1.2050000429153442,-0.8299997448921204,-0.7177029262675205,0.0,True,0.010912656784057617,-1.2050000429153442,-0.8299997448921204,-0.7177034020423889,0.0,0.0,0.0
1759838027.7347026,0,-1.2050000429153442,-0.8299997448921204,-0.7177029535275459,0.0,True,0.010387420654296875,-1.2050000429153442,-0.8299997448921204,-0.7177034020423889,0.0,0.0,0.0
1759838027.745331,0,-1.2050000429153442,-0.8299997448921204,-0.717702974600197,0.0,True,0.010628461837768555,-1.2050000429153442,-0.8299997448921204,-0.7177034020423889,0.0,0.0,0.0
1759838027.7555804,0,-1.2050000429153442,-0.8299997448921204,-0.7177029961194918,0.0,True,0.01024937629699707,-1.2050000429153442,-0.8299997448921204,-0.7177034020423889,0.0,0.0,0.0
1759838027.7658694,0,-1.2050000429153442,-0.8299997448921204,-0.7177030143722423,0.0,True,0.01028895378112793,-1.2050000429153442,-0.8299997448921204,-0.7177034020423889,0.0,0.0,0.0
1759838027.7765446,0,-1.2050000429153442,-0.8299997448921204,-0.7177030271955918,0.0,True,0.010675191879272461,-1.2050000429153442,-0.8299997448921204,-0.7177034020423889,0.0,0.0,0.0
1759838027.787603,0,-1.2050000429153442,-0.8299997448921204,-0.7177030362754895,0.0,True,0.011058330535888672,-1.2050000429153442,-0.8299997448921204,-0.7177034020423889,0.0,0.0,0.0
1759838027.7977622,0,-1.2050000429153442,-0.8299997448921204,-0.7177030526906698,0.0,True,0.01015925407409668,-1.2050000429153442,-0.8299997448921204,-0.7177034020423889,0.0,0.0,0.0
1759838027.8077812,0,-1.2050000429153442,-0.8299997448921204,-0.717703068606852,0.0,True,0.010019063949584961,-1.2050000429153442,-0.8299997448921204,-0.7177034020423889,0.0,0.0,0.0
1759838027.821427,0,-1.2050000429153442,-0.8299997448921204,-0.7177030569288405,0.0,True,0.01364588737487793,-1.2050000429153442,-0.8299997448921204,-0.7177034020423889,0.0,0.0,0.0
1759838027.8298829,0,-1.2050000429153442,-0.8299997448921204,-0.7177030868473118,0.0,True,0.008455753326416016,-1.2050000429153442,-0.8299997448921204,-0.7177034020423889,0.0,0.0,0.0
1759838027.8406122,0,-1.2050000429153442,-0.8299997448921204,-0.717703097229343,0.0,True,0.010729312896728516,-1.2050000429153442,-0.8299997448921204,-0.7177034020423889,0.0,0.0,0.0
1759838027.8508494,0,-1.2050000429153442,-0.8299997448921204,-0.7177031093333905,0.0,True,0.01023721694946289,-1.2050000429153442,-0.8299997448921204,-0.7177034020423889,0.0,0.0,0.0
1759838027.8620896,0,-1.2050000429153442,-0.8299997448921204,-0.7177031142137391,0.0,True,0.011240243911743164,-1.2050000429153442,-0.8299997448921204,-0.7177034020423889,0.0,0.0,0.0
1759838027.8735948,0,-1.2050000429153442,-0.8299997448921204,-0.7177031184699381,0.0,True,0.011505126953125,-1.2050000429153442,-0.8299997448921204,-0.7177034020423889,0.0,0.0,0.0
1759838027.884367,0,-1.2050000429153442,-0.8299997448921204,-0.717703128523393,0.0,True,0.010772228240966797,-1.2050000429153442,-0.8299997448921204,-0.7177034020423889,0.0,0.0,0.0
1759838027.895517,0,-1.2050000429153442,-0.8299997448921204,-0.7177031363349737,0.0,True,0.011150121688842773,-1.2050000429153442,-0.8299997448921204,-0.7177034020423889,0.0,0.0,0.0
1759838027.9063296,0,-1.2050000429153442,-0.8299997448921204,-0.7177031460830783,0.0,True,0.010812520980834961,-1.2050000429153442,-0.8299997448921204,-0.7177034020423889,0.0,0.0,0.0
1759838027.9171674,0,-1.2050000429153442,-0.8299997448921204,-0.7177031552790307,0.0,True,0.010837793350219727,-1.2050000429153442,-0.8299997448921204,-0.7177034020423889,0.0,0.0,0.0
1759838027.9275596,0,-1.2050000429153442,-0.8299997448921204,-0.7177031662324378,0.0,True,0.010392189025878906,-1.2050000429153442,-0.8299997448921204,-0.7177034020423889,0.0,0.0,0.0
1759838027.9388654,0,-1.2050000429153442,-0.8299997448921204,-0.7177031716565558,0.0,True,0.011305809020996094,-1.2050000429153442,-0.8299997448921204,-0.7177034020423889,0.0,0.0,0.0
1759838027.9498568,0,-1.2050000429153442,-0.8299997448921204,-0.7177031789042267,0.0,True,0.010991334915161133,-1.2050000429153442,-0.8299997448921204,-0.7177034020423889,0.0,0.0,0.0
1759838027.9601493,0,-1.2050000429153442,-0.8299997448921204,-0.7177031893735162,0.0,True,0.010292530059814453,-1.2050000429153442,-0.8299997448921204,-0.7177034020423889,0.0,0.0,0.0
1759838027.9712145,0,-1.2050000429153442,-0.8299997448921204,-0.7177031953625281,0.0,True,0.011065244674682617,-1.2050000429153442,-0.8299997448921204,-0.7177034020423889,0.0,0.0,0.0
1759838027.9817748,0,-1.2050000429153442,-0.8299997448921204,-0.7177032034276731,0.0,True,0.010560274124145508,-1.2050000429153442,-0.8299997448921204,-0.7177034020423889,0.0,0.0,0.0
1759838027.9931579,0,-1.2050000429153442,-0.8299997448921204,-0.717703207631736,0.0,True,0.011383056640625,-1.2050000429153442,-0.8299997448921204,-0.7177034020423889,0.0,0.0,0.0
1759838028.0045106,0,-1.2050000429153442,-0.8299997448921204,-0.7177032124356231,0.0,True,0.011352777481079102,-1.2050000429153442,-0.8299997448921204,-0.7177034020423889,0.0,0.0,0.0
1759838028.0152955,0,-1.2050000429153442,-0.8299997448921204,-0.7177032198897457,0.0,True,0.01078486442565918,-1.2050000429153442,-0.8299997448921204,-0.7177034020423889,0.0,0.0,0.0
1759838028.0267348,0,-1.2050000429153442,-0.8299997448921204,-0.7177032245636674,0.0,True,0.011439323425292969,-1.2050000429153442,-0.8299997448921204,-0.7177034020423889,0.0,0.0,0.0
1759838028.0378807,0,-1.2050000429153442,-0.8299997448921204,-0.7177032305162641,0.0,True,0.011145830154418945,-1.2050000429153442,-0.8299997448921204,-0.7177034020423889,0.0,0.0,0.0
1759838028.0483947,0,-1.2050000429153442,-0.8299997448921204,-0.7177032385817537,0.0,True,0.010514020919799805,-1.2050000429153442,-0.8299997448921204,-0.7177034020423889,0.0,0.0,0.0
1759838028.059043,0,-1.2050000429153442,-0.8299997448921204,-0.7177032453727747,0.0,True,0.010648250579833984,-1.2050000429153442,-0.8299997448921204,-0.7177034020423889,0.0,0.0,0.0
1759838028.0696132,0,-1.2050000429153442,-0.8299997448921204,-0.71770325173431,0.0,True,0.010570287704467773,-1.2050000429153442,-0.8299997448921204,-0.7177034020423889,0.0,0.0,0.0
1759838028.079964,0,-1.2050000429153442,-0.8299997448921204,-0.7177032582000713,0.0,True,0.010350704193115234,-1.2050000429153442,-0.8299997448921204,-0.7177034020423889,0.0,0.0,0.0
1759838028.090831,0,-1.2050000429153442,-0.8299997448921204,-0.7177032624524529,0.0,True,0.010867118835449219,-1.2050000429153442,-0.8299997448921204,-0.7177034020423889,0.0,0.0,0.0
1759838028.1008444,0,-1.2050000429153442,-0.8299997448921204,-0.7177032690820582,0.0,True,0.010013341903686523,-1.2050000429153442,-0.8299997448921204,-0.7177034020423889,0.0,0.0,0.0
1759838028.111123,0,-1.2050000429153442,-0.8299997448921204,-0.717703274232905,0.0,True,0.010278701782226562,-1.2050000429153442,-0.8299997448921204,-0.7177034020423889,0.0,0.0,0.0
1759838028.121554,0,-1.2050000429153442,-0.8299997448921204,-0.71770327845298,0.0,True,0.01043081283569336,-1.2050000429153442,-0.8299997448921204,-0.7177034020423889,0.0,0.0,0.0
1759838028.1329517,0,-1.2050000429153442,-0.8299997448921204,-0.717703279911186,0.0,True,0.011397838592529297,-1.2050000429153442,-0.8299997448921204,-0.7177034020423889,0.0,0.0,0.0
1759838028.1430507,0,-1.2050000429153442,-0.8299997448921204,-0.7177032852950198,0.0,True,0.010098934173583984,-1.2050000429153442,-0.8299997448921204,-0.7177034020423889,0.0,0.0,0.0
1759838028.1540892,0,-1.2050000429153442,-0.8299997448921204,-0.7177032879754375,0.0,True,0.011038541793823242,-1.2050000429153442,-0.8299997448921204,-0.7177034020423889,0.0,0.0,0.0
1759838028.1645865,0,-1.2050000429153442,-0.8299997448921204,-0.7177032920810067,0.0,True,0.010497331619262695,-1.2050000429153442,-0.8299997448921204,-0.7177034020423889,0.0,0.0,0.0
1759838028.1757808,0,-1.2050000429153442,-0.8299997448921204,-0.7177032944288584,0.0,True,0.011194229125976562,-1.2050000429153442,-0.8299997448921204,-0.7177034020423889,0.0,0.0,0.0
1759838028.186226,0,-1.2050000429153442,-0.8299997448921204,-0.7177032986909744,0.0,True,0.010445117950439453,-1.2050000429153442,-0.8299997448921204,-0.7177034020423889,0.0,0.0,0.0
1759838028.1963487,0,-1.2050000429153442,-0.8299997448921204,-0.717703303400306,0.0,True,0.01012277603149414,-1.2050000429153442,-0.8299997448921204,-0.7177034020423889,0.0,0.0,0.0
1759838028.2066453,0,-1.2050000429153442,-0.8299997448921204,-0.7177033072078718,0.0,True,0.01029658317565918,-1.2050000429153442,-0.8299997448921204,-0.7177034020423889,0.0,0.0,0.0
1759838028.2297637,0,-1.2050000429153442,-0.8299997448921204,-0.7177032857484633,0.0,True,0.02311849594116211,-1.2050000429153442,-0.8299997448921204,-0.7177034020423889,0.0,0,0
1759838028.2402608,0,-1.2050000429153442,-0.8299997448921204,-0.7177032958326333,0.0,True,0.010497093200683594,-1.2050000429153442,-0.8299997448921204,-0.7177034020423889,0.0,0,0
1759838028.251426,0,-1.2050000429153442,-0.8299997448921204,-0.7177033043116321,0.0,True,0.011165142059326172,-1.2050000429153442,-0.8299997448921204,-0.7177034020423889,0.0,0,0
1759838028.2615595,0,-1.2050000429153442,-0.8299997448921204,-0.7177033127945247,0.0,True,0.010133504867553711,-1.2050000429153442,-0.8299997448921204,-0.7177034020423889,0.0,0,0
1759838028.2717562,0,-1.2050000429153442,-0.8299997448921204,-0.7177033193520703,0.0,True,0.010196685791015625,-1.2050000429153442,-0.8299997448921204,-0.7177034020423889,0.0,0,0
1759838028.2831717,0,-1.2050000429153442,-0.8299997448921204,-0.7177033225900615,0.0,True,0.011415481567382812,-1.2050000429153442,-0.8299997448921204,-0.7177034020423889,0.0,0,0
1759838028.2933939,0,-1.2050000429153442,-0.8299997448921204,-0.7177033272858466,0.0,True,0.010222196578979492,-1.2050000429153442,-0.8299997448921204,-0.7177034020423889,0.0,0,0
1759838028.303562,0,-1.2050000429153442,-0.8299997448921204,-0.717703331372114,0.0,True,0.010168075561523438,-1.2050000429153442,-0.8299997448921204,-0.7177034020423889,0.0,0,0
1759838028.3135822,0,-1.2050000429153442,-0.8299997448921204,-0.7177033350104605,0.0,True,0.010020256042480469,-1.2050000429153442,-0.8299997448921204,-0.7177034020423889,0.0,0,0
1759838028.3240502,0,-1.2050000429153442,-0.8299997448921204,-0.7177033374600796,0.0,True,0.010468006134033203,-1.2050000429153442,-0.8299997448921204,-0.7177034020423889,0.0,0,0
1759838028.3350337,0,-1.2050000429153442,-0.8299997448921204,-0.7177033389731307,0.0,True,0.010983467102050781,-1.2050000429153442,-0.8299997448921204,-0.7177034020423889,0.0,0,0
1759838028.3462808,0,-1.2050000429153442,-0.8299997448921204,-0.717703340224249,0.0,True,0.01124715805053711,-1.2050000429153442,-0.8299997448921204,-0.7177034020423889,0.0,0,0
1759838028.3565989,0,-1.2050000429153442,-0.8299997448921204,-0.7177033428628441,0.0,True,0.01031804084777832,-1.2050000429153442,-0.8299997448921204,-0.7177034020423889,0.0,0,0
1759838028.3681784,0,-1.2050000429153442,-0.8299997448921204,-0.7177033437553089,0.0,True,0.011579513549804688,-1.2050000429153442,-0.8299997448921204,-0.7177034020423889,0.0,0,0
1759838028.3794084,0,-1.2050000429153442,-0.8299997448921204,-0.7177033452871981,0.0,True,0.011229991912841797,-1.2050000429153442,-0.8299997448921204,-0.7177034020423889,0.0,0,0
1759838028.3903034,0,-1.2050000429153442,-0.8299997448921204,-0.7177033473321117,0.0,True,0.010895013809204102,-1.2050000429153442,-0.8299997448921204,-0.7177034020423889,0.0,0,0
1759838028.4017484,0,-1.2050000429153442,-0.8299997448921204,-0.7177033487006543,0.0,True,0.011445045471191406,-1.2050000429153442,-0.8299997448921204,-0.7177034020423889,0.0,0,0
1759838028.4125214,0,-1.2050000429153442,-0.8299997448921204,-0.7177033508695132,0.0,True,0.010772943496704102,-1.2050000429153442,-0.8299997448921204,-0.7177034020423889,0.0,0,0
1759838028.4240618,0,-1.2050000429153442,-0.8299997448921204,-0.7177033521192158,0.0,True,0.011540412902832031,-1.2050000429153442,-0.8299997448921204,-0.7177034020423889,0.0,0,0
1759838028.43578,0,-1.2050000429153442,-0.8299997448921204,-0.7177033532766384,0.0,True,0.011718273162841797,-1.2050000429153442,-0.8299997448921204,-0.7177034020423889,0.0,0,0
1759838028.4467745,0,-1.2050000429153442,-0.8299997448921204,-0.7177033552775232,0.0,True,0.010994434356689453,-1.2050000429153442,-0.8299997448921204,-0.7177034020423889,0.0,0,0
1759838028.4574714,0,-1.2050000429153442,-0.8299997448921204,-0.7177033574424421,0.0,True,0.010696887969970703,-1.2050000429153442,-0.8299997448921204,-0.7177034020423889,0.0,0,0
1759838028.4687514,0,-1.2050000429153442,-0.8299997448921204,-0.7177033588566317,0.0,True,0.011280059814453125,-1.2050000429153442,-0.8299997448921204,-0.7177034020423889,0.0,0,0
1759838028.4801846,0,-1.2050000429153442,-0.8299997448921204,-0.7177033600985041,0.0,True,0.011433124542236328,-1.2050000429153442,-0.8299997448921204,-0.7177034020423889,0.0,0,0
1759838028.491182,0,-1.2050000429153442,-0.8299997448921204,-0.7177033617380761,0.0,True,0.010997533798217773,-1.2050000429153442,-0.8299997448921204,-0.7177034020423889,0.0,0,0
1759838028.5014317,0,-1.2050000429153442,-0.8299997448921204,-0.717703363886816,0.0,True,0.010249614715576172,-1.2050000429153442,-0.8299997448921204,-0.7177034020423889,0.0,0,0
1759838028.5126376,0,-1.2050000429153442,-0.8299997448921204,-0.7177033650090827,0.0,True,0.011205911636352539,-1.2050000429153442,-0.8299997448921204,-0.7177034020423889,0.0,0,0
1759838028.523736,0,-1.2050000429153442,-0.8299997448921204,-0.7177033661768668,0.0,True,0.011098384857177734,-1.2050000429153442,-0.8299997448921204,-0.7177034020423889,0.0,0,0
1759838028.5337877,0,-1.2050000429153442,-0.8299997448921204,-0.7177033680953464,0.0,True,0.010051727294921875,-1.2050000429153442,-0.8299997448921204,-0.7177034020423889,0.0,0,0
1759838028.5450552,0,-1.2050000429153442,-0.8299997448921204,-0.7177033689165846,0.0,True,0.011267423629760742,-1.2050000429153442,-0.8299997448921204,-0.7177034020423889,0.0,0,0
1759838028.555061,0,-1.2050000429153442,-0.8299997448921204,-0.7177033706044682,0.0,True,0.010005950927734375,-1.2050000429153442,-0.8299997448921204,-0.7177034020423889,0.0,0,0
1759838028.5662448,0,-1.2050000429153442,-0.8299997448921204,-0.7177033713271932,0.0,True,0.011183738708496094,-1.2050000429153442,-0.8299997448921204,-0.7177034020423889,0.0,0,0
1759838028.5769622,0,-1.2050000429153442,-0.8299997448921204,-0.7177033723704191,0.0,True,0.010717391967773438,-1.2050000429153442,-0.8299997448921204,-0.7177034020423889,0.0,0,0
1759838028.5878508,0,-1.2050000429153442,-0.8299997448921204,-0.717703373286259,0.0,True,0.01088857650756836,-1.2050000429153442,-0.8299997448921204,-0.7177034020423889,0.0,0,0
1759838028.5989475,0,-1.2050000429153442,-0.8299997448921204,-0.717703374067117,0.0,True,0.011096715927124023,-1.2050000429153442,-0.8299997448921204,-0.7177034020423889,0.0,0,0
1759838028.6093276,0,-1.2050000429153442,-0.8299997448921204,-0.7177033752837865,0.0,True,0.010380029678344727,-1.2050000429153442,-0.8299997448921204,-0.7177034020423889,0.0,0,0
1759838028.6201332,0,-1.2050000429153442,-0.8299997448921204,-0.7177033761607046,0.0,True,0.010805606842041016,-1.2050000429153442,-0.8299997448921204,-0.7177034020423889,0.0,0,0
1759838028.6329856,0,-1.2050000429153442,-0.8299997448921204,-0.7177033759111602,0.0,True,0.01285243034362793,-1.2050000429153442,-0.8299997448921204,-0.7177034020423889,0.0,0,0
1759838028.6430354,0,-1.2050000429153442,-0.8299997448921204,-0.7177033774146864,0.0,True,0.010049819946289062,-1.2050000429153442,-0.8299997448921204,-0.7177034020423889,0.0,0,0
1759838028.6539202,0,-1.2050000429153442,-0.8299997448921204,-0.7177033783604028,0.0,True,0.010884761810302734,-1.2050000429153442,-0.8299997448921204,-0.7177034020423889,0.0,0,0
1759838028.6642282,0,-1.2050000429153442,-0.8299997448921204,-0.7177033794890466,0.0,True,0.010308027267456055,-1.2050000429153442,-0.8299997448921204,-0.7177034020423889,0.0,0,0
1759838028.6747625,0,-1.2050000429153442,-0.8299997448921204,-0.717703380381181,0.0,True,0.010534286499023438,-1.2050000429153442,-0.8299997448921204,-0.7177034020423889,0.0,0,0
1759838028.6849108,0,-1.2050000429153442,-0.8299997448921204,-0.7177033813598594,0.0,True,0.010148286819458008,-1.2050000429153442,-0.8299997448921204,-0.7177034020423889,0.0,0,0
1759838028.6951516,0,-1.2050000429153442,-0.8299997448921204,-0.7177033821862153,0.0,True,0.010240793228149414,-1.2050000429153442,-0.8299997448921204,-0.7177034020423889,0.0,0,0
1759838028.7065516,0,-1.2050000429153442,-0.8299997448921204,-0.7177033824393071,0.0,True,0.011399984359741211,-1.2050000429153442,-0.8299997448921204,-0.7177034020423889,0.0,0,0
1759838028.7178848,0,-1.2050000429153442,-0.8299997448921204,-0.717703382807656,0.0,True,0.011333227157592773,-1.2050000429153442,-0.8299997448921204,-0.7177034020423889,0.0,0,0
1759838028.7285528,0,-1.2050000429153442,-0.8299997448921204,-0.7177033835243574,0.0,True,0.010668039321899414,-1.2050000429153442,-0.8299997448921204,-0.7177034020423889,0.0,0,0
1759838028.7391639,0,-1.2050000429153442,-0.8299997448921204,-0.7177033842373177,0.0,True,0.01061105728149414,-1.2050000429153442,-0.8299997448921204,-0.7177034020423889,0.0,0,0
1759838028.7499003,0,-1.2050000429153442,-0.8299997448921204,-0.7177033848524097,0.0,True,0.010736465454101562,-1.2050000429153442,-0.8299997448921204,-0.7177034020423889,0.0,0,0
1759838028.7600002,0,-1.2050000429153442,-0.8299997448921204,-0.7177033856620625,0.0,True,0.01009988784790039,-1.2050000429153442,-0.8299997448921204,-0.7177034020423889,0.0,0,0
1759838028.7700975,0,-1.2050000429153442,-0.8299997448921204,-0.7177033863804567,0.0,True,0.010097265243530273,-1.2050000429153442,-0.8299997448921204,-0.7177034020423889,0.0,0,0
1759838028.780183,0,-1.2050000429153442,-0.8299997448921204,-0.7177033870154546,0.0,True,0.010085582733154297,-1.2050000429153442,-0.8299997448921204,-0.7177034020423889,0.0,0,0
1759838028.7904992,0,-1.2050000429153442,-0.8299997448921204,-0.7177033875082586,0.0,True,0.010316133499145508,-1.2050000429153442,-0.8299997448921204,-0.7177034020423889,0.0,0,0
1759838028.8013427,0,-1.2050000429153442,-0.8299997448921204,-0.7177033878070809,0.0,True,0.010843515396118164,-1.2050000429153442,-0.8299997448921204,-0.7177034020423889,0.0,0,0
1759838028.8118167,0,-1.2050000429153442,-0.8299997448921204,-0.7177033882503423,0.0,True,0.010473966598510742,-1.2050000429153442,-0.8299997448921204,-0.7177034020423889,0.0,0,0
1759838028.8222797,0,-1.2050000429153442,-0.8299997448921204,-0.7177033886957265,0.0,True,0.01046299934387207,-1.2050000429153442,-0.8299997448921204,-0.7177034020423889,0.0,0,0
1759838028.83286,0,-1.2050000429153442,-0.8299997448921204,-0.7177033890940319,0.0,True,0.010580301284790039,-1.2050000429153442,-0.8299997448921204,-0.7177034020423889,0.0,0,0
1759838028.8442972,0,-1.2050000429153442,-0.8299997448921204,-0.7177033892538862,0.0,True,0.011437177658081055,-1.2050000429153442,-0.8299997448921204,-0.7177034020423889,0.0,0,0
1759838028.8545976,0,-1.2050000429153442,-0.8299997448921204,-0.7177033897825211,0.0,True,0.010300397872924805,-1.2050000429153442,-0.8299997448921204,-0.7177034020423889,0.0,0,0
1759838028.865786,0,-1.2050000429153442,-0.8299997448921204,-0.7177033900548988,0.0,True,0.011188507080078125,-1.2050000429153442,-0.8299997448921204,-0.7177034020423889,0.0,0,0
1759838028.8770413,0,-1.2050000429153442,-0.8299997448921204,-0.7177033903335364,0.0,True,0.011255264282226562,-1.2050000429153442,-0.8299997448921204,-0.7177034020423889,0.0,0,0
1759838028.8885553,0,-1.2050000429153442,-0.8299997448921204,-0.7177033905851928,0.0,True,0.011513948440551758,-1.2050000429153442,-0.8299997448921204,-0.7177034020423889,0.0,0,0
1759838028.8994703,0,-1.2050000429153442,-0.8299997448921204,-0.7177033910151742,0.0,True,0.010915040969848633,-1.2050000429153442,-0.8299997448921204,-0.7177034020423889,0.0,0,0
1759838028.910214,0,-1.2050000429153442,-0.8299997448921204,-0.7177033914694775,0.0,True,0.01074361801147461,-1.2050000429153442,-0.8299997448921204,-0.7177034020423889,0.0,0,0
1759838028.9213443,0,-1.2050000429153442,-0.8299997448921204,-0.7177033918053279,0.0,True,0.011130332946777344,-1.2050000429153442,-0.8299997448921204,-0.7177034020423889,0.0,0,0
1759838028.9327228,0,-1.2050000429153442,-0.8299997448921204,-0.7177033920834965,0.0,True,0.01137852668762207,-1.2050000429153442,-0.8299997448921204,-0.7177034020423889,0.0,0,0
1759838028.9429207,0,-1.2050000429153442,-0.8299997448921204,-0.7177033926094918,0.0,True,0.010197877883911133,-1.2050000429153442,-0.8299997448921204,-0.7177034020423889,0.0,0,0
1759838028.9542944,0,-1.2050000429153442,-0.8299997448921204,-0.7177033928481258,0.0,True,0.011373758316040039,-1.2050000429153442,-0.8299997448921204,-0.7177034020423889,0.0,0,0
1759838028.96483,0,-1.2050000429153442,-0.8299997448921204,-0.7177033932465555,0.0,True,0.010535478591918945,-1.2050000429153442,-0.8299997448921204,-0.7177034020423889,0.0,0,0
1759838028.9754314,0,-1.2050000429153442,-0.8299997448921204,-0.7177033936023154,0.0,True,0.010601520538330078,-1.2050000429153442,-0.8299997448921204,-0.7177034020423889,0.0,0,0
1759838028.9860811,0,-1.2050000429153442,-0.8299997448921204,-0.7177033939176205,0.0,True,0.010649681091308594,-1.2050000429153442,-0.8299997448921204,-0.7177034020423889,0.0,0,0
1759838028.9961257,0,-1.2050000429153442,-0.8299997448921204,-0.7177033943119433,0.0,True,0.010044574737548828,-1.2050000429153442,-0.8299997448921204,-0.7177034020423889,0.0,0,0
1759838029.0062728,0,-1.2050000429153442,-0.8299997448921204,-0.7177033946414149,0.0,True,0.0101470947265625,-1.2050000429153442,-0.8299997448921204,-0.7177034020423889,0.0,0,0
1759838029.0174239,0,-1.2050000429153442,-0.8299997448921204,-0.7177033947740235,0.0,True,0.01115107536315918,-1.2050000429153442,-0.8299997448921204,-0.7177034020423889,0.0,0,0
1759838029.0283012,0,-1.2050000429153442,-0.8299997448921204,-0.7177033949681721,0.0,True,0.010877370834350586,-1.2050000429153442,-0.8299997448921204,-0.7177034020423889,0.0,0,0
1759838029.0394258,0,-1.2050000429153442,-0.8299997448921204,-0.7177033951383969,0.0,True,0.011124610900878906,-1.2050000429153442,-0.8299997448921204,-0.7177034020423889,0.0,0,0
1759838029.0512412,0,-1.2050000429153442,-0.8299997448921204,-0.7177033952266871,0.0,True,0.011815309524536133,-1.2050000429153442,-0.8299997448921204,-0.7177034020423889,0.0,0,0
1759838029.0618331,0,-1.2050000429153442,-0.8299997448921204,-0.7177033955229106,0.0,True,0.010591983795166016,-1.2050000429153442,-0.8299997448921204,-0.7177034020423889,0.0,0,0
1759838029.0727458,0,-1.2050000429153442,-0.8299997448921204,-0.7177033957594983,0.0,True,0.010912656784057617,-1.2050000429153442,-0.8299997448921204,-0.7177034020423889,0.0,0,0
1759838029.0828776,0,-1.2050000429153442,-0.8299997448921204,-0.7177033960806511,0.0,True,0.0101318359375,-1.2050000429153442,-0.8299997448921204,-0.7177034020423889,0.0,0,0
1759838029.0929198,0,-1.2050000429153442,-0.8299997448921204,-0.7177033963725208,0.0,True,0.010042190551757812,-1.2050000429153442,-0.8299997448921204,-0.7177034020423889,0.0,0,0
1759838029.1033823,0,-1.2050000429153442,-0.8299997448921204,-0.7177033965730537,0.0,True,0.010462522506713867,-1.2050000429153442,-0.8299997448921204,-0.7177034020423889,0.0,0,0
1759838029.1135337,0,-1.2050000429153442,-0.8299997448921204,-0.7177033967931443,0.0,True,0.010151386260986328,-1.2050000429153442,-0.8299997448921204,-0.7177034020423889,0.0,0,0
1759838029.124391,0,-1.2050000429153442,-0.8299997448921204,-0.7177033969143576,0.0,True,0.010857343673706055,-1.2050000429153442,-0.8299997448921204,-0.7177034020423889,0.0,0,0
1759838029.1358278,0,-1.2050000429153442,-0.8299997448921204,-0.7177033969793758,0.0,True,0.011436700820922852,-1.2050000429153442,-0.8299997448921204,-0.7177034020423889,0.0,0,0
1759838029.1466937,0,-1.2050000429153442,-0.8299997448921204,-0.7177033971326825,0.0,True,0.010865926742553711,-1.2050000429153442,-0.8299997448921204,-0.7177034020423889,0.0,0,0
1759838029.1579893,0,-1.2050000429153442,-0.8299997448921204,-0.7177033972484956,0.0,True,0.011295557022094727,-1.2050000429153442,-0.8299997448921204,-0.7177034020423889,0.0,0,0
1759838029.1684496,0,-1.2050000429153442,-0.8299997448921204,-0.7177033974564768,0.0,True,0.010460376739501953,-1.2050000429153442,-0.8299997448921204,-0.7177034020423889,0.0,0,0
1759838029.1796534,0,-1.2050000429153442,-0.8299997448921204,-0.7177033975788696,0.0,True,0.011203765869140625,-1.2050000429153442,-0.8299997448921204,-0.7177034020423889,0.0,0,0
1759838029.1906064,0,-1.2050000429153442,-0.8299997448921204,-0.7177033977265985,0.0,True,0.010952949523925781,-1.2050000429153442,-0.8299997448921204,-0.7177034020423889,0.0,0,0
1759838029.201487,0,-1.2050000429153442,-0.8299997448921204,-0.7177033978791414,0.0,True,0.010880708694458008,-1.2050000429153442,-0.8299997448921204,-0.7177034020423889,0.0,0,0
1759838029.2129226,0,-1.2050000429153442,-0.8299997448921204,-0.7177033979790934,0.0,True,0.011435508728027344,-1.2050000429153442,-0.8299997448921204,-0.7177034020423889,0.0,0,0
1759838029.2240498,0,-1.2050000429153442,-0.8299997448921204,-0.7177033981125831,0.0,True,0.011127233505249023,-1.2050000429153442,-0.8299997448921204,-0.7177034020423889,0.0,0.5235987755982988,0.02851273124258431
1759838029.2423458,0,-1.2049613853712877,-0.8300335385638408,-0.7176980430362896,0.0003876656321550537,True,0.018296003341674805,-1.2049407958984375,-0.8300515413284302,-0.7176903486251831,0.0003876656321550537,0.5235987755982988,0.029356621468730304
1759838029.2526474,0,-1.2049475112545773,-0.8300456680738756,-0.7176957624555982,0.0003876656321550537,True,0.010301589965820312,-1.2049407958984375,-0.8300515413284302,-0.7176903486251831,0.0003876656321550537,0.5235987755982988,0.02935881266889532
1759838029.2627661,0,-1.2049422322097685,-0.8300502833238914,-0.7176937447238725,0.0003876656321550537,True,0.010118722915649414,-1.2049407958984375,-0.8300515413284302,-0.7176903486251831,0.0003876656321550537,0.5235987755982988,0.03269049361994664
1759838029.2737148,0,-1.2049401232141932,-0.8300521270107469,-0.7176921557049454,0.0003876656321550537,True,0.010948657989501953,-1.2049407958984375,-0.8300515413284302,-0.7176903486251831,0.0003876656321550537,0.5235987755982988,0.03360402683963786
1759838029.2847853,0,-1.2049393040577467,-0.8300528430987452,-0.7176910407420305,0.0003876656321550537,True,0.011070489883422852,-1.2049407958984375,-0.8300515413284302,-0.7176903486251831,0.0003876656321550537,0.5235987755982988,0.031146890801703922
1759838029.2956698,0,-1.2049390119109686,-0.8300530985090099,-0.7176902705491912,0.0003876656321550537,True,0.010884523391723633,-1.2049407958984375,-0.8300515413284302,-0.7176903486251831,0.0003876656321550537,0.5235987755982988,0.031196931185641402
1759838029.3060071,0,-1.2049389613562287,-0.8300531427819646,-0.7176897720044,0.0003876656321550537,True,0.010337352752685547,-1.2049407958984375,-0.8300515413284302,-0.7176903486251831,0.0003876656321550537,0.5235987755982988,0.03200343489304533
1759838029.3169727,0,-1.2049388719669158,-0.8300532208702517,-0.7176893109501137,0.0003876656321550537,True,0.010965585708618164,-1.2049407958984375,-0.8300515413284302,-0.7176903486251831,0.0003876656321550537,0.5235987755982988,0.0334597809992872
1759838029.3274007,0,-1.2049388977951956,-0.8300531983413633,-0.7176890796023621,0.0003876656321550537,True,0.01042795181274414,-1.2049407958984375,-0.8300515413284302,-0.7176903486251831,0.0003876656321550537,0.5235987755982988,0.032650769186412444
1759838029.3380535,0,-1.2049388825811007,-0.8300532116299035,-0.7176888638163472,0.0003876656321550537,True,0.010652780532836914,-1.2049407958984375,-0.8300515413284302,-0.7176903486251831,0.0003876656321550537,0.5235987755982988,0.030084742890263652
1759838029.3481407,0,-1.20493893985373,-0.8300531616335964,-0.7176887899029651,0.0003876656321550537,True,0.010087251663208008,-1.2049407958984375,-0.8300515413284302,-0.7176903486251831,0.0003876656321550537,0.5235987755982988,0.03269392894827291
1759838029.3590977,0,-1.2049388647101005,-0.830053227233933,-0.71768861067833,0.0003876656321550537,True,0.010957002639770508,-1.2049407958984375,-0.8300515413284302,-0.7176903486251831,0.0003876656321550537,0.5235987755982988,0.030861809129505226
1759838029.3700848,0,-1.2049388326565977,-0.8300532552162274,-0.7176885330728666,0.0003876656321550537,True,0.010987043380737305,-1.2049407958984375,-0.8300515413284302,-0.7176903486251831,0.0003876656321550537,0.5235987755982988,0.0335355363931638
1759838029.3808827,0,-1.2049388415032671,-0.8300532474929756,-0.7176885117342948,0.0003876656321550537,True,0.010797977447509766,-1.2049407958984375,-0.8300515413284302,-0.7176903486251831,0.0003876656321550537,0.5235987755982988,0.03024021303012783
1759838029.3922136,0,-1.2049387854418068,-0.8300532964339539,-0.7176884329599194,0.0003876656321550537,True,0.011330842971801758,-1.2049407958984375,-0.8300515413284302,-0.7176903486251831,0.0003876656321550537,0.5235987755982988,0.031657524109789406
1759838029.4029996,0,-1.2049388247984898,-0.8300532620757605,-0.7176884753707249,0.0003876656321550537,True,0.010786056518554688,-1.2049407958984375,-0.8300515413284302,-0.7176903486251831,0.0003876656321550537,0.5235987755982988,0.03227927788293025
1759838029.413457,0,-1.2049388765064095,-0.8300532169352699,-0.717688520206833,0.0003876656321550537,True,0.010457277297973633,-1.2049407958984375,-0.8300515413284302,-0.7176903486251831,0.0003876656321550537,0.5235987755982988,0.028583776972583942
1759838029.4235094,0,-1.2049389414159963,-0.830053160269943,-0.7176885818223404,0.0003876656321550537,True,0.01005244255065918,-1.2049407958984375,-0.8300515413284302,-0.7176903486251831,0.0003876656321550537,0.5235987755982988,0.02786169710281366
1759838029.4378266,0,-1.1998196677517772,-0.8344627451896197,-0.713292910698673,0.05161635729235484,True,0.01431727409362793,-1.1969999074935913,-0.8368877172470093,-0.7021737098693848,0.05161635729235484,0.5235987755982988,0.03010979113572794
1759838029.4457982,0,-1.1979580916341328,-0.8360642750707479,-0.7100103813708802,0.05161635729235484,True,0.007971525192260742,-1.1969999074935913,-0.8368877172470093,-0.7021737098693848,0.05161635729235484,0.5235987755982988,0.030981058367058806
1759838029.456539,0,-1.1972052999998029,-0.8367112126322293,-0.7074948678359938,0.05161635729235484,True,0.01074075698852539,-1.1969999074935913,-0.8368877172470093,-0.7021737098693848,0.05161635729235484,0.5235987755982988,0.028562798598194706
1759838029.4680512,0,-1.196905861387932,-0.8369678133177887,-0.7056525697048386,0.05161635729235484,True,0.011512279510498047,-1.1969999074935913,-0.8368877172470093,-0.7021737098693848,0.05161635729235484,0.5235987755982988,0.029445631536163797
1759838029.4790857,0,-1.1967983905667852,-0.8370594054938353,-0.7043373445786312,0.05161635729235484,True,0.011034488677978516,-1.1969999074935913,-0.8368877172470093,-0.7021737098693848,0.05161635729235484,0.5235987755982988,0.029403687204243526
1759838029.489734,0,-1.196762961465115,-0.8370892460362652,-0.7033986009246647,0.05161635729235484,True,0.010648250579833984,-1.1969999074935913,-0.8368877172470093,-0.7021737098693848,0.05161635729235484,0.5235987755982988,0.027845257436280486
1759838029.500536,0,-1.1967469923615004,-0.8371024589653782,-0.7027150733959484,0.05161635729235484,True,0.010802030563354492,-1.1969999074935913,-0.8368877172470093,-0.7021737098693848,0.05161635729235484,0.5235987755982988,0.028888724899114447
1759838029.5120292,0,-1.1967304040853686,-0.8371162067230533,-0.702200957109671,0.05161635729235484,True,0.011493206024169922,-1.1969999074935913,-0.8368877172470093,-0.7021737098693848,0.05161635729235484,0.5235987755982988,0.02817946008664631
1759838029.5230124,0,-1.1967316690693557,-0.8371148753999664,-0.7018591004443095,0.05161635729235484,True,0.01098322868347168,-1.1969999074935913,-0.8368877172470093,-0.7021737098693848,0.05161635729235484,0.5235987755982988,0.028924204592363854
1759838029.5343802,0,-1.196726316761227,-0.8371192083471362,-0.7016028127811964,0.05161635729235484,True,0.0113677978515625,-1.1969999074935913,-0.8368877172470093,-0.7021737098693848,0.05161635729235484,0.5235987755982988,0.02725654341116773
1759838029.545579,0,-1.1967267813654452,-0.8371186690730327,-0.7014342491274945,0.05161635729235484,True,0.011198759078979492,-1.1969999074935913,-0.8368877172470093,-0.7021737098693848,0.05161635729235484,0.5235987755982988,0.028421900551296144
1759838029.5560367,0,-1.1967380936586551,-0.8371090051691535,-0.7013460287746298,0.05161635729235484,True,0.010457754135131836,-1.1969999074935913,-0.8368877172470093,-0.7021737098693848,0.05161635729235484,0.5235987755982988,0.027473436124290172
1759838029.5668283,0,-1.196737376513341,-0.8371095477402432,-0.7012733238796489,0.05161635729235484,True,0.010791540145874023,-1.1969999074935913,-0.8368877172470093,-0.7021737098693848,0.05161635729235484,0.5235987755982988,0.028086535669333085
1759838029.5778856,0,-1.1967330894375756,-0.837113126118042,-0.7012212462668543,0.05161635729235484,True,0.011057376861572266,-1.1969999074935913,-0.8368877172470093,-0.7021737098693848,0.05161635729235484,0.5235987755982988,0.02714401311844301
1759838029.5885718,0,-1.196737035735469,-0.837109761531395,-0.701205989717355,0.05161635729235484,True,0.010686159133911133,-1.1969999074935913,-0.8368877172470093,-0.7021737098693848,0.05161635729235484,0.5235987755982988,0.02763857164790264
1759838029.5995867,0,-1.1967335893758022,-0.8371126571044298,-0.7011896004314231,0.05161635729235484,True,0.011014938354492188,-1.1969999074935913,-0.8368877172470093,-0.7021737098693848,0.05161635729235484,0.5235987755982988,0.029340061857235967
1759838029.6106975,0,-1.196730827361108,-0.8371149800417065,-0.7011846172158123,0.05161635729235484,True,0.011110782623291016,-1.1969999074935913,-0.8368877172470093,-0.7021737098693848,0.05161635729235484,0.5235987755982988,0.028895606422932464
1759838029.621071,0,-1.1967408747716004,-0.8371064875557985,-0.7012127541221993,0.05161635729235484,True,0.010373592376708984,-1.1969999074935913,-0.8368877172470093,-0.7021737098693848,0.05161635729235484,0.5235987755982988,0.030639295752710457
1759838029.63183,0,-1.1967389134128092,-0.8371081500016734,-0.7012229665232361,0.05161635729235484,True,0.01075887680053711,-1.1969999074935913,-0.8368877172470093,-0.7021737098693848,0.05161635729235484,0.5235987755982988,0.027396701058913706
1759838029.6430464,0,-1.1871369999508044,-0.8448817081931077,-0.6892251545373327,0.09684614415274177,True,0.011216402053833008,-1.181715965270996,-0.8492532968521118,-0.6580225825309753,0.09684614415274177,0.5235987755982988,0.029167551654488373
1759838029.6539097,0,-1.183476343169549,-0.8478388764989839,-0.6795964950536764,0.09684614415274177,True,0.010863304138183594,-1.181715965270996,-0.8492532968521118,-0.6580225825309753,0.09684614415274177,0.5235987755982988,0.03006409142397945
1759838029.664763,0,-1.1820759962880767,-0.8489652513978613,-0.6725190828293144,0.09684614415274177,True,0.010853290557861328,-1.181715965270996,-0.8492532968521118,-0.6580225825309753,0.09684614415274177,0.5235987755982988,0.030718978336435387
1759838029.6761866,0,-1.181522873384528,-0.849406466057427,-0.6673182094004737,0.09684614415274177,True,0.011423587799072266,-1.181715965270996,-0.8492532968521118,-0.6580225825309753,0.09684614415274177,0.5235987755982988,0.029340610827526075
1759838029.6868854,0,-1.1813313255645896,-0.8495567178438265,-0.6636337816991169,0.09684614415274177,True,0.010698795318603516,-1.181715965270996,-0.8492532968521118,-0.6580225825309753,0.09684614415274177,0.5235987755982988,0.029273990340737445
1759838029.697535,0,-1.1812587132618222,-0.8496118701627591,-0.6609795979588817,0.09684614415274177,True,0.010649681091308594,-1.181715965270996,-0.8492532968521118,-0.6580225825309753,0.09684614415274177,0.5235987755982988,0.027534049391116623
1759838029.7085423,0,-1.1812199094688067,-0.8496402561748894,-0.6590367192656039,0.09684614415274177,True,0.011007308959960938,-1.181715965270996,-0.8492532968521118,-0.6580225825309753,0.09684614415274177,0.5235987755982988,0.027453390475044928
