timestamp,observer_vehicle_id,vehicle_0_x,vehicle_0_y,vehicle_0_theta,vehicle_0_velocity,vehicle_1_x,vehicle_1_y,vehicle_1_theta,vehicle_1_velocity
1759829785.2674398,0,0.0,6.0,-0.05483113549895436,0.0,0.0,0.0,0.0,0.0
1759829785.278913,0,0.0,6.0,-0.05483113549895436,0.0,0.0,0.0,0.0,0.0
1759829785.2895305,0,0.0,6.0,-0.05483113549895436,0.0,1.079030227661133,0.8092726707458496,-0.4237341790435053,0.0
1759829785.3001416,0,0.0,6.0,-0.05483113549895436,0.0,1.9978344149569058,1.4983758112176793,-0.7845477392432083,0.0
1759829785.3111157,0,0.0,6.0,-0.05483113549895436,0.0,2.781487556968721,2.0861156677265407,-1.092287608129924,0.0
1759829785.3219237,0,0.0,6.0,-0.05483113549895436,0.0,3.4515452593633356,2.5886589445225017,-1.3554186522447749,0.0
1759829785.3331451,0,0.0,6.0,-0.05483113549895436,0.0,4.074164061877884,3.055623046408413,-1.5999204839612131,0.0
1759829785.344577,0,0.0,6.0,-0.05483113549895436,0.0,4.602579221946299,3.451934416459724,-1.8074286318386512,0.0
1759829785.3560123,0,0.0,6.0,-0.05483113549895436,0.0,5.0520999337571935,3.789074950317895,-1.9839550023696355,0.0
1759829785.3666608,0,0.0,6.0,-0.05483113549895436,0.0,5.468444824647532,4.10133361848565,-2.1474532585054034,0.0
1759829785.378149,0,0.0,6.0,-0.05483113549895436,0.0,5.820170893513886,4.365128170135415,-2.2855757626008946,0.0
1759829785.388694,0,0.0,6.0,-0.05483113549895436,0.0,6.118432016382158,4.5888240122866195,-2.402702631523858,0.0
1759829785.4001954,0,0.0,6.0,-0.05483113549895436,0.0,6.391871229562331,4.7939034221717485,-1.5969770949785795,0.0
1759829785.4117005,0,0.0,6.0,-0.05483113549895436,0.0,6.621872493678091,4.9664043702585685,-0.9192473363954377,0.0
1759829785.422591,0,0.0,6.0,-0.05483113549895436,0.0,6.815976325472992,5.111982244104743,-0.3472942057543336,0.0
1759829785.4336872,0,0.0,6.0,-0.05483113549895436,0.0,6.993013822242977,5.2447603666822324,0.17437066599045134,0.0
1759829785.4443822,0,0.0,6.0,-0.05483113549895436,0.0,7.141426392509855,5.356069794382391,0.6116883294579476,0.0
1759829785.455421,0,0.0,6.0,-0.05483113549895436,0.0,7.2660699627061245,5.449552472029593,0.9789674270873535,0.0
1759829785.4668334,0,6.05265285950433e-07,5.999997635682424,-2.879851199534574,0.0,7.379074817680066,5.534306113260049,1.3119514799126732,0.0
1759829785.477437,0,6.08651405267447e-07,5.999997622455395,-3.121142080822029,0.0,7.4733632448342835,5.605022433625713,1.5897850527762132,0.0
1759829785.48886,0,6.097137729444577e-07,5.999997618305521,3.139128134269674,0.0,7.552130690948991,5.664098018211744,1.8218839607746669,0.0
1759829785.5002654,0,6.101085745148814e-07,5.999997616763327,3.1361257035375427,0.0,7.6180954996395975,5.713571624729699,2.016258170154521,0.0
1759829785.511568,0,6.102587761643347e-07,5.999997616176602,3.13586369793841,0.0,7.677748064343304,5.758311048257479,2.192032500921505,0.0
1759829785.5227585,0,6.103161148053962e-07,5.999997615952623,3.1363049614099054,0.0,7.727361815327048,5.795521361495287,2.3382261125344095,0.0
1759829785.533414,0,6.103380143634147e-07,5.999997615867078,3.136958750601991,0.0,7.768756043431933,5.8265670325739505,2.460199790931845,0.0
1759829785.544045,0,6.103463791469262e-07,5.9999976158344035,3.137561666321165,0.0,7.80587287113668,5.8544046533525105,2.569569531904439,0.0
1759829785.5548887,0,6.103495742041617e-07,5.999997615821923,3.1380632450516934,0.0,7.836611085901143,5.877458314425857,2.660143829187913,0.0
1759829785.565081,0,6.103507946071088e-07,5.999997615817155,3.138525922112059,0.0,7.862149134863739,5.896611851147805,2.735395136282443,0.0
1759829785.5758142,0,6.103512607595368e-07,5.999997615815334,3.138869470181911,0.0,7.884919605842112,5.913689704381585,2.8024914014196214,0.0
1759829785.5864797,0,6.103514388139193e-07,5.999997615814639,3.1391620041531176,0.0,7.903683330566709,5.927762497925032,2.857781248093341,0.0
1759829785.5976262,0,6.103515068246415e-07,5.999997615814373,3.139390263060818,0.0,7.919172932123048,5.939379699092287,2.9034234490772604,0.0
1759829785.6083858,0,6.103515328024258e-07,5.999997615814272,3.1396065705134575,0.0,7.932890276270276,5.949667707202709,2.9438434544761183,0.0
1759829785.6190128,0,6.103515427250565e-07,5.999997615814233,3.1397959507399804,0.0,7.944136983549674,5.958102737662257,2.976983394983075,0.0
1759829785.6294544,0,6.103515465151642e-07,5.999997615814218,3.139961758329612,0.0,7.953382231367813,5.965036673525861,3.0042257651322903,0.0
1759829785.6406028,0,6.103515479628565e-07,5.9999976158142125,3.1400806665669947,0.0,7.961478975268283,5.971109231451213,3.0280839135214777,0.0
1759829785.6514032,0,6.103515485158257e-07,5.999997615814211,3.1401978283297716,0.0,7.9680862389894,5.976064679242052,3.047553107587972,0.0
1759829785.664917,0,6.103515487270411e-07,5.99999761581421,3.1402350444187626,0.0,7.973473945983504,5.980105459487629,3.0634287132046136,0.0
1759829785.6760464,0,6.103515488077182e-07,5.999997615814209,3.140345621457115,0.0,7.977893052213958,5.98341978916047,3.0764502059787184,0.0
1759829785.6869068,0,6.103515488385341e-07,5.999997615814209,3.1404503748116035,0.0,7.981775801861185,5.9863318513958905,3.0878912517102304,0.0
1759829785.6976004,0,6.103515488503048e-07,5.999997615814209,3.140541743646514,0.0,7.984937629223795,5.988703221917848,3.097208002656715,0.0
1759829785.7089248,0,6.103515488548008e-07,5.999997615814209,3.140606430316872,0.0,7.987516777380322,5.990637583035243,3.1048078107020887,0.0
1759829785.7202017,0,6.103515488565181e-07,5.999997615814209,3.1406655139184156,0.0,7.989762928511672,5.992322196383754,3.111426398081786,0.0
1759829785.7308881,0,6.103515488571741e-07,5.999997615814209,3.140729550528567,0.0,7.991583042110428,5.993687281582822,3.1167896083868323,0.0
1759829785.7417603,0,6.103515488574246e-07,5.999997615814209,3.140782193805375,0.0,7.9930612441716455,5.994795933128734,3.1211453302126975,0.0
1759829785.7520318,0,6.103515488575203e-07,5.999997615814209,3.140837766481768,0.0,7.994343546465941,5.995757659849455,3.1249238069427467,0.0
1759829785.7629435,0,6.103515488575568e-07,5.999997615814209,3.1408758362071367,0.0,7.995376531251726,5.996532398438794,3.1279676359937834,0.0
1759829785.774011,0,6.103515488575708e-07,5.999997615814209,3.1409083037918712,0.0,7.99621063781722,5.997157978362915,3.1304254435342664,0.0
1759829785.7849176,0,6.103515488575762e-07,5.999997615814209,3.1409414702097376,0.0,7.996926416508826,5.997694812381619,3.132534582028465,0.0
1759829785.7958121,0,6.103515488575782e-07,5.999997615814209,3.1409727026962333,0.0,7.997500293563214,5.99812522017241,3.1342255882019394,0.0
1759829785.8064446,0,6.103515488575789e-07,5.999997615814209,3.1410049280662484,0.0,7.997961704853442,5.99847127864008,3.135585198826411,0.0
1759829785.817924,0,6.103515488575793e-07,5.999997615814209,3.1410243277399346,0.0,7.998333266319052,5.998749949739287,3.136680054819287,0.0
1759829785.827977,0,6.103515488575794e-07,5.999997615814209,3.1410600873976993,0.0,7.99865225936177,5.998989194521327,3.137620010861104,0.0
1759829785.8390367,0,6.103515488575795e-07,5.999997615814209,3.141080563518498,0.0,7.998907219784616,5.999180414838461,3.138371286148606,0.0
1759829785.8503776,0,6.103515488575795e-07,5.999997615814209,3.141097121940181,0.0,7.9991114691564,5.9993336018673,3.1389731344817533,0.0
1759829785.8632336,0,6.103515488575795e-07,5.999997615814209,3.141099870925297,0.0,7.999285054315244,5.999463790736433,3.139484626573979,0.0
1759829785.873282,0,6.103515488575795e-07,5.999997615814209,3.1411339892348966,0.0,7.999423290720499,5.999567468040375,3.1398919587941805,0.0
1759829785.8843896,0,6.103515488575795e-07,5.999997615814209,3.1411544595264687,0.0,7.999533517615601,5.999650138211701,3.1402167572134125,0.0
1759829785.8951726,0,6.103515488575795e-07,5.999997615814209,3.141175599222862,0.0,7.999626660700522,5.999719995525392,3.1404912158808473,0.0
1759829785.9066122,0,6.103515488575795e-07,5.999997615814209,3.1411894118422925,0.0,7.99970035162881,5.999775263721609,3.140708356144101,0.0
1759829785.9178026,0,6.103515488575795e-07,5.999997615814209,3.141205214873821,0.0,7.999758826563496,5.999819119922623,3.140880660429123,0.0
1759829785.928313,0,6.103515488575795e-07,5.999997615814209,3.1412257030130064,0.0,7.999805383428642,5.999854037571483,3.1410178465141536,0.0
1759829785.9390175,0,6.103515488575795e-07,5.999997615814209,3.141242467672802,0.0,7.999842536157437,5.999881902118079,3.1411273220425326,0.0
1759829785.949323,0,6.103515488575795e-07,5.999997615814209,3.1412602760489516,0.0,7.999872271803386,5.999904203852541,3.141214942135527,0.0
1759829785.9604857,0,6.103515488575795e-07,5.999997615814209,3.1412701400140293,0.0,7.99989758350449,5.999923187628369,3.141289526478115,0.0
1759829785.9719763,0,6.103515488575795e-07,5.999997615814209,3.1412778986687755,0.0,7.9999176438594946,5.999938232894622,3.1413486370208616,0.0
1759829785.9833632,0,6.103515488575795e-07,5.999997615814209,3.1412873334241045,0.0,7.999933587429952,5.9999501905724655,3.1413956169024666,0.0
1759829785.9940548,0,6.103515488575795e-07,5.999997615814209,3.1413014752669586,0.0,7.999946302425238,5.999959726818929,3.1414330833516986,0.0
1759829786.0052671,0,6.103515488575795e-07,5.999997615814209,3.1413114710761025,0.0,7.999956462660376,5.999967346995282,3.1414630218554427,0.0
1759829786.0161037,0,6.103515488575795e-07,5.999997615814209,3.141323241750836,0.0,7.99996506177863,5.999973796333973,3.141488360317649,0.0
1759829786.026449,0,6.103515488575795e-07,5.999997615814209,3.141336852900345,0.0,7.999971890184801,5.9999789176386,3.1415084811377807,0.0
1759829786.0378706,0,6.103515488575795e-07,5.999997615814209,3.141343270212598,0.0,7.999977319819332,5.999982989864499,3.141524480288543,0.0
1759829786.0479314,0,6.103515488575795e-07,5.999997615814209,3.141356752252758,0.0,7.999981655040645,5.999986241280484,3.1415372546030893,0.0
1759829786.0590212,0,6.103515488575795e-07,5.999997615814209,3.1413637000314836,0.0,7.9999851209142125,5.99998884068566,3.1415474672672037,0.0
1759829786.0703619,0,6.103515488575795e-07,5.999997615814209,3.1413693384965136,0.0,7.999988062983764,5.999991047237824,3.1415561364721083,0.0
1759829786.0816085,0,6.103515488575795e-07,5.999997615814209,3.141375950235396,0.0,7.99999039646202,5.999992797346516,3.141563012380642,0.0
1759829786.091985,0,6.103515488575795e-07,5.999997615814209,3.141386579392792,0.0,7.999992253855886,5.999994190391915,3.141568485442284,0.0
1759829786.1032367,0,6.103515488575795e-07,5.999997615814209,3.1413924796888004,0.0,7.999993734584875,5.9999953009386555,3.14157284861004,0.0
1759829786.1140976,0,6.103515488575795e-07,5.999997615814209,3.1413999364895204,0.0,7.999994918652647,5.999996188989485,3.1415763376254975,0.0
1759829786.1255734,0,6.103515488575795e-07,5.999997615814209,3.1414047337405044,0.0,7.999995923259611,5.9999969424447075,3.1415792978354684,0.0
1759829786.1358979,0,6.103515488575795e-07,5.999997615814209,3.1414141676280547,0.0,7.999996720832873,5.999997540624654,3.141581647992701,0.0
1759829786.1461413,0,6.103515488575795e-07,5.999997615814209,3.1414229117058277,0.0,7.999997355650971,5.999998016738228,3.141583518569885,0.0
1759829786.156966,0,6.103515488575795e-07,5.999997615814209,3.1414284631016223,0.0,7.999997861848988,5.99999839638674,3.141585010150641,0.0
1759829786.1683722,0,6.103515488575795e-07,5.999997615814209,3.1414317781244137,0.0,7.999998289046902,5.999998716785175,3.1415862689469343,0.0
1759829786.1783998,0,6.103515488575795e-07,5.999997615814209,3.1414400741108928,0.0,7.9999986274602355,5.9999989705951755,3.141587266127486,0.0
1759829786.189791,0,6.103515488575795e-07,5.999997615814209,3.141443192304221,0.0,7.999998895811056,5.999999171858292,3.1415880568593875,0.0
1759829786.2002342,0,6.103515488575795e-07,5.999997615814209,3.1414494613540356,0.0,7.999999109389263,5.999999332041947,3.141588686196392,0.0
1759829786.210916,0,6.103515488575795e-07,5.999997615814209,3.141454616732112,0.0,7.9999992797533395,5.999999459815004,3.141589188197129,0.0
1759829786.2224238,0,6.103515488575795e-07,5.999997615814209,3.141457116097147,0.0,7.999999415870951,5.999999561903213,3.1415895892860366,0.0
1759829786.2328033,0,6.103515488575795e-07,5.999997615814209,3.1414631731434177,0.0,7.9999995314841605,5.99999964861312,3.1415899299559604,0.0
1759829786.2437572,0,6.103515488575795e-07,5.999997615814209,3.1414672551885534,0.0,7.999999623188316,5.999999717391238,3.1415902001746283,0.0
1759829786.2546031,0,6.103515488575795e-07,5.999997615814209,3.1414714741494656,0.0,7.999999696125541,5.9999997720941565,3.1415904150940044,0.0
1759829786.2688935,0,6.103515488575795e-07,5.999997615814209,3.1414672349412776,0.0,7.999999754076243,5.9999998155571825,3.1415905858535655,0.0
1759829786.279824,0,6.103515488575795e-07,5.999997615814209,3.1414733814125135,0.0,7.999999803074707,5.99999985230603,3.141590730234149,0.0
1759829786.2910535,0,6.103515488575795e-07,5.999997615814209,3.1414787261922275,0.0,7.999999841868319,5.999999881401239,3.1415908445447616,0.0
1759829786.3014812,0,6.103515488575795e-07,5.999997615814209,3.141485268785951,0.0,7.999999872689932,5.9999999045174475,3.1415909353648006,0.0
1759829786.3122268,0,6.103515488575795e-07,5.999997615814209,3.1414901956101993,0.0,7.999999897230468,5.99999992292285,3.1415910076768037,0.0
1759829786.3224034,0,6.103515488575795e-07,5.999997615814209,3.1414956429913197,0.0,7.999999916831353,5.999999937623514,3.141591065433456,0.0
1759829786.3338857,0,6.103515488575795e-07,5.999997615814209,3.1414977582917416,0.0,7.999999932502835,5.999999949377125,3.1415911116115924,0.0
1759829786.344394,0,6.103515488575795e-07,5.999997615814209,3.1415018412992737,0.0,7.999999945860411,5.999999959395308,3.1415911509714953,0.0
1759829786.355961,0,6.103515488575795e-07,5.999997615814209,3.1415036897291113,0.0,7.999999956449298,5.999999967336973,3.1415911821730793,0.0
1759829786.3661418,0,6.103515488575795e-07,5.999997615814209,3.1415081973963623,0.0,7.999999964878483,5.999999973658862,3.1415912070108103,0.0
1759829786.376208,0,6.103515488575795e-07,5.999997615814209,3.1415124168421826,0.0,7.999999971605501,5.999999978704126,3.1415912268328765,0.0
1759829786.3868084,0,6.103515488575795e-07,5.999997615814209,3.141515142256626,0.0,7.999999976983857,5.999999982737893,3.141591242680931,0.0
1759829786.397177,0,6.103515488575795e-07,5.999997615814209,3.1415180290450184,0.0,7.999999981544852,5.99999998615864,3.14159125612052,0.0
1759829786.4084656,0,6.103515488575795e-07,5.999997615814209,3.1415192838352475,0.0,7.999999985160351,5.999999988870265,3.1415912667740753,0.0
1759829786.419826,0,6.103515488575795e-07,5.999997615814209,3.1415206812467744,0.0,7.999999988033831,5.9999999910253745,3.1415912752411694,0.0
1759829786.4301674,0,6.103515488575795e-07,5.999997615814209,3.14152384511436,0.0,7.999999990326153,5.999999992744616,3.141591281995808,0.0
1759829786.4412398,0,6.103515488575795e-07,5.999997615814209,3.1415257392225744,0.0,7.99999999215792,5.999999994118442,3.1415912873933567,0.0
1759829786.4514513,0,6.103515488575795e-07,5.999997615814209,3.14152878806615,0.0,7.9999999937111435,5.999999995283359,3.1415912919701365,0.0
1759829786.4627411,0,6.103515488575795e-07,5.999997615814209,3.1415301279110253,0.0,7.999999994942531,5.999999996206899,3.141591295598585,0.0
1759829786.4752233,0,6.103515488575795e-07,5.999997615814209,3.1415300948751295,0.0,7.999999995920181,5.9999999969401365,3.1415912984793635,0.0
1759829786.4856396,0,6.103515488575795e-07,5.999997615814209,3.141533189082594,0.0,7.999999996700344,5.999999997525259,3.1415913007782192,0.0
1759829786.4971101,0,6.103515488575795e-07,5.999997615814209,3.141534825539539,0.0,7.9999999973237506,5.999999997992814,3.141591302615171,0.0
1759829786.508152,0,6.103515488575795e-07,5.999997615814209,3.141536947880299,0.0,7.999999997851434,5.999999998388576,3.1415913041700616,0.0
1759829786.5193896,0,6.103515488575795e-07,5.999997615814209,3.141538776804026,0.0,7.999999998270244,5.999999998702683,3.1415913054041407,0.0
1759829786.5305111,0,6.103515488575795e-07,5.999997615814209,3.1415406835420896,0.0,7.9999999986035695,5.999999998952678,3.141591306386329,0.0
1759829786.541216,0,6.103515488575795e-07,5.999997615814209,3.1415429364710974,0.0,7.999999998869673,5.999999999152256,3.1415913071704398,0.0
1759829786.5515637,0,6.103515488575795e-07,5.999997615814209,3.1415453277541765,0.0,7.999999999094691,5.99999999932102,3.141591307833485,0.0
1759829786.5627155,0,6.103515488575795e-07,5.999997615814209,3.141546658178708,0.0,7.999999999272895,5.999999999454672,3.1415913083585854,0.0
1759829786.5741973,0,6.103515488575795e-07,5.999997615814209,3.1415476680399728,0.0,7.999999999414351,5.999999999560764,3.141591308775404,0.0
1759829786.5845244,0,6.103515488575795e-07,5.999997615814209,3.141549813759159,0.0,7.999999999527077,5.999999999645309,3.1415913091075676,0.0
1759829786.5958426,0,6.103515488575795e-07,5.999997615814209,3.1415509057067723,0.0,7.999999999617035,5.999999999712777,3.1415913093726413,0.0
1759829786.60732,0,6.103515488575795e-07,5.999997615814209,3.141551885867525,0.0,7.999999999693267,5.99999999976995,3.1415913095972687,0.0
1759829786.6179247,0,6.103515488575795e-07,5.999997615814209,3.1415536557995605,0.0,7.9999999997536735,5.999999999815255,3.141591309775265,0.0
1759829786.629073,0,6.103515488575795e-07,5.999997615814209,3.141554869732996,0.0,7.999999999801635,5.999999999851226,3.1415913099165893,0.0
1759829786.6404276,0,6.103515488575795e-07,5.999997615814209,3.141555894180737,0.0,7.999999999839807,5.999999999879855,3.1415913100290696,0.0
1759829786.65082,0,6.103515488575795e-07,5.999997615814209,3.141557638398494,0.0,7.999999999870301,5.999999999902726,3.141591310118924,0.0
1759829786.662184,0,6.103515488575795e-07,5.999997615814209,3.1415585334638294,0.0,7.999999999896161,5.999999999922121,3.1415913101951247,0.0
1759829786.674261,0,6.103515488575795e-07,5.999997615814209,3.1415589739078342,0.0,7.999999999916614,5.999999999937461,3.141591310255393,0.0
1759829786.6842642,0,6.103515488575795e-07,5.999997615814209,3.1415609294632034,0.0,7.9999999999328715,5.999999999949654,3.1415913103032986,0.0
1759829786.6955888,0,6.103515488575795e-07,5.999997615814209,3.141561826291058,0.0,7.999999999945808,5.999999999959356,3.141591310341416,0.0
1759829786.706163,0,6.103515488575795e-07,5.999997615814209,3.1415631348198083,0.0,7.999999999956136,5.999999999967103,3.14159131037185,0.0
1759829786.7174368,0,6.103515488575795e-07,5.999997615814209,3.14156392874019,0.0,7.999999999964861,5.999999999973646,3.1415913103975566,0.0
1759829786.7288063,0,6.103515488575795e-07,5.999997615814209,3.141564675486128,0.0,7.999999999971769,5.999999999978828,3.141591310417915,0.0
1759829786.7397957,0,6.103515488575795e-07,5.999997615814209,3.141565667109516,0.0,7.999999999977258,5.999999999982944,3.1415913104340873,0.0
1759829786.7511592,0,6.103515488575795e-07,5.999997615814209,3.1415664292430527,0.0,7.999999999981628,5.999999999986221,3.1415913104469637,0.0
1759829786.76169,0,6.103515488575795e-07,5.999997615814209,3.1415676142470925,0.0,7.9999999999851195,5.999999999988839,3.1415913104572515,0.0
1759829786.7729084,0,6.103515488575795e-07,5.999997615814209,3.141568351588642,0.0,7.9999999999880815,5.999999999991061,3.1415913104659805,0.0
1759829786.7832634,0,6.103515488575795e-07,5.999997615814209,3.141569470091909,0.0,7.99999999999043,5.999999999992822,3.141591310472899,0.0
1759829786.794564,0,6.103515488575795e-07,5.999997615814209,3.141570043245032,0.0,7.999999999992294,5.99999999999422,3.1415913104783906,0.0
1759829786.805263,0,6.103515488575795e-07,5.999997615814209,3.1415708866986325,0.0,7.999999999993778,5.9999999999953335,3.141591310482764,0.0
1759829786.8156817,0,6.103515488575795e-07,5.999997615814209,3.141571799244268,0.0,7.999999999994964,5.999999999996223,3.141591310486257,0.0
1759829786.8271432,0,6.103515488575795e-07,5.999997615814209,3.1415721935251746,0.0,7.999999999995912,5.999999999996933,3.1415913104890505,0.0
1759829786.8386393,0,6.103515488575795e-07,5.999997615814209,3.1415726224995666,0.0,7.999999999996717,5.999999999997537,3.1415913104914246,0.0
1759829786.849805,0,6.103515488575795e-07,5.999997615814209,3.1415732415978415,0.0,7.999999999997358,5.999999999998017,3.1415913104933093,0.0
1759829786.860895,0,6.103515488575795e-07,5.999997615814209,3.1415738919180747,0.0,7.9999999999978675,5.999999999998399,3.14159131049481,0.0
1759829786.8722684,0,6.103515488575795e-07,5.999997615814209,3.1415744201503415,0.0,7.999999999998273,5.999999999998703,3.1415913104960067,0.0
1759829786.8833764,0,6.103515488575795e-07,5.999997615814209,3.141575044128148,0.0,7.999999999998615,5.999999999998961,3.1415913104970175,0.0
1759829786.8940654,0,6.103515488575795e-07,5.999997615814209,3.141575782302745,0.0,7.999999999998887,5.999999999999165,3.1415913104978186,0.0
1759829786.904105,0,6.103515488575795e-07,5.999997615814209,3.141576654754159,0.0,7.999999999999103,5.999999999999328,3.1415913104984563,0.0
1759829786.914211,0,6.103515488575795e-07,5.999997615814209,3.141577377908506,0.0,7.999999999999275,5.999999999999457,3.1415913104989643,0.0
1759829786.9247177,0,6.103515488575795e-07,5.999997615814209,3.1415778765561697,0.0,7.999999999999414,5.99999999999956,3.1415913104993707,0.0
1759829786.9350169,0,6.103515488575795e-07,5.999997615814209,3.1415783942915283,0.0,7.999999999999524,5.999999999999644,3.1415913104996958,0.0
1759829786.945661,0,6.103515488575795e-07,5.999997615814209,3.1415787757047013,0.0,7.999999999999619,5.999999999999714,3.1415913104999738,0.0
1759829786.9567797,0,6.103515488575795e-07,5.999997615814209,3.141579023002432,0.0,7.999999999999694,5.99999999999977,3.141591310500194,0.0
1759829786.967445,0,6.103515488575795e-07,5.999997615814209,3.1415794275385505,0.0,7.999999999999753,5.999999999999814,3.1415913105003694,0.0
1759829786.9783657,0,6.103515488575795e-07,5.999997615814209,3.1415797662669487,0.0,7.9999999999998,5.99999999999985,3.141591310500509,0.0
1759829786.9883676,0,6.103515488575795e-07,5.999997615814209,3.141580334787731,0.0,7.999999999999838,5.999999999999878,3.141591310500621,0.0
1759829786.9983811,0,6.103515488575795e-07,5.999997615814209,3.141580837465007,0.0,7.99999999999987,5.999999999999902,3.141591310500716,0.0
1759829787.0096467,0,6.103515488575795e-07,5.999997615814209,3.1415809892084283,0.0,7.999999999999896,5.999999999999922,3.141591310500791,0.0
1759829787.0211074,0,6.103515488575795e-07,5.999997615814209,3.141581136975475,0.0,7.9999999999999165,5.999999999999937,3.1415913105008504,0.0
1759829787.0320644,0,6.103515488575795e-07,5.999997615814209,3.1415814532655215,0.0,7.9999999999999325,5.999999999999949,3.141591310500898,0.0
1759829787.0436778,0,6.103515488575795e-07,5.999997615814209,3.1415816466791178,0.0,7.999999999999946,5.999999999999959,3.1415913105009357,0.0
1759829787.053718,0,6.103515488575795e-07,5.999997615814209,3.1415821888246462,0.0,7.9999999999999565,5.999999999999968,3.141591310500968,0.0
1759829787.0645905,0,6.103515488575795e-07,5.999997615814209,3.1415825079488524,0.0,7.999999999999965,5.999999999999974,3.1415913105009934,0.0
1759829787.0752819,0,6.103515488575795e-07,5.999997615814209,3.1415828375338677,0.0,7.9999999999999725,5.99999999999998,3.141591310501014,0.0
1759829787.0856874,0,6.103515488575795e-07,5.999997615814209,3.1415832003318727,0.0,7.999999999999978,5.999999999999983,3.1415913105010302,0.0
1759829787.0964706,0,6.103515488575795e-07,5.999997615814209,3.141583464950539,0.0,7.999999999999982,5.999999999999987,3.141591310501043,0.0
1759829787.1080096,0,6.103515488575795e-07,5.999997615814209,3.1415835939164936,0.0,7.999999999999986,5.999999999999989,3.1415913105010542,0.0
1759829787.1185815,0,6.103515488575795e-07,5.999997615814209,3.141583914095879,0.0,7.999999999999989,5.999999999999991,3.141591310501063,0.0
1759829787.130035,0,6.103515488575795e-07,5.999997615814209,3.1415840814439218,0.0,7.999999999999991,5.999999999999993,3.14159131050107,0.0
1759829787.1413922,0,6.103515488575795e-07,5.999997615814209,3.14158428065657,0.0,7.999999999999993,5.999999999999995,3.1415913105010755,0.0
1759829787.15264,0,6.103515488575795e-07,5.999997615814209,3.1415845110980207,0.0,7.999999999999995,5.9999999999999964,3.14159131050108,0.0
1759829787.164033,0,6.103515488575795e-07,5.999997615814209,3.1415847240611594,0.0,7.9999999999999964,5.9999999999999964,3.1415913105010835,0.0
1759829787.1752768,0,6.103515488575795e-07,5.999997615814209,3.1415849612251705,0.0,7.9999999999999964,5.9999999999999964,3.141591310501086,0.0
1759829787.1861403,0,6.103515488575795e-07,5.999997615814209,3.1415852430122584,0.0,7.9999999999999964,5.9999999999999964,3.141591310501089,0.0
1759829787.1964364,0,6.103515488575795e-07,5.999997615814209,3.14158557303681,0.0,7.9999999999999964,5.9999999999999964,3.1415913105010906,0.0
1759829787.207841,0,6.103515488575795e-07,5.999997615814209,3.1415857248639263,0.0,7.9999999999999964,5.9999999999999964,3.1415913105010924,0.0
1759829787.217967,0,6.103515488575795e-07,5.999997615814209,3.1415860288740802,0.0,7.9999999999999964,5.9999999999999964,3.1415913105010933,0.0
1759829787.2282805,0,6.103515488575795e-07,5.999997615814209,3.141586276191994,0.0,7.9999999999999964,5.9999999999999964,3.141591310501094,0.0
1759829787.2385838,0,6.103515488575795e-07,5.999997615814209,3.1415864933198137,0.0,7.9999999999999964,5.9999999999999964,3.141591310501095,0.0
1759829787.2497203,0,6.103515488575795e-07,5.999997615814209,3.1415865991993783,0.0,7.9999999999999964,5.9999999999999964,3.141591310501096,0.0
1759829787.2760348,0,6.103515488575795e-07,5.999997615814209,3.1415852318420185,0.0,7.9999999999999964,5.9999999999999964,2.5305194795024417,0.0
1759829787.2846384,0,6.103515488575795e-07,5.999997615814209,3.1415860402573514,0.0,7.9999999999999964,5.9999999999999964,2.0507964033446355,0.0
1759829787.2949834,0,6.103515488575795e-07,5.999997615814209,3.1415865973016537,0.0,7.9999999999999964,5.9999999999999964,1.676437124995343,0.0
1759829787.3060274,0,6.103515488575795e-07,5.999997615814209,3.141586952187378,0.0,7.9999999999999964,5.9999999999999964,1.3857782133196437,0.0
1759829787.3166783,0,6.103515488575795e-07,5.999997615814209,3.1415872638905107,0.0,7.9999999999999964,5.9999999999999964,1.1608409214914062,0.0
1759829787.3273215,0,6.103515488575795e-07,5.999997615814209,3.1415875179622113,0.0,7.996634772018094,5.99945669037855,0.3606570663828592,0.02442580725877845
1759829787.337793,0,6.103515488575795e-07,5.999997615814209,3.1415877416502784,0.0,7.989374838097826,5.998204591871416,-0.3249097329924476,0.06809199142464539
1759829787.3491685,0,6.103515488575795e-07,5.999997615814209,3.141587861580142,0.0,7.9827288831244,5.996614158390648,-0.2675727283131855,0.10048546685883325
1759829787.3595653,0,6.103515488575795e-07,5.999997615814209,3.141588046797656,0.0,7.977480980813031,5.9952895296866515,-0.22239117100984387,0.12665590054610776
1759829787.370084,0,6.103515488575795e-07,5.999997615814209,3.141588201809652,0.0,7.973420556092495,5.994211836755378,-0.17929022532712952,0.1478184792549
1759829787.3816292,0,6.103515488575795e-07,5.999997615814209,3.141588267950663,0.0,7.970327509104984,5.99338324136136,-0.13719947923259485,0.16495314190138174
1759829787.3930612,0,6.103515488575795e-07,5.999997615814209,3.141588349434814,0.0,7.967789965848272,5.992738439057563,-0.12915365313749966,0.17952411137960772
1759829787.4035635,0,6.103515488575795e-07,5.999997615814209,3.141588497953906,0.0,7.965795055078833,5.992197789006685,-0.115462910954798,0.19159454216182545
1759829787.4150891,0,6.103515488575795e-07,5.999997615814209,3.141588569684753,0.0,7.96433518663746,5.991797027427959,-0.09750535669449814,0.20117219460048277
1759829787.4254146,0,6.103515488575795e-07,5.999997615814209,3.141588716494729,0.0,7.963243115276559,5.99152276608309,-0.076448699959283,0.20901778373429689
1759829787.436881,0,6.103515488575795e-07,5.999997615814209,3.1415887823662416,0.0,7.9624691920155675,5.991381533566069,-0.05242654874016887,0.21527548221409376
1759829787.4470317,0,6.103515488575795e-07,5.999997615814209,3.1415889243257187,0.0,7.961930704078981,5.991365463938291,-0.026709158863615197,0.2202866397757933
1759829787.45804,0,6.103515488575795e-07,5.999997615814209,3.141589004006274,0.0,7.961389184243713,5.991392338434909,-0.034641531848048,0.22472376125017898
1759829787.469118,0,6.103515488575795e-07,5.999997615814209,3.141589076530728,0.0,7.961023236020036,5.991391814409538,-0.033887045769877756,0.22829275382812697
1759829787.4837387,0,6.103515488575795e-07,5.999997615814209,3.1415889746377665,0.0,7.960783094460483,5.991410246186327,-0.02429593527955352,0.2311635681367056
1759829787.494408,0,6.103515488575795e-07,5.999997615814209,3.141589118448193,0.0,7.960635191155201,5.991477220300695,-0.009809189537362796,0.23351949573809733
1759829787.5058713,0,6.103515488575795e-07,5.999997615814209,3.141589218283661,0.0,7.960424276807465,5.991535096979748,-0.02568917256910633,0.23552293368106264
1759829787.5162573,0,6.103515488575795e-07,5.999997615814209,3.1415893566664472,0.0,7.96030237423682,5.9915272569235825,-0.031812855021974874,0.23713358604829698
1759829787.5267162,0,6.103515488575795e-07,5.999997615814209,3.1415894715534467,0.0,7.960242123465538,5.991507452603774,-0.03024444313609318,0.23841255035248643
1759829787.536884,0,6.103515488575795e-07,5.999997615814209,3.1415895809891587,0.0,7.9502594518491865,5.98996135428848,-0.022890973992525133,0.2883913791288705
1759829787.5480852,0,6.103515488575795e-07,5.999997615814209,3.141589632169868,0.0,7.938958185467131,5.988739704791582,-0.010414063242534445,0.32885814767084837
1759829787.5592606,0,6.103515488575795e-07,5.999997615814209,3.1415896841427333,0.0,7.928623805906676,5.9878128916988045,0.006741755288046124,0.36231233193597434
1759829787.570868,0,6.103515488575795e-07,5.999997615814209,3.1415897223152456,0.0,7.903157921577478,5.985424045822232,-0.014966795349265058,0.44194568712517196
1759829787.5822186,0,6.103515488575795e-07,5.999997615814209,3.1415897761778933,0.0,7.883354811682484,5.983355211540381,-0.025118190919670123,0.5053675857525478
1759829787.5925736,0,6.103515488575795e-07,5.999997615814209,3.141589867070488,0.0,7.868070139817442,5.981616945923478,-0.026837237817859814,0.5557961979409631
1759829787.6027043,0,6.103515488575795e-07,5.999997615814209,3.1415899550197626,0.0,7.8558840643428365,5.980175365802001,-0.02223899787474317,0.5974234482968861
1759829787.6141288,0,6.103515488575795e-07,5.999997615814209,3.14158998736184,0.0,7.846385078131872,5.979077636551684,-0.011420066840355257,0.6311461959739212
1759829787.6243544,0,6.103515488575795e-07,5.999997615814209,3.141590060361569,0.0,7.83820096741287,5.978083587231875,-0.029773686031769348,0.6602647429216342
1759829787.6346722,0,6.103515488575795e-07,5.999997615814209,3.1415901236696993,0.0,7.831869333129001,5.977088388568579,-0.037972419925026944,0.6836930508508764
1759829787.6447442,0,6.103515488575795e-07,5.999997615814209,3.141590187115547,0.0,7.827002807467461,5.9762067961418435,-0.038504431053548886,0.7026133010878378
1759829787.6562414,0,6.103515488575795e-07,5.999997615814209,3.1415902017735853,0.0,7.823305205011147,5.975517843541807,-0.03188870690172204,0.7179036056896377
1759829787.6667042,0,6.103515488575795e-07,5.999997615814209,3.1415902515945824,0.0,7.820526707341612,5.975075626965689,-0.02004653825580335,0.7303074401140796
1759829787.6818223,0,6.103515488575795e-07,5.999997615814209,3.1415901757640796,0.0,7.817907451139694,5.9746753017293965,-0.03610276337988695,0.7409886666113621
1759829787.6918871,0,6.103515488575795e-07,5.999997615814209,3.141590265461092,0.0,7.815937495757892,5.974173181788936,-0.042622165684279144,0.7495875239883852
1759829787.702042,0,6.103515488575795e-07,5.999997615814209,3.141590346027943,0.0,7.814484433329153,5.973715324374539,-0.041739949144555304,0.7565324715246136
1759829787.7122126,0,6.103515488575795e-07,5.999997615814209,3.1415904117450886,0.0,7.813449663662818,5.973392151276268,-0.03479622411117186,0.7621545049323639
1759829787.723567,0,6.103515488575795e-07,5.999997615814209,3.1415904390648226,0.0,7.81272579337916,5.973264320483987,-0.0220585755676014,0.7667663254321575
1759829787.7349894,0,6.103515488575795e-07,5.999997615814209,3.1415904655112783,0.0,7.803466965098995,5.9743052930596425,-0.0438368627749904,0.7329338480236913
1759829787.7462976,0,6.103515488575795e-07,5.999997615814209,3.1415904973174467,0.0,7.78983148093614,5.97598668524235,-0.054035008425559077,0.6725212411637499
1759829787.757821,0,6.103515488575795e-07,5.999997615814209,3.1415905258350083,0.0,7.777775721260229,5.9773225142682875,-0.05543247686687904,0.6237011130157595
1759829787.769022,0,6.103515488575795e-07,5.999997615814209,3.141590562492098,0.0,7.767523956166875,5.978466974202391,-0.04966627998841399,0.5844001373441804
1759829787.7799046,0,6.103515488575795e-07,5.999997615814209,3.1415906043884902,0.0,7.758918432974985,5.979520013105093,-0.03823332591743763,0.5526688362388339
1759829787.7901616,0,6.103515488575795e-07,5.999997615814209,3.141590654549937,0.0,7.7518495122165865,5.980528816067495,-0.02262235060117223,0.5272840282898491
1759829787.8014708,0,6.103515488575795e-07,5.999997615814209,3.1415906787685035,0.0,7.745262212545206,5.981435168841381,-0.03540085736506136,0.5053543332588221
1759829787.811522,0,6.103515488575795e-07,5.999997615814209,3.1415907248400536,0.0,7.739750728966824,5.982100797899588,-0.039396300839311095,0.4874708904051344
1759829787.8227742,0,6.103515488575795e-07,5.999997615814209,3.141590744870088,0.0,7.735282759021858,5.982637468402476,-0.03564148408111651,0.4732557753304294
1759829787.8329399,0,6.103515488575795e-07,5.999997615814209,3.1415907830742036,0.0,7.731557930724312,5.983145196911317,-0.02630879682102025,0.4615938680856413
1759829787.8443496,0,6.103515488575795e-07,5.999997615814209,3.1415907976399637,0.0,7.7281029592895,5.9835530467504245,-0.044943919469538,0.45171427574628475
1759829787.8559113,0,6.103515488575795e-07,5.999997615814209,3.1415908117039066,0.0,7.725286331982339,5.983765807756761,-0.05262148743755146,0.4437868835771865
1759829787.867343,0,6.103515488575795e-07,5.999997615814209,3.1415908309894576,0.0,7.7229846845075905,5.983912947372051,-0.051998109196947175,0.4373234791888792
1759829787.8804445,0,6.103515488575795e-07,5.999997615814209,3.1415908285405614,0.0,7.721132702266886,5.984070973380857,-0.04340704298839743,0.4321289922825705
1759829787.8908985,0,6.103515488575795e-07,5.999997615814209,3.1415908703711253,0.0,7.7196776792163115,5.984291363610925,-0.029999277279774677,0.42798134718427183
1759829787.90233,0,6.103515488575795e-07,5.999997615814209,3.14159089531446,0.0,7.718174523364968,5.984491569427409,-0.04526788800422602,0.42436590124908447
1759829787.9137182,0,6.103515488575795e-07,5.999997615814209,3.14159091893373,0.0,7.7169906039078,5.984562403961659,-0.050463989268990546,0.42150367915065134
1759829787.923947,0,6.103515488575795e-07,5.999997615814209,3.1415909557979376,0.0,7.7160606185374085,5.984605933282635,-0.04847930011566707,0.4191930046051339
1759829787.9353204,0,6.103515488575795e-07,5.999997615814209,3.1415909739164594,0.0,7.709900548205734,5.98449346141584,-0.03990739932823845,0.4232661655912226
1759829787.9462957,0,6.103515488575795e-07,5.999997615814209,3.1415909957779835,0.0,7.7050033939992355,5.984487792406956,-0.026183073886188325,0.4265892950323353
1759829787.9579082,0,6.103515488575795e-07,5.999997615814209,3.141591009530366,0.0,7.689261844589224,5.98427795994714,-0.046027441310037345,0.43567990326876754
1759829787.9680033,0,6.103515488575795e-07,5.999997615814209,3.1415910402974756,0.0,7.675803233724302,5.98397214376615,-0.05553827039188276,0.44291364048620846
1759829787.9793148,0,6.103515488575795e-07,5.999997615814209,3.1415910545823262,0.0,7.664957871116093,5.983669699700256,-0.05639848420821615,0.4487395743774932
1759829787.9905908,0,6.103515488575795e-07,5.999997615814209,3.1415910688720654,0.0,7.656157709874559,5.983434976493949,-0.0502451180203763,0.45350157284846826
1759829788.0021448,0,6.103515488575795e-07,5.999997615814209,3.141591080945492,0.0,7.649139243506841,5.983317409847096,-0.038080774621040994,0.45734436430581527
1759829788.0124393,0,6.103515488575795e-07,5.999997615814209,3.1415911056280823,0.0,7.6429932186340706,5.983208436427723,-0.05610204406308052,0.4606125442286678
1759829788.0238473,0,6.103515488575795e-07,5.999997615814209,3.1415911175230455,0.0,7.638110306658124,5.98299558333544,-0.06337706489181233,0.46323518739930086
1759829788.0352733,0,6.103515488575795e-07,5.999997615814209,3.141591129283743,0.0,7.634210676498256,5.982785572095875,-0.06244514215264798,0.46537340217628087
1759829788.0457702,0,6.103515488575795e-07,5.999997615814209,3.1415911494083613,0.0,7.631183668785511,5.982646946819518,-0.05523806690944543,0.4670752814439513
1759829788.0559118,0,6.103515488575795e-07,5.999997615814209,3.141591170373246,0.0,7.6288364730730365,5.982618112580993,-0.04316703384150934,0.46843352039909786
1759829788.0660384,0,6.103515488575795e-07,5.999997615814209,3.1415911884274728,0.0,7.626552176753333,5.982585500908707,-0.060807971142124016,0.4696277768325439
1759829788.085151,0,6.103515488575795e-07,5.999997615814209,3.1415911374929912,0.0,7.624813758639659,5.982454671883872,-0.06304521330089662,0.47057749835586443
1759829788.0896845,0,6.103515488575795e-07,5.999997615814209,3.141591209613349,0.0,7.6234493809476405,5.982339805250405,-0.06223288749263258,0.47134943275449703
1759829788.1009414,0,6.103515488575795e-07,5.999997615814209,3.141591221074794,0.0,7.622378318761452,5.982277228815483,-0.05466837411662976,0.47198040644129
1759829788.1111765,0,6.103515488575795e-07,5.999997615814209,3.1415912357185665,0.0,7.621571245013624,5.982313720593493,-0.042173397347225625,0.47249039457381403
1759829788.1226463,0,6.103515488575795e-07,5.999997615814209,3.141591240774673,0.0,7.620678320844744,5.982344720214346,-0.059441838285487346,0.47292368903239257
1759829788.1337948,0,6.103515488575795e-07,5.999997615814209,3.1415912488748816,0.0,7.620004360826947,5.982249137327858,-0.0662781933221567,0.47327149868387297
1759829788.1441524,0,6.103515488575795e-07,5.999997615814209,3.1415912624167337,0.0,7.615270123465848,5.982432630153254,-0.06557635052497433,0.46436505062109973
1759829788.1554089,0,6.103515488575795e-07,5.999997615814209,3.141591269421678,0.0,7.6099025392803075,5.982622038520023,-0.058187527164945144,0.4571760149869732
1759829788.1661036,0,6.103515488575795e-07,5.999997615814209,3.141591279877977,0.0,7.6049044349114805,5.9828702621916605,-0.04562891226106299,0.45124643375696455
1759829788.177424,0,6.103515488575795e-07,5.999997615814209,3.1415912864208657,0.0,7.600575551508026,5.9832070736605845,-0.028389855677511334,0.4463223126672247
1759829788.1878738,0,6.103515488575795e-07,5.999997615814209,3.141591297982721,0.0,7.589512922191045,5.983820979604024,-0.04577698552958456,0.4325640185056288
1759829788.1979978,0,6.103515488575795e-07,5.999997615814209,3.1415913102567465,0.0,7.580483202558552,5.984210152572932,-0.05332689475481578,0.42159758295471556
1759829788.2096279,0,6.103515488575795e-07,5.999997615814209,3.141591313435452,0.0,7.573114586189161,5.9845067971903765,-0.05221995524697723,0.4127118111910407
1759829788.2210066,0,6.103515488575795e-07,5.999997615814209,3.1415913187716793,0.0,7.56714589235806,5.984786950955818,-0.04438034876071268,0.4055318721292531
1759829788.2314568,0,6.103515488575795e-07,5.999997615814209,3.141591329214192,0.0,7.562287998804146,5.985098553758831,-0.03156708230113989,0.39970874092486
1759829788.242381,0,6.103515488575795e-07,5.999997615814209,3.1415913366454262,0.0,7.557917271532234,5.985364794908496,-0.04899085221376395,0.39474883155115914
1759829788.2526076,0,6.103515488575795e-07,5.999997615814209,3.1415913466919854,0.0,7.554345064612577,5.985483970373952,-0.056428278187504344,0.39068926262641307
1759829788.2641027,0,6.103515488575795e-07,5.999997615814209,3.141591350315565,0.0,7.551435194387942,5.985556747277807,-0.05556687974405419,0.3873789594600737
1759829788.274513,0,6.103515488575795e-07,5.999997615814209,-3.139588996967451,0.0,7.549139128246905,5.985643912771095,-0.048454570583834226,0.38474240098757173
1759829788.2856536,0,-5.5674196436197647e-05,5.99998406052864,-3.1395757776645863,0.00043147857054634243,7.54728630374651,5.985788211594836,-0.03574536810305426,0.3825799751922582
1759829788.2962072,0,-7.542813112337447e-05,5.999984060529349,-3.139542549856228,0.00043147857054634243,7.545527971320845,5.985914487257878,-0.051984098656786853,0.3807441764613681
1759829788.3076506,0,-7.65644334992621e-05,5.99998419213901,3.0824548423017166,0.00039686520190121584,7.544156710050078,5.985927755609762,-0.05793509360530058,0.37929123287322525
1759829788.3190112,0,-8.06960890068716e-05,5.99998441891401,2.9718693243461574,0.00040362928460999065,7.543047612137056,5.98592324292345,-0.055754481829118824,0.37809838420697106
1759829788.3305633,0,-8.288292990987532e-05,5.999984570569899,2.946170526230544,0.0004086621633637541,7.542190102354392,5.985957209894062,-0.046934602793167746,0.3771348197131405
1759829788.341936,0,-8.416962511103524e-05,5.9999847742095165,2.9252650726684464,0.0004127788618311432,7.5377855698224545,5.986115172963105,-0.032664030766126534,0.3748334854039912
1759829788.3533733,0,-8.431983461219174e-05,5.999984774209474,2.925289506985083,0.0004127788618311432,7.527414867250454,5.98630560354287,-0.050779240908249985,0.37129033329756206
1759829788.3637424,0,-8.535431535880614e-05,5.999985138832839,2.8888392691725264,0.0004190892532274426,7.517145300605956,5.986362493086217,-0.05898678388544077,0.36842481474948297
1759829788.3750231,0,-8.572926839661294e-05,5.999985241636679,2.876904483634353,0.000421318798995976,7.5088151814749144,5.986376958123355,-0.058631425610433115,0.36615107741749403
1759829788.3854442,0,-8.581229840985882e-05,5.9999852961799105,2.8675869757852297,0.00042317661465347296,7.501940956698438,5.986412498893799,-0.052003943248726044,0.36428931646596324
1759829788.3957243,0,-8.584936466354709e-05,5.999985306293414,2.860767449486185,0.0004246758434925554,7.496377078531433,5.9865049912533275,-0.040238411143504356,0.3627842092192497
1759829788.407179,0,-8.600240155785478e-05,5.999985306293565,2.860766612989158,0.0004246758434925554,7.491483817997756,5.986581887565619,-0.05723259205420611,0.3615069431830327
1759829788.4174733,0,-8.595755051050531e-05,5.999985201749031,2.846167779395822,0.00042696864545842397,7.487508008666818,5.986554496587131,-0.06455525507773154,0.3604672989791312
1759829788.4279516,0,-8.592856957776696e-05,5.999985107397534,2.8418426474931886,0.0004278015436894607,7.484335335368589,5.9865044696706615,-0.06406752189364336,0.3596313380791018
1759829788.439147,0,-8.600222243670649e-05,5.999985005263782,2.8390769034867813,0.00042846442612218364,7.481851258987199,5.986487821861385,-0.056790133151181144,0.3589663990220399
1759829788.4502363,0,-8.60247642937804e-05,5.999985005263775,2.8390164086314913,0.00042846442612218364,7.479911122715638,5.986541422402656,-0.04407782503488301,0.3584361424257182
1759829788.4603767,0,-8.585970791916657e-05,5.999984903977722,2.8373495270556757,0.0004290084657437766,7.478035607974023,5.9865863745219725,-0.062035575066931976,0.3579689140654337
1759829788.4706144,0,-8.578182574744644e-05,5.999984693471795,2.8305246395149117,0.00042984157636351955,7.47651149366708,5.98652646470064,-0.07016528357388253,0.35758902539299475
1759829788.484075,0,-0.051532721197628924,5.988485255724303,2.829033373010094,0.3659841498830309,7.475341045861019,5.986449393361296,-0.06851072527748293,0.3572847438393444
1759829788.494787,0,-0.06991764655497464,5.988365989889288,2.8284453721291283,0.36963993372963144,7.474444545146102,5.986415903314898,-0.060583927930839235,0.357039527708755
1759829788.5052211,0,-0.07727549920311745,5.98826724264556,2.8287107915626506,0.3726363330045828,7.473752327283341,5.986457596537068,-0.047680125667315505,0.35684135858813315
1759829788.5166738,0,-0.0800103051007414,5.98826632641995,2.828704202207357,0.3726363330045828,7.473007230514401,5.9864998200784,-0.06397469351501851,0.35667313857083033
1759829788.5278559,0,-0.08337314561254947,5.987906047292354,2.824709292270402,0.3841281043736693,7.472441729042912,5.986449973971493,-0.07010015224595419,0.3565363802449942
1759829788.5378613,0,-0.08443087949103771,5.987760251317028,2.8242819714057266,0.3882797249800917,7.468867595236993,5.986604669534561,-0.06894034374602982,0.34965590039114003
1759829788.5491726,0,-0.08533889594314979,5.9876359121970415,2.824619777033329,0.39162289094422836,7.464739104829407,5.986766074465006,-0.061069436879688806,0.3440329816367258
1759829788.5605218,0,-0.08593682654428302,5.987532990565695,2.825620486646823,0.3943217544607589,7.460894053375627,5.986972536441407,-0.04764958557537708,0.3394096465483295
1759829788.571885,0,-0.08597971197162763,5.987532983118246,2.8255861561920472,0.3943217544607589,7.452004661851239,5.987386596793725,-0.06422170275141403,0.32833843357505105
1759829788.5832477,0,-0.08671087328361292,5.987375685665408,2.8227661305490623,0.39845895007453336,7.444567118196107,5.987654134721755,-0.0705351270842296,0.3194261879431476
1759829788.5947208,0,-0.08696652022261613,5.987303976760789,2.822699009583567,0.3999624380813175,7.438523531482257,5.987861332930105,-0.06862795511547903,0.3122705680975478
1759829788.6051538,0,-0.08700218720089882,5.987243142637312,2.82335542427223,0.4011731233972852,7.433617854492016,5.9880630248054665,-0.06066839978979471,0.30650344322251544
1759829788.6157942,0,-0.08710286239498016,5.987195998611413,2.824584306623357,0.4021508119716444,7.429644876587071,5.988291657701417,-0.047614300287393045,0.30184516571929315
1759829788.62597,0,-0.08702898006421789,5.987195998431614,2.8245825545317396,0.4021508119716444,7.426090475894463,5.988494459036822,-0.06480648003239016,0.2978850859449426
1759829788.6359925,0,-0.08706588457369882,5.9871647420916165,2.826296203400211,0.4029326186818472,7.4232652522666704,5.988582565259355,-0.07240630645285007,0.2947498876107658
1759829788.6460326,0,-0.0871348632463403,5.987151291433382,2.82481959566108,0.4036107764025326,7.420988895673587,5.988632460165475,-0.0722177394164975,0.29221581519740464
1759829788.656138,0,-0.08719612711812866,5.9871294926740175,2.8244011022204223,0.40415653572121435,7.419124112475284,5.988692760983258,-0.06611743354654442,0.2901296879046061
1759829788.6670053,0,-0.08734283281462979,5.987107889870615,2.8246134450203573,0.4045978639738114,7.417644930604535,5.988790149821595,-0.054519056416623295,0.288442504555148
1759829788.6779175,0,-0.087413763744693,5.987091213890786,2.825529038287569,0.4049550648569146,7.41646191129889,5.988945645309915,-0.0383497119233162,0.28707425471527803
1759829788.690715,0,-0.19121576168738288,5.974205088226578,2.8237282072005367,0.8154841766931408,7.415306292717927,5.98910232329394,-0.050928404414578736,0.28589508286908877
1759829788.701051,0,-0.22962729899211518,5.974031176504775,2.8230430812379423,0.8200321596567622,7.414384190779921,5.989181536805603,-0.05460444336571329,0.28493408382968854
1759829788.7123258,0,-0.24416784577517453,5.9740287002846735,2.8230279071705344,0.8200321596567622,7.413675370168094,5.989242636175945,-0.050608554979656654,0.2841704528022952
1759829788.723552,0,-0.2519816897724737,5.973787051112251,2.8249782169237205,0.8264085738258586,7.413131472296631,5.989329804734869,-0.040449224936339165,0.2835448854008458
1759829788.734565,0,-0.25403442804598575,5.973786689729993,2.8249701851211566,0.8264085738258586,7.412728215228077,5.98946802545401,-0.025406987008407038,0.2830450214673032
1759829788.7459872,0,-0.2549397973310452,5.973786551818864,2.8249605877688815,0.8264085738258586,7.40525646717632,5.989376381811013,-0.044244306786326286,0.28926219814161236
1759829788.757501,0,-0.2600809755555251,5.973386998602566,2.82324867837926,0.8385039783106584,7.393997101649961,5.989030806905328,-0.05189049516204124,0.30015459845707676
1759829788.7685964,0,-0.2617102738568865,5.973223472854816,2.8236002722808276,0.8427570971914241,7.38454091366954,5.988720891690589,-0.05137422441435589,0.30886323745556515
1759829788.7799234,0,-0.26307993018720843,5.973086886020959,2.824540876035851,0.846268271163053,7.376805714366273,5.988482986856122,-0.04404181495843006,0.31590068638009655
1759829788.7903996,0,-0.2638692766892123,5.972982848618206,2.825980615364641,0.8491151498592767,7.370541983955732,5.988342787883964,-0.031628837275439685,0.3216070412416593
1759829788.8016572,0,-0.2649035987588629,5.972917352472341,2.8243533945610277,0.8515813231058882,7.365006462071374,5.988215047297609,-0.04780036887147073,0.3265305684824466
1759829788.8119936,0,-0.2653723016021391,5.972838716486996,2.8237426230494203,0.8535652416053523,7.360619614962303,5.988030912247849,-0.054249235382253444,0.3304890326176746
1759829788.823214,0,-0.2660880207973298,5.972762449946788,2.8238644885155466,0.8551864502081029,7.357101478993154,5.9878579767993285,-0.052737994952475296,0.3337190977005094
1759829788.8334956,0,-0.26629058391399457,5.97269972489534,2.8246636122285915,0.8564942372320077,7.354320738203906,5.987741397908932,-0.04516204399857753,0.33632456508552167
1759829788.8450105,0,-0.2669475019534396,5.972662479332599,2.8227776358268977,0.8576004913992774,7.352162451686158,5.987711794216239,-0.03192073628800075,0.33840230361512613
1759829788.8550818,0,-0.26662854869059327,5.972662478929416,2.822778274816025,0.8576004913992774,7.350192708735333,5.987687192474496,-0.048498731692200064,0.34017000973649725
1759829788.8661788,0,-0.26730356962572915,5.9725386168303345,2.8218801161709037,0.8592049191936155,7.348611951246449,5.987582962669434,-0.05488464565775735,0.3416335636696148
1759829788.8775926,0,-0.26762059081410955,5.972485156232811,2.8225448343421835,0.859774274794027,7.347413615168095,5.987479069056332,-0.052979032333238994,0.34279498306020006
1759829788.8889694,0,-0.37811543297134453,5.969530282194728,2.8237544362357614,0.9528655602064114,7.346475414029382,5.987424243097659,-0.04446991479010819,0.34374522225726895
1759829788.8997257,0,-0.4197953223620249,5.969509932503609,2.825346012459519,0.9532458030074362,7.345786703165107,5.9874511818561125,-0.030940058139160863,0.3445038968988066
1759829788.9108937,0,-0.4389508719793787,5.969465066764176,2.823882841776393,0.9555048548413747,7.345052444530771,5.987480487362811,-0.04396507868369829,0.34515798889566895
1759829788.9220603,0,-0.4479398295855873,5.969403880150478,2.823375620751092,0.9573015716351053,7.344505992542013,5.9874430705897685,-0.04736785084413098,0.34568358899869983
1759829788.9325142,0,-0.452486771305554,5.969343244259365,2.823614298779345,0.9587525281801333,7.344099118302527,5.987410503160995,-0.043777124982037265,0.34610780864150253
1759829788.9436238,0,-0.45555079406192733,5.969293700138777,2.824767724873366,0.9599342362232531,7.338731386060863,5.98716447400093,-0.03401135942012557,0.3546776257147466
1759829788.9549708,0,-0.45763507004337545,5.969270893144529,2.8263573352858233,0.9608804198975581,7.332649658120822,5.98704262042006,-0.01921427175626609,0.3616194659323514
1759829788.965699,0,-0.45760864194694273,5.969270876902632,2.82635681455601,0.9608804198975581,7.3188846636283715,5.9866657539031225,-0.038011085446030136,0.3761507607055874
1759829788.9757311,0,-0.4588116926102089,5.969281818315195,2.8248910363297,0.961699721742018,7.307356130560429,5.9862478235577035,-0.04675456084358582,0.38775111683636126
1759829788.9862819,0,-0.46095360662906243,5.969240599586894,2.8247002865831514,0.9628914376932483,7.29765638599341,5.985856988324354,-0.0473836522364605,0.3972896290819971
1759829788.9976127,0,-0.46197678490733773,5.969224228805755,2.8255711947652524,0.9633281940645158,7.289923851191196,5.985552224807397,-0.04089523759509643,0.40497052806625217
1759829789.009047,0,-0.4621216767599266,5.9692242286135,2.8256096340879022,0.9633281940645158,7.283871403202705,5.985374640771492,-0.028575673070907505,0.4110942967248351
1759829789.0201795,0,-0.46273550694562626,5.969229619739877,2.8237347357770104,0.9636983163929039,7.278534401211219,5.985209106972452,-0.047197116924588806,0.4163136016782839
1759829789.0313032,0,-0.46364733046356676,5.96916185662353,2.8228847177159926,0.9642355527314582,7.274217107140484,5.98495238195184,-0.05522997262743768,0.420631118608262
1759829789.0424294,0,-0.4636405435095866,5.969161856582499,2.822868191774593,0.9642355527314582,7.270869410609772,5.984707055931812,-0.05482155513662699,0.42405562167362576
1759829789.0526414,0,-0.46389953176428406,5.969111196286676,2.8247730230713115,0.964588180806701,7.268200294561017,5.984527656039459,-0.048274273122149054,0.42685865117056393
1759829789.062933,0,-0.4640589073746888,5.969122856170178,2.822962001565938,0.9647214762327676,7.26614118755059,5.984454288595636,-0.03663269631319052,0.4290951911265995
1759829789.0743763,0,-0.4644065734876891,5.969122856549135,2.822962511391414,0.9647214762327676,7.264571597665963,5.984509945334139,-0.020117440241358375,0.43088135715002557
1759829789.0871298,0,-0.5834059859524399,5.967028185095127,2.8222577984392974,1.0306892933576222,7.263003834188865,5.984583813544391,-0.03228273115840434,0.4324513413554211
1759829789.0985641,0,-0.6295021803700214,5.9669447680137875,2.8231443243913703,1.0315059835311138,7.261790585255822,5.984575617279653,-0.03491042088647449,0.43373003905810587
1759829789.108806,0,-0.6476235335385954,5.966915237177677,2.824469383905198,1.0321039360141269,7.260878911855233,5.984571694575914,-0.03069933605899481,0.4347612023866559
1759829789.1191366,0,-0.6573279058404317,5.96689809689037,2.8227454905103357,1.0333045327090702,7.260205344381151,5.984625448846068,-0.020881057284618292,0.4355843397368918
1759829789.1306198,0,-0.6601780657929307,5.966897944843629,2.822765148696206,1.0333045327090702,7.2594448039094885,5.9846423007112115,-0.03781945452465016,0.436283882951621
1759829789.141919,0,-0.6640896635476109,5.966850961975049,2.822001346129466,1.0342736422641206,7.2588862019365274,5.9845507193102385,-0.04403497051297156,0.43685565856966463
1759829789.1520593,0,-0.6663440144481989,5.966796190751328,2.8225112874762175,1.035036602697596,7.252532003946994,5.984242283443204,-0.04292787317502859,0.4439083606369323
1759829789.163197,0,-0.6685285956449402,5.966758337563909,2.8235194812746958,1.0356547083767063,7.245376111567946,5.984021506444759,-0.035352157317305066,0.4496025804932763
1759829789.1732204,0,-0.6697371621785275,5.966743756047454,2.8250057714092756,1.0361564265045735,7.238792977909855,5.98392108641317,-0.023011410690345544,0.4542909305331839
1759829789.1845987,0,-0.6714384081892593,5.966763610654277,2.823431330479336,1.0365899893439317,7.233118928044672,5.983963551640542,-0.005866124824095904,0.4581764261631689
1759829789.194906,0,-0.6722446926325315,5.96674892808052,2.822946234785843,1.036938130900013,7.218104690722707,5.983788272324457,-0.02513622679977417,0.4684005745692535
1759829789.2062912,0,-0.6733781881045957,5.966726106551746,2.823239900404716,1.0372223769991713,7.206095112680152,5.9835116198289136,-0.03351846412199266,0.47663559931246613
1759829789.2165804,0,-0.6737640940617586,5.966710854963595,2.8241501907874027,1.037451605266213,7.196526857860949,5.983238683228977,-0.033954968369958864,0.48326299306926634
1759829789.2270184,0,-0.6742277807836555,5.966714075028163,2.82554769057514,1.037634864469435,7.189021430737402,5.983040396627612,-0.027830570887254706,0.48854226783818105
1759829789.2384763,0,-0.6750585327144473,5.966747445960175,2.824005026070107,1.0377930348238837,7.1830516486517615,5.982961336128465,-0.015763915319004444,0.4928185899197528
1759829789.249401,0,-0.6753789470158627,5.966744409333432,2.823510347505038,1.0379201700520118,7.177692409234017,5.982875512803133,-0.03316879708420005,0.49650899021663863
1759829789.2608593,0,-0.67584314840834,5.966731277451246,2.8238586395554814,1.0380226557198882,7.173448747055693,5.982680875039351,-0.039886879751766184,0.49947261303318985
1759829789.2710965,0,-0.6757018422148573,5.966725068582135,2.82481968538596,1.0381066023827588,7.170058977563597,5.982488029425126,-0.039188466241788227,0.501894308903208
1759829789.2821732,0,-0.6760993303258409,5.966743029425513,2.822970091661716,1.0381777829598138,7.167439654633126,5.9823683535265255,-0.03176482838263377,0.5038219945596575
1759829789.2937653,0,-0.8074773424869631,5.963643794502267,2.822082789851789,1.1360902092384577,7.16539021398946,5.9823674855784805,-0.01848772406560039,0.5054027249357995
1759829789.3049371,0,-0.8570492764708665,5.9636394383138525,2.8220792769681555,1.1360902092384577,7.163424577746519,5.982359491481598,-0.035841219063628076,0.5067487637950723
1759829789.3154578,0,-0.8783243456553289,5.963513313514384,2.82276639019175,1.137942064226296,7.161887965079937,5.98222365215489,-0.043090917716373515,0.5078308440572615
1759829789.3266938,0,-0.8873604578117236,5.963474537478659,2.8239752738754316,1.1386313227220735,7.160708879123081,5.982077370464871,-0.042210926863718905,0.5087137471759942
1759829789.3372166,0,-0.8935645583603884,5.963440052237115,2.822160446494757,1.1402524902664857,7.159819339989168,5.98199608367343,-0.03499049722708591,0.5094168676045053
1759829789.3476853,0,-0.8975253634198617,5.9633731604236795,2.8215667434635394,1.141554140039987,7.152932153577544,5.981929443660631,-0.02235094486672661,0.5129860178624193
1759829789.3588583,0,-0.8981672387067248,5.963373125266513,2.821586902081694,1.141554140039987,7.136159033568661,5.981757765815343,-0.03980389242626947,0.5191770774352505
1759829789.3696709,0,-0.9006740009557233,5.9633033937059485,2.8217518532829513,1.1425997019099225,7.120623077934801,5.981483548442973,-0.04708451281822062,0.5241117446178473
1759829789.3799102,0,-0.9039052746120863,5.963215301994609,2.8238781930941323,1.1441062893604659,7.106845561044127,5.981216114815813,-0.04685273003492056,0.5281399200516371
1759829789.391326,0,-0.905624780668646,5.963221321443299,2.822400087368781,1.1446775274457233,7.095856464351134,5.98103284471497,-0.039615253304485884,0.53134144989839
1759829789.4023867,0,-0.9056347410479761,5.963221320686346,2.8224095222325243,1.1446775274457233,7.087189087278795,5.980984075491295,-0.026926111536636595,0.5338933200787567
1759829789.413889,0,-0.906898165519383,5.9631934075205315,2.821956179766825,1.1451504012163338,7.079306716696346,5.980933135432745,-0.04364024955785994,0.5361351400326275
1759829789.4239285,0,-0.9078969735510876,5.963134220358492,2.8230489964345815,1.145825365783727,7.0730404181178725,5.980758219206508,-0.050687644322343454,0.5379359679822107
1759829789.4340382,0,-0.9077302399934243,5.9631342201240525,2.823032043721701,1.145825365783727,7.068131092010136,5.980577141971325,-0.05010759591338942,0.5393653305277263
1759829789.4443667,0,-0.9082836977147027,5.963127837982172,2.824405287030479,1.146075372808165,7.064129041822539,5.980463009491953,-0.0435057709796906,0.540542466373028
1759829789.454599,0,-0.908753256472616,5.963157670687612,2.82284195878504,1.1462877841084933,7.060999430302094,5.980463493692351,-0.03185318710836992,0.5414811871590098
1759829789.4658525,0,-0.9095319580303032,5.963147395437105,2.8222822263821863,1.1464583928428311,7.058489733342478,5.980606659026489,-0.0153726386325963,0.5422565860149289
1759829789.4759269,0,-0.9095149911282887,5.963126130505113,2.822531626128526,1.1465959056361206,7.056071692089079,5.980750978449451,-0.030280970091075828,0.5429276773535346
1759829789.4906611,0,-1.0430779140708812,5.962824684201464,2.8247801703446287,1.1557680569974582,7.0542048009310365,5.980766833365124,-0.03307096388749375,0.5434716409642795
1759829789.4975157,0,-1.0907732110546149,5.9628210343677095,2.824771544772118,1.1557680569974582,7.052754422161102,5.980772109780094,-0.03106391476381942,0.5439061733106078
1759829789.5089343,0,-1.1133429683273648,5.962854930795309,2.823021169170738,1.1559436366263263,7.0516784086413615,5.980829520973435,-0.02235701483916491,0.5442520314620025
1759829789.5197115,0,-1.124519204244871,5.962841667471788,2.8223809034106813,1.1561730327946271,7.050827780333003,5.9809950047202705,-0.008379754842382067,0.5445379693831631
