timestamp,vehicle_id,x,y,theta,velocity,gps_available,dt,gps_x,gps_y,gps_theta,gps_velocity,control_steering,control_acceleration
1759829785.2674398,0,0.0,6.0,-0.05483113549895435,0.0,False,0.01,nan,nan,nan,nan,0.0,0.0
1759829785.278913,0,0.0,6.0,-0.05483113549895435,0.0,False,0.01147317886352539,nan,nan,nan,nan,0.0,0.0
1759829785.2895305,0,0.0,6.0,-0.05483113549895435,0.0,False,0.010617494583129883,nan,nan,nan,nan,0.0,0.0
1759829785.3001416,0,0.0,6.0,-0.05483113549895435,0.0,False,0.01061105728149414,nan,nan,nan,nan,0.0,0.0
1759829785.3111157,0,0.0,6.0,-0.05483113549895435,0.0,False,0.01097416877746582,nan,nan,nan,nan,0.0,0.0
1759829785.3219237,0,0.0,6.0,-0.05483113549895435,0.0,False,0.010807991027832031,nan,nan,nan,nan,0.0,0.0
1759829785.3331451,0,0.0,6.0,-0.05483113549895435,0.0,False,0.01122140884399414,nan,nan,nan,nan,0.0,0.0
1759829785.344577,0,0.0,6.0,-0.05483113549895435,0.0,False,0.01143193244934082,nan,nan,nan,nan,0.0,0.0
1759829785.3560123,0,0.0,6.0,-0.05483113549895435,0.0,False,0.011435270309448242,nan,nan,nan,nan,0.0,0.0
1759829785.3666608,0,0.0,6.0,-0.05483113549895435,0.0,False,0.010648488998413086,nan,nan,nan,nan,0.0,0.0
1759829785.378149,0,0.0,6.0,-0.05483113549895435,0.0,False,0.011488199234008789,nan,nan,nan,nan,0.0,0.0
1759829785.388694,0,0.0,6.0,-0.05483113549895435,0.0,False,0.010545015335083008,nan,nan,nan,nan,0.0,0.0
1759829785.4001954,0,0.0,6.0,-0.05483113549895435,0.0,False,0.011501312255859375,nan,nan,nan,nan,0.0,0.0
1759829785.4117005,0,0.0,6.0,-0.05483113549895435,0.0,False,0.011505126953125,nan,nan,nan,nan,0.0,0.0
1759829785.422591,0,0.0,6.0,-0.05483113549895435,0.0,False,0.010890483856201172,nan,nan,nan,nan,0.0,0.0
1759829785.4336872,0,0.0,6.0,-0.05483113549895435,0.0,False,0.01109623908996582,nan,nan,nan,nan,0.0,0.0
1759829785.4443822,0,0.0,6.0,-0.05483113549895435,0.0,False,0.01069498062133789,nan,nan,nan,nan,0.0,0.0
1759829785.455421,0,0.0,6.0,-0.05483113549895435,0.0,False,0.011038780212402344,nan,nan,nan,nan,0.0,0.0
1759829785.4668334,0,6.05265285950433e-07,5.999997635682424,-2.879851199534574,0.0,True,0.011412382125854492,6.103515488575795e-07,5.999997615814209,3.1415915489196777,0.0,0.0,0.0
1759829785.477437,0,6.08651405267447e-07,5.999997622455395,-3.121142080822029,0.0,True,0.010603666305541992,6.103515488575795e-07,5.999997615814209,3.1415915489196777,0.0,0.0,0.0
1759829785.48886,0,6.097137729444577e-07,5.999997618305521,3.139128134269674,0.0,True,0.011422872543334961,6.103515488575795e-07,5.999997615814209,3.1415915489196777,0.0,0.0,0.0
1759829785.5002654,0,6.101085745148814e-07,5.999997616763327,3.1361257035375427,0.0,True,0.011405467987060547,6.103515488575795e-07,5.999997615814209,3.1415915489196777,0.0,0.0,0.0
1759829785.511568,0,6.102587761643347e-07,5.999997616176602,3.13586369793841,0.0,True,0.011302709579467773,6.103515488575795e-07,5.999997615814209,3.1415915489196777,0.0,0.0,0.0
1759829785.5227585,0,6.103161148053962e-07,5.999997615952623,3.1363049614099054,0.0,True,0.011190414428710938,6.103515488575795e-07,5.999997615814209,3.1415915489196777,0.0,0.0,0.0
1759829785.533414,0,6.103380143634147e-07,5.999997615867078,3.136958750601991,0.0,True,0.010655403137207031,6.103515488575795e-07,5.999997615814209,3.1415915489196777,0.0,0.0,0.0
1759829785.544045,0,6.103463791469262e-07,5.9999976158344035,3.137561666321165,0.0,True,0.010631084442138672,6.103515488575795e-07,5.999997615814209,3.1415915489196777,0.0,0.0,0.0
1759829785.5548887,0,6.103495742041617e-07,5.999997615821923,3.1380632450516934,0.0,True,0.010843753814697266,6.103515488575795e-07,5.999997615814209,3.1415915489196777,0.0,0.0,0.0
1759829785.565081,0,6.103507946071088e-07,5.999997615817155,3.138525922112059,0.0,True,0.010192155838012695,6.103515488575795e-07,5.999997615814209,3.1415915489196777,0.0,0.0,0.0
1759829785.5758142,0,6.103512607595368e-07,5.999997615815334,3.138869470181911,0.0,True,0.010733366012573242,6.103515488575795e-07,5.999997615814209,3.1415915489196777,0.0,0.0,0.0
1759829785.5864797,0,6.103514388139193e-07,5.999997615814639,3.1391620041531176,0.0,True,0.010665416717529297,6.103515488575795e-07,5.999997615814209,3.1415915489196777,0.0,0.0,0.0
1759829785.5976262,0,6.103515068246415e-07,5.999997615814373,3.139390263060818,0.0,True,0.01114654541015625,6.103515488575795e-07,5.999997615814209,3.1415915489196777,0.0,0.0,0.0
1759829785.6083858,0,6.103515328024258e-07,5.999997615814272,3.1396065705134575,0.0,True,0.010759592056274414,6.103515488575795e-07,5.999997615814209,3.1415915489196777,0.0,0.0,0.0
1759829785.6190128,0,6.103515427250565e-07,5.999997615814233,3.1397959507399804,0.0,True,0.010627031326293945,6.103515488575795e-07,5.999997615814209,3.1415915489196777,0.0,0.0,0.0
1759829785.6294544,0,6.103515465151642e-07,5.999997615814218,3.139961758329612,0.0,True,0.01044154167175293,6.103515488575795e-07,5.999997615814209,3.1415915489196777,0.0,0.0,0.0
1759829785.6406028,0,6.103515479628565e-07,5.9999976158142125,3.1400806665669947,0.0,True,0.011148452758789062,6.103515488575795e-07,5.999997615814209,3.1415915489196777,0.0,0.0,0.0
1759829785.6514032,0,6.103515485158257e-07,5.999997615814211,3.1401978283297716,0.0,True,0.010800361633300781,6.103515488575795e-07,5.999997615814209,3.1415915489196777,0.0,0.0,0.0
1759829785.664917,0,6.103515487270411e-07,5.99999761581421,3.1402350444187626,0.0,True,0.013513803482055664,6.103515488575795e-07,5.999997615814209,3.1415915489196777,0.0,0.0,0.0
1759829785.6760464,0,6.103515488077182e-07,5.999997615814209,3.140345621457115,0.0,True,0.011129379272460938,6.103515488575795e-07,5.999997615814209,3.1415915489196777,0.0,0.0,0.0
1759829785.6869068,0,6.103515488385341e-07,5.999997615814209,3.1404503748116035,0.0,True,0.010860443115234375,6.103515488575795e-07,5.999997615814209,3.1415915489196777,0.0,0.0,0.0
1759829785.6976004,0,6.103515488503048e-07,5.999997615814209,3.140541743646514,0.0,True,0.010693550109863281,6.103515488575795e-07,5.999997615814209,3.1415915489196777,0.0,0.0,0.0
1759829785.7089248,0,6.103515488548008e-07,5.999997615814209,3.140606430316872,0.0,True,0.011324405670166016,6.103515488575795e-07,5.999997615814209,3.1415915489196777,0.0,0.0,0.0
1759829785.7202017,0,6.103515488565181e-07,5.999997615814209,3.1406655139184156,0.0,True,0.011276960372924805,6.103515488575795e-07,5.999997615814209,3.1415915489196777,0.0,0.0,0.0
1759829785.7308881,0,6.103515488571741e-07,5.999997615814209,3.140729550528567,0.0,True,0.010686397552490234,6.103515488575795e-07,5.999997615814209,3.1415915489196777,0.0,0.0,0.0
1759829785.7417603,0,6.103515488574246e-07,5.999997615814209,3.140782193805375,0.0,True,0.010872125625610352,6.103515488575795e-07,5.999997615814209,3.1415915489196777,0.0,0.0,0.0
1759829785.7520318,0,6.103515488575203e-07,5.999997615814209,3.140837766481768,0.0,True,0.010271549224853516,6.103515488575795e-07,5.999997615814209,3.1415915489196777,0.0,0.0,0.0
1759829785.7629435,0,6.103515488575568e-07,5.999997615814209,3.1408758362071367,0.0,True,0.010911703109741211,6.103515488575795e-07,5.999997615814209,3.1415915489196777,0.0,0.0,0.0
1759829785.774011,0,6.103515488575708e-07,5.999997615814209,3.1409083037918712,0.0,True,0.011067390441894531,6.103515488575795e-07,5.999997615814209,3.1415915489196777,0.0,0.0,0.0
1759829785.7849176,0,6.103515488575762e-07,5.999997615814209,3.1409414702097376,0.0,True,0.010906696319580078,6.103515488575795e-07,5.999997615814209,3.1415915489196777,0.0,0.0,0.0
1759829785.7958121,0,6.103515488575782e-07,5.999997615814209,3.1409727026962333,0.0,True,0.010894536972045898,6.103515488575795e-07,5.999997615814209,3.1415915489196777,0.0,0.0,0.0
1759829785.8064446,0,6.103515488575789e-07,5.999997615814209,3.1410049280662484,0.0,True,0.010632514953613281,6.103515488575795e-07,5.999997615814209,3.1415915489196777,0.0,0.0,0.0
1759829785.817924,0,6.103515488575793e-07,5.999997615814209,3.1410243277399346,0.0,True,0.011479377746582031,6.103515488575795e-07,5.999997615814209,3.1415915489196777,0.0,0.0,0.0
1759829785.827977,0,6.103515488575794e-07,5.999997615814209,3.1410600873976993,0.0,True,0.010052919387817383,6.103515488575795e-07,5.999997615814209,3.1415915489196777,0.0,0.0,0.0
1759829785.8390367,0,6.103515488575795e-07,5.999997615814209,3.141080563518498,0.0,True,0.011059761047363281,6.103515488575795e-07,5.999997615814209,3.1415915489196777,0.0,0.0,0.0
1759829785.8503776,0,6.103515488575795e-07,5.999997615814209,3.141097121940181,0.0,True,0.011340856552124023,6.103515488575795e-07,5.999997615814209,3.1415915489196777,0.0,0.0,0.0
1759829785.8632336,0,6.103515488575795e-07,5.999997615814209,3.141099870925297,0.0,True,0.012856006622314453,6.103515488575795e-07,5.999997615814209,3.1415915489196777,0.0,0.0,0.0
1759829785.873282,0,6.103515488575795e-07,5.999997615814209,3.1411339892348966,0.0,True,0.010048389434814453,6.103515488575795e-07,5.999997615814209,3.1415915489196777,0.0,0.0,0.0
1759829785.8843896,0,6.103515488575795e-07,5.999997615814209,3.1411544595264687,0.0,True,0.011107683181762695,6.103515488575795e-07,5.999997615814209,3.1415915489196777,0.0,0.0,0.0
1759829785.8951726,0,6.103515488575795e-07,5.999997615814209,3.141175599222862,0.0,True,0.010782957077026367,6.103515488575795e-07,5.999997615814209,3.1415915489196777,0.0,0.0,0.0
1759829785.9066122,0,6.103515488575795e-07,5.999997615814209,3.1411894118422925,0.0,True,0.01143956184387207,6.103515488575795e-07,5.999997615814209,3.1415915489196777,0.0,0.0,0.0
1759829785.9178026,0,6.103515488575795e-07,5.999997615814209,3.141205214873821,0.0,True,0.011190414428710938,6.103515488575795e-07,5.999997615814209,3.1415915489196777,0.0,0.0,0.0
1759829785.928313,0,6.103515488575795e-07,5.999997615814209,3.1412257030130064,0.0,True,0.010510444641113281,6.103515488575795e-07,5.999997615814209,3.1415915489196777,0.0,0.0,0.0
1759829785.9390175,0,6.103515488575795e-07,5.999997615814209,3.141242467672802,0.0,True,0.010704517364501953,6.103515488575795e-07,5.999997615814209,3.1415915489196777,0.0,0.0,0.0
1759829785.949323,0,6.103515488575795e-07,5.999997615814209,3.1412602760489516,0.0,True,0.010305404663085938,6.103515488575795e-07,5.999997615814209,3.1415915489196777,0.0,0.0,0.0
1759829785.9604857,0,6.103515488575795e-07,5.999997615814209,3.1412701400140293,0.0,True,0.011162757873535156,6.103515488575795e-07,5.999997615814209,3.1415915489196777,0.0,0.0,0.0
1759829785.9719763,0,6.103515488575795e-07,5.999997615814209,3.1412778986687755,0.0,True,0.011490583419799805,6.103515488575795e-07,5.999997615814209,3.1415915489196777,0.0,0.0,0.0
1759829785.9833632,0,6.103515488575795e-07,5.999997615814209,3.1412873334241045,0.0,True,0.011386871337890625,6.103515488575795e-07,5.999997615814209,3.1415915489196777,0.0,0.0,0.0
1759829785.9940548,0,6.103515488575795e-07,5.999997615814209,3.1413014752669586,0.0,True,0.010691642761230469,6.103515488575795e-07,5.999997615814209,3.1415915489196777,0.0,0.0,0.0
1759829786.0052671,0,6.103515488575795e-07,5.999997615814209,3.1413114710761025,0.0,True,0.011212348937988281,6.103515488575795e-07,5.999997615814209,3.1415915489196777,0.0,0.0,0.0
1759829786.0161037,0,6.103515488575795e-07,5.999997615814209,3.141323241750836,0.0,True,0.010836601257324219,6.103515488575795e-07,5.999997615814209,3.1415915489196777,0.0,0.0,0.0
1759829786.026449,0,6.103515488575795e-07,5.999997615814209,3.141336852900345,0.0,True,0.010345220565795898,6.103515488575795e-07,5.999997615814209,3.1415915489196777,0.0,0.0,0.0
1759829786.0378706,0,6.103515488575795e-07,5.999997615814209,3.141343270212598,0.0,True,0.011421680450439453,6.103515488575795e-07,5.999997615814209,3.1415915489196777,0.0,0.0,0.0
1759829786.0479314,0,6.103515488575795e-07,5.999997615814209,3.141356752252758,0.0,True,0.010060787200927734,6.103515488575795e-07,5.999997615814209,3.1415915489196777,0.0,0.0,0.0
1759829786.0590212,0,6.103515488575795e-07,5.999997615814209,3.1413637000314836,0.0,True,0.011089801788330078,6.103515488575795e-07,5.999997615814209,3.1415915489196777,0.0,0.0,0.0
1759829786.0703619,0,6.103515488575795e-07,5.999997615814209,3.1413693384965136,0.0,True,0.011340618133544922,6.103515488575795e-07,5.999997615814209,3.1415915489196777,0.0,0.0,0.0
1759829786.0816085,0,6.103515488575795e-07,5.999997615814209,3.141375950235396,0.0,True,0.011246681213378906,6.103515488575795e-07,5.999997615814209,3.1415915489196777,0.0,0.0,0.0
1759829786.091985,0,6.103515488575795e-07,5.999997615814209,3.141386579392792,0.0,True,0.010376453399658203,6.103515488575795e-07,5.999997615814209,3.1415915489196777,0.0,0.0,0.0
1759829786.1032367,0,6.103515488575795e-07,5.999997615814209,3.1413924796888004,0.0,True,0.011251688003540039,6.103515488575795e-07,5.999997615814209,3.1415915489196777,0.0,0.0,0.0
1759829786.1140976,0,6.103515488575795e-07,5.999997615814209,3.1413999364895204,0.0,True,0.010860919952392578,6.103515488575795e-07,5.999997615814209,3.1415915489196777,0.0,0.0,0.0
1759829786.1255734,0,6.103515488575795e-07,5.999997615814209,3.1414047337405044,0.0,True,0.011475801467895508,6.103515488575795e-07,5.999997615814209,3.1415915489196777,0.0,0.0,0.0
1759829786.1358979,0,6.103515488575795e-07,5.999997615814209,3.1414141676280547,0.0,True,0.010324478149414062,6.103515488575795e-07,5.999997615814209,3.1415915489196777,0.0,0.0,0.0
1759829786.1461413,0,6.103515488575795e-07,5.999997615814209,3.1414229117058277,0.0,True,0.010243415832519531,6.103515488575795e-07,5.999997615814209,3.1415915489196777,0.0,0.0,0.0
1759829786.156966,0,6.103515488575795e-07,5.999997615814209,3.1414284631016223,0.0,True,0.01082468032836914,6.103515488575795e-07,5.999997615814209,3.1415915489196777,0.0,0.0,0.0
1759829786.1683722,0,6.103515488575795e-07,5.999997615814209,3.1414317781244137,0.0,True,0.011406183242797852,6.103515488575795e-07,5.999997615814209,3.1415915489196777,0.0,0.0,0.0
1759829786.1783998,0,6.103515488575795e-07,5.999997615814209,3.1414400741108928,0.0,True,0.010027647018432617,6.103515488575795e-07,5.999997615814209,3.1415915489196777,0.0,0.0,0.0
1759829786.189791,0,6.103515488575795e-07,5.999997615814209,3.141443192304221,0.0,True,0.011391162872314453,6.103515488575795e-07,5.999997615814209,3.1415915489196777,0.0,0.0,0.0
1759829786.2002342,0,6.103515488575795e-07,5.999997615814209,3.1414494613540356,0.0,True,0.01044321060180664,6.103515488575795e-07,5.999997615814209,3.1415915489196777,0.0,0.0,0.0
1759829786.210916,0,6.103515488575795e-07,5.999997615814209,3.141454616732112,0.0,True,0.010681867599487305,6.103515488575795e-07,5.999997615814209,3.1415915489196777,0.0,0.0,0.0
1759829786.2224238,0,6.103515488575795e-07,5.999997615814209,3.141457116097147,0.0,True,0.011507749557495117,6.103515488575795e-07,5.999997615814209,3.1415915489196777,0.0,0.0,0.0
1759829786.2328033,0,6.103515488575795e-07,5.999997615814209,3.1414631731434177,0.0,True,0.010379552841186523,6.103515488575795e-07,5.999997615814209,3.1415915489196777,0.0,0.0,0.0
1759829786.2437572,0,6.103515488575795e-07,5.999997615814209,3.1414672551885534,0.0,True,0.010953903198242188,6.103515488575795e-07,5.999997615814209,3.1415915489196777,0.0,0.0,0.0
1759829786.2546031,0,6.103515488575795e-07,5.999997615814209,3.1414714741494656,0.0,True,0.01084589958190918,6.103515488575795e-07,5.999997615814209,3.1415915489196777,0.0,0.0,0.0
1759829786.2688935,0,6.103515488575795e-07,5.999997615814209,3.1414672349412776,0.0,True,0.014290332794189453,6.103515488575795e-07,5.999997615814209,3.1415915489196777,0.0,0.0,0.0
1759829786.279824,0,6.103515488575795e-07,5.999997615814209,3.1414733814125135,0.0,True,0.010930538177490234,6.103515488575795e-07,5.999997615814209,3.1415915489196777,0.0,0.0,0.0
1759829786.2910535,0,6.103515488575795e-07,5.999997615814209,3.1414787261922275,0.0,True,0.011229515075683594,6.103515488575795e-07,5.999997615814209,3.1415915489196777,0.0,0.0,0.0
1759829786.3014812,0,6.103515488575795e-07,5.999997615814209,3.141485268785951,0.0,True,0.010427713394165039,6.103515488575795e-07,5.999997615814209,3.1415915489196777,0.0,0.0,0.0
1759829786.3122268,0,6.103515488575795e-07,5.999997615814209,3.1414901956101993,0.0,True,0.010745525360107422,6.103515488575795e-07,5.999997615814209,3.1415915489196777,0.0,0.0,0.0
1759829786.3224034,0,6.103515488575795e-07,5.999997615814209,3.1414956429913197,0.0,True,0.010176658630371094,6.103515488575795e-07,5.999997615814209,3.1415915489196777,0.0,0.0,0.0
1759829786.3338857,0,6.103515488575795e-07,5.999997615814209,3.1414977582917416,0.0,True,0.01148223876953125,6.103515488575795e-07,5.999997615814209,3.1415915489196777,0.0,0.0,0.0
1759829786.344394,0,6.103515488575795e-07,5.999997615814209,3.1415018412992737,0.0,True,0.010508298873901367,6.103515488575795e-07,5.999997615814209,3.1415915489196777,0.0,0.0,0.0
1759829786.355961,0,6.103515488575795e-07,5.999997615814209,3.1415036897291113,0.0,True,0.011567115783691406,6.103515488575795e-07,5.999997615814209,3.1415915489196777,0.0,0.0,0.0
1759829786.3661418,0,6.103515488575795e-07,5.999997615814209,3.1415081973963623,0.0,True,0.01018071174621582,6.103515488575795e-07,5.999997615814209,3.1415915489196777,0.0,0.0,0.0
1759829786.376208,0,6.103515488575795e-07,5.999997615814209,3.1415124168421826,0.0,True,0.01006627082824707,6.103515488575795e-07,5.999997615814209,3.1415915489196777,0.0,0.0,0.0
1759829786.3868084,0,6.103515488575795e-07,5.999997615814209,3.141515142256626,0.0,True,0.01060032844543457,6.103515488575795e-07,5.999997615814209,3.1415915489196777,0.0,0.0,0.0
1759829786.397177,0,6.103515488575795e-07,5.999997615814209,3.1415180290450184,0.0,True,0.010368585586547852,6.103515488575795e-07,5.999997615814209,3.1415915489196777,0.0,0.0,0.0
1759829786.4084656,0,6.103515488575795e-07,5.999997615814209,3.1415192838352475,0.0,True,0.011288642883300781,6.103515488575795e-07,5.999997615814209,3.1415915489196777,0.0,0.0,0.0
1759829786.419826,0,6.103515488575795e-07,5.999997615814209,3.1415206812467744,0.0,True,0.011360406875610352,6.103515488575795e-07,5.999997615814209,3.1415915489196777,0.0,0.0,0.0
1759829786.4301674,0,6.103515488575795e-07,5.999997615814209,3.14152384511436,0.0,True,0.010341405868530273,6.103515488575795e-07,5.999997615814209,3.1415915489196777,0.0,0.0,0.0
1759829786.4412398,0,6.103515488575795e-07,5.999997615814209,3.1415257392225744,0.0,True,0.011072397232055664,6.103515488575795e-07,5.999997615814209,3.1415915489196777,0.0,0.0,0.0
1759829786.4514513,0,6.103515488575795e-07,5.999997615814209,3.14152878806615,0.0,True,0.010211467742919922,6.103515488575795e-07,5.999997615814209,3.1415915489196777,0.0,0.0,0.0
1759829786.4627411,0,6.103515488575795e-07,5.999997615814209,3.1415301279110253,0.0,True,0.011289834976196289,6.103515488575795e-07,5.999997615814209,3.1415915489196777,0.0,0.0,0.0
1759829786.4752233,0,6.103515488575795e-07,5.999997615814209,3.1415300948751295,0.0,True,0.012482166290283203,6.103515488575795e-07,5.999997615814209,3.1415915489196777,0.0,0.0,0.0
1759829786.4856396,0,6.103515488575795e-07,5.999997615814209,3.141533189082594,0.0,True,0.010416269302368164,6.103515488575795e-07,5.999997615814209,3.1415915489196777,0.0,0.0,0.0
1759829786.4971101,0,6.103515488575795e-07,5.999997615814209,3.141534825539539,0.0,True,0.011470556259155273,6.103515488575795e-07,5.999997615814209,3.1415915489196777,0.0,0.0,0.0
1759829786.508152,0,6.103515488575795e-07,5.999997615814209,3.141536947880299,0.0,True,0.011041879653930664,6.103515488575795e-07,5.999997615814209,3.1415915489196777,0.0,0.0,0.0
1759829786.5193896,0,6.103515488575795e-07,5.999997615814209,3.141538776804026,0.0,True,0.011237621307373047,6.103515488575795e-07,5.999997615814209,3.1415915489196777,0.0,0.0,0.0
1759829786.5305111,0,6.103515488575795e-07,5.999997615814209,3.1415406835420896,0.0,True,0.011121511459350586,6.103515488575795e-07,5.999997615814209,3.1415915489196777,0.0,0.0,0.0
1759829786.541216,0,6.103515488575795e-07,5.999997615814209,3.1415429364710974,0.0,True,0.010704755783081055,6.103515488575795e-07,5.999997615814209,3.1415915489196777,0.0,0.0,0.0
1759829786.5515637,0,6.103515488575795e-07,5.999997615814209,3.1415453277541765,0.0,True,0.010347843170166016,6.103515488575795e-07,5.999997615814209,3.1415915489196777,0.0,0.0,0.0
1759829786.5627155,0,6.103515488575795e-07,5.999997615814209,3.141546658178708,0.0,True,0.011151790618896484,6.103515488575795e-07,5.999997615814209,3.1415915489196777,0.0,0.0,0.0
1759829786.5741973,0,6.103515488575795e-07,5.999997615814209,3.1415476680399728,0.0,True,0.011481761932373047,6.103515488575795e-07,5.999997615814209,3.1415915489196777,0.0,0.0,0.0
1759829786.5845244,0,6.103515488575795e-07,5.999997615814209,3.141549813759159,0.0,True,0.01032710075378418,6.103515488575795e-07,5.999997615814209,3.1415915489196777,0.0,0.0,0.0
1759829786.5958426,0,6.103515488575795e-07,5.999997615814209,3.1415509057067723,0.0,True,0.011318206787109375,6.103515488575795e-07,5.999997615814209,3.1415915489196777,0.0,0.0,0.0
1759829786.60732,0,6.103515488575795e-07,5.999997615814209,3.141551885867525,0.0,True,0.011477470397949219,6.103515488575795e-07,5.999997615814209,3.1415915489196777,0.0,0.0,0.0
1759829786.6179247,0,6.103515488575795e-07,5.999997615814209,3.1415536557995605,0.0,True,0.010604619979858398,6.103515488575795e-07,5.999997615814209,3.1415915489196777,0.0,0.0,0.0
1759829786.629073,0,6.103515488575795e-07,5.999997615814209,3.141554869732996,0.0,True,0.011148214340209961,6.103515488575795e-07,5.999997615814209,3.1415915489196777,0.0,0.0,0.0
1759829786.6404276,0,6.103515488575795e-07,5.999997615814209,3.141555894180737,0.0,True,0.011354684829711914,6.103515488575795e-07,5.999997615814209,3.1415915489196777,0.0,0.0,0.0
1759829786.65082,0,6.103515488575795e-07,5.999997615814209,3.141557638398494,0.0,True,0.010392427444458008,6.103515488575795e-07,5.999997615814209,3.1415915489196777,0.0,0.0,0.0
1759829786.662184,0,6.103515488575795e-07,5.999997615814209,3.1415585334638294,0.0,True,0.011363983154296875,6.103515488575795e-07,5.999997615814209,3.1415915489196777,0.0,0.0,0.0
1759829786.674261,0,6.103515488575795e-07,5.999997615814209,3.1415589739078342,0.0,True,0.012077093124389648,6.103515488575795e-07,5.999997615814209,3.1415915489196777,0.0,0.0,0.0
1759829786.6842642,0,6.103515488575795e-07,5.999997615814209,3.1415609294632034,0.0,True,0.010003089904785156,6.103515488575795e-07,5.999997615814209,3.1415915489196777,0.0,0.0,0.0
1759829786.6955888,0,6.103515488575795e-07,5.999997615814209,3.141561826291058,0.0,True,0.011324644088745117,6.103515488575795e-07,5.999997615814209,3.1415915489196777,0.0,0.0,0.0
1759829786.706163,0,6.103515488575795e-07,5.999997615814209,3.1415631348198083,0.0,True,0.010574102401733398,6.103515488575795e-07,5.999997615814209,3.1415915489196777,0.0,0.0,0.0
1759829786.7174368,0,6.103515488575795e-07,5.999997615814209,3.14156392874019,0.0,True,0.011273860931396484,6.103515488575795e-07,5.999997615814209,3.1415915489196777,0.0,0.0,0.0
1759829786.7288063,0,6.103515488575795e-07,5.999997615814209,3.141564675486128,0.0,True,0.011369466781616211,6.103515488575795e-07,5.999997615814209,3.1415915489196777,0.0,0.0,0.0
1759829786.7397957,0,6.103515488575795e-07,5.999997615814209,3.141565667109516,0.0,True,0.01098942756652832,6.103515488575795e-07,5.999997615814209,3.1415915489196777,0.0,0.0,0.0
1759829786.7511592,0,6.103515488575795e-07,5.999997615814209,3.1415664292430527,0.0,True,0.011363506317138672,6.103515488575795e-07,5.999997615814209,3.1415915489196777,0.0,0.0,0.0
1759829786.76169,0,6.103515488575795e-07,5.999997615814209,3.1415676142470925,0.0,True,0.010530710220336914,6.103515488575795e-07,5.999997615814209,3.1415915489196777,0.0,0.0,0.0
1759829786.7729084,0,6.103515488575795e-07,5.999997615814209,3.141568351588642,0.0,True,0.011218547821044922,6.103515488575795e-07,5.999997615814209,3.1415915489196777,0.0,0.0,0.0
1759829786.7832634,0,6.103515488575795e-07,5.999997615814209,3.141569470091909,0.0,True,0.010354995727539062,6.103515488575795e-07,5.999997615814209,3.1415915489196777,0.0,0.0,0.0
1759829786.794564,0,6.103515488575795e-07,5.999997615814209,3.141570043245032,0.0,True,0.01130056381225586,6.103515488575795e-07,5.999997615814209,3.1415915489196777,0.0,0.0,0.0
1759829786.805263,0,6.103515488575795e-07,5.999997615814209,3.1415708866986325,0.0,True,0.010699033737182617,6.103515488575795e-07,5.999997615814209,3.1415915489196777,0.0,0.0,0.0
1759829786.8156817,0,6.103515488575795e-07,5.999997615814209,3.141571799244268,0.0,True,0.01041865348815918,6.103515488575795e-07,5.999997615814209,3.1415915489196777,0.0,0.0,0.0
1759829786.8271432,0,6.103515488575795e-07,5.999997615814209,3.1415721935251746,0.0,True,0.011461496353149414,6.103515488575795e-07,5.999997615814209,3.1415915489196777,0.0,0.0,0.0
1759829786.8386393,0,6.103515488575795e-07,5.999997615814209,3.1415726224995666,0.0,True,0.01149606704711914,6.103515488575795e-07,5.999997615814209,3.1415915489196777,0.0,0.0,0.0
1759829786.849805,0,6.103515488575795e-07,5.999997615814209,3.1415732415978415,0.0,True,0.011165857315063477,6.103515488575795e-07,5.999997615814209,3.1415915489196777,0.0,0.0,0.0
1759829786.860895,0,6.103515488575795e-07,5.999997615814209,3.1415738919180747,0.0,True,0.011089801788330078,6.103515488575795e-07,5.999997615814209,3.1415915489196777,0.0,0.0,0.0
1759829786.8722684,0,6.103515488575795e-07,5.999997615814209,3.1415744201503415,0.0,True,0.011373519897460938,6.103515488575795e-07,5.999997615814209,3.1415915489196777,0.0,0.0,0.0
1759829786.8833764,0,6.103515488575795e-07,5.999997615814209,3.141575044128148,0.0,True,0.011107921600341797,6.103515488575795e-07,5.999997615814209,3.1415915489196777,0.0,0.0,0.0
1759829786.8940654,0,6.103515488575795e-07,5.999997615814209,3.141575782302745,0.0,True,0.010689020156860352,6.103515488575795e-07,5.999997615814209,3.1415915489196777,0.0,0.0,0.0
1759829786.904105,0,6.103515488575795e-07,5.999997615814209,3.141576654754159,0.0,True,0.010039567947387695,6.103515488575795e-07,5.999997615814209,3.1415915489196777,0.0,0.0,0.0
1759829786.914211,0,6.103515488575795e-07,5.999997615814209,3.141577377908506,0.0,True,0.010106086730957031,6.103515488575795e-07,5.999997615814209,3.1415915489196777,0.0,0.0,0.0
1759829786.9247177,0,6.103515488575795e-07,5.999997615814209,3.1415778765561697,0.0,True,0.010506629943847656,6.103515488575795e-07,5.999997615814209,3.1415915489196777,0.0,0.0,0.0
1759829786.9350169,0,6.103515488575795e-07,5.999997615814209,3.1415783942915283,0.0,True,0.010299205780029297,6.103515488575795e-07,5.999997615814209,3.1415915489196777,0.0,0.0,0.0
1759829786.945661,0,6.103515488575795e-07,5.999997615814209,3.1415787757047013,0.0,True,0.010644197463989258,6.103515488575795e-07,5.999997615814209,3.1415915489196777,0.0,0.0,0.0
1759829786.9567797,0,6.103515488575795e-07,5.999997615814209,3.141579023002432,0.0,True,0.011118650436401367,6.103515488575795e-07,5.999997615814209,3.1415915489196777,0.0,0.0,0.0
1759829786.967445,0,6.103515488575795e-07,5.999997615814209,3.1415794275385505,0.0,True,0.010665178298950195,6.103515488575795e-07,5.999997615814209,3.1415915489196777,0.0,0.0,0.0
1759829786.9783657,0,6.103515488575795e-07,5.999997615814209,3.1415797662669487,0.0,True,0.01092076301574707,6.103515488575795e-07,5.999997615814209,3.1415915489196777,0.0,0.0,0.0
1759829786.9883676,0,6.103515488575795e-07,5.999997615814209,3.141580334787731,0.0,True,0.010001897811889648,6.103515488575795e-07,5.999997615814209,3.1415915489196777,0.0,0.0,0.0
1759829786.9983811,0,6.103515488575795e-07,5.999997615814209,3.141580837465007,0.0,True,0.010013580322265625,6.103515488575795e-07,5.999997615814209,3.1415915489196777,0.0,0.0,0.0
1759829787.0096467,0,6.103515488575795e-07,5.999997615814209,3.1415809892084283,0.0,True,0.01126551628112793,6.103515488575795e-07,5.999997615814209,3.1415915489196777,0.0,0.0,0.0
1759829787.0211074,0,6.103515488575795e-07,5.999997615814209,3.141581136975475,0.0,True,0.01146078109741211,6.103515488575795e-07,5.999997615814209,3.1415915489196777,0.0,0.0,0.0
1759829787.0320644,0,6.103515488575795e-07,5.999997615814209,3.1415814532655215,0.0,True,0.010957002639770508,6.103515488575795e-07,5.999997615814209,3.1415915489196777,0.0,0.0,0.0
1759829787.0436778,0,6.103515488575795e-07,5.999997615814209,3.1415816466791178,0.0,True,0.01161336898803711,6.103515488575795e-07,5.999997615814209,3.1415915489196777,0.0,0.0,0.0
1759829787.053718,0,6.103515488575795e-07,5.999997615814209,3.1415821888246462,0.0,True,0.010040283203125,6.103515488575795e-07,5.999997615814209,3.1415915489196777,0.0,0.0,0.0
1759829787.0645905,0,6.103515488575795e-07,5.999997615814209,3.1415825079488524,0.0,True,0.010872364044189453,6.103515488575795e-07,5.999997615814209,3.1415915489196777,0.0,0.0,0.0
1759829787.0752819,0,6.103515488575795e-07,5.999997615814209,3.1415828375338677,0.0,True,0.010691404342651367,6.103515488575795e-07,5.999997615814209,3.1415915489196777,0.0,0.0,0.0
1759829787.0856874,0,6.103515488575795e-07,5.999997615814209,3.1415832003318727,0.0,True,0.010405540466308594,6.103515488575795e-07,5.999997615814209,3.1415915489196777,0.0,0.0,0.0
1759829787.0964706,0,6.103515488575795e-07,5.999997615814209,3.141583464950539,0.0,True,0.010783195495605469,6.103515488575795e-07,5.999997615814209,3.1415915489196777,0.0,0.0,0.0
1759829787.1080096,0,6.103515488575795e-07,5.999997615814209,3.1415835939164936,0.0,True,0.011538982391357422,6.103515488575795e-07,5.999997615814209,3.1415915489196777,0.0,0.0,0.0
1759829787.1185815,0,6.103515488575795e-07,5.999997615814209,3.141583914095879,0.0,True,0.010571956634521484,6.103515488575795e-07,5.999997615814209,3.1415915489196777,0.0,0.0,0.0
1759829787.130035,0,6.103515488575795e-07,5.999997615814209,3.1415840814439218,0.0,True,0.011453390121459961,6.103515488575795e-07,5.999997615814209,3.1415915489196777,0.0,0.0,0.0
1759829787.1413922,0,6.103515488575795e-07,5.999997615814209,3.14158428065657,0.0,True,0.011357307434082031,6.103515488575795e-07,5.999997615814209,3.1415915489196777,0.0,0.0,0.0
1759829787.15264,0,6.103515488575795e-07,5.999997615814209,3.1415845110980207,0.0,True,0.011247873306274414,6.103515488575795e-07,5.999997615814209,3.1415915489196777,0.0,0.0,0.0
1759829787.164033,0,6.103515488575795e-07,5.999997615814209,3.1415847240611594,0.0,True,0.011392831802368164,6.103515488575795e-07,5.999997615814209,3.1415915489196777,0.0,0.0,0.0
1759829787.1752768,0,6.103515488575795e-07,5.999997615814209,3.1415849612251705,0.0,True,0.011243820190429688,6.103515488575795e-07,5.999997615814209,3.1415915489196777,0.0,0.0,0.0
1759829787.1861403,0,6.103515488575795e-07,5.999997615814209,3.1415852430122584,0.0,True,0.010863542556762695,6.103515488575795e-07,5.999997615814209,3.1415915489196777,0.0,0.0,0.0
1759829787.1964364,0,6.103515488575795e-07,5.999997615814209,3.14158557303681,0.0,True,0.010296106338500977,6.103515488575795e-07,5.999997615814209,3.1415915489196777,0.0,0.0,0.0
1759829787.207841,0,6.103515488575795e-07,5.999997615814209,3.1415857248639263,0.0,True,0.01140451431274414,6.103515488575795e-07,5.999997615814209,3.1415915489196777,0.0,0.0,0.0
1759829787.217967,0,6.103515488575795e-07,5.999997615814209,3.1415860288740802,0.0,True,0.010126113891601562,6.103515488575795e-07,5.999997615814209,3.1415915489196777,0.0,0.0,0.0
1759829787.2282805,0,6.103515488575795e-07,5.999997615814209,3.141586276191994,0.0,True,0.01031351089477539,6.103515488575795e-07,5.999997615814209,3.1415915489196777,0.0,0.0,0.0
1759829787.2385838,0,6.103515488575795e-07,5.999997615814209,3.1415864933198137,0.0,True,0.010303258895874023,6.103515488575795e-07,5.999997615814209,3.1415915489196777,0.0,0.0,0.0
1759829787.2497203,0,6.103515488575795e-07,5.999997615814209,3.1415865991993783,0.0,True,0.011136531829833984,6.103515488575795e-07,5.999997615814209,3.1415915489196777,0.0,0.0,0.0
1759829787.2760348,0,6.103515488575795e-07,5.999997615814209,3.1415852318420185,0.0,True,0.026314496994018555,6.103515488575795e-07,5.999997615814209,3.1415915489196777,0.0,0,0
1759829787.2846384,0,6.103515488575795e-07,5.999997615814209,3.1415860402573514,0.0,True,0.008603572845458984,6.103515488575795e-07,5.999997615814209,3.1415915489196777,0.0,0,0
1759829787.2949834,0,6.103515488575795e-07,5.999997615814209,3.1415865973016537,0.0,True,0.010344982147216797,6.103515488575795e-07,5.999997615814209,3.1415915489196777,0.0,0,0
1759829787.3060274,0,6.103515488575795e-07,5.999997615814209,3.141586952187378,0.0,True,0.011044025421142578,6.103515488575795e-07,5.999997615814209,3.1415915489196777,0.0,0,0
1759829787.3166783,0,6.103515488575795e-07,5.999997615814209,3.1415872638905107,0.0,True,0.010650873184204102,6.103515488575795e-07,5.999997615814209,3.1415915489196777,0.0,0,0
1759829787.3273215,0,6.103515488575795e-07,5.999997615814209,3.1415875179622113,0.0,True,0.010643243789672852,6.103515488575795e-07,5.999997615814209,3.1415915489196777,0.0,0,0
1759829787.337793,0,6.103515488575795e-07,5.999997615814209,3.1415877416502784,0.0,True,0.010471582412719727,6.103515488575795e-07,5.999997615814209,3.1415915489196777,0.0,0,0
1759829787.3491685,0,6.103515488575795e-07,5.999997615814209,3.141587861580142,0.0,True,0.01137542724609375,6.103515488575795e-07,5.999997615814209,3.1415915489196777,0.0,0,0
1759829787.3595653,0,6.103515488575795e-07,5.999997615814209,3.141588046797656,0.0,True,0.010396718978881836,6.103515488575795e-07,5.999997615814209,3.1415915489196777,0.0,0,0
1759829787.370084,0,6.103515488575795e-07,5.999997615814209,3.141588201809652,0.0,True,0.010518789291381836,6.103515488575795e-07,5.999997615814209,3.1415915489196777,0.0,0,0
1759829787.3816292,0,6.103515488575795e-07,5.999997615814209,3.141588267950663,0.0,True,0.011545181274414062,6.103515488575795e-07,5.999997615814209,3.1415915489196777,0.0,0,0
1759829787.3930612,0,6.103515488575795e-07,5.999997615814209,3.141588349434814,0.0,True,0.01143193244934082,6.103515488575795e-07,5.999997615814209,3.1415915489196777,0.0,0,0
1759829787.4035635,0,6.103515488575795e-07,5.999997615814209,3.141588497953906,0.0,True,0.010502338409423828,6.103515488575795e-07,5.999997615814209,3.1415915489196777,0.0,0,0
1759829787.4150891,0,6.103515488575795e-07,5.999997615814209,3.141588569684753,0.0,True,0.011525630950927734,6.103515488575795e-07,5.999997615814209,3.1415915489196777,0.0,0,0
1759829787.4254146,0,6.103515488575795e-07,5.999997615814209,3.141588716494729,0.0,True,0.010325431823730469,6.103515488575795e-07,5.999997615814209,3.1415915489196777,0.0,0,0
1759829787.436881,0,6.103515488575795e-07,5.999997615814209,3.1415887823662416,0.0,True,0.011466503143310547,6.103515488575795e-07,5.999997615814209,3.1415915489196777,0.0,0,0
1759829787.4470317,0,6.103515488575795e-07,5.999997615814209,3.1415889243257187,0.0,True,0.010150671005249023,6.103515488575795e-07,5.999997615814209,3.1415915489196777,0.0,0,0
1759829787.45804,0,6.103515488575795e-07,5.999997615814209,3.141589004006274,0.0,True,0.011008262634277344,6.103515488575795e-07,5.999997615814209,3.1415915489196777,0.0,0,0
1759829787.469118,0,6.103515488575795e-07,5.999997615814209,3.141589076530728,0.0,True,0.011078119277954102,6.103515488575795e-07,5.999997615814209,3.1415915489196777,0.0,0,0
1759829787.4837387,0,6.103515488575795e-07,5.999997615814209,3.1415889746377665,0.0,True,0.014620542526245117,6.103515488575795e-07,5.999997615814209,3.1415915489196777,0.0,0,0
1759829787.494408,0,6.103515488575795e-07,5.999997615814209,3.141589118448193,0.0,True,0.010669231414794922,6.103515488575795e-07,5.999997615814209,3.1415915489196777,0.0,0,0
1759829787.5058713,0,6.103515488575795e-07,5.999997615814209,3.141589218283661,0.0,True,0.011463403701782227,6.103515488575795e-07,5.999997615814209,3.1415915489196777,0.0,0,0
1759829787.5162573,0,6.103515488575795e-07,5.999997615814209,3.1415893566664472,0.0,True,0.010385990142822266,6.103515488575795e-07,5.999997615814209,3.1415915489196777,0.0,0,0
1759829787.5267162,0,6.103515488575795e-07,5.999997615814209,3.1415894715534467,0.0,True,0.010458946228027344,6.103515488575795e-07,5.999997615814209,3.1415915489196777,0.0,0,0
1759829787.536884,0,6.103515488575795e-07,5.999997615814209,3.1415895809891587,0.0,True,0.010167837142944336,6.103515488575795e-07,5.999997615814209,3.1415915489196777,0.0,0,0
1759829787.5480852,0,6.103515488575795e-07,5.999997615814209,3.141589632169868,0.0,True,0.011201143264770508,6.103515488575795e-07,5.999997615814209,3.1415915489196777,0.0,0,0
1759829787.5592606,0,6.103515488575795e-07,5.999997615814209,3.1415896841427333,0.0,True,0.011175394058227539,6.103515488575795e-07,5.999997615814209,3.1415915489196777,0.0,0,0
1759829787.570868,0,6.103515488575795e-07,5.999997615814209,3.1415897223152456,0.0,True,0.01160740852355957,6.103515488575795e-07,5.999997615814209,3.1415915489196777,0.0,0,0
1759829787.5822186,0,6.103515488575795e-07,5.999997615814209,3.1415897761778933,0.0,True,0.011350631713867188,6.103515488575795e-07,5.999997615814209,3.1415915489196777,0.0,0,0
1759829787.5925736,0,6.103515488575795e-07,5.999997615814209,3.141589867070488,0.0,True,0.010354995727539062,6.103515488575795e-07,5.999997615814209,3.1415915489196777,0.0,0,0
1759829787.6027043,0,6.103515488575795e-07,5.999997615814209,3.1415899550197626,0.0,True,0.010130643844604492,6.103515488575795e-07,5.999997615814209,3.1415915489196777,0.0,0,0
1759829787.6141288,0,6.103515488575795e-07,5.999997615814209,3.14158998736184,0.0,True,0.011424541473388672,6.103515488575795e-07,5.999997615814209,3.1415915489196777,0.0,0,0
1759829787.6243544,0,6.103515488575795e-07,5.999997615814209,3.141590060361569,0.0,True,0.010225534439086914,6.103515488575795e-07,5.999997615814209,3.1415915489196777,0.0,0,0
1759829787.6346722,0,6.103515488575795e-07,5.999997615814209,3.1415901236696993,0.0,True,0.010317802429199219,6.103515488575795e-07,5.999997615814209,3.1415915489196777,0.0,0,0
1759829787.6447442,0,6.103515488575795e-07,5.999997615814209,3.141590187115547,0.0,True,0.010071992874145508,6.103515488575795e-07,5.999997615814209,3.1415915489196777,0.0,0,0
1759829787.6562414,0,6.103515488575795e-07,5.999997615814209,3.1415902017735853,0.0,True,0.011497259140014648,6.103515488575795e-07,5.999997615814209,3.1415915489196777,0.0,0,0
1759829787.6667042,0,6.103515488575795e-07,5.999997615814209,3.1415902515945824,0.0,True,0.010462760925292969,6.103515488575795e-07,5.999997615814209,3.1415915489196777,0.0,0,0
1759829787.6818223,0,6.103515488575795e-07,5.999997615814209,3.1415901757640796,0.0,True,0.015118122100830078,6.103515488575795e-07,5.999997615814209,3.1415915489196777,0.0,0,0
1759829787.6918871,0,6.103515488575795e-07,5.999997615814209,3.141590265461092,0.0,True,0.010064840316772461,6.103515488575795e-07,5.999997615814209,3.1415915489196777,0.0,0,0
1759829787.702042,0,6.103515488575795e-07,5.999997615814209,3.141590346027943,0.0,True,0.010154962539672852,6.103515488575795e-07,5.999997615814209,3.1415915489196777,0.0,0,0
1759829787.7122126,0,6.103515488575795e-07,5.999997615814209,3.1415904117450886,0.0,True,0.010170459747314453,6.103515488575795e-07,5.999997615814209,3.1415915489196777,0.0,0,0
1759829787.723567,0,6.103515488575795e-07,5.999997615814209,3.1415904390648226,0.0,True,0.011354446411132812,6.103515488575795e-07,5.999997615814209,3.1415915489196777,0.0,0,0
1759829787.7349894,0,6.103515488575795e-07,5.999997615814209,3.1415904655112783,0.0,True,0.011422395706176758,6.103515488575795e-07,5.999997615814209,3.1415915489196777,0.0,0,0
1759829787.7462976,0,6.103515488575795e-07,5.999997615814209,3.1415904973174467,0.0,True,0.01130819320678711,6.103515488575795e-07,5.999997615814209,3.1415915489196777,0.0,0,0
1759829787.757821,0,6.103515488575795e-07,5.999997615814209,3.1415905258350083,0.0,True,0.01152348518371582,6.103515488575795e-07,5.999997615814209,3.1415915489196777,0.0,0,0
1759829787.769022,0,6.103515488575795e-07,5.999997615814209,3.141590562492098,0.0,True,0.011200904846191406,6.103515488575795e-07,5.999997615814209,3.1415915489196777,0.0,0,0
1759829787.7799046,0,6.103515488575795e-07,5.999997615814209,3.1415906043884902,0.0,True,0.01088261604309082,6.103515488575795e-07,5.999997615814209,3.1415915489196777,0.0,0,0
1759829787.7901616,0,6.103515488575795e-07,5.999997615814209,3.141590654549937,0.0,True,0.01025700569152832,6.103515488575795e-07,5.999997615814209,3.1415915489196777,0.0,0,0
1759829787.8014708,0,6.103515488575795e-07,5.999997615814209,3.1415906787685035,0.0,True,0.011309146881103516,6.103515488575795e-07,5.999997615814209,3.1415915489196777,0.0,0,0
1759829787.811522,0,6.103515488575795e-07,5.999997615814209,3.1415907248400536,0.0,True,0.010051250457763672,6.103515488575795e-07,5.999997615814209,3.1415915489196777,0.0,0,0
1759829787.8227742,0,6.103515488575795e-07,5.999997615814209,3.141590744870088,0.0,True,0.011252164840698242,6.103515488575795e-07,5.999997615814209,3.1415915489196777,0.0,0,0
1759829787.8329399,0,6.103515488575795e-07,5.999997615814209,3.1415907830742036,0.0,True,0.010165691375732422,6.103515488575795e-07,5.999997615814209,3.1415915489196777,0.0,0,0
1759829787.8443496,0,6.103515488575795e-07,5.999997615814209,3.1415907976399637,0.0,True,0.011409759521484375,6.103515488575795e-07,5.999997615814209,3.1415915489196777,0.0,0,0
1759829787.8559113,0,6.103515488575795e-07,5.999997615814209,3.1415908117039066,0.0,True,0.01156163215637207,6.103515488575795e-07,5.999997615814209,3.1415915489196777,0.0,0,0
1759829787.867343,0,6.103515488575795e-07,5.999997615814209,3.1415908309894576,0.0,True,0.011431694030761719,6.103515488575795e-07,5.999997615814209,3.1415915489196777,0.0,0,0
1759829787.8804445,0,6.103515488575795e-07,5.999997615814209,3.1415908285405614,0.0,True,0.013101577758789062,6.103515488575795e-07,5.999997615814209,3.1415915489196777,0.0,0,0
1759829787.8908985,0,6.103515488575795e-07,5.999997615814209,3.1415908703711253,0.0,True,0.010453939437866211,6.103515488575795e-07,5.999997615814209,3.1415915489196777,0.0,0,0
1759829787.90233,0,6.103515488575795e-07,5.999997615814209,3.14159089531446,0.0,True,0.011431455612182617,6.103515488575795e-07,5.999997615814209,3.1415915489196777,0.0,0,0
1759829787.9137182,0,6.103515488575795e-07,5.999997615814209,3.14159091893373,0.0,True,0.011388301849365234,6.103515488575795e-07,5.999997615814209,3.1415915489196777,0.0,0,0
1759829787.923947,0,6.103515488575795e-07,5.999997615814209,3.1415909557979376,0.0,True,0.010228872299194336,6.103515488575795e-07,5.999997615814209,3.1415915489196777,0.0,0,0
1759829787.9353204,0,6.103515488575795e-07,5.999997615814209,3.1415909739164594,0.0,True,0.011373281478881836,6.103515488575795e-07,5.999997615814209,3.1415915489196777,0.0,0,0
1759829787.9462957,0,6.103515488575795e-07,5.999997615814209,3.1415909957779835,0.0,True,0.010975360870361328,6.103515488575795e-07,5.999997615814209,3.1415915489196777,0.0,0,0
1759829787.9579082,0,6.103515488575795e-07,5.999997615814209,3.141591009530366,0.0,True,0.011612415313720703,6.103515488575795e-07,5.999997615814209,3.1415915489196777,0.0,0,0
1759829787.9680033,0,6.103515488575795e-07,5.999997615814209,3.1415910402974756,0.0,True,0.01009511947631836,6.103515488575795e-07,5.999997615814209,3.1415915489196777,0.0,0,0
1759829787.9793148,0,6.103515488575795e-07,5.999997615814209,3.1415910545823262,0.0,True,0.011311531066894531,6.103515488575795e-07,5.999997615814209,3.1415915489196777,0.0,0,0
1759829787.9905908,0,6.103515488575795e-07,5.999997615814209,3.1415910688720654,0.0,True,0.011276006698608398,6.103515488575795e-07,5.999997615814209,3.1415915489196777,0.0,0,0
1759829788.0021448,0,6.103515488575795e-07,5.999997615814209,3.141591080945492,0.0,True,0.01155400276184082,6.103515488575795e-07,5.999997615814209,3.1415915489196777,0.0,0,0
1759829788.0124393,0,6.103515488575795e-07,5.999997615814209,3.1415911056280823,0.0,True,0.010294437408447266,6.103515488575795e-07,5.999997615814209,3.1415915489196777,0.0,0,0
1759829788.0238473,0,6.103515488575795e-07,5.999997615814209,3.1415911175230455,0.0,True,0.011408090591430664,6.103515488575795e-07,5.999997615814209,3.1415915489196777,0.0,0,0
1759829788.0352733,0,6.103515488575795e-07,5.999997615814209,3.141591129283743,0.0,True,0.011425971984863281,6.103515488575795e-07,5.999997615814209,3.1415915489196777,0.0,0,0
1759829788.0457702,0,6.103515488575795e-07,5.999997615814209,3.1415911494083613,0.0,True,0.010496854782104492,6.103515488575795e-07,5.999997615814209,3.1415915489196777,0.0,0,0
1759829788.0559118,0,6.103515488575795e-07,5.999997615814209,3.141591170373246,0.0,True,0.010141611099243164,6.103515488575795e-07,5.999997615814209,3.1415915489196777,0.0,0,0
1759829788.0660384,0,6.103515488575795e-07,5.999997615814209,3.1415911884274728,0.0,True,0.010126590728759766,6.103515488575795e-07,5.999997615814209,3.1415915489196777,0.0,0,0
1759829788.085151,0,6.103515488575795e-07,5.999997615814209,3.1415911374929912,0.0,True,0.019112586975097656,6.103515488575795e-07,5.999997615814209,3.1415915489196777,0.0,0,0
1759829788.0896845,0,6.103515488575795e-07,5.999997615814209,3.141591209613349,0.0,True,0.004533529281616211,6.103515488575795e-07,5.999997615814209,3.1415915489196777,0.0,0,0
1759829788.1009414,0,6.103515488575795e-07,5.999997615814209,3.141591221074794,0.0,True,0.011256933212280273,6.103515488575795e-07,5.999997615814209,3.1415915489196777,0.0,0,0
1759829788.1111765,0,6.103515488575795e-07,5.999997615814209,3.1415912357185665,0.0,True,0.010235071182250977,6.103515488575795e-07,5.999997615814209,3.1415915489196777,0.0,0,0
1759829788.1226463,0,6.103515488575795e-07,5.999997615814209,3.141591240774673,0.0,True,0.011469841003417969,6.103515488575795e-07,5.999997615814209,3.1415915489196777,0.0,0,0
1759829788.1337948,0,6.103515488575795e-07,5.999997615814209,3.1415912488748816,0.0,True,0.011148452758789062,6.103515488575795e-07,5.999997615814209,3.1415915489196777,0.0,0,0
1759829788.1441524,0,6.103515488575795e-07,5.999997615814209,3.1415912624167337,0.0,True,0.01035761833190918,6.103515488575795e-07,5.999997615814209,3.1415915489196777,0.0,0,0
1759829788.1554089,0,6.103515488575795e-07,5.999997615814209,3.141591269421678,0.0,True,0.01125645637512207,6.103515488575795e-07,5.999997615814209,3.1415915489196777,0.0,0,0
1759829788.1661036,0,6.103515488575795e-07,5.999997615814209,3.141591279877977,0.0,True,0.010694742202758789,6.103515488575795e-07,5.999997615814209,3.1415915489196777,0.0,0,0
1759829788.177424,0,6.103515488575795e-07,5.999997615814209,3.1415912864208657,0.0,True,0.011320352554321289,6.103515488575795e-07,5.999997615814209,3.1415915489196777,0.0,0,0
1759829788.1878738,0,6.103515488575795e-07,5.999997615814209,3.141591297982721,0.0,True,0.010449886322021484,6.103515488575795e-07,5.999997615814209,3.1415915489196777,0.0,0,0
1759829788.1979978,0,6.103515488575795e-07,5.999997615814209,3.1415913102567465,0.0,True,0.010123968124389648,6.103515488575795e-07,5.999997615814209,3.1415915489196777,0.0,0,0
1759829788.2096279,0,6.103515488575795e-07,5.999997615814209,3.141591313435452,0.0,True,0.011630058288574219,6.103515488575795e-07,5.999997615814209,3.1415915489196777,0.0,0,0
1759829788.2210066,0,6.103515488575795e-07,5.999997615814209,3.1415913187716793,0.0,True,0.011378765106201172,6.103515488575795e-07,5.999997615814209,3.1415915489196777,0.0,0,0
1759829788.2314568,0,6.103515488575795e-07,5.999997615814209,3.141591329214192,0.0,True,0.010450124740600586,6.103515488575795e-07,5.999997615814209,3.1415915489196777,0.0,0,0
1759829788.242381,0,6.103515488575795e-07,5.999997615814209,3.1415913366454262,0.0,True,0.010924339294433594,6.103515488575795e-07,5.999997615814209,3.1415915489196777,0.0,0,0
1759829788.2526076,0,6.103515488575795e-07,5.999997615814209,3.1415913466919854,0.0,True,0.01022648811340332,6.103515488575795e-07,5.999997615814209,3.1415915489196777,0.0,0,0
1759829788.2641027,0,6.103515488575795e-07,5.999997615814209,3.141591350315565,0.0,True,0.011495113372802734,6.103515488575795e-07,5.999997615814209,3.1415915489196777,0.0,0,0
1759829788.274513,0,6.103515488575795e-07,5.999997615814209,3.1415913588711053,0.0,True,0.010410308837890625,6.103515488575795e-07,5.999997615814209,3.1415915489196777,0.0,0.0,0.20049513410304257
1759829788.2856536,0,-5.135939324958644e-05,5.999997615816586,3.1415913639717292,0.00043147857054634243,True,0.011140584945678711,-8.050761971389875e-05,5.999997615814209,3.1415915489196777,0.00043147857054634243,0.0,0.2018165543271119
1759829788.2962072,0,-7.111332803680262e-05,5.9999976158173585,3.141591371351831,0.00043147857054634243,True,0.010553598403930664,-8.050761971389875e-05,5.999997615814209,3.1415915489196777,0.00043147857054634243,0.0,0.20513859715274452
1759829788.3076506,0,-7.880530418092333e-05,5.999997615817829,3.141591375010904,0.00043147857054634243,True,0.011443376541137695,-8.050761971389875e-05,5.999997615814209,3.1415915489196777,0.00043147857054634243,0.0,0.20891520716392042
1759829788.3190112,0,-8.172974267822636e-05,5.9999976158179855,3.1415913794126933,0.00043147857054634243,True,0.011360645294189453,-8.050761971389875e-05,5.999997615814209,3.1415915489196777,0.00043147857054634243,0.0,0.2082312720017639
1759829788.3305633,0,-8.287833170873925e-05,5.999997615818077,3.141591383593463,0.00043147857054634243,True,0.011552095413208008,-8.050761971389875e-05,5.999997615814209,3.1415915489196777,0.00043147857054634243,0.0,0.20968524484319057
1759829788.341936,0,-8.328750474061126e-05,5.999997615818066,3.141591388792648,0.00043147857054634243,True,0.011372804641723633,-8.050761971389875e-05,5.999997615814209,3.1415915489196777,0.00043147857054634243,0.0,0.2129838393355093
1759829788.3533733,0,-8.345440425789382e-05,5.9999976158180655,3.141591393898441,0.00043147857054634243,True,0.011437177658081055,-8.050761971389875e-05,5.999997615814209,3.1415915489196777,0.00043147857054634243,0.0,0.21542681147777343
1759829788.3637424,0,-8.334211797036387e-05,5.999997615817834,3.1415914022596283,0.00043147857054634243,True,0.010369062423706055,-8.050761971389875e-05,5.999997615814209,3.1415915489196777,0.00043147857054634243,0.0,0.21663129511270282
1759829788.3750231,0,-8.344948792168299e-05,5.999997615817919,3.1415914069167705,0.00043147857054634243,True,0.01128077507019043,-8.050761971389875e-05,5.999997615814209,3.1415915489196777,0.00043147857054634243,0.0,0.21613424434838863
1759829788.3854442,0,-8.334880614574417e-05,5.999997615817766,3.1415914137954104,0.00043147857054634243,True,0.010421037673950195,-8.050761971389875e-05,5.999997615814209,3.1415915489196777,0.00043147857054634243,0.0,0.2139231052787502
1759829788.3957243,0,-8.328712649273555e-05,5.9999976158176676,3.1415914203156348,0.00043147857054634243,True,0.010280132293701172,-8.050761971389875e-05,5.999997615814209,3.1415915489196777,0.00043147857054634243,0.0,0.21157115870714194
1759829788.407179,0,-8.345716752136768e-05,5.999997615817858,3.1415914228663127,0.00043147857054634243,True,0.01145482063293457,-8.050761971389875e-05,5.999997615814209,3.1415915489196777,0.00043147857054634243,0.0,0.21148727944343976
1759829788.4174733,0,-8.333083518944068e-05,5.99999761581769,3.1415914286589004,0.00043147857054634243,True,0.010294198989868164,-8.050761971389875e-05,5.999997615814209,3.1415915489196777,0.00043147857054634243,0.0,0.20595102918979694
1759829788.4279516,0,-8.331291534722994e-05,5.999997615817653,3.1415914334879016,0.00043147857054634243,True,0.01047825813293457,-8.050761971389875e-05,5.999997615814209,3.1415915489196777,0.00043147857054634243,0.0,0.20325697045398672
1759829788.439147,0,-8.342426633129306e-05,5.999997615817776,3.141591436124884,0.00043147857054634243,True,0.01119542121887207,-8.050761971389875e-05,5.999997615814209,3.1415915489196777,0.00043147857054634243,0.0,0.20301386965678603
1759829788.4502363,0,-8.344931288088614e-05,5.999997615817796,3.1415914391931885,0.00043147857054634243,True,0.011089324951171875,-8.050761971389875e-05,5.999997615814209,3.1415915489196777,0.00043147857054634243,0.0,0.1969641079803247
1759829788.4603767,0,-8.330249048182101e-05,5.999997615817608,3.1415914445418824,0.00043147857054634243,True,0.010140419006347656,-8.050761971389875e-05,5.999997615814209,3.1415915489196777,0.00043147857054634243,0.0,0.19428042832521
1759829788.4706144,0,-8.326244118667316e-05,5.999997615817547,3.1415914490967083,0.00043147857054634243,True,0.010237693786621094,-8.050761971389875e-05,5.999997615814209,3.1415915489196777,0.00043147857054634243,0.0,0.19375004226365544
1759829788.484075,0,-0.053184833618049605,5.999979346825654,3.14159144686532,0.4066025961499365,True,0.013460636138916016,-0.08262082934379578,5.9999680519104,3.1415915489196777,0.4066025961499365,0.0,0.19265970403975496
1759829788.494787,0,-0.07304092851264712,5.999972368187627,3.141591451080945,0.4066025961499365,True,0.010711908340454102,-0.08262082934379578,5.9999680519104,3.1415915489196777,0.4066025961499365,0.0,0.18866761493422451
1759829788.5052211,0,-0.08058214379098978,5.999969702528376,3.141591455960091,0.4066025961499365,True,0.010434150695800781,-0.08262082934379578,5.9999680519104,3.1415915489196777,0.4066025961499365,0.0,0.18760984108851103
1759829788.5166738,0,-0.08362081704132171,5.99996868451968,3.1415914583678557,0.4066025961499365,True,0.011452674865722656,-0.08262082934379578,5.9999680519104,3.1415915489196777,0.4066025961499365,0.0,0.18695068886030725
1759829788.5278559,0,-0.08473945970673297,5.999968295620702,3.1415914613258806,0.4066025961499365,True,0.011182069778442383,-0.08262082934379578,5.9999680519104,3.1415915489196777,0.4066025961499365,0.0,0.18274559259588122
1759829788.5378613,0,-0.08498400802308699,5.99996814685141,3.14159146633445,0.4066025961499365,True,0.010005474090576172,-0.08262082934379578,5.9999680519104,3.1415915489196777,0.4066025961499365,0.0,0.18205882386229366
1759829788.5491726,0,-0.08528022172213126,5.999968090259986,3.1415914684495228,0.4066025961499365,True,0.01131129264831543,-0.08262082934379578,5.9999680519104,3.1415915489196777,0.4066025961499365,0.0,0.18006619929463902
1759829788.5605218,0,-0.08539925280304443,5.999968068647273,3.141591470504686,0.4066025961499365,True,0.011349201202392578,-0.08262082934379578,5.9999680519104,3.1415915489196777,0.4066025961499365,0.0,0.18004838482195304
1759829788.571885,0,-0.08544690330591415,5.999968060390898,3.141591472702803,0.4066025961499365,True,0.01136326789855957,-0.08262082934379578,5.9999680519104,3.1415915489196777,0.4066025961499365,0.0,0.17661514151381844
1759829788.5832477,0,-0.08546499309322536,5.999968057233217,3.1415914750152893,0.4066025961499365,True,0.011362552642822266,-0.08262082934379578,5.9999680519104,3.1415915489196777,0.4066025961499365,0.0,0.1769609978674948
1759829788.5947208,0,-0.08548908395534648,5.999968056043273,3.141591477221315,0.4066025961499365,True,0.01147317886352539,-0.08262082934379578,5.9999680519104,3.1415915489196777,0.4066025961499365,0.0,0.1751269252327121
1759829788.6051538,0,-0.08533673093085234,5.999968055394593,3.1415914809437613,0.4066025961499365,True,0.010432958602905273,-0.08262082934379578,5.9999680519104,3.1415915489196777,0.4066025961499365,0.0,0.1742491428528235
1759829788.6157942,0,-0.0853107519629422,5.999968055178657,3.1415914839546133,0.4066025961499365,True,0.010640382766723633,-0.08262082934379578,5.9999680519104,3.1415915489196777,0.4066025961499365,0.0,0.17319869754248277
1759829788.62597,0,-0.08522866052599952,5.999968055006773,3.1415914872230033,0.4066025961499365,True,0.010175704956054688,-0.08262082934379578,5.9999680519104,3.1415915489196777,0.4066025961499365,0.0,0.173023194225613
1759829788.6359925,0,-0.08517353215361839,5.999968054908267,3.141591490249116,0.4066025961499365,True,0.010022640228271484,-0.08262082934379578,5.9999680519104,3.1415915489196777,0.4066025961499365,0.0,0.17414510735336527
1759829788.6460326,0,-0.08515517806241041,5.999968054869136,3.141591492824679,0.4066025961499365,True,0.010040044784545898,-0.08262082934379578,5.9999680519104,3.1415915489196777,0.4066025961499365,0.0,0.17092944392219214
1759829788.656138,0,-0.08515831320536621,5.999968054862003,3.1415914949947563,0.4066025961499365,True,0.010105371475219727,-0.08262082934379578,5.9999680519104,3.1415915489196777,0.4066025961499365,0.0,0.17426375885616607
1759829788.6670053,0,-0.08527785349406886,5.999968054993124,3.141591496059476,0.4066025961499365,True,0.01086735725402832,-0.08262082934379578,5.9999680519104,3.1415915489196777,0.4066025961499365,0.0,0.17063477299780505
1759829788.6779175,0,-0.08533047516077848,5.999968055049458,3.1415914971840895,0.4066025961499365,True,0.010912179946899414,-0.08262082934379578,5.9999680519104,3.1415915489196777,0.4066025961499365,0.0,0.17213728865016542
1759829788.690715,0,-0.19606958626008197,5.9999491970354,3.141591497436403,0.8624050842225277,True,0.01279759407043457,-0.25768905878067017,5.999937534332275,3.1415915489196777,0.8624050842225277,0.0,0.16904871054081827
1759829788.701051,0,-0.23755726490170226,5.999941993009256,3.1415914993797607,0.8624050842225277,True,0.010335922241210938,-0.25768905878067017,5.999937534332275,3.1415915489196777,0.8624050842225277,0.0,0.17343674387910035
1759829788.7123258,0,-0.2537134280271859,5.9999392416753645,3.1415915006076496,0.8624050842225277,True,0.01127481460571289,-0.25768905878067017,5.999937534332275,3.1415915489196777,0.8624050842225277,0.0,0.17191922662830694
1759829788.723552,0,-0.2598685115983663,5.999938190740145,3.1415915020009635,0.8624050842225277,True,0.011226177215576172,-0.25768905878067017,5.999937534332275,3.1415915489196777,0.8624050842225277,0.0,0.17174727972148823
1759829788.734565,0,-0.26214933194748996,5.999937789234067,3.1415915036725295,0.8624050842225277,True,0.011013031005859375,-0.25768905878067017,5.999937534332275,3.1415915489196777,0.8624050842225277,0.0,0.17094394902416454
1759829788.7459872,0,-0.26315529785393,5.999937636021958,3.1415915049349206,0.8624050842225277,True,0.011422157287597656,-0.25768905878067017,5.999937534332275,3.1415915489196777,0.8624050842225277,0.0,0.16998410018144217
1759829788.757501,0,-0.2635697009727212,5.999937577530262,3.141591506165579,0.8624050842225277,True,0.011513710021972656,-0.25768905878067017,5.999937534332275,3.1415915489196777,0.8624050842225277,0.0,0.17251149975667002
1759829788.7685964,0,-0.2635902344052741,5.999937555025665,3.1415915078140557,0.8624050842225277,True,0.011095523834228516,-0.25768905878067017,5.999937534332275,3.1415915489196777,0.8624050842225277,0.0,0.17180050876325456
1759829788.7799234,0,-0.2636743372243515,5.99993754651113,3.1415915092040816,0.8624050842225277,True,0.011327028274536133,-0.25768905878067017,5.999937534332275,3.1415915489196777,0.8624050842225277,0.0,0.17266715484715556
1759829788.7903996,0,-0.26342616191810236,5.999937542932767,3.14159151122033,0.8624050842225277,True,0.010476112365722656,-0.25768905878067017,5.999937534332275,3.1415915489196777,0.8624050842225277,0.0,0.17061283725506032
1759829788.8016572,0,-0.2635888127483448,5.99993754185332,3.141591512414813,0.8624050842225277,True,0.011257648468017578,-0.25768905878067017,5.999937534332275,3.1415915489196777,0.8624050842225277,0.0,0.1715858755729932
1759829788.8119936,0,-0.26334747160077304,5.999937541090114,3.141591514233488,0.8624050842225277,True,0.01033639907836914,-0.25768905878067017,5.999937534332275,3.1415915489196777,0.8624050842225277,0.0,0.17430231551105996
1759829788.823214,0,-0.26354650389850076,5.999937541124425,3.1415915152234017,0.8624050842225277,True,0.011220455169677734,-0.25768905878067017,5.999937534332275,3.1415915489196777,0.8624050842225277,0.0,0.17298096858108356
1759829788.8334956,0,-0.263313247472656,5.999937540781639,3.1415915168370603,0.8624050842225277,True,0.010281562805175781,-0.25768905878067017,5.999937534332275,3.1415915489196777,0.8624050842225277,0.0,0.17304780582092122
1759829788.8450105,0,-0.26363042504520584,5.999937541107342,3.1415915174701343,0.8624050842225277,True,0.011514902114868164,-0.25768905878067017,5.999937534332275,3.1415915489196777,0.8624050842225277,0.0,0.17363533451869262
1759829788.8550818,0,-0.26327603257479043,5.999937540688813,3.141591519092591,0.8624050842225277,True,0.010071277618408203,-0.25768905878067017,5.999937534332275,3.1415915489196777,0.8624050842225277,0.0,0.17369908741035894
1759829788.8661788,0,-0.263478534282656,5.999937540907087,3.141591519905962,0.8624050842225277,True,0.011096954345703125,-0.25768905878067017,5.999937534332275,3.1415915489196777,0.8624050842225277,0.0,0.17261549642539512
