timestamp,observer_vehicle_id,vehicle_0_x,vehicle_0_y,vehicle_0_theta,vehicle_0_velocity,vehicle_1_x,vehicle_1_y,vehicle_1_theta,vehicle_1_velocity,vehicle_2_x,vehicle_2_y,vehicle_2_theta,vehicle_2_velocity
1759840254.9156146,2,0.0,0.0,0.0,0.0,-0.3445277803753356,-0.06950112343376133,-0.1425184736747383,0.0,-1.95,0.197,-0.8848819307611251,0.0
1759840254.9267104,2,0.0,0.0,0.0,0.0,-0.6175552477354338,-0.12457858537058655,-0.25545989708346806,0.0,-1.95,0.197,-0.8848819307611251,0.0
1759840254.9369717,2,0.0,0.0,0.0,0.0,-0.8346788577965714,-0.16837863774024822,-0.3452759504390239,0.0,-1.95,0.197,-0.8848819307611251,0.0
1759840254.9482644,2,-0.23745706009880224,-0.16355956247950587,-0.14143040001765997,0.0,-1.0075811362612725,-0.20325798066133954,-0.41679926503161946,0.0,-1.95,0.197,-0.8848819307611251,0.0
1759840254.9584763,2,-0.42614478619778645,-0.2935269844342863,-0.25381358445318813,0.0,-1.1457926965166516,-0.23113921188982575,-0.47397230515727096,0.0,-1.95,0.197,-0.8848819307611251,0.0
1759840254.9688847,2,-0.5764137973893115,-0.39703173478572806,-0.3433144245386871,0.0,-1.2565171359913774,-0.25347550339782354,-0.5197749341796316,0.0,-1.95,0.197,-0.8848819307611251,0.0
1759840254.9795618,2,-0.6963482551412391,-0.4796421546568406,-0.4147478800388036,0.0,-1.3454123562434448,-0.27140821601879,-0.5565476179193934,0.0,-1.95,0.197,-0.8848819307611251,0.0
1759840254.9905026,2,-0.7922861733746528,-0.5457238450682469,-0.4718888980694639,0.0,-1.4169396391496323,-0.285837318115372,-0.5861358246375441,0.0,-1.95,0.197,-0.8848819307611251,0.0
1759840255.0006742,2,-0.8692894401603078,-0.5987634161793942,-0.5177523599502366,0.0,-1.4782981530875259,-0.2982150881931982,-0.61151758556217,0.0,-1.95,0.197,-0.8848819307611251,0.0
1759840255.010814,2,-0.9312448056188933,-0.6414380473882864,-0.5546532300123951,0.0,-1.527299124689466,-0.3080999879593957,-0.6317874856372226,0.0,-1.95,0.197,-0.8848819307611251,0.0
1759840255.0216064,2,-0.9811754166934846,-0.6758300713537836,-0.5843921069885835,0.0,-1.5664981321570486,-0.31600755075017384,-0.6480026735903055,0.0,-1.95,0.197,-0.8848819307611251,0.0
1759840255.0323856,2,-1.0238412616956085,-0.705218150775226,-0.6098040594621428,0.0,-1.5979359137979023,-0.322349451945846,-0.6610073278167168,0.0,-1.95,0.197,-0.8848819307611251,0.0
1759840255.0431519,2,-1.057983991360402,-0.7287355392390858,-0.6301396094440106,0.0,-1.6232131350490315,-0.3274485916213849,-0.6714635847476528,0.0,-1.95,0.197,-0.8848819307611251,0.0
1759840255.0539045,2,-1.08537573159396,-0.7476028706475051,-0.6464542424003861,0.0,-1.6435883477484086,-0.3315588557378687,-0.679892060998682,0.0,-1.95,0.197,-0.8848819307611251,0.0
1759840255.0645826,2,-1.1074084298498819,-0.7627789133622686,-0.6595770079501106,0.0,-1.6600545764284873,-0.3348805657919489,-0.6867035343031205,0.0,-1.95,0.197,-0.8848819307611251,0.0
1759840255.0751283,2,-1.1251772606705042,-0.7750180196393534,-0.6701601965474979,0.0,-1.6742282344837232,-0.3377397986727683,-0.6925666554430739,0.0,-1.95,0.197,-0.8848819307611251,0.0
1759840255.085234,2,-1.1395495332700267,-0.7849175889224735,-0.678720381121785,0.0,-1.6855985394814272,-0.34003351493060974,-0.6972701325087656,0.0,-1.95,0.197,-0.8848819307611251,0.0
1759840255.0962539,2,-1.151913125451891,-0.793433586413133,-0.6860841873914689,0.0,-1.694732590060575,-0.3418761146073614,-0.7010485533536386,0.0,-1.95,0.197,-0.8848819307611251,0.0
1759840255.1101012,2,-1.1617942180746235,-0.8002396472037497,-0.6919694067303385,0.0,-1.7020662799268567,-0.34335552995107066,-0.7040822311749385,0.0,-1.949999810854594,0.19700008558829626,-0.4727056911965768,0.0
1759840255.1213481,2,-1.1697389557085414,-0.8057119536951944,-0.6967013250869998,0.0,-1.7079902362323023,-0.3445505616491022,-0.7065327540612154,0.0,-1.9499998097964315,0.1970000860671147,-0.4374867967042668,0.0
1759840255.1322796,2,-1.1761457182014996,-0.8101249084829879,-0.7005172191346234,0.0,-1.7127895621206366,-0.34551872317326315,-0.7085180586991402,0.0,-1.9499998094644417,0.19700008621734014,-0.43417959936826733,0.0
1759840255.1426284,2,-1.1813286862988475,-0.8136949181259723,-0.7036042162151973,0.0,-1.7166901258539728,-0.3463055786227614,-0.7101315784830615,0.0,-1.9499998093410662,0.19700008627316754,-0.4337674458101901,0.0
1759840255.1538131,2,-1.185527714162983,-0.816587193302004,-0.7061051744527114,0.0,-1.7200571905844133,-0.34698481203954096,-0.7115244093474512,0.0,-1.9499998092941282,0.197000086294407,-0.4337053417288921,0.0
1759840255.1640167,2,-1.1889421484581506,-0.8189390432710059,-0.7081388255389274,0.0,-1.722774573173659,-0.3475329859561585,-0.7126484906003118,0.0,-1.9499998092762099,0.19700008630251503,-0.4337679405472805,0.0
1759840255.1742651,2,-1.1918933553364208,-0.8209718238739308,-0.7098965764735804,0.0,-1.7249727285726233,-0.34797641687352476,-0.7135577866577123,0.0,-1.9499998092693662,0.19700008630561178,-0.43384989291086384,0.0
1759840255.1855783,2,-1.1942725214600605,-0.8226105848780747,-0.7113136175859182,0.0,-1.7267529565337671,-0.3483355398537759,-0.7142942015022248,0.0,-1.9499998092667523,0.1970000863067946,-0.4339187050545448,0.0
1759840255.1957054,2,-1.1961980900723603,-0.8239369095601917,-0.7124604941579841,0.0,-1.7282004149905918,-0.34862753369172833,-0.7148929618394885,0.0,-1.9499998092657538,0.1970000863072464,-0.43399917935686894,0.0
1759840255.2071319,2,-1.1977579115316292,-0.825011308928726,-0.7133895302239099,0.0,-1.729378281114548,-0.3488651430327816,-0.7153802017421649,0.0,-1.9499998092653723,0.19700008630741897,-0.43405468689739735,0.0
1759840255.2175782,2,-1.1990261849598116,-0.8258848910699839,-0.714144919085395,0.0,-1.730340358490796,-0.3490592216014433,-0.7157781777749553,0.0,-1.9499998092652266,0.1970000863074849,-0.43411219552222313,0.0
1759840255.2278373,2,-1.2000600989184071,-0.8265970472578816,-0.7147607224844903,0.0,-1.7311786553451458,-0.34922833009273774,-0.7161249503575264,0.0,-1.9499998092651711,0.19700008630751006,-0.4341604997237276,0.0
1759840255.2391565,2,-1.2009038903073148,-0.8271782477087601,-0.7152632881004168,0.0,-1.7318574800461977,-0.34936526848210736,-0.7164057551744304,0.0,-1.9499998092651498,0.1970000863075197,-0.4341931567689841,0.0
1759840255.250471,2,-1.20163868379275,-0.8276843707987223,-0.7157009341174786,0.0,-1.7324086002873889,-0.3494764452234086,-0.7166337333522722,0.0,-1.9499998092651418,0.19700008630752336,-0.4342224731010891,0.0
1759840255.2611756,2,-1.2022344726603296,-0.828094748011642,-0.7160557884133786,0.0,-1.732857513324956,-0.3495670038436771,-0.7168194321683649,0.0,-1.9499998092651387,0.19700008630752477,-0.4342517420372438,0.0
1759840255.2720037,2,-1.2027186744424445,-0.8284282644444723,-0.716344180982988,0.0,-1.733224014296529,-0.34964093758926984,-0.7169710401432341,0.0,-1.9499998092651374,0.1970000863075253,-0.43427586536776985,0.0
1759840255.2832372,2,-1.20311297897581,-0.828699859978141,-0.7165790303821149,0.0,-1.7335238241934599,-0.3497014178345219,-0.7170950604729056,0.0,-1.949999809265137,0.1970000863075255,-0.4342947248186988,0.0
1759840255.293774,2,-1.203435159792359,-0.8289217769570344,-0.7167709225993587,0.0,-1.7337699054999998,-0.34975105948385987,-0.7171968552604544,0.0,-1.9499998092651367,0.19700008630752558,-0.43431423211461606,0.0
1759840255.3043015,2,-1.2036990425975722,-0.8291035384769849,-0.7169280922816733,0.0,-1.733985604439045,-0.34979457213927123,-0.717286081979799,0.0,-1.9499998092651367,0.1970000863075256,-0.4343308035668656,0.0
1759840255.3198278,2,-1.2039143905011689,-0.8292518693325868,-0.7170563543772959,0.0,-1.7341603240842023,-0.34982981809711866,-0.7173583570721637,0.0,-1.9499998092651367,0.19700008630752563,-0.4343284934741636,0.0
1759840255.3310971,2,-1.204103543371131,-0.8293821571439487,-0.7171690146033262,0.0,-1.734303051328988,-0.3498586102712836,-0.7174173980849277,0.0,-1.9499998092651367,0.19700008630752563,-0.4343447456315275,0.0
1759840255.342383,2,-1.2042577200071525,-0.8294883534521222,-0.7172608428408055,0.0,-1.734419938850862,-0.34988218983307334,-0.7174657501545081,0.0,-1.9499998092651367,0.19700008630752563,-0.4343593377315323,0.0
1759840255.3530521,2,-1.2043838011902857,-0.829575197714161,-0.7173359373111818,0.0,-1.7345159791984328,-0.34990156392257016,-0.717505478514677,0.0,-1.9499998092651367,0.19700008630752563,-0.4343731781841278,0.0
1759840255.3633,2,-1.2044872080374844,-0.8296464239757771,-0.7173975268539724,0.0,-1.7345951204775678,-0.34991752898583406,-0.7175382163516513,0.0,-1.9499998092651367,0.19700008630752563,-0.4343855464634636,0.0
1759840255.3739839,2,-1.2045721702652123,-0.829704945650343,-0.7174481307056707,0.0,-1.734664944004253,-0.3499316143914912,-0.7175670997770718,0.0,-1.9499998092651367,0.19700008630752563,-0.434394491070595,0.0
1759840255.385277,2,-1.2046420932499384,-0.8297531083488298,-0.7174897771224844,0.0,-1.734721963177846,-0.3499431167923067,-0.7175906865124632,0.0,-1.9499998092651367,0.19700008630752563,-0.43440066560467366,0.0
1759840255.3965533,2,-1.204703693757822,-0.8297955385554269,-0.7175264666379177,0.0,-1.7347686459084364,-0.34995253403644727,-0.7176099974414786,0.0,-1.9499998092651367,0.19700008630752563,-0.4344064544540096,0.0
1759840255.4078515,2,-1.2047540268895622,-0.8298302078341684,-0.7175564452578553,0.0,-1.7348069619574624,-0.34996026348122516,-0.7176258473819928,0.0,-1.9499998092651367,0.19700008630752563,-0.43441190308410954,0.0
1759840255.4183655,2,-1.2047952971031974,-0.829858634607762,-0.7175810259665562,0.0,-1.7348385206344643,-0.34996662977047854,-0.7176389020461844,0.0,-1.9499998092651367,0.19700008630752563,-0.4344185862047958,0.0
1759840255.4287577,2,-1.2048292216203884,-0.8298820016922648,-0.7176012315482927,0.0,-1.7348645788093746,-0.3499718864508801,-0.7176496813549268,0.0,-1.9499998092651367,0.19700008630752563,-0.4344246400959779,0.0
1759840255.439635,2,-1.2048571565480628,-0.829901243169214,-0.7176178697059192,0.0,-1.7348861319743578,-0.3499762343417186,-0.7176585971067218,0.0,-1.9499998092651367,0.19700008630752563,-0.4344289637316372,0.0
1759840255.4499855,2,-1.2048802303426958,-0.8299171363153404,-0.7176316125527459,0.0,-1.7349052913231309,-0.3499800993312487,-0.7176665226247765,0.0,-1.9499998092651367,0.19700008630752563,-0.4344338173948401,0.0
1759840255.4603617,2,-1.204899332318007,-0.8299302936867115,-0.717642989767676,0.0,-1.7349210244983617,-0.3499832731634213,-0.7176730308608251,0.0,-1.9499998092651367,0.19700008630752563,-0.4344380724694261,0.0
1759840255.4705818,2,-1.2049163024801806,-0.8299419826729187,-0.7176530972659478,0.0,-1.7349339768822674,-0.3499858860303187,-0.7176783887857583,0.0,-1.9499998092651367,0.19700008630752563,-0.43444208857206945,0.0
1759840255.4816635,2,-1.2049302306175356,-0.829951576323455,-0.7176613929217468,0.0,-1.7349446531311505,-0.34998803973557474,-0.7176828051573315,0.0,-1.9499998092651367,0.19700008630752563,-0.43444433658285675,0.0
1759840255.4917397,2,-1.204941704519041,-0.8299594795052317,-0.7176682268245964,0.0,-1.7349534860136568,-0.34998982158102326,-0.7176864589960192,0.0,-1.9499998092651367,0.19700008630752563,-0.43444810981716486,0.0
1759840255.5019257,2,-1.2049511767689598,-0.8299660039566494,-0.7176738685355419,0.0,-1.7349608092117876,-0.3499912988798834,-0.7176894883337953,0.0,-1.9499998092651367,0.19700008630752563,-0.43445134885942954,0.0
1759840255.517468,2,-1.2049589619025167,-0.829971366328431,-0.717678505393055,0.0,-1.7349672553005357,-0.3499925992406533,-0.7176921548436731,0.0,-1.9499998092651367,0.19700008630752563,-0.43444711320405816,0.0
1759840255.528609,2,-1.2049654179592797,-0.8299758132369334,-0.7176823506469723,0.0,-1.7349725625778845,-0.349993669870539,-0.7176943502691517,0.0,-1.9499998092651367,0.19700008630752563,-0.4344506411897697,0.0
1759840255.5391912,2,-1.204970788820774,-0.8299795126668673,-0.7176855495541316,0.0,-1.7349769461256168,-0.34999455415769776,-0.7176961635816556,0.0,-1.9499998092651367,0.19700008630752563,-0.4344549262997255,0.0
1759840255.549941,2,-1.204975564915567,-0.8299828024236525,-0.7176883942158013,0.0,-1.7349805744838245,-0.34999528610149444,-0.7176976645000231,0.0,-1.9499998092651367,0.19700008630752563,-0.4344583752965452,0.0
1759840255.5600288,2,-1.204979514792071,-0.8299855230842745,-0.7176907467784657,0.0,-1.734983587443492,-0.3499958939017755,-0.7176989108506442,0.0,-1.9499998092651367,0.19700008630752563,-0.43446206687002764,0.0
1759840255.5712326,2,-1.2049827841227294,-0.8299877749873844,-0.7176926940052301,0.0,-1.7349860913547506,-0.34999639901240914,-0.7176999466266574,0.0,-1.9499998092651367,0.19700008630752563,-0.4344639573140671,0.0
1759840255.5815253,2,-1.204985500008951,-0.8299896456799719,-0.7176943115982155,0.0,-1.734988179808786,-0.3499968203134187,-0.7177008105432947,0.0,-1.9499998092651367,0.19700008630752563,-0.43446668681133715,0.0
1759840255.5917253,2,-1.204987761537549,-0.8299912034126746,-0.7176956585739345,0.0,-1.7349900515117658,-0.3499971978895308,-0.7177015847979906,0.0,-1.9499998092651367,0.19700008630752563,-0.4344692026904369,0.0
1759840255.60241,2,-1.204989647741827,-0.8299925026233459,-0.7176967820049474,0.0,-1.7349916003259234,-0.34999751032971727,-0.717702225485454,0.0,-1.9499998092651367,0.19700008630752563,-0.43447091824037193,0.0
1759840255.6135848,2,-1.2049913311625233,-0.8299936621574212,-0.7176977846572267,0.0,-1.7349928841865287,-0.34999776932118176,-0.7177027565713759,0.0,-1.9499998092651367,0.19700008630752563,-0.4344720671581239,0.0
1759840255.6244128,2,-1.2049927259323139,-0.8299946228697985,-0.7176986153878411,0.0,-1.734993951509596,-0.34999798463082143,-0.717703198083681,0.0,-1.9499998092651367,0.19700008630752563,-0.43447361598332185,0.0
1759840255.6354902,2,-1.2049938839362166,-0.8299954204986902,-0.7176993050997204,0.0,-1.7349948406316948,-0.3499981639922206,-0.7177035658807983,0.0,-1.9499998092651367,0.19700008630752563,-0.43447493480263333,0.0
1759840255.6466336,2,-1.2049948476173866,-0.8299960842787878,-0.7176998790721822,0.0,-1.73499558302543,-0.34999831375430535,-0.7177038729817872,0.0,-1.9499998092651367,0.19700008630752563,-0.4344762169082337,0.0
1759840255.6578102,2,-1.2049956514970728,-0.8299966379882023,-0.7177003578662241,0.0,-1.7349962043710054,-0.34999843909750844,-0.7177041300096035,0.0,-1.9499998092651367,0.19700008630752563,-0.4344775011553672,0.0
1759840255.6679606,2,-1.204996324623846,-0.8299971016354846,-0.7177007587832942,0.0,-1.7349967645548865,-0.3499985521026456,-0.7177043617370759,0.0,-1.9499998092651367,0.19700008630752563,-0.4344795892535486,0.0
1759840255.6790955,2,-1.2049968887530331,-0.8299974902056242,-0.7177010947809543,0.0,-1.7349972301690793,-0.34999864603036734,-0.7177045543445459,0.0,-1.9499998092651367,0.19700008630752563,-0.43448069180523774,0.0
1759840255.6903055,2,-1.2049973973920236,-0.8299978405543176,-0.7177013977284256,0.0,-1.7349976180822013,-0.3499987242835571,-0.71770471480994,0.0,-1.9499998092651367,0.19700008630752563,-0.43448171781200884,0.0
1759840255.7004902,2,-1.2049978213635595,-0.829998132584375,-0.7177016502476131,0.0,-1.7349979424902795,-0.34999878972596016,-0.7177048490056327,0.0,-1.9499998092651367,0.19700008630752563,-0.4344834924331806,0.0
1759840255.714135,2,-1.2049981739312983,-0.8299983754317558,-0.717701860238406,0.0,-1.734998213123053,-0.3499988443203437,-0.7177049609564592,0.0,-1.9499998092651367,0.19700008630752563,-0.4344827801737523,0.0
1759840255.7219276,2,-1.2049984702962537,-0.8299985795668631,-0.7177020367545901,0.0,-1.7349984413713293,-0.34999889036456,-0.7177050553743779,0.0,-1.9499998092651367,0.19700008630752563,-0.4344863197526152,0.0
1759840255.7321398,2,-1.2049987190288727,-0.8299987508929896,-0.7177021849007592,0.0,-1.7349986483778166,-0.34999893212369887,-0.7177051410053497,0.0,-1.9499998092651367,0.19700008630752563,-0.43448771524158936,0.0
1759840255.7433958,2,-1.204998927944129,-0.8299988947930611,-0.7177023093315439,0.0,-1.7349988207357594,-0.3499989668932337,-0.7177052123034925,0.0,-1.9499998092651367,0.19700008630752563,-0.4344881960580107,0.0
1759840255.753614,2,-1.2049991040927657,-0.8299990161236037,-0.7177024142463952,0.0,-1.7349989647940294,-0.34999899595391376,-0.7177052718951015,0.0,-1.9499998092651367,0.19700008630752563,-0.4344893659608253,0.0
1759840255.7641015,2,-1.204999264417978,-0.829999126555029,-0.7177025097367501,0.0,-1.7349990854237891,-0.3499990202883921,-0.7177053217951972,0.0,-1.9499998092651367,0.19700008630752563,-0.43449031042894504,0.0
1759840255.7745626,2,-1.2049993985706637,-0.8299992189589127,-0.7177025896386404,0.0,-1.734999186668285,-0.34999904071230736,-0.7177053636763221,0.0,-1.9499998092651367,0.19700008630752563,-0.4344912103684919,0.0
1759840255.785852,2,-1.2049995109516545,-0.8299992963665318,-0.7177026565732199,0.0,-1.734999271736636,-0.34999905787303087,-0.7177053988659708,0.0,-1.9499998092651367,0.19700008630752563,-0.4344916325012811,0.0
1759840255.7966514,2,-1.2049996053857899,-0.8299993614124221,-0.7177027128185787,0.0,-1.734999343434345,-0.3499990723365128,-0.7177054285246766,0.0,-1.9499998092651367,0.19700008630752563,-0.43449239805298845,0.0
1759840255.807879,2,-1.2049996848747686,-0.8299994161641425,-0.7177027601625408,0.0,-1.7349994088114074,-0.3499990855249392,-0.7177054555687632,0.0,-1.9499998092651367,0.19700008630752563,-0.43449297263376785,0.0
1759840255.8183281,2,-1.204999752017251,-0.8299994624116411,-0.717702800152879,0.0,-1.7349994635377994,-0.3499990965648203,-0.7177054782070593,0.0,-1.9499998092651367,0.19700008630752563,-0.43449396336118795,0.0
1759840255.829052,2,-1.204999813251232,-0.8299995045893853,-0.7177028366240895,0.0,-1.734999509435244,-0.3499991058236498,-0.7177054971931444,0.0,-1.9499998092651367,0.19700008630752563,-0.434494757625032,0.0
1759840255.8403034,2,-1.2049998645571744,-0.8299995399287327,-0.7177028671821195,0.0,-1.73499954798879,-0.3499991136010045,-0.7177055131413286,0.0,-1.9499998092651367,0.19700008630752563,-0.4344952734466432,0.0
1759840255.851755,2,-1.2049999076364561,-0.8299995696015857,-0.7177028928403166,0.0,-1.7349995804419676,-0.34999912014774015,-0.7177055265660147,0.0,-1.9499998092651367,0.19700008630752563,-0.43449574592270856,0.0
1759840255.8630345,2,-1.2049999439049823,-0.829999594583215,-0.7177029144419997,0.0,-1.7349996078328291,-0.34999912567326164,-0.7177055378966071,0.0,-1.9499998092651367,0.19700008630752563,-0.43449635577209733,0.0
1759840255.8742437,2,-1.2049999745154634,-0.8299996156676035,-0.7177029326737279,0.0,-1.7349996328079027,-0.34999913071144945,-0.7177055482278766,0.0,-1.9499998092651367,0.19700008630752563,-0.4344970183781456,0.0
1759840255.8854165,2,-1.2050000004128756,-0.8299996335056472,-0.7177029480983329,0.0,-1.7349996537516228,-0.3499991349363978,-0.7177055568915235,0.0,-1.9499998092651367,0.19700008630752563,-0.43449769034493,0.0
1759840255.896104,2,-1.2050000241820562,-0.8299996498777727,-0.7177029622553546,0.0,-1.7349996713685545,-0.3499991384902376,-0.7177055641790004,0.0,-1.9499998092651367,0.19700008630752563,-0.43449852036050274,0.0
1759840255.9074757,2,-1.2050000441438011,-0.8299996636273503,-0.7177029741446519,0.0,-1.7349996862066848,-0.3499991414835136,-0.7177055703169892,0.0,-1.9499998092651367,0.19700008630752563,-0.43449903445041826,0.0
1759840255.9196417,2,-1.2050000609297997,-0.8299996751894854,-0.7177029841424616,0.0,-1.734999698720077,-0.34999914400782334,-0.7177055754933195,0.0,-1.9499998092651367,0.19700008630752563,-0.43449928393477677,0.0
1759840255.9297504,2,-1.2050000751229413,-0.8299996849656698,-0.7177029925959549,0.0,-1.7349997093314145,-0.3499991461484341,-0.7177055798828395,0.0,-1.9499998092651367,0.19700008630752563,-0.4345002987892741,0.0
1759840255.9399672,2,-1.2050000871476412,-0.8299996932482394,-0.7177029997579155,0.0,-1.7349997190311124,-0.34999914810514104,-0.7177055838952479,0.0,-1.9499998092651367,0.19700008630752563,-0.4345011533948835,0.0
1759840255.9506216,2,-1.2050000973506125,-0.8299997002760091,-0.7177030058348471,0.0,-1.7349997271960302,-0.3499991497522389,-0.7177055872727741,0.0,-1.9499998092651367,0.19700008630752563,-0.4345017390535695,0.0
1759840255.9607997,2,-1.2050001060332944,-0.8299997062566089,-0.717703011006288,0.0,-1.7349997340892818,-0.3499991511428052,-0.7177055901242588,0.0,-1.9499998092651367,0.19700008630752563,-0.4345024060507398,0.0
1759840255.9710305,2,-1.2050001140183304,-0.8299997117566726,-0.7177030157622082,0.0,-1.7349997399211128,-0.3499991523192526,-0.717705592536673,0.0,-1.9499998092651367,0.19700008630752563,-0.4345029807834493,0.0
1759840255.9823217,2,-1.2050001207579983,-0.8299997163989316,-0.7177030197763821,0.0,-1.734999744858029,-0.34999915331516995,-0.7177055945788936,0.0,-1.9499998092651367,0.19700008630752563,-0.4345031989163637,0.0
1759840255.993508,2,-1.2050001264608938,-0.8299997203270654,-0.7177030231730501,0.0,-1.7349997490478433,-0.3499991541603755,-0.7177055963120657,0.0,-1.9499998092651367,0.19700008630752563,-0.4345034878893088,0.0
1759840256.003693,2,-1.2050001313049288,-0.8299997236636191,-0.7177030260581772,0.0,-1.7349997526172318,-0.34999915488042344,-0.7177055977885904,0.0,-1.9499998092651367,0.19700008630752563,-0.43450407576474964,0.0
1759840256.014415,2,-1.2050001354249322,-0.8299997265014625,-0.7177030285120681,0.0,-1.7349997558981989,-0.3499991555422885,-0.7177055991458058,0.0,-1.9499998092651367,0.19700008630752563,-0.43450447451978746,0.0
1759840256.0244453,2,-1.2050001389406093,-0.8299997289230481,-0.7177030306060198,0.0,-1.7349997586764527,-0.34999915610274185,-0.7177056002950672,0.0,-1.9499998092651367,0.19700008630752563,-0.4345050173036942,0.0
1759840256.0355766,2,-1.2050001421902123,-0.8299997311613629,-0.7177030325414968,0.0,-1.7349997610302323,-0.34999915657756664,-0.7177056012687394,0.0,-1.9499998092651367,0.19700008630752563,-0.43450524233819005,0.0
1759840256.0468497,2,-1.205000144939388,-0.8299997330549853,-0.7177030341789172,0.0,-1.734999763028596,-0.3499991569806939,-0.717705602095389,0.0,-1.9499998092651367,0.19700008630752563,-0.434505456065466,0.0
1759840256.0570323,2,-1.205000147274424,-0.8299997346633496,-0.7177030355696743,0.0,-1.7349997647319686,-0.3499991573243129,-0.7177056028000116,0.0,-1.9499998092651367,0.19700008630752563,-0.4345059477954525,0.0
1759840256.0678484,2,-1.2050001492600642,-0.8299997360310514,-0.7177030367523296,0.0,-1.7349997661855547,-0.3499991576175429,-0.7177056034013068,0.0,-1.9499998092651367,0.19700008630752563,-0.43450626234681167,0.0
1759840256.0790164,2,-1.2050001509514674,-0.8299997371960838,-0.7177030377597364,0.0,-1.7349997674280515,-0.34999915786819014,-0.717705603915282,0.0,-1.9499998092651367,0.19700008630752563,-0.43450649353051496,0.0
1759840256.0904658,2,-1.2050001523949039,-0.8299997381903177,-0.7177030386194531,0.0,-1.7349997685839316,-0.3499991581013642,-0.7177056043934269,0.0,-1.9499998092651367,0.19700008630752563,-0.4345066903659074,0.0
1759840256.1009984,2,-1.2050001536313701,-0.8299997390419911,-0.7177030393558975,0.0,-1.7349997695664736,-0.3499991582995711,-0.7177056047998684,0.0,-1.9499998092651367,0.19700008630752563,-0.4345070950925827,0.0
1759840256.1114583,2,-1.2050001547815914,-0.8299997398342593,-0.717703040040974,0.0,-1.7349997704035964,-0.34999915846844276,-0.7177056051461554,0.0,-1.9499998092651367,0.19700008630752563,-0.43450748495502367,0.0
1759840256.1235955,2,-1.2050001557582162,-0.829999740506955,-0.7177030406226557,0.0,-1.7349997711165286,-0.3499991586122616,-0.7177056054410694,0.0,-1.9499998092651367,0.19700008630752563,-0.4345075391578881,0.0
1759840256.1337795,2,-1.2050001565919828,-0.8299997410812504,-0.7177030411192505,0.0,-1.7349997717270444,-0.34999915873542015,-0.7177056056936174,0.0,-1.9499998092651367,0.19700008630752563,-0.43450798388461465,0.0
1759840256.1452727,2,-1.2050001573038391,-0.8299997415715745,-0.717703041543235,0.0,-1.734999772249859,-0.34999915884088684,-0.7177056059098865,0.0,-1.9499998092651367,0.19700008630752563,-0.43450817267705943,0.0
1759840256.1565897,2,-1.2050001579131933,-0.8299997419912954,-0.717703041906169,0.0,-1.7349997727387025,-0.3499991589395006,-0.717705606112103,0.0,-1.9499998092651367,0.19700008630752563,-0.4345083994535468,0.0
1759840256.1671999,2,-1.2050001584365875,-0.8299997423518076,-0.7177030422179048,0.0,-1.7349997731551556,-0.34999915902351114,-0.7177056062843744,0.0,-1.9499998092651367,0.19700008630752563,-0.4345087449621374,0.0
1759840256.1773632,2,-1.2050001589275912,-0.8299997426900092,-0.7177030425103487,0.0,-1.7349997735109608,-0.3499991590952872,-0.7177056064315579,0.0,-1.9499998092651367,0.19700008630752563,-0.43450912635551475,0.0
1759840256.187542,2,-1.2050001593467172,-0.8299997429787017,-0.7177030427599819,0.0,-1.7349997738155807,-0.3499991591567378,-0.7177056065575679,0.0,-1.9499998092651367,0.19700008630752563,-0.4345094529951297,0.0
1759840256.197734,2,-1.205000159705234,-0.8299997432256468,-0.7177030429735161,0.0,-1.7349997740769176,-0.34999915920945696,-0.7177056066656734,0.0,-1.9499998092651367,0.19700008630752563,-0.4345097338049922,0.0
1759840256.2085445,2,-1.20500016001225,-0.8299997434371184,-0.717703043156376,0.0,-1.7349997743013637,-0.3499991592547341,-0.7177056067585184,0.0,-1.9499998092651367,0.19700008630752563,-0.4345098995008314,0.0
1759840256.2187505,2,-1.2050001602759945,-0.8299997436187846,-0.7177030433134635,0.0,-1.734999774494736,-0.34999915929374287,-0.7177056068385094,0.0,-1.9499998092651367,0.19700008630752563,-0.43451014503186514,0.0
1759840256.2294943,2,-1.2050001605028366,-0.8299997437750326,-0.7177030434485714,0.0,-1.7349997746762391,-0.34999915933035725,-0.7177056069135905,0.0,-1.9499998092651367,0.19700008630752563,-0.4345103051353263,0.0
1759840256.2409973,2,-1.2050001606981124,-0.8299997439095378,-0.7177030435648784,0.0,-1.7349997748312882,-0.34999915936163506,-0.7177056069777286,0.0,-1.9499998092651367,0.19700008630752563,-0.4345103739129339,0.0
1759840256.2511456,2,-1.2050001608824663,-0.8299997440365201,-0.7177030436746802,0.0,-1.7349997749643324,-0.34999915938847387,-0.7177056070327641,0.0,-1.9499998092651367,0.19700008630752563,-0.4345106337555116,0.0
1759840256.2625098,2,-1.2050001610401724,-0.8299997441451473,-0.7177030437686106,0.0,-1.7349997750785064,-0.3499991594115061,-0.7177056070799936,0.0,-1.9499998092651367,0.19700008630752563,-0.43451073569302423,0.0
1759840256.2727642,2,-1.2050001611756318,-0.8299997442384514,-0.7177030438492908,0.0,-1.734999775176888,-0.34999915943135246,-0.7177056071206903,0.0,-1.9499998092651367,0.19700008630752563,-0.43451097316180487,0.0
1759840256.2830203,2,-1.2050001612922245,-0.82999974431876,-0.7177030439187339,0.0,-1.7349997752618354,-0.34999915944848875,-0.71770560715583,0.0,-1.9499998092651367,0.19700008630752563,-0.4345111915141348,0.0
1759840256.2932193,2,-1.205000161392795,-0.8299997443880325,-0.717703043978634,0.0,-1.73499977533534,-0.3499991594633167,-0.7177056071862361,0.0,-1.9499998092651367,0.19700008630752563,-0.4345113918132384,0.0
1759840256.3034341,2,-1.2050001614797194,-0.8299997444479057,-0.7177030440304066,0.0,-1.734999775405142,-0.3499991594773978,-0.7177056072151108,0.0,-1.9499998092651367,0.19700008630752563,-0.43451157003279306,0.0
1759840256.3146336,2,-1.2050001615548749,-0.8299997444996725,-0.7177030440751696,0.0,-1.7349997754650262,-0.34999915948947813,-0.7177056072398826,0.0,-1.9499998092651367,0.19700008630752563,-0.43451163787470654,0.0
1759840256.3248227,2,-1.2050001616262087,-0.8299997445488069,-0.7177030441176562,0.0,-1.7349997755166018,-0.3499991594998824,-0.7177056072612176,0.0,-1.9499998092651367,0.19700008630752563,-0.4345118166720354,0.0
1759840256.3356307,2,-1.205000161687534,-0.8299997445910475,-0.7177030441541817,0.0,-1.734999775561067,-0.34999915950885235,-0.7177056072796112,0.0,-1.9499998092651367,0.19700008630752563,-0.4345119293870905,0.0
1759840256.3462033,2,-1.2050001617403898,-0.8299997446274543,-0.7177030441856628,0.0,-1.7349997755994995,-0.34999915951660526,-0.7177056072955093,0.0,-1.9499998092651367,0.19700008630752563,-0.43451206397511655,0.0
1759840256.357529,2,-1.2050001617859836,-0.8299997446588592,-0.7177030442128187,0.0,-1.7349997756327435,-0.34999915952331156,-0.717705607309261,0.0,-1.9499998092651367,0.19700008630752563,-0.4345121328916548,0.0
1759840256.3682518,2,-1.2050001618254411,-0.8299997446860373,-0.7177030442363198,0.0,-1.7349997756643099,-0.3499991595296794,-0.7177056073223188,0.0,-1.9499998092651367,0.19700008630752563,-0.4345122659430842,0.0
1759840256.378744,2,-1.2050001618596733,-0.8299997447096163,-0.7177030442567087,0.0,-1.7349997756914837,-0.3499991595351611,-0.7177056073335596,0.0,-1.9499998092651367,0.19700008630752563,-0.43451241633860255,0.0
1759840256.3895133,2,-1.2050001618894182,-0.8299997447301045,-0.7177030442744249,0.0,-1.7349997757149145,-0.34999915953988775,-0.7177056073432522,0.0,-1.9499998092651367,0.19700008630752563,-0.4345125347269736,0.0
1759840256.4008138,2,-1.2050001619180262,-0.8299997447498095,-0.7177030442914639,0.0,-1.7349997757351427,-0.3499991595439684,-0.7177056073516198,0.0,-1.9499998092651367,0.19700008630752563,-0.4345126102429582,0.0
1759840256.411534,2,-1.2050001619427118,-0.8299997447668128,-0.7177030443061666,0.0,-1.734999775752662,-0.34999915954750255,-0.7177056073588669,0.0,-1.9499998092651367,0.19700008630752563,-0.4345127364013024,0.0
1759840256.4222655,2,-1.2050001619640571,-0.8299997447815156,-0.7177030443188801,0.0,-1.7349997757678668,-0.34999915955056976,-0.7177056073651565,0.0,-1.9499998092651367,0.19700008630752563,-0.4345128579625275,0.0
1759840256.4334419,2,-1.2050001619825392,-0.8299997447942461,-0.7177030443298881,0.0,-1.7349997757810796,-0.34999915955323513,-0.7177056073706222,0.0,-1.9499998092651367,0.19700008630752563,-0.4345129436101658,0.0
1759840256.4442036,2,-1.2050001619985884,-0.8299997448053006,-0.717703044339447,0.0,-1.7349997757937394,-0.34999915955578903,-0.7177056073758592,0.0,-1.9499998092651367,0.19700008630752563,-0.4345130587933781,0.0
1759840256.4550595,2,-1.205000162012551,-0.829999744814918,-0.7177030443477632,0.0,-1.7349997758046782,-0.34999915955799565,-0.7177056073803841,0.0,-1.9499998092651367,0.19700008630752563,-0.43451316358098246,0.0
1759840256.465857,2,-1.2050001620248803,-0.8299997448234103,-0.7177030443551065,0.0,-1.7349997758141507,-0.3499991595599065,-0.7177056073843026,0.0,-1.9499998092651367,0.19700008630752563,-0.43451326739170426,0.0
1759840256.476164,2,-1.2050001620366955,-0.8299997448315487,-0.7177030443621436,0.0,-1.7349997758223776,-0.3499991595615662,-0.7177056073877057,0.0,-1.9499998092651367,0.19700008630752563,-0.4345133944436181,0.0
1759840256.4867659,2,-1.2050001620469248,-0.8299997448385946,-0.7177030443682363,0.0,-1.7349997758295337,-0.34999915956300975,-0.7177056073906659,0.0,-1.9499998092651367,0.19700008630752563,-0.4345134919660367,0.0
1759840256.4980905,2,-1.2050001620557882,-0.8299997448446997,-0.7177030443735154,0.0,-1.7349997758358038,-0.34999915956427463,-0.7177056073932597,0.0,-1.9499998092651367,0.19700008630752563,-0.4345135435199019,0.0
1759840256.5091329,2,-1.2050001620634885,-0.8299997448500037,-0.7177030443781018,0.0,-1.7349997758413844,-0.3499991595654004,-0.7177056073955681,0.0,-1.9499998092651367,0.19700008630752563,-0.4345136170129962,0.0
1759840256.5256681,2,-1.2050001620702144,-0.8299997448546366,-0.7177030443821079,0.0,-1.734999775846532,-0.34999915956643884,-0.7177056073976975,0.0,-1.9499998092651367,0.19700008630752563,-0.4345134249138347,0.0
1759840256.5361755,2,-1.2050001620762005,-0.8299997448587597,-0.7177030443856732,0.0,-1.7349997758510087,-0.3499991595673419,-0.7177056073995494,0.0,-1.9499998092651367,0.19700008630752563,-0.43451360444429454,0.0
1759840256.5474412,2,-1.205000162081528,-0.8299997448624294,-0.7177030443888462,0.0,-1.7349997758549167,-0.34999915956813027,-0.717705607401166,0.0,-1.9499998092651367,0.19700008630752563,-0.4345137383828668,0.0
1759840256.5579143,2,-1.2050001620863848,-0.8299997448657748,-0.7177030443917389,0.0,-1.7349997758583948,-0.3499991595688319,-0.7177056074026047,0.0,-1.9499998092651367,0.19700008630752563,-0.43451388687011766,0.0
1759840256.5679421,2,-1.2050001620906177,-0.8299997448686903,-0.7177030443942601,0.0,-1.7349997758614903,-0.3499991595694563,-0.7177056074038852,0.0,-1.9499998092651367,0.19700008630752563,-0.43451402966730157,0.0
1759840256.578566,2,-1.2050001620943596,-0.8299997448712676,-0.7177030443964888,0.0,-1.7349997758642453,-0.3499991595700121,-0.7177056074050249,0.0,-1.9499998092651367,0.19700008630752563,-0.4345141220300981,0.0
1759840256.5894136,2,-1.2050001620976896,-0.8299997448735614,-0.7177030443984722,0.0,-1.7349997758667515,-0.34999915957051764,-0.7177056074060617,0.0,-1.9499998092651367,0.19700008630752563,-0.43451419266395597,0.0
1759840256.600202,2,-1.2050001621006534,-0.8299997448756029,-0.7177030444002375,0.0,-1.7349997758689333,-0.3499991595709578,-0.7177056074069642,0.0,-1.9499998092651367,0.19700008630752563,-0.4345142606609791,0.0
1759840256.610756,2,-1.2050001621032913,-0.8299997448774199,-0.7177030444018085,0.0,-1.7349997758708695,-0.3499991595713484,-0.7177056074077652,0.0,-1.9499998092651367,0.19700008630752563,-0.43451433354268687,0.0
1759840256.6214628,2,-1.2050001621032913,-0.8299997448774199,-0.7177030444018085,0.0,-1.7349997758725928,-0.34999915957169603,-0.7177056074084781,0.0,-1.9499998092651367,0.19700008630752563,-0.4345143949927568,0.0
1759840256.632843,2,-1.205000162105639,-0.8299997448790369,-0.7177030444032069,0.0,-1.7349997758741265,-0.34999915957200545,-0.7177056074091125,0.0,-1.9499998092651367,0.19700008630752563,-0.43451442951314334,0.0
1759840256.64409,2,-1.2050001621077284,-0.8299997448804761,-0.7177030444044513,0.0,-1.7349997758754916,-0.3499991595722808,-0.717705607409677,0.0,-1.9499998092651367,0.19700008630752563,-0.43451447302829577,0.0
1759840256.65432,2,-1.205000162109588,-0.829999744881757,-0.7177030444055589,0.0,-1.7349997758754916,-0.3499991595722808,-0.717705607409677,0.0,-1.9499998092651367,0.19700008630752563,-0.43451455240689185,0.0
1759840256.6656814,2,-1.2050001621112432,-0.829999744882897,-0.7177030444065446,0.0,-1.7349997758767064,-0.3499991595725258,-0.7177056074101796,0.0,-1.9499998092651367,0.19700008630752563,-0.4345145879449497,0.0
1759840256.6763744,2,-1.2050001621112432,-0.829999744882897,-0.7177030444065446,0.0,-1.7349997758777878,-0.3499991595727439,-0.7177056074106268,0.0,-1.9499998092651367,0.19700008630752563,-0.43451464519145405,0.0
1759840256.6878374,2,-1.2050001621112432,-0.829999744882897,-0.7177030444065446,0.0,-1.73499977587875,-0.34999915957293803,-0.717705607411025,0.0,-1.9499998092651367,0.19700008630752563,-0.4345146772979991,0.0
1759840256.6980474,2,-1.2050001621127162,-0.8299997448839116,-0.7177030444074219,0.0,-1.7349997758796065,-0.3499991595731108,-0.7177056074113792,0.0,-1.9499998092651367,0.19700008630752563,-0.4345147474870519,0.0
1759840256.7088387,2,-1.2050001621140272,-0.8299997448848145,-0.7177030444082028,0.0,-1.7349997758796065,-0.3499991595731108,-0.7177056074113792,0.0,-1.9499998092651367,0.19700008630752563,-0.4345147944331167,0.0
1759840256.7226717,2,-1.205000162115194,-0.8299997448856182,-0.7177030444088977,0.0,-1.7349997758796065,-0.3499991595731108,-0.7177056074113792,0.0,-1.9499998092651367,0.19700008630752563,-0.4345147588897121,0.0
1759840256.7292914,2,-1.205000162115194,-0.8299997448856182,-0.7177030444088977,0.0,-1.7349997758796065,-0.3499991595731108,-0.7177056074113792,0.0,-1.9499998092651367,0.19700008630752563,-0.43451492766545025,0.0
1759840256.7404969,2,-1.205000162115194,-0.8299997448856182,-0.7177030444088977,0.0,-1.7349997758803688,-0.34999915957326455,-0.7177056074116945,0.0,-1.9499998092651367,0.19700008630752563,-0.4345149503509909,0.0
1759840256.7509663,2,-1.205000162115194,-0.8299997448856182,-0.7177030444088977,0.0,-1.7349997758810471,-0.3499991595734014,-0.7177056074119752,0.0,-1.9499998092651367,0.19700008630752563,-0.4345149862539941,0.0
1759840256.7614822,2,-1.205000162115194,-0.8299997448856182,-0.7177030444088977,0.0,-1.7349997758810471,-0.3499991595734014,-0.7177056074119752,0.0,-1.9499998092651367,0.19700008630752563,-0.43451502070570847,0.0
1759840256.771911,2,-1.2050001621162323,-0.8299997448863335,-0.717703044409516,0.0,-1.7349997758810471,-0.3499991595734014,-0.7177056074119752,0.0,-1.9499998092651367,0.19700008630752563,-0.43451505608798696,0.0
1759840256.7824378,2,-1.2050001621162323,-0.8299997448863335,-0.717703044409516,0.0,-1.7349997758810471,-0.3499991595734014,-0.7177056074119752,0.0,-1.9499998092651367,0.19700008630752563,-0.4345150877927324,0.0
1759840256.7942576,2,-1.2050001621162323,-0.8299997448863335,-0.717703044409516,0.0,-1.7349997758810471,-0.3499991595734014,-0.7177056074119752,0.0,-1.9499998092651367,0.19700008630752563,-0.4345150917348839,0.0
1759840256.8049521,2,-1.2050001621162323,-0.8299997448863335,-0.717703044409516,0.0,-1.7349997758810471,-0.3499991595734014,-0.7177056074119752,0.0,-1.9499998092651367,0.19700008630752563,-0.43451512586873164,0.0
1759840256.815764,2,-1.2050001621162323,-0.8299997448863335,-0.717703044409516,0.0,-1.7349997758810471,-0.3499991595734014,-0.7177056074119752,0.0,-1.9499998092651367,0.19700008630752563,-0.4345151579438671,0.0
1759840256.8265505,2,-1.2050001621162323,-0.8299997448863335,-0.717703044409516,0.0,-1.7349997758810471,-0.3499991595734014,-0.7177056074119752,0.0,-1.9499998092651367,0.19700008630752563,-0.4345151893265715,0.0
1759840256.8372462,2,-1.2050001621162323,-0.8299997448863335,-0.717703044409516,0.0,-1.7349997758810471,-0.3499991595734014,-0.7177056074119752,0.0,-1.9499998092651367,0.19700008630752563,-0.4345152211485619,0.0
1759840256.848083,2,-1.2050001621162323,-0.8299997448863335,-0.717703044409516,0.0,-1.7349997758810471,-0.3499991595734014,-0.7177056074119752,0.0,-1.9499998092651367,0.19700008630752563,-0.4345152488406896,0.0
1759840256.858736,2,-1.2050001621162323,-0.8299997448863335,-0.717703044409516,0.0,-1.7349997758810471,-0.3499991595734014,-0.7177056074119752,0.0,-1.9499998092651367,0.19700008630752563,-0.434515278840264,0.0
1759840256.8689325,2,-1.2050001621162323,-0.8299997448863335,-0.717703044409516,0.0,-1.7349997758810471,-0.3499991595734014,-0.7177056074119752,0.0,-1.9499998092651367,0.19700008630752563,-0.43451531472489435,0.0
1759840256.879465,2,-1.2050001621162323,-0.8299997448863335,-0.717703044409516,0.0,-1.7349997758810471,-0.3499991595734014,-0.7177056074119752,0.0,-1.9499998092651367,0.19700008630752563,-0.4345153414027613,0.0
1759840256.88992,2,-1.2050001621162323,-0.8299997448863335,-0.717703044409516,0.0,-1.7349997758810471,-0.3499991595734014,-0.7177056074119752,0.0,-1.9499998092651367,0.19700008630752563,-0.43451536734536944,0.0
1759840256.9004812,2,-1.2050001621162323,-0.8299997448863335,-0.717703044409516,0.0,-1.7349997758810471,-0.3499991595734014,-0.7177056074119752,0.0,-1.9499998092651367,0.19700008630752563,-0.43451539018818863,0.0
1759840256.9141681,2,-1.2050001621162323,-0.8299997448863335,-0.717703044409516,0.0,-1.7349997758810471,-0.3499991595734014,-0.7177056074119752,0.0,-1.9499998092651367,0.19700008630752563,-0.4345153676823976,0.006
1759840256.936708,2,-1.2050001621162323,-0.8299997448863335,-0.717703044409516,0.0,-1.7349997758810471,-0.3499991595734014,-0.7177056074119752,0.0,-1.9499998092651367,0.19700008630752563,-0.4345152436814601,0.006
1759840256.9473302,2,-1.2050001621162323,-0.8299997448863335,-0.717703044409516,0.0,-1.7349997758810471,-0.3499991595734014,-0.7177056074119752,0.0,-1.9499998092651367,0.19700008630752563,-0.4345153230985215,0.006
1759840256.9594707,2,-1.2050001621162323,-0.8299997448863335,-0.717703044409516,0.0,-1.7349997758810471,-0.3499991595734014,-0.7177056074119752,0.0,-1.9499998092651367,0.19700008630752563,-0.4345153776372257,0.006
1759840256.9708772,2,-1.2050001621162323,-0.8299997448863335,-0.717703044409516,0.0,-1.7349997758810471,-0.3499991595734014,-0.7177056074119752,0.0,-1.9499998092651367,0.19700008630752563,-0.4345154299046534,0.006
1759840256.9829967,2,-1.2050001621162323,-0.8299997448863335,-0.717703044409516,0.0,-1.7349997758810471,-0.3499991595734014,-0.7177056074119752,0.0,-1.9499998092651367,0.19700008630752563,-0.43451546460296697,0.006
1759840256.9936714,2,-1.2050001621162323,-0.8299997448863335,-0.717703044409516,0.0,-1.7349997758810471,-0.3499991595734014,-0.7177056074119752,0.0,-1.9499998092651367,0.19700008630752563,-0.4345155095510549,0.006
1759840257.0050323,2,-1.2050001621162323,-0.8299997448863335,-0.717703044409516,0.0,-1.7349997758810471,-0.3499991595734014,-0.7177056074119752,0.0,-1.9499998092651367,0.19700008630752563,-0.4345155394776228,0.006
1759840257.0156884,2,-1.2050001621162323,-0.8299997448863335,-0.717703044409516,0.0,-1.7349997758810471,-0.3499991595734014,-0.7177056074119752,0.0,-1.9499998092651367,0.19700008630752563,-0.43451557167609417,0.006
1759840257.0268948,2,-1.2050001621162323,-0.8299997448863335,-0.717703044409516,0.0,-1.7349997758810471,-0.3499991595734014,-0.7177056074119752,0.0,-1.9499998092651367,0.19700008630752563,-0.4345155935102092,0.006
1759840257.0376575,2,-1.2050001621162323,-0.8299997448863335,-0.717703044409516,0.0,-1.7349997758810471,-0.3499991595734014,-0.7177056074119752,0.0,-1.9499998092651367,0.19700008630752563,-0.4345156168558937,0.006
1759840257.048838,2,-1.2050001621162323,-0.8299997448863335,-0.717703044409516,0.0,-1.7349997758810471,-0.3499991595734014,-0.7177056074119752,0.0,-1.9499998092651367,0.19700008630752563,-0.43451563365069745,0.006
1759840257.0595875,2,-1.2050001621162323,-0.8299997448863335,-0.717703044409516,0.0,-1.7349997758810471,-0.3499991595734014,-0.7177056074119752,0.0,-1.9499998092651367,0.19700008630752563,-0.43451565291637095,0.006
1759840257.070146,2,-1.2050001621162323,-0.8299997448863335,-0.717703044409516,0.0,-1.7349997758810471,-0.3499991595734014,-0.7177056074119752,0.0,-1.9499998092651367,0.19700008630752563,-0.434515671913136,0.006
1759840257.0816317,2,-1.2050001621162323,-0.8299997448863335,-0.717703044409516,0.0,-1.7349997758810471,-0.3499991595734014,-0.7177056074119752,0.0,-1.9499998092651367,0.19700008630752563,-0.43451568121539275,0.006
1759840257.092301,2,-1.2050001621162323,-0.8299997448863335,-0.717703044409516,0.0,-1.7349997758810471,-0.3499991595734014,-0.7177056074119752,0.0,-1.9499998092651367,0.19700008630752563,-0.43451569740744844,0.006
1759840257.1026294,2,-1.2050001621162323,-0.8299997448863335,-0.717703044409516,0.0,-1.7349997758810471,-0.3499991595734014,-0.7177056074119752,0.0,-1.9499998092651367,0.19700008630752563,-0.4345157150616857,0.006
1759840257.1134021,2,-1.2050001621162323,-0.8299997448863335,-0.717703044409516,0.0,-1.7349997758810471,-0.3499991595734014,-0.7177056074119752,0.0,-1.9499998092651367,0.19700008630752563,-0.4345157273019637,0.006
1759840257.1291697,2,-1.2050001621162323,-0.8299997448863335,-0.717703044409516,0.0,-1.7349997758810471,-0.3499991595734014,-0.7177056074119752,0.0,-1.9499998092651367,0.19700008630752563,-0.4345157036975423,0.006
1759840257.1393795,2,-1.2050001621162323,-0.8299997448863335,-0.717703044409516,0.0,-1.7349997758810471,-0.3499991595734014,-0.7177056074119752,0.0,-1.9499998092651367,0.19700008630752563,-0.43451572823300394,0.006
1759840257.1506042,2,-1.2050001621162323,-0.8299997448863335,-0.717703044409516,0.0,-1.7349997758810471,-0.3499991595734014,-0.7177056074119752,0.0,-1.9499998092651367,0.19700008630752563,-0.43451574440387475,0.006
1759840257.161394,2,-1.2050001621162323,-0.8299997448863335,-0.717703044409516,0.0,-1.7349997758810471,-0.3499991595734014,-0.7177056074119752,0.0,-1.9499998092651367,0.19700008630752563,-0.4345157611203181,0.006
1759840257.172625,2,-1.2050001621162323,-0.8299997448863335,-0.717703044409516,0.0,-1.7349997758810471,-0.3499991595734014,-0.7177056074119752,0.0,-1.9499998092651367,0.19700008630752563,-0.43451577300463384,0.006
1759840257.182923,2,-1.2050001621162323,-0.8299997448863335,-0.717703044409516,0.0,-1.7349997758810471,-0.3499991595734014,-0.7177056074119752,0.0,-1.9499998092651367,0.19700008630752563,-0.43451578938578805,0.006
1759840257.1955996,2,-1.2050001621162323,-0.8299997448863335,-0.717703044409516,0.0,-1.7349997758810471,-0.3499991595734014,-0.7177056074119752,0.0,-1.9499998092651367,0.19700008630752563,-0.4345157900828269,0.006
1759840257.2057538,2,-1.2050001621162323,-0.8299997448863335,-0.717703044409516,0.0,-1.7349997758810471,-0.3499991595734014,-0.7177056074119752,0.0,-1.9499998092651367,0.19700008630752563,-0.43451580662346595,0.006
1759840257.217517,2,-1.2050001621162323,-0.8299997448863335,-0.717703044409516,0.0,-1.7349997758810471,-0.3499991595734014,-0.7177056074119752,0.0,-1.9499998092651367,0.19700008630752563,-0.43451581285085084,0.006
1759840257.2281997,2,-1.2050001621162323,-0.8299997448863335,-0.717703044409516,0.0,-1.7349997758810471,-0.3499991595734014,-0.7177056074119752,0.0,-1.9499998092651367,0.19700008630752563,-0.4345158247771615,0.006
1759840257.239935,2,-1.2050001621162323,-0.8299997448863335,-0.717703044409516,0.0,-1.7349997758810471,-0.3499991595734014,-0.7177056074119752,0.0,-1.9499998092651367,0.19700008630752563,-0.43451583051313847,0.006
1759840257.2499437,2,-1.2050001621162323,-0.8299997448863335,-0.717703044409516,0.0,-1.7349997758810471,-0.3499991595734014,-0.7177056074119752,0.0,-1.9499998092651367,0.19700008630752563,-0.4345158448315445,0.006
1759840257.260757,2,-1.2050001621162323,-0.8299997448863335,-0.717703044409516,0.0,-1.7349997758810471,-0.3499991595734014,-0.7177056074119752,0.0,-1.9499998092651367,0.19700008630752563,-0.4345158535181604,0.006
1759840257.271411,2,-1.2050001621162323,-0.8299997448863335,-0.717703044409516,0.0,-1.7349997758810471,-0.3499991595734014,-0.7177056074119752,0.0,-1.9499998092651367,0.19700008630752563,-0.4345158619867053,0.006
1759840257.283087,2,-1.2050001621162323,-0.8299997448863335,-0.717703044409516,0.0,-1.7349997758810471,-0.3499991595734014,-0.7177056074119752,0.0,-1.9499998092651367,0.19700008630752563,-0.4345158653990318,0.006
1759840257.2933655,2,-1.2050001621162323,-0.8299997448863335,-0.717703044409516,0.0,-1.7349997758810471,-0.3499991595734014,-0.7177056074119752,0.0,-1.9499998092651367,0.19700008630752563,-0.4345158754024574,0.006
1759840257.3048491,2,-1.2050001621162323,-0.8299997448863335,-0.717703044409516,0.0,-1.7349997758810471,-0.3499991595734014,-0.7177056074119752,0.0,-1.9499998092651367,0.19700008630752563,-0.43451587962936244,0.006
1759840257.3151324,2,-1.2050001621162323,-0.8299997448863335,-0.717703044409516,0.0,-1.7349997758810471,-0.3499991595734014,-0.7177056074119752,0.0,-1.9499998092651367,0.19700008630752563,-0.4345158888338698,0.006
1759840257.3285933,2,-1.2050001621162323,-0.8299997448863335,-0.717703044409516,0.0,-1.7349997758810471,-0.3499991595734014,-0.7177056074119752,0.0,-1.9499998092651367,0.19700008630752563,-0.4345158852769728,0.006
1759840257.3401003,2,-1.2050001621162323,-0.8299997448863335,-0.717703044409516,0.0,-1.7349997758810471,-0.3499991595734014,-0.7177056074119752,0.0,-1.9499998092651367,0.19700008630752563,-0.43451589143474223,0.006
1759840257.3508656,2,-1.2050001621162323,-0.8299997448863335,-0.717703044409516,0.0,-1.7349997758810471,-0.3499991595734014,-0.7177056074119752,0.0,-1.9499998092651367,0.19700008630752563,-0.43451590067247636,0.006
1759840257.3620853,2,-1.2050001621162323,-0.8299997448863335,-0.717703044409516,0.0,-1.7349997758810471,-0.3499991595734014,-0.7177056074119752,0.0,-1.9499998092651367,0.19700008630752563,-0.43451590736549406,0.006
1759840257.3730414,2,-1.2050001621162323,-0.8299997448863335,-0.717703044409516,0.0,-1.7349997758810471,-0.3499991595734014,-0.7177056074119752,0.0,-1.9499998092651367,0.19700008630752563,-0.4345159143524633,0.006
1759840257.3836718,2,-1.2050001621162323,-0.8299997448863335,-0.717703044409516,0.0,-1.7349997758810471,-0.3499991595734014,-0.7177056074119752,0.0,-1.9499998092651367,0.19700008630752563,-0.43451592175103926,0.006
1759840257.394906,2,-1.2050001621162323,-0.8299997448863335,-0.717703044409516,0.0,-1.7349997758810471,-0.3499991595734014,-0.7177056074119752,0.0,-1.9499998092651367,0.19700008630752563,-0.4345159264885794,0.006
1759840257.405196,2,-1.2050001621162323,-0.8299997448863335,-0.717703044409516,0.0,-1.7349997758810471,-0.3499991595734014,-0.7177056074119752,0.0,-1.9499998092651367,0.19700008630752563,-0.43451593381222864,0.006
1759840257.4154935,2,-1.2050001621162323,-0.8299997448863335,-0.717703044409516,0.0,-1.7349997758810471,-0.3499991595734014,-0.7177056074119752,0.0,-1.9499998092651367,0.19700008630752563,-0.43451594025565043,0.006
1759840257.4261415,2,-1.2050001621162323,-0.8299997448863335,-0.717703044409516,0.0,-1.7349997758810471,-0.3499991595734014,-0.7177056074119752,0.0,-1.9499998092651367,0.19700008630752563,-0.4345159448949829,0.006
1759840257.4368684,2,-1.2050001621162323,-0.8299997448863335,-0.717703044409516,0.0,-1.7349997758810471,-0.3499991595734014,-0.7177056074119752,0.0,-1.9499998092651367,0.19700008630752563,-0.4345159489772463,0.006
1759840257.447075,2,-1.2050001621162323,-0.8299997448863335,-0.717703044409516,0.0,-1.7349997758810471,-0.3499991595734014,-0.7177056074119752,0.0,-1.9499998092651367,0.19700008630752563,-0.43451595425760914,0.006
1759840257.459187,2,-1.2050001621162323,-0.8299997448863335,-0.717703044409516,0.0,-1.7349997758810471,-0.3499991595734014,-0.7177056074119752,0.0,-1.9499998092651367,0.19700008630752563,-0.434515954313337,0.006
1759840257.4695632,2,-1.2050001621162323,-0.8299997448863335,-0.717703044409516,0.0,-1.7349997758810471,-0.3499991595734014,-0.7177056074119752,0.0,-1.9499998092651367,0.19700008630752563,-0.4345159594682233,0.006
1759840257.4811034,2,-1.2050001621162323,-0.8299997448863335,-0.717703044409516,0.0,-1.7349997758810471,-0.3499991595734014,-0.7177056074119752,0.0,-1.9499998092651367,0.19700008630752563,-0.4345159616710674,0.006
1759840257.491749,2,-1.2050001621162323,-0.8299997448863335,-0.717703044409516,0.0,-1.7349997758810471,-0.3499991595734014,-0.7177056074119752,0.0,-1.9499998092651367,0.19700008630752563,-0.43451596615715893,0.006
1759840257.503704,2,-1.2050001621162323,-0.8299997448863335,-0.717703044409516,0.0,-1.7349997758810471,-0.3499991595734014,-0.7177056074119752,0.0,-1.9499998092651367,0.19700008630752563,-0.4345159675833443,0.006
1759840257.5151234,2,-1.2050001621162323,-0.8299997448863335,-0.717703044409516,0.0,-1.7349997758810471,-0.3499991595734014,-0.7177056074119752,0.0,-1.9499998092651367,0.19700008630752563,-0.43451597063990555,0.006
1759840257.532105,2,-1.2050001621162323,-0.8299997448863335,-0.717703044409516,0.0,-1.7349997758810471,-0.3499991595734014,-0.7177056074119752,0.0,-1.9499998092651367,0.19700008630752563,-0.4345159630402513,0.006
1759840257.5429907,2,-1.2050001621162323,-0.8299997448863335,-0.717703044409516,0.0,-1.7349997758810471,-0.3499991595734014,-0.7177056074119752,0.0,-1.9499998092651367,0.19700008630752563,-0.43451597049106994,0.006
1759840257.553902,2,-1.2050001621162323,-0.8299997448863335,-0.717703044409516,0.0,-1.7349997758810471,-0.3499991595734014,-0.7177056074119752,0.0,-1.9499998092651367,0.19700008630752563,-0.43451597741665005,0.006
1759840257.5641446,2,-1.2050001621162323,-0.8299997448863335,-0.717703044409516,0.0,-1.7349997758810471,-0.3499991595734014,-0.7177056074119752,0.0,-1.9499998092651367,0.19700008630752563,-0.43451598426059945,0.006
1759840257.575306,2,-1.2050001621162323,-0.8299997448863335,-0.717703044409516,0.0,-1.7349997758810471,-0.3499991595734014,-0.7177056074119752,0.0,-1.9499998092651367,0.19700008630752563,-0.4345159882408822,0.006
1759840257.585621,2,-1.2050001621162323,-0.8299997448863335,-0.717703044409516,0.0,-1.7349997758810471,-0.3499991595734014,-0.7177056074119752,0.0,-1.9499998092651367,0.19700008630752563,-0.43451599304438915,0.006
1759840257.596841,2,-1.2050001621162323,-0.8299997448863335,-0.717703044409516,0.0,-1.7349997758810471,-0.3499991595734014,-0.7177056074119752,0.0,-1.9499998092651367,0.19700008630752563,-0.4345159957078266,0.006
1759840257.6069562,2,-1.2050001621162323,-0.8299997448863335,-0.717703044409516,0.0,-1.7349997758810471,-0.3499991595734014,-0.7177056074119752,0.0,-1.9499998092651367,0.19700008630752563,-0.4345159998711914,0.006
1759840257.618434,2,-1.2050001621162323,-0.8299997448863335,-0.717703044409516,0.0,-1.7349997758810471,-0.3499991595734014,-0.7177056074119752,0.0,-1.9499998092651367,0.19700008630752563,-0.43451600146685365,0.006
1759840257.628456,2,-1.2050001621162323,-0.8299997448863335,-0.717703044409516,0.0,-1.7349997758810471,-0.3499991595734014,-0.7177056074119752,0.0,-1.9499998092651367,0.19700008630752563,-0.43451600521625444,0.006
1759840257.6395698,2,-1.2050001621162323,-0.8299997448863335,-0.717703044409516,0.0,-1.7349997758810471,-0.3499991595734014,-0.7177056074119752,0.0,-1.9499998092651367,0.19700008630752563,-0.4345160070105152,0.006
1759840257.6499903,2,-1.2050001621162323,-0.8299997448863335,-0.717703044409516,0.0,-1.7349997758810471,-0.3499991595734014,-0.7177056074119752,0.0,-1.9499998092651367,0.19700008630752563,-0.43451600970213994,0.006
1759840257.6617174,2,-1.2050001621162323,-0.8299997448863335,-0.717703044409516,0.0,-1.7349997758810471,-0.3499991595734014,-0.7177056074119752,0.0,-1.9499998092651367,0.19700008630752563,-0.4345160104971236,0.006
1759840257.6732543,2,-1.2050001621162323,-0.8299997448863335,-0.717703044409516,0.0,-1.7349997758810471,-0.3499991595734014,-0.7177056074119752,0.0,-1.9499998092651367,0.19700008630752563,-0.4345160118213372,0.006
1759840257.6837592,2,-1.2050001621162323,-0.8299997448863335,-0.717703044409516,0.0,-1.7349997758810471,-0.3499991595734014,-0.7177056074119752,0.0,-1.9499998092651367,0.19700008630752563,-0.4345160146270981,0.006
1759840257.6942382,2,-1.2050001621162323,-0.8299997448863335,-0.717703044409516,0.0,-1.7349997758810471,-0.3499991595734014,-0.7177056074119752,0.0,-1.9499998092651367,0.19700008630752563,-0.4345160172166107,0.006
1759840257.705516,2,-1.2050001621162323,-0.8299997448863335,-0.717703044409516,0.0,-1.7349997758810471,-0.3499991595734014,-0.7177056074119752,0.0,-1.9499998092651367,0.19700008630752563,-0.4345160186057182,0.006
1759840257.7169836,2,-1.2050001621162323,-0.8299997448863335,-0.717703044409516,0.0,-1.7349997758810471,-0.3499991595734014,-0.7177056074119752,0.0,-1.9499998092651367,0.19700008630752563,-0.4345160198309479,0.006
1759840257.73238,2,-1.2050001621162323,-0.8299997448863335,-0.717703044409516,0.0,-1.7349997758810471,-0.3499991595734014,-0.7177056074119752,0.0,-1.9499998092651367,0.19700008630752563,-0.43451601716154725,0.006
1759840257.7416182,2,-1.2050001621162323,-0.8299997448863335,-0.717703044409516,0.0,-1.7349997758810471,-0.3499991595734014,-0.7177056074119752,0.0,-1.9499998092651367,0.19700008630752563,-0.4345160220198956,0.006
1759840257.752954,2,-1.2050001621162323,-0.8299997448863335,-0.717703044409516,0.0,-1.7349997758810471,-0.3499991595734014,-0.7177056074119752,0.0,-1.9499998092651367,0.19700008630752563,-0.43451602419266244,0.006
1759840257.7635813,2,-1.2050001621162323,-0.8299997448863335,-0.717703044409516,0.0,-1.7349997758810471,-0.3499991595734014,-0.7177056074119752,0.0,-1.9499998092651367,0.19700008630752563,-0.4345160266909449,0.006
1759840257.7739236,2,-1.2050001621162323,-0.8299997448863335,-0.717703044409516,0.0,-1.7349997758810471,-0.3499991595734014,-0.7177056074119752,0.0,-1.9499998092651367,0.19700008630752563,-0.43451602912279697,0.006
1759840257.785437,2,-1.2050001621162323,-0.8299997448863335,-0.717703044409516,0.0,-1.7349997758810471,-0.3499991595734014,-0.7177056074119752,0.0,-1.9499998092651367,0.19700008630752563,-0.4345160301778179,0.006
1759840257.7956474,2,-1.2050001621162323,-0.8299997448863335,-0.717703044409516,0.0,-1.7349997758810471,-0.3499991595734014,-0.7177056074119752,0.0,-1.9499998092651367,0.19700008630752563,-0.43451603235321734,0.006
1759840257.806849,2,-1.2050001621162323,-0.8299997448863335,-0.717703044409516,0.0,-1.7349997758810471,-0.3499991595734014,-0.7177056074119752,0.0,-1.9499998092651367,0.19700008630752563,-0.434516033474333,0.006
1759840257.8181949,2,-1.2050001621162323,-0.8299997448863335,-0.717703044409516,0.0,-1.7349997758810471,-0.3499991595734014,-0.7177056074119752,0.0,-1.9499998092651367,0.19700008630752563,-0.4345160344619359,0.006
1759840257.8299067,2,-1.2050001621162323,-0.8299997448863335,-0.717703044409516,0.0,-1.7349997758810471,-0.3499991595734014,-0.7177056074119752,0.0,-1.9499998092651367,0.19700008630752563,-0.43451603524380644,0.006
1759840257.8411772,2,-1.2050001621162323,-0.8299997448863335,-0.717703044409516,0.0,-1.7349997758810471,-0.3499991595734014,-0.7177056074119752,0.0,-1.9499998092651367,0.19700008630752563,-0.4345160364841085,0.006
1759840257.8521643,2,-1.2050001621162323,-0.8299997448863335,-0.717703044409516,0.0,-1.7349997758810471,-0.3499991595734014,-0.7177056074119752,0.0,-1.9499998092651367,0.19700008630752563,-0.43451603792772536,0.006
1759840257.8627694,2,-1.2050001621162323,-0.8299997448863335,-0.717703044409516,0.0,-1.7349997758810471,-0.3499991595734014,-0.7177056074119752,0.0,-1.9499998092651367,0.19700008630752563,-0.4345160395327703,0.006
1759840257.8737779,2,-1.2050001621162323,-0.8299997448863335,-0.717703044409516,0.0,-1.7349997758810471,-0.3499991595734014,-0.7177056074119752,0.0,-1.9499998092651367,0.19700008630752563,-0.43451604069478833,0.006
1759840257.884078,2,-1.2050001621162323,-0.8299997448863335,-0.717703044409516,0.0,-1.7349997758810471,-0.3499991595734014,-0.7177056074119752,0.0,-1.9499998092651367,0.19700008630752563,-0.4345160422309249,0.006
1759840257.895286,2,-1.2050001621162323,-0.8299997448863335,-0.717703044409516,0.0,-1.7349997758810471,-0.3499991595734014,-0.7177056074119752,0.0,-1.9499998092651367,0.19700008630752563,-0.4345160430291912,0.006
1759840257.9067445,2,-1.2050001621162323,-0.8299997448863335,-0.717703044409516,0.0,-1.7349997758810471,-0.3499991595734014,-0.7177056074119752,0.0,-1.9499998092651367,0.19700008630752563,-0.4345160436819473,0.006
1759840257.9183095,2,-1.2050001621162323,-0.8299997448863335,-0.717703044409516,0.0,-1.7349997758810471,-0.3499991595734014,-0.7177056074119752,0.0,-1.9499998092651367,0.19700008630752563,-0.43451604435749047,0.006
1759840257.9357266,2,-1.2050001621162323,-0.8299997448863335,-0.717703044409516,0.0,-1.7349997758810471,-0.3499991595734014,-0.7177056074119752,0.0,-1.9499998092651367,0.19700008630752563,-0.434516041964848,0.006
1759840257.9461706,2,-1.2050001621162323,-0.8299997448863335,-0.717703044409516,0.0,-1.7349997758810471,-0.3499991595734014,-0.7177056074119752,0.0,-1.9499998092651367,0.19700008630752563,-0.4345160442790607,0.006
1759840257.956311,2,-1.2050001621162323,-0.8299997448863335,-0.717703044409516,0.0,-1.7349997758810471,-0.3499991595734014,-0.7177056074119752,0.0,-1.9499998092651367,0.19700008630752563,-0.4345160465478273,0.006
1759840257.9670293,2,-1.2050001621162323,-0.8299997448863335,-0.717703044409516,0.0,-1.7349997758810471,-0.3499991595734014,-0.7177056074119752,0.0,-1.9499998092651367,0.19700008630752563,-0.434516048065543,0.006
1759840257.978476,2,-1.2050001621162323,-0.8299997448863335,-0.717703044409516,0.0,-1.7349997758810471,-0.3499991595734014,-0.7177056074119752,0.0,-1.9499998092651367,0.19700008630752563,-0.43451604896418067,0.006
1759840257.9891777,2,-1.2050001621162323,-0.8299997448863335,-0.717703044409516,0.0,-1.7349997758810471,-0.3499991595734014,-0.7177056074119752,0.0,-1.9499998092651367,0.19700008630752563,-0.4345160501240102,0.006
1759840257.999876,2,-1.2050001621162323,-0.8299997448863335,-0.717703044409516,0.0,-1.7349997758810471,-0.3499991595734014,-0.7177056074119752,0.0,-1.9499998092651367,0.19700008630752563,-0.434516051151693,0.006
1759840258.0105724,2,-1.2050001621162323,-0.8299997448863335,-0.717703044409516,0.0,-1.7349997758810471,-0.3499991595734014,-0.7177056074119752,0.0,-1.9499998092651367,0.19700008630752563,-0.43451605205477856,0.006
1759840258.0218616,2,-1.2050001621162323,-0.8299997448863335,-0.717703044409516,0.0,-1.7349997758810471,-0.3499991595734014,-0.7177056074119752,0.0,-1.9499998092651367,0.19700008630752563,-0.4345160526208005,0.006
