timestamp,observer_vehicle_id,vehicle_0_x,vehicle_0_y,vehicle_0_theta,vehicle_0_velocity,vehicle_1_x,vehicle_1_y,vehicle_1_theta,vehicle_1_velocity,vehicle_2_x,vehicle_2_y,vehicle_2_theta,vehicle_2_velocity
1759840254.4252932,1,0.0,0.0,0.0,0.0,-1.735,-0.35,-0.7801621756414646,0.0,0.0,0.0,0.0,0.0
1759840254.4362404,1,0.0,0.0,0.0,0.0,-1.735,-0.35,-0.7801621756414646,0.0,0.0,0.0,0.0,0.0
1759840254.4464526,1,0.0,0.0,0.0,0.0,-1.735,-0.35,-0.7801621756414646,0.0,0.0,0.0,0.0,0.0
1759840254.457814,1,0.0,0.0,0.0,0.0,-1.735,-0.35,-0.7801621756414646,0.0,0.0,0.0,0.0,0.0
1759840254.4682357,1,0.0,0.0,0.0,0.0,-1.735,-0.35,-0.7801621756414646,0.0,0.0,0.0,0.0,0.0
1759840254.4793155,1,0.0,0.0,0.0,0.0,-1.735,-0.35,-0.7801621756414646,0.0,0.0,0.0,0.0,0.0
1759840254.4905453,1,0.0,0.0,0.0,0.0,-1.735,-0.35,-0.7801621756414646,0.0,0.0,0.0,0.0,0.0
1759840254.5013871,1,0.0,0.0,0.0,0.0,-1.735,-0.35,-0.7801621756414646,0.0,0.0,0.0,0.0,0.0
1759840254.5128589,1,0.0,0.0,0.0,0.0,-1.735,-0.35,-0.7801621756414646,0.0,0.0,0.0,0.0,0.0
1759840254.52356,1,0.0,0.0,0.0,0.0,-1.735,-0.35,-0.7801621756414646,0.0,0.0,0.0,0.0,0.0
1759840254.5345848,1,0.0,0.0,0.0,0.0,-1.735,-0.35,-0.7801621756414646,0.0,0.0,0.0,0.0,0.0
1759840254.5447774,1,0.0,0.0,0.0,0.0,-1.735,-0.35,-0.7801621756414646,0.0,0.0,0.0,0.0,0.0
1759840254.5555878,1,0.0,0.0,0.0,0.0,-1.735,-0.35,-0.7801621756414646,0.0,0.0,0.0,0.0,0.0
1759840254.5664296,1,0.0,0.0,0.0,0.0,-1.735,-0.35,-0.7801621756414646,0.0,0.0,0.0,0.0,0.0
1759840254.5779374,1,0.0,0.0,0.0,0.0,-1.735,-0.35,-0.7801621756414646,0.0,0.0,0.0,0.0,0.0
1759840254.5884829,1,0.0,0.0,0.0,0.0,-1.735,-0.35,-0.7801621756414646,0.0,0.0,0.0,0.0,0.0
1759840254.599279,1,0.0,0.0,0.0,0.0,-1.735,-0.35,-0.7801621756414646,0.0,0.0,0.0,0.0,0.0
1759840254.6102092,1,0.0,0.0,0.0,0.0,-1.735,-0.35,-0.7801621756414646,0.0,0.0,0.0,0.0,0.0
1759840254.6223443,1,-0.236973224401474,-0.16322637033462525,1.743813385958273,0.0,-1.734999777754148,-0.3499991665780544,-0.7230016739206171,0.0,0.0,0.0,0.0,0.0
1759840254.633883,1,-0.4251097400513,-0.29281417779467134,-3.132813310921542,0.0,-1.7349997765108072,-0.34999916191552677,-0.7181155076054715,0.0,0.0,0.0,0.0,0.0
1759840254.6445959,1,-0.5750108530653016,-0.39606556684166005,-0.7836542727517484,0.0,-1.734999776120719,-0.34999916045269625,-0.7176582417410096,0.0,0.0,0.0,0.0,0.0
1759840254.6554646,1,-0.6947303358311544,-0.478527949161708,1.1138343452307604,0.0,-1.7349997759757527,-0.349999159909073,-0.7175989091010582,0.0,0.0,0.0,0.0,0.0
1759840254.6660278,1,-0.7906210131287029,-0.5445771293749572,2.65460458902036,0.0,-1.7349997759206006,-0.3499991597022523,-0.7175932420653339,0.0,0.0,0.0,0.0,0.0
1759840254.6762373,1,-0.8721175046845221,-0.6007116422308325,-2.406861519293209,0.0,-1.7349997758995466,-0.3499991596232997,-0.7176013038210023,0.0,0.0,0.0,0.0,0.0
1759840254.6869063,1,-0.9368756637202442,-0.6453168472097945,-0.19330106717023174,0.0,-1.7349997758915052,-0.34999915959314504,-0.7176115759583137,0.0,0.0,0.0,0.0,0.0
1759840254.698548,1,-0.9884116396340928,-0.6808146563454746,1.5908596549213965,0.0,-1.734999775888434,-0.34999915958162714,-0.7176211290325938,0.0,0.0,0.0,0.0,0.0
1759840254.7089791,1,-1.029590075732753,-0.7091782264383276,3.0369043406097496,0.0,-1.7349997758872606,-0.34999915957722766,-0.7176326020844,0.0,0.0,0.0,0.0,0.0
1759840254.719103,1,-1.0625843737481833,-0.7319045893867152,-2.067560378432229,0.0,-1.7349997758868125,-0.3499991595755472,-0.7176424108762163,0.0,0.0,0.0,0.0,0.0
1759840254.7298803,1,-1.0906032590654458,-0.7512039045844976,0.082966515736737,0.0,-1.7349997758866413,-0.34999915957490535,-0.717649513512672,0.0,0.0,0.0,0.0,0.0
1759840254.7410429,1,-1.1128543108285598,-0.7665303551765181,1.812185717580164,0.0,-1.734999775886576,-0.3499991595746602,-0.7176551824559887,0.0,0.0,0.0,0.0,0.0
1759840254.7516663,1,-1.1305815796403567,-0.7787408390883781,-3.072751678511191,0.0,-1.7349997758865512,-0.34999915957456657,-0.7176606335110591,0.0,0.0,0.0,0.0,0.0
1759840254.7620296,1,-1.144744177709573,-0.7884959896256807,-0.7396058421404212,0.0,-1.7349997758865416,-0.34999915957453076,-0.7176653975127465,0.0,0.0,0.0,0.0,0.0
1759840254.7732155,1,-1.156076683384759,-0.7963017819164728,1.1494691160135082,0.0,-1.7349997758865379,-0.3499991595745171,-0.7176687485445505,0.0,0.0,0.0,0.0,0.0
1759840254.7843459,1,-1.1656978375648572,-0.8029288009782832,2.6672306868670637,0.0,-1.7349997758865365,-0.3499991595745119,-0.7176717794395646,0.0,0.0,0.0,0.0,0.0
1759840254.7948098,1,-1.173344665068928,-0.8081959103794275,-2.389588817204365,0.0,-1.734999775886536,-0.3499991595745099,-0.7176748851542456,0.0,0.0,0.0,0.0,0.0
1759840254.805534,1,-1.1794357923471332,-0.8123914586291456,-0.1829285188887144,0.0,-1.7349997758865359,-0.3499991595745091,-0.7176773635684626,0.0,0.0,0.0,0.0,0.0
1759840254.8200839,1,-1.1842804717328204,-0.8157284577080838,1.6006818560824414,0.0,-1.7349997758865356,-0.34999915957450883,-0.717677609043653,0.0,0.0,0.0,0.0,0.0
1759840254.827175,1,-1.188177650093475,-0.8184128212262111,3.0495677370582195,0.0,-1.7349997758865356,-0.3499991595745087,-0.7176819258460281,0.0,0.0,0.0,0.0,0.0
1759840254.8382425,1,-1.191495285506378,-0.8206979251517975,2.3066090795486107,0.0,-1.7349997758865356,-0.34999915957450867,-0.7176834097071527,0.0,0.0,0.0,0.0,0.0
1759840254.8491225,1,-1.1941292500715865,-0.822512133772915,1.7167531931289588,0.0,-1.7349997758865356,-0.34999915957450867,-0.7176847202284549,0.0,0.0,0.0,0.0,0.0
1759840254.859836,1,-1.1962261980989821,-0.8239564588939082,1.247157985276379,0.0,-1.7349997758865356,-0.34999915957450867,-0.7176859991437254,0.0,0.0,0.0,0.0,0.0
1759840254.8706808,1,-1.1978996244570626,-0.8251090729289395,0.8724071625653733,0.0,-1.7349997758865356,-0.34999915957450867,-0.7176871124158327,0.0,0.0,0.0,0.0,0.0
1759840254.8816357,1,-1.1992383271962932,-0.8260311377443535,0.5726150919614105,0.0,-1.7349997758865356,-0.34999915957450867,-0.7176880982978737,0.0,0.0,0.0,0.0,0.0
1759840254.8923483,1,-1.20037361159336,-0.8268130931160332,0.31837697759360106,0.0,-1.7349997758865356,-0.34999915957450867,-0.7176891022069363,0.0,0.0,0.0,0.0,0.0
1759840254.903511,1,-1.2012748759698963,-0.8274338613767059,0.11654582741707815,0.0,-1.7349997758865356,-0.34999915957450867,-0.7176898737505262,0.0,0.0,0.0,0.0,0.0
1759840254.9139907,1,-1.2019927636755707,-0.8279283243933433,-0.044219542995903166,0.0,-1.7349997758865356,-0.34999915957450867,-0.7176908206725994,0.0,0.0,0.0,0.0,0.0
1759840254.9254138,1,-1.2025654388211886,-0.8283227686466953,-0.17246568955030953,0.0,-1.7349997758865356,-0.34999915957450867,-0.7176913954206334,0.0,0.0,0.0,0.0,0.0
1759840254.9365096,1,-1.2030236609374594,-0.828638380528763,-0.2750809700062928,0.0,-1.7349997758865356,-0.34999915957450867,-0.7176920610896005,0.0,-0.3836949920654297,0.03876303253173829,1.1711384947455985,0.0
1759840254.9478009,1,-1.2033911808582347,-0.8288915190172264,-0.35738419895221957,0.0,-1.7349997758865356,-0.34999915957450867,-0.7176926523796309,0.0,-0.6883544879508591,0.06954145339811243,2.1154619541602906,0.0
1759840254.9580636,1,-1.2037050929842363,-0.8291077338034037,-0.42768237903647255,0.0,-1.7349997758865356,-0.34999915957450867,-0.7176934815208753,0.0,-0.9311655649742432,0.0940715981025261,2.8813405084927575,0.0
1759840254.968787,1,-1.2039549833811227,-0.8292798520309435,-0.48364339062721656,0.0,-1.7349997758865356,-0.34999915957450867,-0.7176940921778012,0.0,-1.1250611622484428,0.11366002510920167,-2.776252640311855,0.0
1759840254.979205,1,-1.2041544783911104,-0.8294172591820382,-0.5283187471247871,0.0,-1.7349997758865356,-0.34999915957450867,-0.7176947069068582,0.0,-1.2803374246261061,0.12934690905197074,-1.078836387962763,0.0
1759840254.9898674,1,-1.20431409202583,-0.8295271970437623,-0.5640629796918335,0.0,-1.7349997758865356,-0.34999915957450867,-0.717695199828233,0.0,-1.40495834499449,0.14193681741739209,0.2977052500123796,0.0
1759840255.0008166,1,-1.2044420779429286,-0.8296153505281519,-0.5927244307897789,0.0,-1.7349997758865356,-0.34999915957450867,-0.71769559261746,0.0,-1.5051943764743525,0.15206322675151152,1.4196826827523064,0.0
1759840255.0114782,1,-1.2045449981586862,-0.8296862393871673,-0.6157726129476174,0.0,-1.7349997758865356,-0.34999915957450867,-0.7176960337165692,0.0,-1.590790749167415,0.1607106551722978,2.3195058795709653,0.0
1759840255.0251622,1,-1.2046276924401829,-0.8297431971307871,-0.6342913543758192,0.0,-1.7349997758865356,-0.34999915957450867,-0.7176958729341578,0.0,-1.6589322585620845,0.16759469483934902,3.0537084200207687,0.0
1759840255.0360322,1,-1.204698421580033,-0.8297919135854332,-0.6501305953561349,0.0,-1.7349997758865356,-0.34999915957450867,-0.7176963953856371,0.0,-1.7135146356236821,0.17310891447070018,-2.6269681871319586,0.0
1759840255.0467207,1,-1.2047550747646552,-0.8298309348757393,-0.6628176355977289,0.0,-1.7349997758865356,-0.34999915957450867,-0.7176969282513994,0.0,-1.7573559345828902,0.17753800980145093,-0.963879401229544,0.0
1759840255.0575974,1,-1.204800557905341,-0.8298622625204,-0.6730032313421429,0.0,-1.7349997758865356,-0.34999915957450867,-0.7176973590803382,0.0,-1.792650564485316,0.18110367241210626,0.3897429000352324,0.0
1759840255.06777,1,-1.2048371942176233,-0.8298874966919095,-0.6812076486459799,0.0,-1.7349997758865356,-0.34999915957450867,-0.7176978547978372,0.0,-1.8211586775765338,0.18398372281157802,1.4970428517614434,0.0
1759840255.0784466,1,-1.20486675813671,-0.8299078595766611,-0.6878282584784813,0.0,-1.7349997758865356,-0.34999915957450867,-0.7176981998480425,0.0,-1.8455989527819048,0.18645281728104374,2.387276753674262,0.0
1759840255.0894618,1,-1.204890664987665,-0.8299243260150025,-0.6931820118842043,0.0,-1.7349997758865356,-0.34999915957450867,-0.7176984574585035,0.0,-1.865173083794106,0.18843030641407124,3.1148561790440215,0.0
1759840255.1007712,1,-1.204911250017306,-0.8299385044662748,-0.697791869232447,0.0,-1.7349997758865356,-0.34999915957450867,-0.7176986666316498,0.0,-1.8808853969262906,0.1900176529202458,-2.5691351735748102,0.0
1759840255.1113255,1,-1.2049277774613556,-0.8299498881545279,-0.7014930618334793,0.0,-1.7349997758865356,-0.34999915957450867,-0.717698990615183,0.0,-1.893541459560358,0.19129623976071308,-0.9216132160908967,0.0
1759840255.1214101,1,-1.2049410867038162,-0.8299590552263751,-0.7044735632087991,0.0,-1.7349997758865356,-0.34999915957450867,-0.7176993509855834,0.0,-1.9037661085781703,0.1923291914819998,0.42323693518284444,0.0
1759840255.1321542,1,-1.20495182185657,-0.8299664493298997,-0.7068776172067812,0.0,-1.7349997758865356,-0.34999915957450867,-0.7176995772519934,0.0,-1.912039724065891,0.1931650387902465,1.5263777082143692,0.0
1759840255.1430843,1,-1.2049605005508919,-0.8299724269965193,-0.7088211433269747,0.0,-1.7349997758865356,-0.34999915957450867,-0.7176997651892822,0.0,-1.9187497835855611,0.19384292685454135,2.4363965346459975,0.0
1759840255.154455,1,-1.2049675309337753,-0.8299772693476295,-0.7103955429154231,0.0,-1.7349997758865356,-0.34999915957450867,-0.7176999018071637,0.0,-1.924533593128015,0.19442723992113797,-3.121502278886269,0.0
1759840255.1646192,1,-1.2049732487815077,-0.8299812076575017,-0.7116760104612343,0.0,-1.7349997758865356,-0.34999915957450867,-0.7177001944422976,0.0,-1.9291951621528691,0.19489817792005912,-1.373018649535905,0.0
1759840255.175375,1,-1.2049781890509672,-0.8299846103909942,-0.7127823453982228,0.0,-1.7349997758865356,-0.34999915957450867,-0.717700391479589,0.0,-1.9329586869154705,0.1952783904217168,0.053390086246767575,0.0
1759840255.1855786,1,-1.204982177633359,-0.829987357626343,-0.713675557415309,0.0,-1.7349997758865356,-0.34999915957450867,-0.7177006343297059,0.0,-1.936006626236154,0.1955863104453961,1.222761991568529,0.0
1759840255.1968927,1,-1.2049854015069588,-0.8299895781494874,-0.7143975188437521,0.0,-1.7349997758865356,-0.34999915957450867,-0.7177007372272008,0.0,-1.938477759002466,0.19583595821717223,2.1867349800763884,0.0
1759840255.2082129,1,-1.2049880140553173,-0.8299913776071635,-0.714982578737203,0.0,-1.7349997758865356,-0.34999915957450867,-0.7177008522255672,0.0,-1.9404864202422678,0.1960388845065266,2.9864115992610056,0.0
1759840255.2258582,1,-1.2049901213255387,-0.8299928290419524,-0.7154544855201532,0.0,-1.7349997758865356,-0.34999915957450867,-0.7177003926507322,0.0,-1.9421113393854443,0.19620304300458086,-2.6244312434227273,0.0
1759840255.2304158,1,-1.20499185390479,-0.8299940223990142,-0.715842483173404,0.0,-1.7349997758865356,-0.34999915957450867,-0.7177013190611524,0.0,-1.943541291186278,0.19634752393989155,-2.227462859133223,0.0
1759840255.2411854,1,-1.2049932696254482,-0.8299949975118373,-0.7161595228081805,0.0,-1.7349997758865356,-0.34999915957450867,-0.717701505199047,0.0,-1.94469812287853,0.1964644090858078,-1.9063152459755066,0.0
1759840255.252525,1,-1.2049945031776923,-0.8299958471516332,-0.7164357672428996,0.0,-1.7349997758865356,-0.34999915957450867,-0.7177015842169396,0.0,-1.945635722245065,0.19655914321135295,-1.6460286367154926,0.0
1759840255.2627912,1,-1.2049955043417693,-0.8299965367282978,-0.7166599701542963,0.0,-1.7349997758865356,-0.34999915957450867,-0.7177017633660778,0.0,-1.9463985474474763,0.19663621832581396,-1.4342610177510147,0.0
1759840255.2740138,1,-1.204996317928385,-0.8299970971063195,-0.7168421665516099,0.0,-1.7349997758865356,-0.34999915957450867,-0.717701852698541,0.0,-1.9470199507076686,0.19669900430516332,-1.2617534912406752,0.0
1759840255.2849655,1,-1.2049969809836447,-0.829997553802125,-0.716990652622106,0.0,-1.7349997758865356,-0.34999915957450867,-0.7177019690725892,0.0,-1.9475276029428714,0.1967502969918902,-1.1208243442079502,0.0
1759840255.2956474,1,-1.204997522877598,-0.8299979270450664,-0.7171120055599541,0.0,-1.7349997758865356,-0.34999915957450867,-0.7177021076630368,0.0,-1.9479434893855572,0.1967923177524412,-1.0053702644938154,0.0
1759840255.3066165,1,-1.2049979666721358,-0.8299982327195948,-0.7172113898963695,0.0,-1.7349997758865356,-0.34999915957450867,-0.717702218420925,0.0,-1.9483069232194072,0.19682903875255292,-0.9044775338888582,0.0
1759840255.3171782,1,-1.204998331204212,-0.8299984838001312,-0.7172930240207732,0.0,-1.7349997758865356,-0.34999915957450867,-0.7177023556139588,0.0,-1.9486025478300215,0.19685890837488387,-0.8224092963697164,0.0
1759840255.3286183,1,-1.2049986510775739,-0.8299987041208668,-0.7173646571732473,0.0,-1.7349997758865356,-0.34999915957450867,-0.7177024248073085,0.0,-1.9488433512823131,0.19688323892084555,-0.7555599400963711,0.0
1759840255.339381,1,-1.2049989118144524,-0.8299988837098784,-0.7174230471700527,0.0,-1.7349997758865356,-0.34999915957450867,-0.717702545846322,0.0,-1.9490401654480862,0.19690312483220054,-0.7009224331911016,0.0
1759840255.3501315,1,-1.2049991248718976,-0.8299990304584941,-0.717470759728454,0.0,-1.7349997758865356,-0.34999915957450867,-0.7177026632817771,0.0,-1.9492014210563993,0.19691941794159037,-0.6561563241150363,0.0
1759840255.3608377,1,-1.2049992994025678,-0.8299991506708351,-0.7175098445151137,0.0,-1.7349997758865356,-0.34999915957450867,-0.7177027757518211,0.0,-1.9493338702275227,0.19693280047666173,-0.6193871592867852,0.0
1759840255.3715322,1,-1.2049994427210058,-0.8299992493849745,-0.7175419395650264,0.0,-1.7349997758865356,-0.34999915957450867,-0.7177028814348994,0.0,-1.9494429222731162,0.19694381898898902,-0.5891132617207819,0.0
1759840255.3817122,1,-1.204999560766173,-0.8299993306915202,-0.7175683748624875,0.0,-1.7349997758865356,-0.34999915957450867,-0.717703009290279,0.0,-1.9495390081107482,0.19695352740830993,-0.5624389082945717,0.0
1759840255.3920574,1,-1.2049996581973625,-0.829999397799676,-0.7175901938199349,0.0,-1.7349997758865356,-0.34999915957450867,-0.7177031137726324,0.0,-1.9496175617841016,0.19696146439485143,-0.5406316524325728,0.0
1759840255.4032888,1,-1.2049997442118254,-0.8299994570442771,-0.7176094560901745,0.0,-1.7349997758865356,-0.34999915957450867,-0.7177031614102365,0.0,-1.9496818656226513,0.19696796159198235,-0.5227802878775999,0.0
1759840255.4136105,1,-1.2049998146819232,-0.8299995055823101,-0.7176252373206902,0.0,-1.7349997758865356,-0.34999915957450867,-0.7177032619386701,0.0,-1.9497346955663772,0.19697329947797088,-0.5081141869707044,0.0
1759840255.4258628,1,-1.2049998724176798,-0.8299995453492488,-0.7176381667945366,0.0,-1.7349997758865356,-0.34999915957450867,-0.717703262101697,0.0,-1.9497780975633752,0.19697768477341718,-0.4960653748266703,0.0
1759840255.4370468,1,-1.204999919911271,-0.8299995780616412,-0.717648802615039,0.0,-1.7349997758865356,-0.34999915957450867,-0.7177033333360967,0.0,-1.9498138982575186,0.19698130204063669,-0.4861267575234477,0.0
1759840255.4479232,1,-1.2049999590920386,-0.8299996050483696,-0.7176575768433356,0.0,-1.7349997758865356,-0.34999915957450867,-0.7177034237785769,0.0,-1.9498435136582033,0.19698429435183767,-0.47790523722251765,0.0
1759840255.4582455,1,-1.2049999915157172,-0.8299996273809849,-0.7176648378740847,0.0,-1.7349997758865356,-0.34999915957450867,-0.71770353318351,0.0,-1.9498697958668612,0.19698694988056717,-0.4706090431127887,0.0
1759840255.4696465,1,-1.205000018372414,-0.8299996458792029,-0.7176708522225598,0.0,-1.7349997758865356,-0.34999915957450867,-0.7177035837303762,0.0,-1.9498913620818255,0.19698912890989342,-0.4646220542474238,0.0
1759840255.4808972,1,-1.2050000422700609,-0.8299996623393017,-0.717676203914744,0.0,-1.7349997758865356,-0.34999915957450867,-0.7177036425541203,0.0,-1.9499091069385635,0.19699092183291153,-0.4596959112091346,0.0
1759840255.4914627,1,-1.2050000619416514,-0.8299996758885991,-0.7176806092145165,0.0,-1.7349997758865356,-0.34999915957450867,-0.7177037306818761,0.0,-1.949923756599186,0.19699240202033289,-0.4556290244061814,0.0
1759840255.5025456,1,-1.2050000781625034,-0.8299996870611146,-0.7176842417482399,0.0,-1.7349997758865356,-0.34999915957450867,-0.7177037915694946,0.0,-1.9499358715635375,0.1969936261045151,-0.45226579368645187,0.0
1759840255.513741,1,-1.2050000915690027,-0.8299996962951743,-0.7176872440294992,0.0,-1.7349997758865356,-0.34999915957450867,-0.7177038462855273,0.0,-1.9499459134880628,0.19699464073077513,-0.44947805877708946,0.0
1759840255.525228,1,-1.205000102672749,-0.8299997039431559,-0.7176897306271769,0.0,-1.7349997758865356,-0.34999915957450867,-0.7177038914638061,0.0,-1.9499542544282438,0.19699548349123602,-0.447162533494929,0.0
1759840255.5355277,1,-1.2050001119065679,-0.8299997103031782,-0.7176917984690863,0.0,-1.7349997758865356,-0.34999915957450867,-0.7177039804463412,0.0,-1.949961746104802,0.19699624044292874,-0.44508277196925833,0.0
1759840255.5469813,1,-1.2050001201017442,-0.8299997159478097,-0.717693633715112,0.0,-1.7349997758865356,-0.34999915957450867,-0.717704021627263,0.0,-1.9499679185526915,0.19699686410104342,-0.44336924102062575,0.0
1759840255.5582194,1,-1.2050001268650834,-0.829999720606228,-0.7176951483123712,0.0,-1.7349997758865356,-0.34999915957450867,-0.717704070764956,0.0,-1.9499730183778383,0.19699737938240233,-0.44195348047018207,0.0
1759840255.5682795,1,-1.20500013246896,-0.8299997244660373,-0.7176964032569519,0.0,-1.7349997758865356,-0.34999915957450867,-0.7177041568026112,0.0,-1.949977248757299,0.19699780681581713,-0.4407790864111934,0.0
1759840255.5789914,1,-1.2050001371186667,-0.8299997276686384,-0.7176974445225838,0.0,-1.7349997758865356,-0.34999915957450867,-0.7177042121296325,0.0,-1.9499807628110937,0.19699816187238528,-0.4398035512523065,0.0
1759840255.5893056,1,-1.2050001409877633,-0.8299997303335749,-0.7176983109766963,0.0,-1.7349997758865356,-0.34999915957450867,-0.7177042733913375,0.0,-1.9499836902214507,0.19699845765507265,-0.4389908739586059,0.0
1759840255.600015,1,-1.2050001442129343,-0.8299997325549917,-0.7176990332286726,0.0,-1.7349997758865356,-0.34999915957450867,-0.7177043173601056,0.0,-1.9499863082140543,0.19699872217449196,-0.4382640940116637,0.0
1759840255.6112032,1,-1.2050001470892449,-0.8299997345361222,-0.7176996773560504,0.0,-1.7349997758865356,-0.34999915957450867,-0.7177043462471353,0.0,-1.9499884707917683,0.196998940679235,-0.4376637416217864,0.0
1759840255.6223571,1,-1.2050001494701286,-0.8299997361760152,-0.7177002105364716,0.0,-1.7349997758865356,-0.34999915957450867,-0.7177043789057329,0.0,-1.9499902616773694,0.19699912162856947,-0.4371665745402832,0.0
1759840255.632703,1,-1.2050001514478104,-0.8299997375381926,-0.717700653422886,0.0,-1.7349997758865356,-0.34999915957450867,-0.7177044341602006,0.0,-1.9499917499409927,0.19699927200127446,-0.43675341823280345,0.0
1759840255.6427548,1,-1.2050001530949503,-0.829999738672701,-0.7177010222870496,0.0,-1.7349997758865356,-0.34999915957450867,-0.7177044915889983,0.0,-1.9499929900142947,0.19699939729707144,-0.4364091619475068,0.0
1759840255.6528947,1,-1.2050001544696698,-0.8299997396195733,-0.7177013301447798,0.0,-1.7349997758865356,-0.34999915957450867,-0.7177045393185217,0.0,-1.949994025450449,0.19699950191653062,-0.43612171490416296,0.0
1759840255.6635644,1,-1.2050001556187604,-0.8299997404110381,-0.7177015874747206,0.0,-1.7349997758865356,-0.34999915957450867,-0.7177045692945097,0.0,-1.9499948913234868,0.19699958940349785,-0.4358813402142124,0.0
1759840255.6742203,1,-1.2050001565814954,-0.8299997410741458,-0.7177018030717323,0.0,-1.7349997758865356,-0.34999915957450867,-0.7177045990908972,0.0,-1.94999566885163,0.1969996679641831,-0.4356654909173511,0.0
1759840255.6843588,1,-1.2050001574494191,-0.8299997416719498,-0.7177019974364743,0.0,-1.7349997758865356,-0.34999915957450867,-0.7177046401871383,0.0,-1.9499963150567998,0.1969997332561232,-0.4354860981420244,0.0
1759840255.6944296,1,-1.20500015817203,-0.829999742169666,-0.7177021592595414,0.0,-1.7349997758865356,-0.34999915957450867,-0.7177046793091311,0.0,-1.9499968533691425,0.1969997876466773,-0.4353366574539933,0.0
1759840255.705222,1,-1.205000158774421,-0.8299997425845779,-0.7177022941603406,0.0,-1.7349997758865356,-0.34999915957450867,-0.7177047000663705,0.0,-1.9499973023697599,0.19699983301326177,-0.43521201056065667,0.0
1759840255.7153673,1,-1.2050001592782076,-0.8299997429315735,-0.7177024069794437,0.0,-1.7349997758865356,-0.34999915957450867,-0.7177047345165306,0.0,-1.9499976780804769,0.19699987097470617,-0.43510770964913426,0.0
1759840255.7254462,1,-1.2050001597004996,-0.8299997432224377,-0.7177025015484999,0.0,-1.7349997758865356,-0.34999915957450867,-0.7177047681800559,0.0,-1.9499979931870806,0.19699990281277008,-0.4350202330228169,0.0
1759840255.7368524,1,-1.205000160054611,-0.8299997434663408,-0.7177025808490054,0.0,-1.7349997758865356,-0.34999915957450867,-0.7177047748093663,0.0,-1.9499982575606498,0.19699992952481765,-0.4349468403752022,0.0
1759840255.74712,1,-1.205000160375315,-0.8299997436872337,-0.7177026526682249,0.0,-1.7349997758865356,-0.34999915957450867,-0.7177048062471112,0.0,-1.949998480261903,0.19699995202633505,-0.4348850163636506,0.0
1759840255.7582994,1,-1.205000160642422,-0.8299997438712102,-0.717702712484744,0.0,-1.7349997758865356,-0.34999915957450867,-0.7177048212858246,0.0,-1.9499986834639367,0.19699997255767035,-0.4348286055231118,0.0
1759840255.768787,1,-1.205000160865635,-0.8299997440249537,-0.7177027624715336,0.0,-1.7349997758865356,-0.34999915957450867,-0.7177048499535061,0.0,-1.9499988532353902,0.19699998971121246,-0.4347814753334194,0.0
1759840255.7788055,1,-1.2050001610527108,-0.8299997441538066,-0.717702804365655,0.0,-1.7349997758865356,-0.34999915957450867,-0.7177048850738609,0.0,-1.9499989954895998,0.19700000408443905,-0.4347419841955509,0.0
1759840255.7894797,1,-1.2050001612097,-0.829999744261937,-0.7177028395222295,0.0,-1.7349997758865356,-0.34999915957450867,-0.7177049061330969,0.0,-1.949999114839545,0.19700001614344112,-0.4347088515019166,0.0
1759840255.80079,1,-1.205000161341628,-0.8299997443528057,-0.7177028690664357,0.0,-1.7349997758865356,-0.34999915957450867,-0.7177049171844718,0.0,-1.9499992151145513,0.19700002627512994,-0.4346810141949762,0.0
1759840255.8110394,1,-1.2050001614529275,-0.829999744429466,-0.7177028939911076,0.0,-1.7349997758865356,-0.34999915957450867,-0.7177049464371041,0.0,-1.9499992996919193,0.1970000348207447,-0.4346575347035473,0.0
1759840255.825582,1,-1.2050001615536876,-0.8299997444988669,-0.7177029165555305,0.0,-1.7349997758865356,-0.34999915957450867,-0.7177049150721366,0.0,-1.9499993707475924,0.19700004200014062,-0.4346378089647182,0.0
1759840255.8332117,1,-1.2050001616384618,-0.8299997445572572,-0.7177029355400499,0.0,-1.7349997758865356,-0.34999915957450867,-0.7177049905755979,0.0,-1.949999435858734,0.19700004857890688,-0.4346197334850361,0.0
1759840255.8439982,1,-1.2050001617095998,-0.8299997446062554,-0.7177029514708697,0.0,-1.7349997758865356,-0.34999915957450867,-0.717705012545423,0.0,-1.949999490496613,0.19700005409946486,-0.43460456548393706,0.0
1759840255.855285,1,-1.205000161769392,-0.8299997446474386,-0.717702964860841,0.0,-1.7349997758865356,-0.34999915957450867,-0.7177050242866265,0.0,-1.949999536420152,0.19700005873953444,-0.4345918166674647,0.0
1759840255.8656607,1,-1.205000161819833,-0.8299997446821811,-0.717702976156694,0.0,-1.7349997758865356,-0.34999915957450867,-0.717705048655823,0.0,-1.9499995751615007,0.19700006265392256,-0.43458106169609917,0.0
1759840255.8758957,1,-1.2050001618624877,-0.8299997447115607,-0.7177029857089203,0.0,-1.7349997758865356,-0.34999915957450867,-0.717705073041035,0.0,-1.9499996079227393,0.19700006596408615,-0.43457196686091737,0.0
1759840255.8871036,1,-1.2050001618985857,-0.8299997447364241,-0.7177029937927842,0.0,-1.7349997758865356,-0.34999915957450867,-0.7177050838916195,0.0,-1.9499996378127562,0.1970000689841443,-0.4345636691045375,0.0
1759840255.8982918,1,-1.2050001619317126,-0.829999744759241,-0.7177030012112638,0.0,-1.7349997758865356,-0.34999915957450867,-0.7177050961327112,0.0,-1.9499996628818395,0.1970000715171,-0.43455670968572874,0.0
1759840255.9094505,1,-1.205000161959554,-0.8299997447784175,-0.7177030074461666,0.0,-1.7349997758865356,-0.34999915957450867,-0.7177051101681027,0.0,-1.9499996839587317,0.19700007364668864,-0.434550858537555,0.0
1759840255.9218464,1,-1.2050001619829682,-0.8299997447945447,-0.717703012689625,0.0,-1.7349997758865356,-0.34999915957450867,-0.7177051126792122,0.0,-1.9499997016902268,0.19700007543826165,-0.43454593610380415,0.0
1759840255.9329653,1,-1.2050001620027466,-0.8299997448081675,-0.7177030171188208,0.0,-1.7349997758865356,-0.34999915957450867,-0.7177051317878504,0.0,-1.9499997166734022,0.1970000769521471,-0.4345417766300479,0.0
1759840255.9431477,1,-1.2050001620195154,-0.8299997448197174,-0.717703020874058,0.0,-1.7349997758865356,-0.34999915957450867,-0.7177051594506665,0.0,-1.9499997293811404,0.19700007823612456,-0.4345382488395984,0.0
1759840255.953827,1,-1.2050001620337527,-0.8299997448295237,-0.7177030240623854,0.0,-1.7349997758865356,-0.34999915957450867,-0.7177051786978623,0.0,-1.949999740174187,0.19700007932664346,-0.43453525258599746,0.0
1759840255.9645355,1,-1.2050001620468083,-0.8299997448385161,-0.7177030269861066,0.0,-1.7349997758865356,-0.34999915957450867,-0.7177051953966149,0.0,-1.949999749361023,0.1970000802548724,-0.4345327022319567,0.0
1759840255.9757447,1,-1.2050001620578141,-0.8299997448460965,-0.7177030294507436,0.0,-1.7349997758865356,-0.34999915957450867,-0.7177052065596925,0.0,-1.9499997578564303,0.19700008111324008,-0.4345303438251094,0.0
1759840255.9858525,1,-1.2050001620671285,-0.8299997448525119,-0.7177030315365943,0.0,-1.7349997758865356,-0.34999915957450867,-0.7177052269446413,0.0,-1.9499997650431211,0.1970000818393763,-0.43452834873054963,0.0
1759840255.996186,1,-1.2050001620750255,-0.8299997448579512,-0.7177030333050763,0.0,-1.7349997758865356,-0.34999915957450867,-0.7177052432180275,0.0,-1.949999771133753,0.19700008245476783,-0.43452665791249656,0.0
1759840256.0063276,1,-1.2050001620817374,-0.8299997448625743,-0.7177030348081652,0.0,-1.7349997758865356,-0.34999915957450867,-0.717705259046765,0.0,-1.9499997763081887,0.19700008297758775,-0.43452522143936556,0.0
1759840256.016519,1,-1.2050001620874538,-0.8299997448665116,-0.7177030360883082,0.0,-1.7349997758865356,-0.34999915957450867,-0.7177052727256754,0.0,-1.9499997807132767,0.19700008342267356,-0.43452399854453094,0.0
1759840256.0281901,1,-1.2050001620923214,-0.8299997448698644,-0.7177030371784242,0.0,-1.7349997758865356,-0.34999915957450867,-0.7177052745056187,0.0,-1.9499997847574453,0.1970000838312924,-0.4345228758444472,0.0
1759840256.039303,1,-1.2050001620968265,-0.8299997448729672,-0.717703038187283,0.0,-1.7349997758865356,-0.34999915957450867,-0.7177052823909449,0.0,-1.9499997881743154,0.19700008417652964,-0.43452192728838385,0.0
1759840256.0499501,1,-1.205000162100644,-0.8299997448755968,-0.7177030390422261,0.0,-1.7349997758865356,-0.34999915957450867,-0.7177052945267128,0.0,-1.9499997910698934,0.197000084469096,-0.4345211234480468,0.0
1759840256.0602396,1,-1.2050001621038884,-0.8299997448778313,-0.7177030397687376,0.0,-1.7349997758865356,-0.34999915957450867,-0.717705308439923,0.0,-1.9499997935304911,0.1970000847177124,-0.4345204403624211,0.0
1759840256.0703552,1,-1.205000162106652,-0.8299997448797347,-0.7177030403876017,0.0,-1.7349997758865356,-0.34999915957450867,-0.7177053219882534,0.0,-1.9499997956265016,0.19700008492949128,-0.43451985848971714,0.0
1759840256.080679,1,-1.20500016210901,-0.8299997448813591,-0.7177030409157126,0.0,-1.7349997758865356,-0.34999915957450867,-0.7177053326444529,0.0,-1.9499997974151424,0.1970000851102138,-0.43451936194581575,0.0
1759840256.0908356,1,-1.2050001621110273,-0.8299997448827485,-0.717703041367457,0.0,-1.7349997758865356,-0.34999915957450867,-0.7177053433356804,0.0,-1.9499997989451403,0.1970000852648033,-0.43451893720363394,0.0
1759840256.1023,1,-1.205000162112895,-0.8299997448840348,-0.7177030417856943,0.0,-1.7349997758865356,-0.34999915957450867,-0.7177053457053031,0.0,-1.949999800253932,0.19700008539704233,-0.43451857387045373,0.0
1759840256.112465,1,-1.2050001621144824,-0.8299997448851282,-0.7177030421411804,0.0,-1.7349997758865356,-0.34999915957450867,-0.7177053566402058,0.0,-1.9499998014752744,0.19700008552044557,-0.4345182348140872,0.0
1759840256.1237702,1,-1.2050001621158322,-0.8299997448860579,-0.7177030424434553,0.0,-1.7349997758865356,-0.34999915957450867,-0.717705360935593,0.0,-1.9499998025134675,0.19700008562534357,-0.43451794660169774,0.0
1759840256.1349041,1,-1.2050001621169828,-0.8299997448868505,-0.717703042701149,0.0,-1.7349997758865356,-0.34999915957450867,-0.7177053669151743,0.0,-1.949999803398261,0.19700008571474226,-0.434517700974503,0.0
1759840256.1456106,1,-1.2050001621179667,-0.8299997448875281,-0.7177030429214836,0.0,-1.7349997758865356,-0.34999915957450867,-0.7177053756614225,0.0,-1.9499998041545414,0.19700008579115608,-0.43451749102380066,0.0
1759840256.1565807,1,-1.2050001621188096,-0.8299997448881086,-0.7177030431102079,0.0,-1.7349997758865356,-0.34999915957450867,-0.7177053828502622,0.0,-1.9499998048021194,0.1970000858565867,-0.43451731124994775,0.0
1759840256.1673932,1,-1.2050001621195332,-0.8299997448886071,-0.7177030432722563,0.0,-1.7349997758865356,-0.34999915957450867,-0.7177053906791873,0.0,-1.9499998053579894,0.19700008591275128,-0.43451715693503523,0.0
1759840256.1780038,1,-1.2050001621202115,-0.8299997448890744,-0.717703043424184,0.0,-1.7349997758865356,-0.34999915957450867,-0.7177053991328801,0.0,-1.9499998058363344,0.1970000859610828,-0.43451702414186877,0.0
1759840256.1886976,1,-1.2050001621207904,-0.829999744889473,-0.7177030435537863,0.0,-1.7349997758865356,-0.34999915957450867,-0.7177054066425104,0.0,-1.9499998062861164,0.19700008600652832,-0.43451689927801307,0.0
1759840256.1998847,1,-1.205000162121285,-0.8299997448898137,-0.7177030436645022,0.0,-1.7349997758865356,-0.34999915957450867,-0.7177054116739718,0.0,-1.949999806670232,0.19700008604533897,-0.43451679264385346,0.0
1759840256.2101302,1,-1.2050001621217088,-0.8299997448901056,-0.7177030437594398,0.0,-1.7349997758865356,-0.34999915957450867,-0.7177054207427442,0.0,-1.9499998069995021,0.1970000860786081,-0.434516701235244,0.0
1759840256.2213771,1,-1.2050001621220725,-0.8299997448903562,-0.7177030438408867,0.0,-1.7349997758865356,-0.34999915957450867,-0.7177054250908768,0.0,-1.9499998072818947,0.19700008610714076,-0.4345166228403495,0.0
1759840256.2316103,1,-1.2050001621223858,-0.8299997448905719,-0.7177030439110331,0.0,-1.7349997758865356,-0.34999915957450867,-0.7177054334542046,0.0,-1.9499998075250304,0.19700008613170697,-0.4345165553435369,0.0
1759840256.2424805,1,-1.2050001621226802,-0.8299997448907748,-0.7177030439769729,0.0,-1.7349997758865356,-0.34999915957450867,-0.7177054387580277,0.0,-1.9499998077345757,0.19700008615287926,-0.4345164971717168,0.0
1759840256.2538638,1,-1.2050001621229316,-0.829999744890948,-0.7177030440332808,0.0,-1.7349997758865356,-0.34999915957450867,-0.7177054421153458,0.0,-1.9499998079326235,0.19700008617288983,-0.43451644219169316,0.0
1759840256.2644284,1,-1.2050001621231472,-0.8299997448910964,-0.7177030440815367,0.0,-1.7349997758865356,-0.34999915957450867,-0.7177054487751704,0.0,-1.9499998081022296,0.19700008619002665,-0.4345163951074524,0.0
1759840256.2758446,1,-1.2050001621233322,-0.8299997448912236,-0.7177030441229244,0.0,-1.7349997758865356,-0.34999915957450867,-0.7177054523145721,0.0,-1.9499998082475924,0.197000086204714,-0.43451635475333156,0.0
1759840256.287223,1,-1.205000162123491,-0.8299997448913331,-0.7177030441585043,0.0,-1.7349997758865356,-0.34999915957450867,-0.717705456316807,0.0,-1.9499998083724692,0.19700008621733142,-0.43451632008629804,0.0
1759840256.2978528,1,-1.205000162123628,-0.8299997448914275,-0.7177030441891985,0.0,-1.7349997758865356,-0.34999915957450867,-0.7177054629281034,0.0,-1.949999808480123,0.19700008622820867,-0.43451629020056853,0.0
1759840256.3080854,1,-1.2050001621237465,-0.8299997448915091,-0.7177030442157516,0.0,-1.7349997758865356,-0.34999915957450867,-0.7177054701854235,0.0,-1.9499998085731876,0.1970000862376118,-0.43451626436499136,0.0
1759840256.3193045,1,-1.2050001621238586,-0.8299997448915863,-0.7177030442408567,0.0,-1.7349997758865356,-0.34999915957450867,-0.7177054737188547,0.0,-1.9499998086536665,0.1970000862457433,-0.43451624202327305,0.0
1759840256.3300462,1,-1.2050001621239548,-0.8299997448916526,-0.7177030442624179,0.0,-1.7349997758865356,-0.34999915957450867,-0.7177054786002586,0.0,-1.9499998087300765,0.19700008625346369,-0.43451622081114194,0.0
1759840256.3401833,1,-1.2050001621240378,-0.8299997448917097,-0.7177030442809939,0.0,-1.7349997758865356,-0.34999915957450867,-0.7177054848815612,0.0,-1.9499998087958534,0.19700008626010973,-0.4345162025508479,0.0
1759840256.3515275,1,-1.205000162124109,-0.8299997448917589,-0.7177030442969982,0.0,-1.7349997758865356,-0.34999915957450867,-0.7177054873394919,0.0,-1.9499998088524793,0.19700008626583115,-0.43451618683093596,0.0
1759840256.3616238,1,-1.2050001621241708,-0.8299997448918015,-0.717703044310847,0.0,-1.7349997758865356,-0.34999915957450867,-0.7177054931113513,0.0,-1.9499998089014392,0.197000086270778,-0.4345161732391851,0.0
1759840256.372471,1,-1.2050001621242246,-0.8299997448918384,-0.7177030443228389,0.0,-1.7349997758865356,-0.34999915957450867,-0.717705496529053,0.0,-1.9499998089438013,0.19700008627505822,-0.43451616147907623,0.0
1759840256.3836145,1,-1.205000162124271,-0.8299997448918703,-0.7177030443332394,0.0,-1.7349997758865356,-0.34999915957450867,-0.7177054991530554,0.0,-1.9499998089839243,0.1970000862791122,-0.43451615034057356,0.0
1759840256.3936274,1,-1.2050001621243114,-0.8299997448918982,-0.7177030443422971,0.0,-1.7349997758865356,-0.34999915957450867,-0.7177055045137966,0.0,-1.9499998090184743,0.19700008628260307,-0.4345161407491927,0.0
1759840256.4044635,1,-1.2050001621243502,-0.8299997448919251,-0.7177030443510285,0.0,-1.7349997758865356,-0.34999915957450867,-0.7177055075205026,0.0,-1.9499998090482447,0.19700008628561105,-0.4345161324846154,0.0
1759840256.4147058,1,-1.205000162124384,-0.8299997448919483,-0.7177030443585741,0.0,-1.7349997758865356,-0.34999915957450867,-0.7177055116660558,0.0,-1.9499998090739779,0.1970000862882111,-0.4345161253408557,0.0
1759840256.424882,1,-1.2050001621244133,-0.8299997448919684,-0.7177030443651092,0.0,-1.7349997758865356,-0.34999915957450867,-0.7177055156006061,0.0,-1.9499998090962687,0.19700008629046337,-0.4345161191526704,0.0
1759840256.4380283,1,-1.2050001621244384,-0.8299997448919857,-0.7177030443707509,0.0,-1.7349997758865356,-0.34999915957450867,-0.7177055133699817,0.0,-1.9499998091155162,0.19700008629240812,-0.4345161138093453,0.0
1759840256.4493222,1,-1.2050001621244602,-0.8299997448920007,-0.7177030443756497,0.0,-1.7349997758865356,-0.34999915957450867,-0.7177055160886017,0.0,-1.949999809132232,0.19700008629409707,-0.4345161091688743,0.0
1759840256.4602993,1,-1.2050001621244792,-0.8299997448920139,-0.7177030443799255,0.0,-1.7349997758865356,-0.34999915957450867,-0.7177055197577431,0.0,-1.9499998091468516,0.19700008629557422,-0.4345161051103561,0.0
1759840256.4709363,1,-1.2050001621244963,-0.8299997448920257,-0.7177030443837309,0.0,-1.7349997758865356,-0.34999915957450867,-0.7177055238108192,0.0,-1.9499998091608168,0.1970000862969853,-0.43451610123345386,0.0
1759840256.4823813,1,-1.2050001621245126,-0.8299997448920368,-0.7177030443873395,0.0,-1.7349997758865356,-0.34999915957450867,-0.7177055260865313,0.0,-1.9499998091728947,0.19700008629820562,-0.43451609788056705,0.0
1759840256.492976,1,-1.2050001621245265,-0.8299997448920463,-0.7177030443904674,0.0,-1.7349997758865356,-0.34999915957450867,-0.7177055297783017,0.0,-1.9499998091833786,0.1970000862992649,-0.43451609497012283,0.0
1759840256.5043464,1,-1.2050001621245385,-0.8299997448920547,-0.7177030443931808,0.0,-1.7349997758865356,-0.34999915957450867,-0.7177055319420411,0.0,-1.949999809192485,0.197000086300185,-0.43451609244208494,0.0
1759840256.5150368,1,-1.2050001621245492,-0.829999744892062,-0.7177030443955424,0.0,-1.7349997758865356,-0.34999915957450867,-0.7177055351517563,0.0,-1.9499998092004767,0.19700008630099247,-0.43451609022351356,0.0
1759840256.5250974,1,-1.2050001621245585,-0.8299997448920684,-0.71770304439763,0.0,-1.7349997758865356,-0.34999915957450867,-0.7177055390399651,0.0,-1.9499998092075892,0.19700008630171112,-0.4345160882489851,0.0
1759840256.5359812,1,-1.2050001621245667,-0.8299997448920742,-0.7177030443994878,0.0,-1.7349997758865356,-0.34999915957450867,-0.7177055412192441,0.0,-1.9499998092139195,0.19700008630235072,-0.4345160864916547,0.0
1759840256.5464883,1,-1.205000162124574,-0.8299997448920793,-0.7177030444011414,0.0,-1.7349997758865356,-0.34999915957450867,-0.717705543784847,0.0,-1.949999809219755,0.19700008630294036,-0.43451608487162097,0.0
1759840256.5572405,1,-1.2050001621245807,-0.829999744892084,-0.7177030444026506,0.0,-1.7349997758865356,-0.34999915957450867,-0.7177055458514605,0.0,-1.949999809224828,0.19700008630345295,-0.4345160834632647,0.0
1759840256.5687208,1,-1.2050001621245867,-0.8299997448920879,-0.7177030444039624,0.0,-1.7349997758865356,-0.34999915957450867,-0.7177055469156688,0.0,-1.9499998092292619,0.19700008630390092,-0.4345160822323636,0.0
1759840256.579253,1,-1.2050001621245918,-0.8299997448920915,-0.7177030444051238,0.0,-1.7349997758865356,-0.34999915957450867,-0.7177055493833073,0.0,-1.9499998092332083,0.19700008630429963,-0.4345160811368615,0.0
1759840256.5903797,1,-1.2050001621245965,-0.8299997448920947,-0.7177030444061574,0.0,-1.7349997758865356,-0.34999915957450867,-0.7177055510093915,0.0,-1.9499998092367203,0.1970000863046545,-0.4345160801618647,0.0
1759840256.6007457,1,-1.2050001621246007,-0.8299997448920975,-0.7177030444070773,0.0,-1.7349997758865356,-0.34999915957450867,-0.7177055535213626,0.0,-1.9499998092398463,0.1970000863049703,-0.43451607929411756,0.0
1759840256.6115644,1,-1.2050001621246043,-0.8299997448921,-0.717703044407896,0.0,-1.7349997758865356,-0.34999915957450867,-0.7177055553040113,0.0,-1.9499998092426731,0.19700008630525592,-0.43451607850939056,0.0
1759840256.6220794,1,-1.2050001621246074,-0.8299997448921023,-0.7177030444086284,0.0,-1.7349997758865356,-0.34999915957450867,-0.7177055573240843,0.0,-1.9499998092451443,0.1970000863055056,-0.43451607782341567,0.0
1759840256.6390464,1,-1.2050001621246103,-0.8299997448921043,-0.7177030444092766,0.0,-1.7349997758865356,-0.34999915957450867,-0.7177055526257039,0.0,-1.9499998092473434,0.19700008630572782,-0.43451607721289787,0.0
1759840256.6502457,1,-1.205000162124613,-0.829999744892106,-0.7177030444098533,0.0,-1.7349997758865356,-0.34999915957450867,-0.7177055555743711,0.0,-1.9499998092493005,0.19700008630592558,-0.43451607666953707,0.0
1759840256.6610522,1,-1.2050001621246151,-0.8299997448921076,-0.7177030444103668,0.0,-1.7349997758865356,-0.34999915957450867,-0.7177055589333463,0.0,-1.9499998092510424,0.19700008630610158,-0.43451607618594595,0.0
1759840256.6718278,1,-1.2050001621246171,-0.829999744892109,-0.7177030444108237,0.0,-1.7349997758865356,-0.34999915957450867,-0.717705561778569,0.0,-1.9499998092510424,0.19700008630610158,-0.43451607618594595,0.0
1759840256.6830773,1,-1.2050001621246171,-0.829999744892109,-0.7177030444108237,0.0,-1.7349997758865356,-0.34999915957450867,-0.7177055637467511,0.0,-1.949999809252593,0.19700008630625823,-0.43451607575554985,0.0
1759840256.693233,1,-1.2050001621246171,-0.829999744892109,-0.7177030444108237,0.0,-1.7349997758865356,-0.34999915957450867,-0.7177055664223246,0.0,-1.9499998092539728,0.19700008630639765,-0.4345160753724973,0.0
1759840256.7043095,1,-1.2050001621246191,-0.8299997448921103,-0.7177030444112303,0.0,-1.7349997758865356,-0.34999915957450867,-0.7177055679313984,0.0,-1.9499998092552009,0.19700008630652172,-0.4345160750315806,0.0
1759840256.7155828,1,-1.205000162124621,-0.8299997448921114,-0.7177030444115922,0.0,-1.7349997758865356,-0.34999915957450867,-0.717705569144746,0.0,-1.9499998092562938,0.19700008630663216,-0.43451607472816467,0.0
1759840256.72635,1,-1.2050001621246225,-0.8299997448921124,-0.7177030444119142,0.0,-1.7349997758865356,-0.34999915957450867,-0.7177055707372428,0.0,-1.9499998092562938,0.19700008630663216,-0.43451607472816467,0.0
1759840256.7370539,1,-1.2050001621246225,-0.8299997448921124,-0.7177030444119142,0.0,-1.7349997758865356,-0.34999915957450867,-0.7177055722573975,0.0,-1.9499998092562938,0.19700008630663216,-0.43451607472816467,0.0
1759840256.747758,1,-1.2050001621246225,-0.8299997448921124,-0.7177030444119142,0.0,-1.7349997758865356,-0.34999915957450867,-0.7177055736379003,0.0,-1.9499998092562938,0.19700008630663216,-0.43451607472816467,0.0
1759840256.758172,1,-1.2050001621246225,-0.8299997448921124,-0.7177030444119142,0.0,-1.7349997758865356,-0.34999915957450867,-0.7177055751038317,0.0,-1.9499998092572666,0.19700008630673044,-0.43451607445812457,0.0
1759840256.7692657,1,-1.2050001621246238,-0.8299997448921133,-0.7177030444122009,0.0,-1.7349997758865356,-0.34999915957450867,-0.7177055759663666,0.0,-1.949999809258132,0.19700008630681792,-0.4345160742177889,0.0
1759840256.780082,1,-1.205000162124625,-0.829999744892114,-0.717703044412456,0.0,-1.7349997758865356,-0.34999915957450867,-0.7177055770154865,0.0,-1.949999809258132,0.19700008630681792,-0.4345160742177889,0.0
1759840256.790149,1,-1.205000162124625,-0.829999744892114,-0.717703044412456,0.0,-1.7349997758865356,-0.34999915957450867,-0.7177055785085784,0.0,-1.949999809258132,0.19700008630681792,-0.4345160742177889,0.0
1759840256.801111,1,-1.205000162124625,-0.829999744892114,-0.717703044412456,0.0,-1.7349997758865356,-0.34999915957450867,-0.7177055792822671,0.0,-1.949999809258132,0.19700008630681792,-0.4345160742177889,0.0
1759840256.8113797,1,-1.205000162124625,-0.829999744892114,-0.717703044412456,0.0,-1.7349997758865356,-0.34999915957450867,-0.7177055804525647,0.0,-1.949999809258132,0.19700008630681792,-0.4345160742177889,0.0
1759840256.822369,1,-1.205000162124625,-0.829999744892114,-0.717703044412456,0.0,-1.7349997758865356,-0.34999915957450867,-0.7177055811203257,0.0,-1.949999809258132,0.19700008630681792,-0.4345160742177889,0.0
1759840256.8373551,1,-1.205000162124625,-0.829999744892114,-0.717703044412456,0.0,-1.7349997758865356,-0.34999915957450867,-0.717705579655469,0.0,-1.949999809258132,0.19700008630681792,-0.4345160742177889,0.0
1759840256.8475513,1,-1.205000162124625,-0.829999744892114,-0.717703044412456,0.0,-1.7349997758865356,-0.34999915957450867,-0.7177055814014466,0.0,-1.949999809258132,0.19700008630681792,-0.4345160742177889,0.0
1759840256.8578823,1,-1.205000162124625,-0.829999744892114,-0.717703044412456,0.0,-1.7349997758865356,-0.34999915957450867,-0.7177055829579793,0.0,-1.949999809258132,0.19700008630681792,-0.4345160742177889,0.0
1759840256.8680315,1,-1.205000162124625,-0.829999744892114,-0.717703044412456,0.0,-1.7349997758865356,-0.34999915957450867,-0.7177055843376916,0.0,-1.949999809258132,0.19700008630681792,-0.4345160742177889,0.0
1759840256.8782136,1,-1.205000162124625,-0.829999744892114,-0.717703044412456,0.0,-1.7349997758865356,-0.34999915957450867,-0.7177055854744694,0.0,-1.949999809258132,0.19700008630681792,-0.4345160742177889,0.0
1759840256.8887513,1,-1.205000162124625,-0.829999744892114,-0.717703044412456,0.0,-1.7349997758865356,-0.34999915957450867,-0.7177055862818237,0.0,-1.949999809258132,0.19700008630681792,-0.4345160742177889,0.0
1759840256.9002242,1,-1.205000162124625,-0.829999744892114,-0.717703044412456,0.0,-1.7349997758865356,-0.34999915957450867,-0.7177055866052164,0.0,-1.949999809258132,0.19700008630681792,-0.4345160742177889,0.0
1759840256.9102805,1,-1.205000162124625,-0.829999744892114,-0.717703044412456,0.0,-1.7349997758865356,-0.34999915957450867,-0.7177055876161536,0.0,-1.949999809258132,0.19700008630681792,-0.4345160742177889,0.0
1759840256.9239674,1,-1.205000162124625,-0.829999744892114,-0.717703044412456,0.0,-1.7349997758865356,-0.34999915957450867,-0.7177055870423423,0.0012114686464757796,-1.949999809258132,0.19700008630681792,-0.4345160742177889,0.0
1759840256.9386647,1,-1.205000162124625,-0.829999744892114,-0.717703044412456,0.0,-1.7349997758865356,-0.34999915957450867,-0.71770558644074,0.0012114686464757796,-1.949999809258132,0.19700008630681792,-0.4345160742177889,0.0
1759840256.9495304,1,-1.205000162124625,-0.829999744892114,-0.717703044412456,0.0,-1.7349997758865356,-0.34999915957450867,-0.717705587752608,0.0012114686464757796,-1.949999809258132,0.19700008630681792,-0.4345160742177889,0.0
1759840256.962166,1,-1.205000162124625,-0.829999744892114,-0.717703044412456,0.0,-1.7349997758865356,-0.34999915957450867,-0.7177055883273944,0.0012114686464757796,-1.949999809258132,0.19700008630681792,-0.4345160742177889,0.0
1759840256.9723306,1,-1.205000162124625,-0.829999744892114,-0.717703044412456,0.0,-1.7349997758865356,-0.34999915957450867,-0.7177055897570348,0.0012114686464757796,-1.949999809258132,0.19700008630681792,-0.4345160742177889,0.0
1759840256.9847634,1,-1.205000162124625,-0.829999744892114,-0.717703044412456,0.0,-1.7349997758865356,-0.34999915957450867,-0.7177055901999037,0.0012114686464757796,-1.949999809258132,0.19700008630681792,-0.4345160742177889,0.0
1759840256.9958236,1,-1.205000162124625,-0.829999744892114,-0.717703044412456,0.0,-1.7349997758865356,-0.34999915957450867,-0.7177055910858458,0.0012114686464757796,-1.949999809258132,0.19700008630681792,-0.4345160742177889,0.0
1759840257.0070071,1,-1.205000162124625,-0.829999744892114,-0.717703044412456,0.0,-1.7349997758865356,-0.34999915957450867,-0.7177055918471567,0.0012114686464757796,-1.949999809258132,0.19700008630681792,-0.4345160742177889,0.0
1759840257.0178525,1,-1.205000162124625,-0.829999744892114,-0.717703044412456,0.0,-1.7349997758865356,-0.34999915957450867,-0.7177055926229432,0.0012114686464757796,-1.949999809258132,0.19700008630681792,-0.4345160742177889,0.0
1759840257.0295491,1,-1.205000162124625,-0.829999744892114,-0.717703044412456,0.0,-1.7349997758865356,-0.34999915957450867,-0.7177055930586285,0.0012114686464757796,-1.949999809258132,0.19700008630681792,-0.4345160742177889,0.0
1759840257.0443056,1,-1.205000162124625,-0.829999744892114,-0.717703044412456,0.0,-1.7349997758865356,-0.34999915957450867,-0.717705592656241,0.0012114686464757796,-1.949999809258132,0.19700008630681792,-0.4345160742177889,0.0
1759840257.0546286,1,-1.205000162124625,-0.829999744892114,-0.717703044412456,0.0,-1.7349997758865356,-0.34999915957450867,-0.7177055937049559,0.0012114686464757796,-1.949999809258132,0.19700008630681792,-0.4345160742177889,0.0
1759840257.0657973,1,-1.205000162124625,-0.829999744892114,-0.717703044412456,0.0,-1.7349997758865356,-0.34999915957450867,-0.7177055944211084,0.0012114686464757796,-1.949999809258132,0.19700008630681792,-0.4345160742177889,0.0
1759840257.0763204,1,-1.205000162124625,-0.829999744892114,-0.717703044412456,0.0,-1.7349997758865356,-0.34999915957450867,-0.7177055951855849,0.0012114686464757796,-1.949999809258132,0.19700008630681792,-0.4345160742177889,0.0
1759840257.0878448,1,-1.205000162124625,-0.829999744892114,-0.717703044412456,0.0,-1.7349997758865356,-0.34999915957450867,-0.7177055955927738,0.0012114686464757796,-1.949999809258132,0.19700008630681792,-0.4345160742177889,0.0
1759840257.098066,1,-1.205000162124625,-0.829999744892114,-0.717703044412456,0.0,-1.7349997758865356,-0.34999915957450867,-0.7177055962741363,0.0012114686464757796,-1.949999809258132,0.19700008630681792,-0.4345160742177889,0.0
1759840257.1093698,1,-1.205000162124625,-0.829999744892114,-0.717703044412456,0.0,-1.7349997758865356,-0.34999915957450867,-0.7177055966201031,0.0012114686464757796,-1.949999809258132,0.19700008630681792,-0.4345160742177889,0.0
1759840257.120142,1,-1.205000162124625,-0.829999744892114,-0.717703044412456,0.0,-1.7349997758865356,-0.34999915957450867,-0.7177055970618795,0.0012114686464757796,-1.949999809258132,0.19700008630681792,-0.4345160742177889,0.0
1759840257.1313574,1,-1.205000162124625,-0.829999744892114,-0.717703044412456,0.0,-1.7349997758865356,-0.34999915957450867,-0.7177055973785951,0.0012114686464757796,-1.949999809258132,0.19700008630681792,-0.4345160742177889,0.0
1759840257.1414835,1,-1.205000162124625,-0.829999744892114,-0.717703044412456,0.0,-1.7349997758865356,-0.34999915957450867,-0.7177055979081466,0.0012114686464757796,-1.949999809258132,0.19700008630681792,-0.4345160742177889,0.0
1759840257.1527324,1,-1.205000162124625,-0.829999744892114,-0.717703044412456,0.0,-1.7349997758865356,-0.34999915957450867,-0.717705598152099,0.0012114686464757796,-1.949999809258132,0.19700008630681792,-0.4345160742177889,0.0
1759840257.1634226,1,-1.205000162124625,-0.829999744892114,-0.717703044412456,0.0,-1.7349997758865356,-0.34999915957450867,-0.7177055985008565,0.0012114686464757796,-1.949999809258132,0.19700008630681792,-0.4345160742177889,0.0
1759840257.1748047,1,-1.205000162124625,-0.829999744892114,-0.717703044412456,0.0,-1.7349997758865356,-0.34999915957450867,-0.717705598705667,0.0012114686464757796,-1.949999809258132,0.19700008630681792,-0.4345160742177889,0.0
1759840257.1855955,1,-1.205000162124625,-0.829999744892114,-0.717703044412456,0.0,-1.7349997758865356,-0.34999915957450867,-0.7177055990301966,0.0012114686464757796,-1.949999809258132,0.19700008630681792,-0.4345160742177889,0.0
1759840257.1973076,1,-1.205000162124625,-0.829999744892114,-0.717703044412456,0.0,-1.7349997758865356,-0.34999915957450867,-0.7177055991851322,0.0012114686464757796,-1.949999809258132,0.19700008630681792,-0.4345160742177889,0.0
1759840257.2079468,1,-1.205000162124625,-0.829999744892114,-0.717703044412456,0.0,-1.7349997758865356,-0.34999915957450867,-0.7177055995436952,0.0012114686464757796,-1.949999809258132,0.19700008630681792,-0.4345160742177889,0.0
1759840257.2195864,1,-1.205000162124625,-0.829999744892114,-0.717703044412456,0.0,-1.7349997758865356,-0.34999915957450867,-0.7177055997193449,0.0012114686464757796,-1.949999809258132,0.19700008630681792,-0.4345160742177889,0.0
1759840257.2298799,1,-1.205000162124625,-0.829999744892114,-0.717703044412456,0.0,-1.7349997758865356,-0.34999915957450867,-0.7177056001152983,0.0012114686464757796,-1.949999809258132,0.19700008630681792,-0.4345160742177889,0.0
1759840257.2476928,1,-1.205000162124625,-0.829999744892114,-0.717703044412456,0.0,-1.7349997758865356,-0.34999915957450867,-0.7177055993790038,0.0012114686464757796,-1.949999809258132,0.19700008630681792,-0.4345160742177889,0.0
1759840257.2561946,1,-1.205000162124625,-0.829999744892114,-0.717703044412456,0.0,-1.7349997758865356,-0.34999915957450867,-0.7177056002387799,0.0012114686464757796,-1.949999809258132,0.19700008630681792,-0.4345160742177889,0.0
1759840257.2669985,1,-1.205000162124625,-0.829999744892114,-0.717703044412456,0.0,-1.7349997758865356,-0.34999915957450867,-0.7177056006653295,0.0012114686464757796,-1.949999809258132,0.19700008630681792,-0.4345160742177889,0.0
1759840257.2781649,1,-1.205000162124625,-0.829999744892114,-0.717703044412456,0.0,-1.7349997758865356,-0.34999915957450867,-0.7177056009538507,0.0012114686464757796,-1.949999809258132,0.19700008630681792,-0.4345160742177889,0.0
1759840257.288975,1,-1.205000162124625,-0.829999744892114,-0.717703044412456,0.0,-1.7349997758865356,-0.34999915957450867,-0.7177056012544617,0.0012114686464757796,-1.949999809258132,0.19700008630681792,-0.4345160742177889,0.0
1759840257.2999792,1,-1.205000162124625,-0.829999744892114,-0.717703044412456,0.0,-1.7349997758865356,-0.34999915957450867,-0.7177056014983555,0.0012114686464757796,-1.949999809258132,0.19700008630681792,-0.4345160742177889,0.0
1759840257.3113906,1,-1.205000162124625,-0.829999744892114,-0.717703044412456,0.0,-1.7349997758865356,-0.34999915957450867,-0.7177056016737282,0.0012114686464757796,-1.949999809258132,0.19700008630681792,-0.4345160742177889,0.0
1759840257.3228962,1,-1.205000162124625,-0.829999744892114,-0.717703044412456,0.0,-1.7349997758865356,-0.34999915957450867,-0.7177056018388193,0.0012114686464757796,-1.949999809258132,0.19700008630681792,-0.4345160742177889,0.0
1759840257.3342855,1,-1.205000162124625,-0.829999744892114,-0.717703044412456,0.0,-1.7349997758865356,-0.34999915957450867,-0.7177056020223667,0.0012114686464757796,-1.949999809258132,0.19700008630681792,-0.4345160742177889,0.0
1759840257.34528,1,-1.205000162124625,-0.829999744892114,-0.717703044412456,0.0,-1.7349997758865356,-0.34999915957450867,-0.7177056022465642,0.0012114686464757796,-1.949999809258132,0.19700008630681792,-0.4345160742177889,0.0
1759840257.3565235,1,-1.205000162124625,-0.829999744892114,-0.717703044412456,0.0,-1.7349997758865356,-0.34999915957450867,-0.7177056024290511,0.0012114686464757796,-1.949999809258132,0.19700008630681792,-0.4345160742177889,0.0
1759840257.3667748,1,-1.205000162124625,-0.829999744892114,-0.717703044412456,0.0,-1.7349997758865356,-0.34999915957450867,-0.7177056026999402,0.0012114686464757796,-1.949999809258132,0.19700008630681792,-0.4345160742177889,0.0
1759840257.3769605,1,-1.205000162124625,-0.829999744892114,-0.717703044412456,0.0,-1.7349997758865356,-0.34999915957450867,-0.7177056029410593,0.0012114686464757796,-1.949999809258132,0.19700008630681792,-0.4345160742177889,0.0
1759840257.388924,1,-1.205000162124625,-0.829999744892114,-0.717703044412456,0.0,-1.7349997758865356,-0.34999915957450867,-0.7177056029824271,0.0012114686464757796,-1.949999809258132,0.19700008630681792,-0.4345160742177889,0.0
1759840257.4000537,1,-1.205000162124625,-0.829999744892114,-0.717703044412456,0.0,-1.7349997758865356,-0.34999915957450867,-0.7177056031207273,0.0012114686464757796,-1.949999809258132,0.19700008630681792,-0.4345160742177889,0.0
1759840257.410343,1,-1.205000162124625,-0.829999744892114,-0.717703044412456,0.0,-1.7349997758865356,-0.34999915957450867,-0.7177056033361052,0.0012114686464757796,-1.949999809258132,0.19700008630681792,-0.4345160742177889,0.0
1759840257.4216082,1,-1.205000162124625,-0.829999744892114,-0.717703044412456,0.0,-1.7349997758865356,-0.34999915957450867,-0.7177056034453493,0.0012114686464757796,-1.949999809258132,0.19700008630681792,-0.4345160742177889,0.0
1759840257.431901,1,-1.205000162124625,-0.829999744892114,-0.717703044412456,0.0,-1.7349997758865356,-0.34999915957450867,-0.7177056036323108,0.0012114686464757796,-1.949999809258132,0.19700008630681792,-0.4345160742177889,0.0
1759840257.442038,1,-1.205000162124625,-0.829999744892114,-0.717703044412456,0.0,-1.7349997758865356,-0.34999915957450867,-0.7177056038122984,0.0012114686464757796,-1.949999809258132,0.19700008630681792,-0.4345160742177889,0.0
1759840257.4599,1,-1.205000162124625,-0.829999744892114,-0.717703044412456,0.0,-1.7349997758865356,-0.34999915957450867,-0.7177056033966345,0.0012114686464757796,-1.949999809258132,0.19700008630681792,-0.4345160742177889,0.0
1759840257.4689863,1,-1.205000162124625,-0.829999744892114,-0.717703044412456,0.0,-1.7349997758865356,-0.34999915957450867,-0.7177056037676692,0.0012114686464757796,-1.949999809258132,0.19700008630681792,-0.4345160742177889,0.0
1759840257.4793625,1,-1.205000162124625,-0.829999744892114,-0.717703044412456,0.0,-1.7349997758865356,-0.34999915957450867,-0.7177056040086551,0.0012114686464757796,-1.949999809258132,0.19700008630681792,-0.4345160742177889,0.0
1759840257.4909027,1,-1.205000162124625,-0.829999744892114,-0.717703044412456,0.0,-1.7349997758865356,-0.34999915957450867,-0.717705604122342,0.0012114686464757796,-1.949999809258132,0.19700008630681792,-0.4345160742177889,0.0
1759840257.5015483,1,-1.205000162124625,-0.829999744892114,-0.717703044412456,0.0,-1.7349997758865356,-0.34999915957450867,-0.717705604284971,0.0012114686464757796,-1.949999809258132,0.19700008630681792,-0.4345160742177889,0.0
1759840257.5129976,1,-1.205000162124625,-0.829999744892114,-0.717703044412456,0.0,-1.7349997758865356,-0.34999915957450867,-0.7177056043800718,0.0012114686464757796,-1.949999809258132,0.19700008630681792,-0.4345160742177889,0.0
1759840257.5244153,1,-1.205000162124625,-0.829999744892114,-0.717703044412456,0.0,-1.7349997758865356,-0.34999915957450867,-0.7177056044749683,0.0012114686464757796,-1.949999809258132,0.19700008630681792,-0.4345160742177889,0.0
1759840257.5346987,1,-1.205000162124625,-0.829999744892114,-0.717703044412456,0.0,-1.7349997758865356,-0.34999915957450867,-0.7177056046357109,0.0012114686464757796,-1.949999809258132,0.19700008630681792,-0.4345160742177889,0.0
1759840257.5449264,1,-1.205000162124625,-0.829999744892114,-0.717703044412456,0.0,-1.7349997758865356,-0.34999915957450867,-0.7177056047789208,0.0012114686464757796,-1.949999809258132,0.19700008630681792,-0.4345160742177889,0.0
1759840257.5563827,1,-1.205000162124625,-0.829999744892114,-0.717703044412456,0.0,-1.7349997758865356,-0.34999915957450867,-0.7177056048343005,0.0012114686464757796,-1.949999809258132,0.19700008630681792,-0.4345160742177889,0.0
1759840257.5677698,1,-1.205000162124625,-0.829999744892114,-0.717703044412456,0.0,-1.7349997758865356,-0.34999915957450867,-0.7177056048973861,0.0012114686464757796,-1.949999809258132,0.19700008630681792,-0.4345160742177889,0.0
1759840257.5779138,1,-1.205000162124625,-0.829999744892114,-0.717703044412456,0.0,-1.7349997758865356,-0.34999915957450867,-0.7177056050293515,0.0012114686464757796,-1.949999809258132,0.19700008630681792,-0.4345160742177889,0.0
1759840257.588143,1,-1.205000162124625,-0.829999744892114,-0.717703044412456,0.0,-1.7349997758865356,-0.34999915957450867,-0.717705605141644,0.0012114686464757796,-1.949999809258132,0.19700008630681792,-0.4345160742177889,0.0
1759840257.5995328,1,-1.205000162124625,-0.829999744892114,-0.717703044412456,0.0,-1.7349997758865356,-0.34999915957450867,-0.7177056051837383,0.0012114686464757796,-1.949999809258132,0.19700008630681792,-0.4345160742177889,0.0
1759840257.6097538,1,-1.205000162124625,-0.829999744892114,-0.717703044412456,0.0,-1.7349997758865356,-0.34999915957450867,-0.717705605284543,0.0012114686464757796,-1.949999809258132,0.19700008630681792,-0.4345160742177889,0.0
1759840257.6203573,1,-1.205000162124625,-0.829999744892114,-0.717703044412456,0.0,-1.7349997758865356,-0.34999915957450867,-0.7177056053597397,0.0012114686464757796,-1.949999809258132,0.19700008630681792,-0.4345160742177889,0.0
