timestamp,observer_vehicle_id,vehicle_0_x,vehicle_0_y,vehicle_0_theta,vehicle_0_velocity,vehicle_1_x,vehicle_1_y,vehicle_1_theta,vehicle_1_velocity,vehicle_2_x,vehicle_2_y,vehicle_2_theta,vehicle_2_velocity
1759840254.593903,0,-1.205,-0.83,-0.7801621756414646,0.0,0.0,0.0,0.0,0.0,0.0,0.0,0.0,0.0
1759840254.605031,0,-1.205,-0.83,-0.7801621756414646,0.0,0.0,0.0,0.0,0.0,0.0,0.0,0.0,0.0
1759840254.6155958,0,-1.205,-0.83,-0.7801621756414646,0.0,-0.29830058240890506,-0.060175909996032714,1.7615601004680903,0.0,0.0,0.0,0.0,0.0
1759840254.6266687,0,-1.205,-0.83,-0.7801621756414646,0.0,-0.5421323179045434,-0.10936386816518165,-3.0574416845523187,0.0,0.0,0.0,0.0,0.0
1759840254.6381528,0,-1.205,-0.83,-0.7801621756414646,0.0,-0.7418419477557991,-0.14965111338013237,-0.7807675609452571,0.0,0.0,0.0,0.0,0.0
1759840254.6481895,0,-1.205,-0.83,-0.7801621756414646,0.0,-0.9061226305738552,-0.18279130876129646,1.114619718083267,0.0,0.0,0.0,0.0,0.0
1759840254.6594281,0,-1.205,-0.83,-0.7801621756414646,0.0,-1.0504435937558063,-0.21190504773171884,2.680538299935149,0.0,0.0,0.0,0.0,0.0
1759840254.6695929,0,-1.205,-0.83,-0.7801621756414646,0.0,-1.1682442745364623,-0.23566887382579926,-2.3024717447134107,0.0,0.0,0.0,0.0,0.0
1759840254.6803901,0,-1.205,-0.83,-0.7801621756414646,0.0,-1.2645495510749698,-0.25509645122549823,-0.14822622777768288,0.0,0.0,0.0,0.0,0.0
1759840254.6916666,0,-1.205,-0.83,-0.7801621756414646,0.0,-1.343429265415584,-0.27100878553052127,1.6412460815630603,0.0,0.0,0.0,0.0,0.0
1759840254.7022896,0,-1.205,-0.83,-0.7801621756414646,0.0,-1.412434898976272,-0.2849292303410347,3.1104893868555625,0.0,0.0,0.0,0.0,0.0
1759840254.7135742,0,-1.205,-0.83,-0.7801621756414646,0.0,-1.4685518213177764,-0.29624964695171274,-1.9537341562927466,0.0,0.0,0.0,0.0,0.0
1759840254.724222,0,-1.205,-0.83,-0.7801621756414646,0.0,-1.5143386194246458,-0.3054861768291792,0.14362264710852846,0.0,0.0,0.0,0.0,0.0
1759840254.734853,0,-1.205,-0.83,-0.7801621756414646,0.0,-1.554275499166487,-0.31354246397710733,-0.01226687812862895,0.0,0.0,0.0,0.0,0.0
1759840254.7457235,0,-1.205,-0.83,-0.7801621756414646,0.0,-1.58659139746858,-0.32006140481194034,-0.13840868180708682,0.0,0.0,0.0,0.0,0.0
1759840254.7564042,0,-1.205,-0.83,-0.7801621756414646,0.0,-1.6128117640807125,-0.32535072145151683,-0.24075720099866366,0.0,0.0,0.0,0.0,0.0
1759840254.767033,0,-1.205,-0.83,-0.7801621756414646,0.0,-1.6341398457520686,-0.32965313945136093,-0.3240091863179788,0.0,0.0,0.0,0.0,0.0
1759840254.777999,0,-1.205,-0.83,-0.7801621756414646,0.0,-1.652603348961266,-0.3333776989204911,-0.39607958260587395,0.0,0.0,0.0,0.0,0.0
1759840254.7919998,0,-1.2050001607735952,-0.8299997470180194,-0.7229993053598136,0.0,-1.66745618311743,-0.33637389435929615,-0.45405610155271614,0.0,0.0,0.0,0.0,0.0
1759840254.8027737,0,-1.205000161673033,-0.8299997456027273,-0.7181163668025389,0.0,-1.6794860940669043,-0.3388006341947428,-0.5010136284972675,0.0,0.0,0.0,0.0,0.0
1759840254.8140166,0,-1.2050001619552244,-0.8299997451586908,-0.7176542623864499,0.0,-1.6898402732924027,-0.34088933620553946,-0.541430108054941,0.0,0.0,0.0,0.0,0.0
1759840254.825049,0,-1.2050001620600936,-0.829999744993676,-0.7175945902569936,0.0,-1.6981635913887287,-0.34256836173384825,-0.5739193289159971,0.0,0.0,0.0,0.0,0.0
1759840254.8358517,0,-1.205000162099991,-0.8299997449308965,-0.7175892182132788,0.0,-1.7048732578364634,-0.3439218725719305,-0.6001098256147468,0.0,0.0,0.0,0.0,0.0
1759840254.8462958,0,-1.2050001621152215,-0.8299997449069307,-0.7175978357759742,0.0,-1.7106239545063318,-0.34508193474936083,-0.6225570818712097,0.0,0.0,0.0,0.0,0.0
1759840254.8564553,0,-1.2050001621210387,-0.8299997448977774,-0.7176098898439865,0.0,-1.7152274009591508,-0.3460105672998694,-0.6405261642487895,0.0,0.0,0.0,0.0,0.0
1759840254.8668513,0,-1.2050001621232607,-0.8299997448942812,-0.717620935468009,0.0,-1.718920362104758,-0.3467555317439489,-0.6549412603561804,0.0,0.0,0.0,0.0,0.0
1759840254.8776019,0,-1.2050001621241093,-0.8299997448929457,-0.7176303884775965,0.0,-1.7218890024978923,-0.3473543822200158,-0.6665290444914721,0.0,0.0,0.0,0.0,0.0
1759840254.88907,0,-1.2050001621244335,-0.8299997448924357,-0.7176380356445017,0.0,-1.7244218628381267,-0.3478653247457823,-0.6764158057628465,0.0,0.0,0.0,0.0,0.0
1759840254.8997698,0,-1.2050001621245572,-0.8299997448922408,-0.7176459145800855,0.0,-1.7264427656125692,-0.34827299237415477,-0.6843041930403394,0.0,0.0,0.0,0.0,0.0
1759840254.9101138,0,-1.2050001621246045,-0.8299997448921663,-0.7176528097145365,0.0,-1.7280598735558115,-0.34859920428715774,-0.6906164084952983,0.0,0.0,0.0,0.0,0.0
1759840254.9207072,0,-1.2050001621246227,-0.8299997448921379,-0.7176581600959473,0.0,-1.729430897002378,-0.34887577468132674,-0.6959680582875656,0.0,0.0,0.0,0.0,0.0
1759840254.9314947,0,-1.2050001621246296,-0.829999744892127,-0.7176624629946033,0.0,-1.730519050888866,-0.3490952830712498,-0.7002155556846114,0.0,0.0,0.0,0.0,0.0
1759840254.9417574,0,-1.2050001621246322,-0.8299997448921229,-0.7176665209946318,0.0,-1.7313853836000632,-0.34927004447304594,-0.7035971968122845,0.0,-0.3816483378410339,0.03855626797676087,1.1715945497015279,0.0
1759840254.9530075,0,-1.2050001621246331,-0.8299997448921214,-0.7176692582854578,0.0,-1.7320760814756289,-0.3494093758493074,-0.7062932653234014,0.0,-0.6850727739584881,0.06920991613837034,2.117501774395327,0.0
1759840254.9639256,0,-1.2050001621246336,-0.8299997448921207,-0.7176719602712573,0.0,-1.7326284051128227,-0.34952079361275273,-0.7084492041482661,0.0,-0.9270324360097679,0.09365404609944836,2.8859797395866154,0.0
1759840254.9745677,0,-1.2050001621246338,-0.8299997448921205,-0.717674523604714,0.0,-1.733071340430964,-0.34961014496253195,-0.7101781568581957,0.0,-1.1205319209111182,0.11320245559973863,-2.768657349175814,0.0
1759840254.9921117,0,-1.2050001621246338,-0.8299997448921204,-0.7176733688585948,0.0,-1.7334466666799415,-0.3496858578388374,-0.7116432044818558,0.0,-1.2745195575167376,0.1287591552978448,-1.0786959906528215,0.0
1759840254.996681,0,-1.2050001621246338,-0.8299997448921204,-0.717679457770453,0.0,-1.7337475248602772,-0.34974654860655024,-0.7128175736163359,0.0,-1.3993026736834635,0.14136544959776529,0.29694169473090987,0.0
1759840255.007848,0,-1.2050001621246338,-0.8299997448921204,-0.7176809608417436,0.0,-1.7339873059674202,-0.34979491857096107,-0.7137535346427104,0.0,-1.505676188440734,0.15211190211426903,1.4122890017874206,0.0
1759840255.0181904,0,-1.2050001621246338,-0.8299997448921204,-0.7176824596206153,0.0,-1.7341790795071415,-0.34983360418469345,-0.7145021030399776,0.0,-1.5905833655259278,0.1606897041069784,2.3160142313028302,0.0
1759840255.029073,0,-1.2050001621246338,-0.8299997448921204,-0.7176835625591275,0.0,-1.7343327426505908,-0.3498646019595743,-0.7151019114034162,0.0,-1.6584830954433232,0.16754931784735114,3.053030477614238,0.0
1759840255.0397696,0,-1.2050001621246338,-0.8299997448921204,-0.7176846631813483,0.0,-1.734456207660579,-0.3498895080007977,-0.7155838444416214,0.0,-1.7129317957123265,0.17305003269504018,-2.6249120916016206,0.0
1759840255.050428,0,-1.2050001621246338,-0.8299997448921204,-0.7176856943893205,0.0,-1.7345556611245092,-0.3499095703008186,-0.7159720508657462,0.0,-1.7567053751313932,0.1774722866158382,-0.9638285121709467,0.0
1759840255.061134,0,-1.2050001621246338,-0.8299997448921204,-0.7176866224938827,0.0,-1.7346359672211833,-0.3499257700885516,-0.716285517500223,0.0,-1.7919824700136482,0.18103617773984035,0.3894100626788053,0.0
1759840255.0711377,0,-1.2050001621246338,-0.8299997448921204,-0.7176877033700642,0.0,-1.7347050611890713,-0.34993970810396724,-0.7165552187367848,0.0,-1.8205051965783585,0.1839177044748393,1.4973252589174406,0.0
1759840255.0814028,0,-1.2050001621246338,-0.8299997448921204,-0.7176885566449905,0.0,-1.734760427883689,-0.3499508769782798,-0.7167713369661931,0.0,-1.844992871180856,0.18639158749878393,2.3886477543950155,0.0
1759840255.0919209,0,-1.2050001621246338,-0.8299997448921204,-0.7176892343139389,0.0,-1.7348048895960553,-0.3499598460395642,-0.71694488871277,0.0,-1.8646289927688608,0.18837533926946953,3.1173585916067816,0.0
1759840255.102085,0,-1.2050001621246338,-0.8299997448921204,-0.7176899632024458,0.0,-1.7348406958463267,-0.3499670690734052,-0.7170846547483596,0.0,-1.8804196525326542,0.18997060079432457,-2.566162898062258,0.0
1759840255.1133282,0,-1.2050001621246338,-0.8299997448921204,-0.7176903317494965,0.0,-1.7348695657417121,-0.34997289286756883,-0.7171973454321176,0.0,-1.893133130972954,0.19125498810342154,-0.9200390309989409,0.0
1759840255.1242535,0,-1.2050001621246338,-0.8299997448921204,-0.7176908181638222,0.0,-1.7348929118026697,-0.3499776023634549,-0.7172884743931767,0.0,-1.903399389527742,0.19229214345485396,0.42424993073440675,0.0
1759840255.1351144,0,-1.2050001621246338,-0.8299997448921204,-0.7176913299331034,0.0,-1.7349118398972514,-0.34998142064285226,-0.717362358274368,0.0,-1.9117110403975937,0.19313183331196207,1.5277178524509065,0.0
1759840255.1457946,0,-1.2050001621246338,-0.8299997448921204,-0.7176918700696717,0.0,-1.7349281519647277,-0.34998471120286634,-0.7174260307613265,0.0,-1.9184584445459274,0.19381349414130655,2.438563453846884,0.0
1759840255.1564305,0,-1.2050001621246338,-0.8299997448921204,-0.7176923856265276,0.0,-1.7349412857982476,-0.3499873606320374,-0.7174772973371126,0.0,-1.9242837130016792,0.1944019956211953,-3.118601239255498,0.0
1759840255.1672528,0,-1.2050001621246338,-0.8299997448921204,-0.717692823189612,0.0,-1.7349518846528849,-0.3499894986913187,-0.7175186688821141,0.0,-1.9289774768900432,0.19487618612684027,-1.3720623840768604,0.0
1759840255.1780636,0,-1.2050001621246338,-0.8299997448921204,-0.7176932427941107,0.0,-1.7349604593643941,-0.34999122842930963,-0.7175521393914499,0.0,-1.9327690757541742,0.1952592348326012,0.053669221223347635,0.0
1759840255.1891985,0,-1.2050001621246338,-0.8299997448921204,-0.7176935811348777,0.0,-1.7349674112552846,-0.3499926308029952,-0.7175792753864851,0.0,-1.9358384532724637,0.1955693206639361,1.2233446399687236,0.0
1759840255.2001083,0,-1.2050001621246338,-0.8299997448921204,-0.7176939653001124,0.0,-1.7349730633045242,-0.3499937709654702,-0.7176013375825877,0.0,-1.9383301767817138,0.19582104862871674,2.188280925014189,0.0
1759840255.2115753,0,-1.2050001621246338,-0.8299997448921204,-0.7176942369177937,0.0,-1.7349776670365593,-0.34999469965562996,-0.717619307779707,0.0,-1.9403567181258286,0.1960257812670709,2.9894518296450974,0.0
1759840255.2223608,0,-1.2050001621246338,-0.8299997448921204,-0.7176946427765447,0.0,-1.7349816689554505,-0.3499955069447306,-0.7176349288607726,0.0,-1.9420105355964636,0.19619285923718122,-2.6243052564669505,0.0
1759840255.2336812,0,-1.2050001621246338,-0.8299997448921204,-0.717694934773048,0.0,-1.7349849054923663,-0.34999615983676735,-0.7176475623515827,0.0,-1.9434535426091541,0.1963386590146889,-2.228789809112141,0.0
1759840255.2449713,0,-1.2050001621246338,-0.8299997448921204,-0.7176952299370694,0.0,-1.7349875299345061,-0.3499966892536777,-0.717657806593042,0.0,-1.9446211349461728,0.1964566312084897,-1.908763086135225,0.0
1759840255.2556765,0,-1.2050001621246338,-0.8299997448921204,-0.717695613087697,0.0,-1.7349896649756522,-0.3499971199459265,-0.7176661405077787,0.0,-1.9455689594834347,0.19655239831525617,-1.6489727714852604,0.0
1759840255.267132,0,-1.2050001621246338,-0.8299997448921204,-0.7176958520742076,0.0,-1.7349914046142707,-0.3499974708754016,-0.7176729310091919,0.0,-1.9463396077896113,0.19663026373835465,-1.4377448932489587,0.0
1759840255.277768,0,-1.2050001621246338,-0.8299997448921204,-0.717696207360401,0.0,-1.7349928271312367,-0.3499977578333519,-0.717678483658671,0.0,-1.9469684329973505,0.19669379951785765,-1.2653894707460869,0.0
1759840255.2882793,0,-1.2050001621246338,-0.8299997448921204,-0.717696547125211,0.0,-1.7349939933139331,-0.34999799308214274,-0.7176830357335461,0.0,-1.947482852788028,0.19674577590492073,-1.1243915602378993,0.0
1759840255.299343,0,-1.2050001621246338,-0.8299997448921204,-0.717696775044038,0.0,-1.7349950132160472,-0.34999819882240957,-0.7176870168171307,0.0,-1.9479044069205818,0.1967883692521417,-1.0088473044893334,0.0
1759840255.309751,0,-1.2050001621246338,-0.8299997448921204,-0.7176970761989878,0.0,-1.7349958433188692,-0.3499983662753187,-0.7176902570385912,0.0,-1.948273434583454,0.19682565538496558,-0.9077000890678898,0.0
1759840255.320029,0,-1.2050001621246338,-0.8299997448921204,-0.7176973634106432,0.0,-1.734996520656335,-0.3499985029115596,-0.7176929009561087,0.0,-1.9485739229341048,0.19685601638410366,-0.8253388923534599,0.0
1759840255.3302135,0,-1.2050001621246338,-0.8299997448921204,-0.717697627301007,0.0,-1.7349970746999759,-0.3499986146762917,-0.7176950636087925,0.0,-1.9488192046574877,0.19688079936878872,-0.7581093434333251,0.0
1759840255.3404324,0,-1.2050001621246338,-0.8299997448921204,-0.717697856254901,0.0,-1.7349975289241912,-0.34999870630489993,-0.7176968366265587,0.0,-1.9490198800023055,0.1969010753760211,-0.703106007981272,0.0
1759840255.3506212,0,-1.2050001621246338,-0.8299997448921204,-0.7176980653111009,0.0,-1.734997902188515,-0.3499987816018333,-0.7176982936256678,0.0,-1.9491844483382306,0.1969177031723878,-0.6579992840143039,0.0
1759840255.3608236,0,-1.2050001621246338,-0.8299997448921204,-0.7176982543324808,0.0,-1.7349982096230991,-0.3499988436192294,-0.7176994936651222,0.0,-1.9493197155042101,0.19693137041206885,-0.6209237513285663,0.0
1759840255.372107,0,-1.2050001621246338,-0.8299997448921204,-0.7176983182755521,0.0,-1.7349984804706904,-0.3499988982560959,-0.717700550890992,0.0,-1.9494310072947163,0.19694261520724415,-0.5904196568079859,0.0
1759840255.3828466,0,-1.2050001621246338,-0.8299997448921204,-0.7176984592673641,0.0,-1.7349987016992645,-0.3499989428835413,-0.7177014144341028,0.0,-1.9495290199053275,0.1969525182892766,-0.563555267937092,0.0
1759840255.3931298,0,-1.2050001621246338,-0.8299997448921204,-0.7176986505117302,0.0,-1.7349988829376337,-0.3499989794439424,-0.7177021218795399,0.0,-1.9496091753120401,0.1969606170998589,-0.541585380566454,0.0
1759840255.4033751,0,-1.2050001621246338,-0.8299997448921204,-0.7176988308680983,0.0,-1.7349990317675035,-0.3499990094667227,-0.7177027028217136,0.0,-1.9496748832275401,0.19696725615245958,-0.5235754226347078,0.0
1759840255.4133837,0,-1.2050001621246338,-0.8299997448921204,-0.7176990158350874,0.0,-1.7349991543020389,-0.34999903418506345,-0.7177031811227389,0.0,-1.9497288881099295,0.19697271274398512,-0.5087731624725768,0.0
1759840255.423762,0,-1.2050001621246338,-0.8299997448921204,-0.7176991489257283,0.0,-1.7349992553685318,-0.3499990545727526,-0.7177035756254566,0.0,-1.9497733546758795,0.19697720559493112,-0.4965852704045716,0.0
1759840255.4341614,0,-1.2050001621246338,-0.8299997448921204,-0.7176992732020864,0.0,-1.7349993389195157,-0.34999907142711684,-0.7177039017581762,0.0,-1.9498100519032124,0.19698091344079272,-0.4865268852702486,0.0
1759840255.4444828,0,-1.2050001621246338,-0.8299997448921204,-0.7176994007223172,0.0,-1.734999413069153,-0.34999908638498967,-0.7177041911937013,0.0,-1.949840410591018,0.1969839808478729,-0.4782058377056706,0.0
1759840255.4554286,0,-1.2050001621246338,-0.8299997448921204,-0.7176994746712156,0.0,-1.7349994738419539,-0.3499990986444135,-0.7177044284141135,0.0,-1.9498673044048285,0.19698669816804906,-0.470834481428973,0.0
1759840255.4663942,0,-1.2050001621246338,-0.8299997448921204,-0.7176995572954539,0.0,-1.7349995237727425,-0.34999910871672696,-0.7177046233138399,0.0,-1.9498893700839641,0.19698892765902187,-0.4647864741235798,0.0
1759840255.4766722,0,-1.2050001621246338,-0.8299997448921204,-0.7176997001214751,0.0,-1.7349995649312613,-0.34999911701944986,-0.7177047839719082,0.0,-1.949907534206229,0.19699076294115256,-0.45980784901624455,0.0
1759840255.4878013,0,-1.2050001621246338,-0.8299997448921204,-0.7176997740979765,0.0,-1.734999598900948,-0.349999123872002,-0.7177049165691054,0.0,-1.9499225054556073,0.19699227561906,-0.455704362100922,0.0
1759840255.4990063,0,-1.2050001621246338,-0.8299997448921204,-0.7176998500490264,0.0,-1.7349996270039438,-0.3499991295410929,-0.7177050262662751,0.0,-1.9499348744440665,0.19699352536750162,-0.4523141318659142,0.0
1759840255.5104353,0,-1.2050001621246338,-0.8299997448921204,-0.7176999215498157,0.0,-1.7349996518423556,-0.349999134551634,-0.7177051232204746,0.0,-1.9499451159047994,0.196994560152976,-0.44950703814589693,0.0
1759840255.5207443,0,-1.2050001621246338,-0.8299997448921204,-0.7177000742232025,0.0,-1.7349996722811662,-0.3499991386746634,-0.7177052030012819,0.0,-1.9499536293251278,0.19699542033922512,-0.44717358500250637,0.0
1759840255.5321813,0,-1.2050001621246338,-0.8299997448921204,-0.7177001442938523,0.0,-1.73499968911528,-0.3499991420705335,-0.7177052687115235,0.0,-1.9499612547101224,0.19699619079940017,-0.44508353448244575,0.0
1759840255.5434341,0,-1.2050001621246338,-0.8299997448921204,-0.7177002298100703,0.0,-1.7349997030188509,-0.3499991448752383,-0.7177053229826901,0.0,-1.949967534196276,0.1969968252714963,-0.4433623829194761,0.0
1759840255.5540397,0,-1.2050001621246338,-0.8299997448921204,-0.7177003555092867,0.0,-1.7349997145400577,-0.34999914719935954,-0.7177053679545428,0.0,-1.9499727224661674,0.19699734948834985,-0.4419403240735552,0.0
1759840255.5647256,0,-1.2050001621246338,-0.8299997448921204,-0.7177004664765327,0.0,-1.7349997241085227,-0.3499991491295629,-0.7177054053040663,0.0,-1.9499770188237455,0.19699778358740375,-0.440762730496695,0.0
1759840255.576053,0,-1.2050001621246338,-0.8299997448921204,-0.7177005341068252,0.0,-1.7349997326282203,-0.34999915084820327,-0.7177054385598353,0.0,-1.9499805820862706,0.19699814361537227,-0.4397860717838768,0.0
1759840255.5862234,0,-1.2050001621246338,-0.8299997448921204,-0.7177006629409739,0.0,-1.7349997396580719,-0.3499991522663036,-0.7177054660001424,0.0,-1.949983549126444,0.19699844340171654,-0.4389728323393221,0.0
1759840255.5974133,0,-1.2050001621246338,-0.8299997448921204,-0.7177007277171068,0.0,-1.7349997454644328,-0.3499991534375947,-0.7177054886646785,0.0,-1.9499860219181238,0.19699869324975858,-0.4382950620312782,0.0
1759840255.6080832,0,-1.2050001621246338,-0.8299997448921204,-0.7177008170669126,0.0,-1.7349997502752839,-0.349999154408066,-0.7177055074433434,0.0,-1.9499882389574363,0.19699891725687407,-0.4376873911829434,0.0
1759840255.6189108,0,-1.2050001621246338,-0.8299997448921204,-0.7177008946531522,0.0,-1.7349997542699012,-0.34999915521388225,-0.7177055230359244,0.0,-1.9499900744357772,0.19699910271150553,-0.43718430281904563,0.0
1759840255.6299877,0,-1.2050001621246338,-0.8299997448921204,-0.7177009578655476,0.0,-1.7349997575935843,-0.3499991558843539,-0.7177055360095812,0.0,-1.9499915971730306,0.19699925656713532,-0.4367669340185985,0.0
1759840255.6401267,0,-1.2050001621246338,-0.8299997448921204,-0.7177010615206463,0.0,-1.7349997603691374,-0.3499991564442537,-0.7177055468436688,0.0,-1.9499928650688767,0.1969993846738809,-0.4364194149917887,0.0
1759840255.6507971,0,-1.2050001621246338,-0.8299997448921204,-0.7177011317715412,0.0,-1.7349997628562717,-0.34999915694597217,-0.7177055565519433,0.0,-1.9499939223900022,0.19699949150439766,-0.43612961263166516,0.0
1759840255.66095,0,-1.2050001621246338,-0.8299997448921204,-0.7177012173690649,0.0,-1.7349997649183084,-0.34999915736193754,-0.7177055646008929,0.0,-1.9499948067700748,0.1969995808611483,-0.43588721188312596,0.0
1759840255.672084,0,-1.2050001621246338,-0.8299997448921204,-0.717701256342675,0.0,-1.7349997666296038,-0.3499991577071495,-0.7177055712807596,0.0,-1.949995599803436,0.19699966098833174,-0.4356698484594947,0.0
1759840255.6822138,0,-1.2050001621246338,-0.8299997448921204,-0.7177013358265913,0.0,-1.7349997680551439,-0.34999915799471726,-0.7177055768452095,0.0,-1.9499962585910409,0.19699972755147757,-0.43548928060919073,0.0
1759840255.6924412,0,-1.2050001621246338,-0.8299997448921204,-0.7177014050424511,0.0,-1.734999769245136,-0.349999158234769,-0.717705581490222,0.0,-1.9499968070144513,0.19699978296355147,-0.4353389626075581,0.0
1759840255.7035987,0,-1.2050001621246338,-0.8299997448921204,-0.7177014349386965,0.0,-1.7349997702394868,-0.3499991584353549,-0.7177055853715681,0.0,-1.9499972640309693,0.19699982913997754,-0.4352136984258867,0.0
1759840255.7149093,0,-1.2050001621246338,-0.8299997448921204,-0.7177014644494122,0.0,-1.734999771072189,-0.34999915860333214,-0.7177055886219358,0.0,-1.9499976457207007,0.19699986770547126,-0.4351090806496019,0.0
1759840255.7261372,0,-1.2050001621246338,-0.8299997448921204,-0.7177015037678096,0.0,-1.7349997718247576,-0.3499991587551444,-0.7177055915595102,0.0,-1.949997965312889,0.1969998999967003,-0.4350214832601108,0.0
1759840255.7373927,0,-1.2050001621246338,-0.8299997448921204,-0.7177015464554747,0.0,-1.7349997724505428,-0.3499991588813812,-0.7177055940021986,0.0,-1.9499982335449717,0.19699992709856304,-0.43494796322088886,0.0
1759840255.7476213,0,-1.2050001621246338,-0.8299997448921204,-0.7177016223728501,0.0,-1.7349997729728863,-0.34999915898675116,-0.7177055960411124,0.0,-1.9499984778346735,0.19699995178131502,-0.43488100557628717,0.0
1759840255.7581089,0,-1.2050001621246338,-0.8299997448921204,-0.7177016823140665,0.0,-1.7349997734097111,-0.3499991590748699,-0.7177055977462131,0.0,-1.9499986814585526,0.19699997235523878,-0.4348251940737089,0.0
1759840255.7685587,0,-1.2050001621246338,-0.8299997448921204,-0.717701736756883,0.0,-1.7349997737758691,-0.34999915914873325,-0.717705599175473,0.0,-1.9499988515838846,0.19699998954450768,-0.43477856422625044,0.0
1759840255.7788217,0,-1.2050001621246338,-0.8299997448921204,-0.7177017914155357,0.0,-1.7349997740835643,-0.3499991592108032,-0.7177056003765295,0.0,-1.9499989940807276,0.19700000394222564,-0.43473950710307085,0.0
1759840255.7890942,0,-1.2050001621246338,-0.8299997448921204,-0.7177018404383819,0.0,-1.7349997743629069,-0.34999915926715375,-0.7177056014669145,0.0,-1.9499991137001553,0.19700001602843575,-0.43470672047691994,0.0
1759840255.800364,0,-1.2050001621246338,-0.8299997448921204,-0.7177018595726388,0.0,-1.7349997745955352,-0.3499991593140808,-0.7177056023749563,0.0,-1.9499992141989588,0.19700002618271986,-0.43467917464455175,0.0
1759840255.8118212,0,-1.2050001621246338,-0.8299997448921204,-0.7177018785496916,0.0,-1.7349997747896877,-0.3499991593532463,-0.7177056031328104,0.0,-1.9499992988136199,0.19700003473208838,-0.43465598251508036,0.0
1759840255.8220305,0,-1.2050001621246338,-0.8299997448921204,-0.717701933362644,0.0,-1.734999774952402,-0.34999915938607,-0.7177056037679495,0.0,-1.9499993757470107,0.19700004250535016,-0.4346348957537602,0.0
1759840255.8327727,0,-1.2050001621246338,-0.8299997448921204,-0.7177019712331258,0.0,-1.7349997750889712,-0.34999915941361953,-0.7177056043010336,0.0,-1.9499994401538947,0.19700004901294804,-0.43461724239701277,0.0
1759840255.8437371,0,-1.2050001621246338,-0.8299997448921204,-0.7177020019064688,0.0,-1.734999775203825,-0.3499991594367885,-0.7177056047493545,0.0,-1.949999494182566,0.1970000544719432,-0.43460243361648127,0.0
1759840255.854433,0,-1.2050001621246338,-0.8299997448921204,-0.7177020387567055,0.0,-1.7349997753006792,-0.3499991594563264,-0.717705605127414,0.0,-1.9499995396287684,0.19700005906377546,-0.4345899772147873,0.0
1759840255.8651664,0,-1.2050001621246338,-0.8299997448921204,-0.7177020734835367,0.0,-1.734999775388809,-0.3499991594741045,-0.71770560547142,0.0,-1.9499995779411778,0.1970000629348175,-0.43457947612252945,0.0
1759840255.8753896,0,-1.2050001621246338,-0.8299997448921204,-0.7177021169474713,0.0,-1.7349997754626638,-0.3499991594890029,-0.7177056057597052,0.0,-1.9499996103368369,0.1970000662080378,-0.43457059675923504,0.0
1759840255.8865747,0,-1.2050001621246338,-0.8299997448921204,-0.7177021373516954,0.0,-1.7349997755246116,-0.3499991595014994,-0.7177056060015121,0.0,-1.9499996398895112,0.19700006919400623,-0.4345624966328261,0.0
1759840255.8979352,0,-1.2050001621246338,-0.8299997448921204,-0.7177021560569942,0.0,-1.7349997755766835,-0.34999915951200367,-0.7177056062047696,0.0,-1.949999664667022,0.19700007169749756,-0.4345557053364799,0.0
1759840255.9080741,0,-1.2050001621246338,-0.8299997448921204,-0.7177022000297626,0.0,-1.7349997756206352,-0.34999915952086985,-0.7177056063763309,0.0,-1.9499996855266808,0.19700007380513362,-0.4345499878886857,0.0
1759840255.9192004,0,-1.2050001621246338,-0.8299997448921204,-0.7177022223337186,0.0,-1.7349997756577609,-0.349999159528359,-0.7177056065212469,0.0,-1.9499997031017846,0.19700007558090202,-0.4345451707082527,0.0
1759840255.9294078,0,-1.2050001621246338,-0.8299997448921204,-0.7177022602415271,0.0,-1.734999775689236,-0.34999915953470834,-0.7177056066441064,0.0,-1.9499997179638904,0.1970000770825522,-0.43454109713659117,0.0
1759840255.9400613,0,-1.2050001621246338,-0.8299997448921204,-0.7177022872205008,0.0,-1.7349997757179865,-0.3499991595405081,-0.7177056067563315,0.0,-1.949999730550873,0.19700007835432654,-0.4345376471561257,0.0
1759840255.9512584,0,-1.2050001621246338,-0.8299997448921204,-0.7177023039245789,0.0,-1.7349997757421702,-0.3499991595453865,-0.7177056068507297,0.0,-1.9499997412263133,0.19700007943296083,-0.43453472111242875,0.0
1759840255.9624965,0,-1.2050001621246338,-0.8299997448921204,-0.7177023217613439,0.0,-1.7349997757625595,-0.34999915954949956,-0.717705606930317,0.0,-1.949999751055637,0.19700008042610445,-0.4345320269817663,0.0
1759840255.9727445,0,-1.2050001621246338,-0.8299997448921204,-0.7177023560088998,0.0,-1.734999775779815,-0.3499991595529804,-0.717705606997672,0.0,-1.9499997593456484,0.1970000812637177,-0.4345297547630597,0.0
1759840255.982944,0,-1.2050001621246338,-0.8299997448921204,-0.7177023876269715,0.0,-1.734999775794451,-0.34999915955593286,-0.7177056070548026,0.0,-1.9499997663531916,0.19700008197175184,-0.4345278340575343,0.0
1759840255.998703,0,-1.2050001621246338,-0.8299997448921204,-0.7177023399254381,0.0,-1.7349997758067897,-0.34999915955842187,-0.7177056071029652,0.0,-1.9499997722417877,0.19700008256672882,-0.4345262200454706,0.0
1759840256.0043566,0,-1.2050001621246338,-0.8299997448921204,-0.7177024452193521,0.0,-1.734999775818194,-0.3499991595607224,-0.7177056071474819,0.0,-1.9499997772804574,0.19700008307583025,-0.43452483899070826,0.0
1759840256.0144012,0,-1.2050001621246338,-0.8299997448921204,-0.7177024737072148,0.0,-1.7349997758278304,-0.3499991595626663,-0.7177056071850962,0.0,-1.949999781569138,0.19700008350915363,-0.43452366350132654,0.0
1759840256.0250235,0,-1.2050001621246338,-0.8299997448921204,-0.717702486912124,0.0,-1.7349997758359834,-0.34999915956431094,-0.7177056072169199,0.0,-1.94999978522393,0.19700008387842963,-0.43452266175518867,0.0
1759840256.035731,0,-1.2050001621246338,-0.8299997448921204,-0.7177024993190316,0.0,-1.7349997758428959,-0.3499991595657054,-0.7177056072439015,0.0,-1.9499997885929377,0.1970000842188303,-0.4345217383400089,0.0
1759840256.0469959,0,-1.2050001621246338,-0.8299997448921204,-0.7177025065173802,0.0,-1.7349997758487647,-0.3499991595668893,-0.71770560726681,0.0,-1.9499997914432567,0.1970000845068233,-0.4345209570927761,0.0
1759840256.057089,0,-1.2050001621246338,-0.8299997448921204,-0.7177025297590465,0.0,-1.734999775853768,-0.3499991595678986,-0.71770560728634,0.0,-1.9499997938645928,0.19700008475147232,-0.43452029342598747,0.0
1759840256.0673933,0,-1.2050001621246338,-0.8299997448921204,-0.7177025490590001,0.0,-1.734999775858041,-0.3499991595687606,-0.7177056073030195,0.0,-1.9499997959252204,0.1970000849596758,-0.43451972862616606,0.0
1759840256.0788903,0,-1.2050001621246338,-0.8299997448921204,-0.7177025541686692,0.0,-1.734999775862001,-0.3499991595695594,-0.7177056073184764,0.0,-1.9499997976794576,0.19700008513692194,-0.43451924780527634,0.0
1759840256.089885,0,-1.2050001621246338,-0.8299997448921204,-0.7177025670754276,0.0,-1.7349997758653566,-0.3499991595702363,-0.7177056073315747,0.0,-1.9499997991775315,0.19700008528828558,-0.43451883719649914,0.0
1759840256.1008706,0,-1.2050001621246338,-0.8299997448921204,-0.7177025812660229,0.0,-1.7349997758682068,-0.34999915957081124,-0.7177056073427001,0.0,-1.9499998005681565,0.19700008542879272,-0.434518456038518,0.0
1759840256.1110256,0,-1.2050001621246338,-0.8299997448921204,-0.7177026035951002,0.0,-1.7349997758706361,-0.3499991595713013,-0.7177056073521828,0.0,-1.9499998017494136,0.19700008554814558,-0.4345181322664091,0.0
1759840256.1221945,0,-1.2050001621246338,-0.8299997448921204,-0.7177026142340033,0.0,-1.734999775872708,-0.34999915957171923,-0.71770560736027,0.0,-1.9499998027534393,0.19700008564959118,-0.43451785707186036,0.0
1759840256.132576,0,-1.2050001621246338,-0.8299997448921204,-0.7177026322147988,0.0,-1.734999775874481,-0.34999915957207695,-0.7177056073671914,0.0,-1.949999803609817,0.1970000857361186,-0.43451762234632296,0.0
1759840256.1428661,0,-1.2050001621246338,-0.8299997448921204,-0.7177026496750064,0.0,-1.734999775876002,-0.3499991595723838,-0.7177056073731284,0.0,-1.9499998043419304,0.19700008581009051,-0.43451742168051416,0.0
1759840256.1531065,0,-1.2050001621246338,-0.8299997448921204,-0.7177026657575601,0.0,-1.7349997758774254,-0.3499991595726709,-0.717705607378684,0.0,-1.9499998049691845,0.19700008587346757,-0.43451724975571143,0.0
1759840256.163478,0,-1.2050001621246338,-0.8299997448921204,-0.7177026791961651,0.0,-1.7349997758786375,-0.34999915957291544,-0.7177056073834153,0.0,-1.9499998055076107,0.19700008592786952,-0.4345171021778824,0.0
1759840256.174425,0,-1.2050001621246338,-0.8299997448921204,-0.7177026872348584,0.0,-1.734999775879671,-0.34999915957312394,-0.7177056073874496,0.0,-1.9499998060112398,0.19700008597875565,-0.4345169641375466,0.0
1759840256.184584,0,-1.2050001621246338,-0.8299997448921204,-0.717702701883626,0.0,-1.7349997758805553,-0.34999915957330235,-0.7177056073909015,0.0,-1.9499998064407553,0.1970000860221534,-0.434516846411147,0.0
1759840256.1979008,0,-1.2050001621246338,-0.8299997448921204,-0.7177026926990564,0.0,-1.7349997758813098,-0.3499991595734545,-0.7177056073938466,0.0,-1.9499998068060522,0.1970000860590626,-0.4345167462864922,0.0
1759840256.205071,0,-1.2050001621246338,-0.8299997448921204,-0.7177027321751588,0.0,-1.7349997758819617,-0.349999159573586,-0.7177056073963909,0.0,-1.9499998071205764,0.19700008609084174,-0.4345166600782195,0.0
1759840256.2153041,0,-1.2050001621246338,-0.8299997448921204,-0.7177027434497932,0.0,-1.7349997758825229,-0.3499991595736992,-0.7177056073985812,0.0,-1.9499998073904827,0.1970000861181128,-0.434516586099259,0.0
1759840256.2261744,0,-1.2050001621246338,-0.8299997448921204,-0.7177027481466887,0.0,-1.7349997758830489,-0.3499991595738053,-0.7177056074006344,0.0,-1.9499998076223442,0.1970000861415398,-0.4345165225480972,0.0
1759840256.2375576,0,-1.2050001621246338,-0.8299997448921204,-0.7177027505965726,0.0,-1.7349997758834979,-0.3499991595738959,-0.7177056074023875,0.0,-1.9499998078217884,0.1970000861616914,-0.43451646788220905,0.0
1759840256.2481222,0,-1.2050001621246338,-0.8299997448921204,-0.7177027601915427,0.0,-1.7349997758838827,-0.34999915957397354,-0.7177056074038898,0.0,-1.9499998080102088,0.19700008618072917,-0.4345164162378357,0.0
1759840256.2595384,0,-1.2050001621246338,-0.8299997448921204,-0.7177027648774725,0.0,-1.7349997758842128,-0.3499991595740401,-0.7177056074051781,0.0,-1.9499998081711667,0.19700008619699216,-0.4345163721206786,0.0
1759840256.270917,0,-1.2050001621246338,-0.8299997448921204,-0.7177027709705577,0.0,-1.7349997758844964,-0.34999915957409733,-0.7177056074062854,0.0,-1.9499998083089904,0.19700008621091775,-0.43451633434438586,0.0
1759840256.2810423,0,-1.2050001621246338,-0.8299997448921204,-0.7177027850049615,0.0,-1.7349997758847413,-0.34999915957414673,-0.7177056074072414,0.0,-1.9499998084275143,0.19700008622289328,-0.4345163018580561,0.0
1759840256.2912648,0,-1.2050001621246338,-0.8299997448921204,-0.717702797003934,0.0,-1.734999775884973,-0.3499991595741935,-0.7177056074081455,0.0,-1.9499998085296335,0.19700008623321127,-0.43451627386811403,0.0
1759840256.301993,0,-1.2050001621246338,-0.8299997448921204,-0.7177028048404104,0.0,-1.7349997758851714,-0.3499991595742335,-0.7177056074089198,0.0,-1.9499998086177246,0.1970000862421119,-0.434516249723126,0.0
1759840256.312716,0,-1.2050001621246338,-0.8299997448921204,-0.7177028123537497,0.0,-1.7349997758853415,-0.34999915957426786,-0.7177056074095843,0.0,-1.9499998086938768,0.19700008624980622,-0.4345162288505429,0.0
1759840256.322847,0,-1.2050001621246338,-0.8299997448921204,-0.7177028226221401,0.0,-1.734999775885488,-0.34999915957429745,-0.7177056074101565,0.0,-1.9499998087660846,0.197000086257102,-0.4345162090590402,0.0
1759840256.334183,0,-1.2050001621246338,-0.8299997448921204,-0.7177028262540759,0.0,-1.7349997758856144,-0.3499991595743229,-0.7177056074106493,0.0,-1.9499998088280337,0.19700008626336127,-0.4345161920793234,0.0
1759840256.3453176,0,-1.2050001621246338,-0.8299997448921204,-0.717702831535254,0.0,-1.7349997758857234,-0.3499991595743449,-0.7177056074110745,0.0,-1.9499998088813195,0.1970000862687452,-0.4345161774741597,0.0
1759840256.356165,0,-1.2050001621246338,-0.8299997448921204,-0.7177028386761748,0.0,-1.7349997758858178,-0.3499991595743639,-0.7177056074114425,0.0,-1.9499998089272768,0.19700008627338866,-0.4345161648776933,0.0
1759840256.3673084,0,-1.2050001621246338,-0.8299997448921204,-0.7177028444995006,0.0,-1.734999775885907,-0.34999915957438194,-0.7177056074117917,0.0,-1.9499998089669783,0.19700008627740004,-0.4345161539958795,0.0
1759840256.378358,0,-1.2050001621246338,-0.8299997448921204,-0.717702850858803,0.0,-1.7349997758859839,-0.3499991595743974,-0.7177056074120919,0.0,-1.9499998090013557,0.19700008628087348,-0.4345161445733709,0.0
1759840256.3896713,0,-1.2050001621246338,-0.8299997448921204,-0.7177028562056477,0.0,-1.7349997758860503,-0.34999915957441075,-0.7177056074123506,0.0,-1.9499998090339725,0.19700008628416907,-0.4345161356333459,0.0
1759840256.3999307,0,-1.2050001621246338,-0.8299997448921204,-0.7177028657494535,0.0,-1.7349997758861075,-0.3499991595744223,-0.7177056074125743,0.0,-1.949999809062082,0.1970000862870092,-0.43451612792877636,0.0
1759840256.4106,0,-1.2050001621246338,-0.8299997448921204,-0.7177028727418211,0.0,-1.7349997758861573,-0.34999915957443234,-0.7177056074127679,0.0,-1.9499998090863402,0.19700008628946022,-0.4345161212798407,0.0
1759840256.4217222,0,-1.2050001621246338,-0.8299997448921204,-0.7177028774888186,0.0,-1.7349997758862001,-0.34999915957444105,-0.7177056074129359,0.0,-1.9499998091073025,0.19700008629157825,-0.4345161155342384,0.0
1759840256.4320056,0,-1.2050001621246338,-0.8299997448921204,-0.7177028851677179,0.0,-1.7349997758862377,-0.3499991595744486,-0.7177056074130821,0.0,-1.9499998091254827,0.19700008629341517,-0.43451611055123335,0.0
1759840256.4424007,0,-1.2050001621246338,-0.8299997448921204,-0.7177028917414461,0.0,-1.7349997758862734,-0.3499991595744558,-0.7177056074132222,0.0,-1.9499998091412785,0.19700008629501115,-0.4345161062217747,0.0
1759840256.4535978,0,-1.2050001621246338,-0.8299997448921204,-0.7177028950911115,0.0,-1.7349997758863043,-0.34999915957446204,-0.7177056074133432,0.0,-1.9499998091550101,0.19700008629639856,-0.43451610245802763,0.0
1759840256.4645643,0,-1.2050001621246338,-0.8299997448921204,-0.7177028994368175,0.0,-1.7349997758863311,-0.3499991595744674,-0.7177056074134479,0.0,-1.9499998091681527,0.19700008629772647,-0.43451609885580444,0.0
1759840256.4751234,0,-1.2050001621246338,-0.8299997448921204,-0.7177029051350559,0.0,-1.7349997758863545,-0.3499991595744721,-0.7177056074135388,0.0,-1.9499998091795219,0.1970000862988752,-0.4345160957396047,0.0
1759840256.4854572,0,-1.2050001621246338,-0.8299997448921204,-0.7177029111152713,0.0,-1.7349997758863749,-0.3499991595744762,-0.7177056074136179,0.0,-1.9499998091893815,0.1970000862998714,-0.43451609303720773,0.0
1759840256.4966583,0,-1.2050001621246338,-0.8299997448921204,-0.7177029140916034,0.0,-1.7349997758863924,-0.3499991595744798,-0.7177056074136869,0.0,-1.9499998091979358,0.1970000863007357,-0.4345160906925362,0.0
1759840256.5072653,0,-1.2050001621246338,-0.8299997448921204,-0.7177029188821162,0.0,-1.7349997758864082,-0.34999915957448297,-0.7177056074137483,0.0,-1.9499998092053816,0.19700008630148802,-0.4345160886517004,0.0
1759840256.517567,0,-1.2050001621246338,-0.8299997448921204,-0.7177029242794966,0.0,-1.7349997758864228,-0.3499991595744859,-0.717705607413806,0.0,-1.9499998092119546,0.19700008630215216,-0.4345160868500713,0.0
1759840256.5281136,0,-1.2050001621246338,-0.8299997448921204,-0.7177029285350223,0.0,-1.7349997758864357,-0.3499991595744885,-0.7177056074138559,0.0,-1.9499998092178046,0.19700008630274324,-0.43451608524662144,0.0
1759840256.538899,0,-1.2050001621246338,-0.8299997448921204,-0.7177029319229682,0.0,-1.7349997758864468,-0.34999915957449074,-0.7177056074138993,0.0,-1.9499998092232695,0.19700008630329538,-0.43451608374875406,0.0
1759840256.549893,0,-1.2050001621246338,-0.8299997448921204,-0.7177029348116086,0.0,-1.7349997758864566,-0.3499991595744927,-0.7177056074139374,0.0,-1.9499998092280113,0.1970000863037745,-0.4345160824490583,0.0
1759840256.5603986,0,-1.2050001621246338,-0.8299997448921204,-0.7177029389654255,0.0,-1.7349997758864655,-0.34999915957449446,-0.7177056074139714,0.0,-1.949999809232138,0.19700008630419147,-0.4345160813179447,0.0
1759840256.570547,0,-1.2050001621246338,-0.8299997448921204,-0.717702943681445,0.0,-1.7349997758864732,-0.34999915957449607,-0.7177056074140016,0.0,-1.9499998092357678,0.19700008630455823,-0.43451608032302874,0.0
1759840256.581331,0,-1.2050001621246338,-0.8299997448921204,-0.7177029465364484,0.0,-1.7349997758864801,-0.34999915957449745,-0.7177056074140284,0.0,-1.9499998092389985,0.19700008630488464,-0.4345160794375536,0.0
1759840256.5921316,0,-1.2050001621246338,-0.8299997448921204,-0.7177029493122316,0.0,-1.7349997758864864,-0.3499991595744987,-0.7177056074140528,0.0,-1.9499998092418738,0.19700008630517515,-0.4345160786494807,0.0
1759840256.6027324,0,-1.2050001621246338,-0.8299997448921204,-0.7177029525403658,0.0,-1.7349997758864917,-0.3499991595744998,-0.717705607414074,0.0,-1.9499998092444328,0.19700008630543372,-0.4345160779480958,0.0
1759840256.6134458,0,-1.2050001621246338,-0.8299997448921204,-0.7177029554527152,0.0,-1.7349997758864966,-0.3499991595745008,-0.7177056074140928,0.0,-1.949999809246739,0.19700008630566676,-0.4345160773159499,0.0
1759840256.6247926,0,-1.2050001621246338,-0.8299997448921204,-0.7177029571322429,0.0,-1.734999775886501,-0.3499991595745016,-0.7177056074141096,0.0,-1.949999809248763,0.19700008630587124,-0.43451607676125337,0.0
1759840256.6360219,0,-1.2050001621246338,-0.8299997448921204,-0.7177029593315787,0.0,-1.734999775886505,-0.3499991595745024,-0.7177056074141246,0.0,-1.949999809250564,0.19700008630605323,-0.4345160762675735,0.0
1759840256.646282,0,-1.2050001621246338,-0.8299997448921204,-0.7177029634136591,0.0,-1.7349997758865083,-0.34999915957450306,-0.7177056074141379,0.0,-1.9499998092521669,0.19700008630621518,-0.43451607582819834,0.0
1759840256.6576436,0,-1.2050001621246338,-0.8299997448921204,-0.7177029652581552,0.0,-1.7349997758865083,-0.34999915957450306,-0.7177056074141379,0.0,-1.9499998092535935,0.19700008630635932,-0.4345160754371545,0.0
1759840256.668354,0,-1.2050001621246338,-0.8299997448921204,-0.7177029682668739,0.0,-1.7349997758865112,-0.34999915957450367,-0.7177056074141498,0.0,-1.9499998092548634,0.1970000863064876,-0.43451607508912543,0.0
1759840256.6784394,0,-1.2050001621246338,-0.8299997448921204,-0.7177029721164061,0.0,-1.7349997758865139,-0.3499991595745042,-0.7177056074141603,0.0,-1.9499998092548634,0.1970000863064876,-0.43451607508912543,0.0
1759840256.6895154,0,-1.2050001621246338,-0.8299997448921204,-0.7177029739902707,0.0,-1.7349997758865163,-0.3499991595745047,-0.7177056074141698,0.0,-1.9499998092559936,0.1970000863066018,-0.43451607477937965,0.0
1759840256.7002833,0,-1.2050001621246338,-0.8299997448921204,-0.7177029763215828,0.0,-1.7349997758865185,-0.34999915957450517,-0.7177056074141781,0.0,-1.9499998092569995,0.19700008630670343,-0.4345160745037059,0.0
1759840256.711055,0,-1.2050001621246338,-0.8299997448921204,-0.7177029786116673,0.0,-1.7349997758865185,-0.34999915957450517,-0.7177056074141781,0.0,-1.9499998092578945,0.19700008630679386,-0.43451607425835626,0.0
1759840256.721778,0,-1.2050001621246338,-0.8299997448921204,-0.7177029808948792,0.0,-1.7349997758865185,-0.34999915957450517,-0.7177056074141781,0.0,-1.9499998092586912,0.19700008630687438,-0.434516074039995,0.0
1759840256.7324595,0,-1.2050001621246338,-0.8299997448921204,-0.7177029831377642,0.0,-1.7349997758865205,-0.34999915957450556,-0.7177056074141855,0.0,-1.9499998092586912,0.19700008630687438,-0.434516074039995,0.0
1759840256.7434537,0,-1.2050001621246338,-0.8299997448921204,-0.7177029848780131,0.0,-1.7349997758865223,-0.34999915957450595,-0.717705607414192,0.0,-1.9499998092586912,0.19700008630687438,-0.434516074039995,0.0
1759840256.754471,0,-1.2050001621246338,-0.8299997448921204,-0.717702986613819,0.0,-1.7349997758865239,-0.3499991595745062,-0.7177056074141979,0.0,-1.9499998092586912,0.19700008630687438,-0.434516074039995,0.0
1759840256.765404,0,-1.2050001621246338,-0.8299997448921204,-0.7177029884873535,0.0,-1.7349997758865239,-0.3499991595745062,-0.7177056074141979,0.0,-1.9499998092594002,0.19700008630694602,-0.4345160738456535,0.0
1759840256.775931,0,-1.2050001621246338,-0.8299997448921204,-0.7177029908030405,0.0,-1.7349997758865239,-0.3499991595745062,-0.7177056074141979,0.0,-1.9499998092600312,0.19700008630700977,-0.43451607367268963,0.0
1759840256.7877507,0,-1.2050001621246338,-0.8299997448921204,-0.7177029915179406,0.0,-1.7349997758865239,-0.3499991595745062,-0.7177056074141979,0.0,-1.9499998092600312,0.19700008630700977,-0.43451607367268963,0.0
1759840256.8045506,0,-1.2050001621246338,-0.8299997448921204,-0.7177029873474616,0.0,-1.7349997758865252,-0.34999915957450645,-0.7177056074142031,0.0,-1.9499998092600312,0.19700008630700977,-0.43451607367268963,0.0
1759840256.809257,0,-1.2050001621246338,-0.8299997448921204,-0.717702997243105,0.0,-1.7349997758865263,-0.34999915957450667,-0.7177056074142077,0.0,-1.9499998092600312,0.19700008630700977,-0.43451607367268963,0.0
1759840256.8200436,0,-1.2050001621246338,-0.8299997448921204,-0.7177029991143371,0.0,-1.7349997758865263,-0.34999915957450667,-0.7177056074142077,0.0,-1.9499998092600312,0.19700008630700977,-0.43451607367268963,0.0
1759840256.8307393,0,-1.2050001621246338,-0.8299997448921204,-0.7177030004746889,0.0,-1.7349997758865263,-0.34999915957450667,-0.7177056074142077,0.0,-1.9499998092600312,0.19700008630700977,-0.43451607367268963,0.0
1759840256.841576,0,-1.2050001621246338,-0.8299997448921204,-0.7177030016708343,0.0,-1.7349997758865263,-0.34999915957450667,-0.7177056074142077,0.0,-1.9499998092600312,0.19700008630700977,-0.43451607367268963,0.0
1759840256.852229,0,-1.2050001621246338,-0.8299997448921204,-0.7177030030624465,0.0,-1.7349997758865263,-0.34999915957450667,-0.7177056074142077,0.0,-1.9499998092600312,0.19700008630700977,-0.43451607367268963,0.0
1759840256.8629398,0,-1.2050001621246338,-0.8299997448921204,-0.7177030043767925,0.0,-1.7349997758865263,-0.34999915957450667,-0.7177056074142077,0.0,-1.9499998092600312,0.19700008630700977,-0.43451607367268963,0.0
1759840256.8729582,0,-1.2050001621246338,-0.8299997448921204,-0.7177030062391019,0.0,-1.7349997758865263,-0.34999915957450667,-0.7177056074142077,0.0,-1.9499998092600312,0.19700008630700977,-0.43451607367268963,0.0
1759840256.883413,0,-1.2050001621246338,-0.8299997448921204,-0.7177030075435376,0.0,-1.7349997758865263,-0.34999915957450667,-0.7177056074142077,0.0,-1.9499998092600312,0.19700008630700977,-0.43451607367268963,0.0
1759840256.894488,0,-1.2050001621246338,-0.8299997448921204,-0.7177030082696838,0.0,-1.7349997758865263,-0.34999915957450667,-0.7177056074142077,0.0,-1.9499998092600312,0.19700008630700977,-0.43451607367268963,0.0
1759840256.9178016,0,-1.2050001621246338,-0.8299997448921204,-0.7177030002123761,0.0,-1.7349997758865263,-0.34999915957450667,-0.7177056074142077,0.0,-1.9499998092600312,0.19700008630700977,-0.43451607367268963,0.0
1759840256.9291933,0,-1.2050001621246338,-0.8299997448921204,-0.7177030035775367,0.0,-1.7349997758865263,-0.34999915957450667,-0.7177056074142077,0.0,-1.9499998092600312,0.19700008630700977,-0.43451607367268963,0.0
1759840256.9393098,0,-1.2050001621246338,-0.8299997448921204,-0.7177030077642819,0.0,-1.7349997758865263,-0.34999915957450667,-0.7177056074142077,0.0,-1.9499998092600312,0.19700008630700977,-0.43451607367268963,0.0
1759840256.94942,0,-1.2050001621246338,-0.8299997448921204,-0.7177030110224738,0.0,-1.7349997758865263,-0.34999915957450667,-0.7177056074142077,0.0,-1.9499998092600312,0.19700008630700977,-0.43451607367268963,0.0
1759840256.959581,0,-1.2050001621246338,-0.8299997448921204,-0.7177030134888476,0.0,-1.7349997758865263,-0.34999915957450667,-0.7177056074142077,0.0,-1.9499998092600312,0.19700008630700977,-0.43451607367268963,0.0
1759840256.970594,0,-1.2050001621246338,-0.8299997448921204,-0.7177030149200316,0.0,-1.7349997758865263,-0.34999915957450667,-0.7177056074142077,0.0,-1.9499998092600312,0.19700008630700977,-0.43451607367268963,0.0
1759840256.981574,0,-1.2050001621246338,-0.8299997448921204,-0.7177030161589002,0.0,-1.7349997758865263,-0.34999915957450667,-0.7177056074142077,0.0,-1.9499998092600312,0.19700008630700977,-0.43451607367268963,0.0
1759840256.9927688,0,-1.2050001621246338,-0.8299997448921204,-0.7177030171602433,0.0,-1.7349997758865263,-0.34999915957450667,-0.7177056074142077,0.0,-1.9499998092600312,0.19700008630700977,-0.43451607367268963,0.0
1759840257.006664,0,-1.2050001621246338,-0.8299997448921204,-0.7177030166724644,0.0,-1.7349997758865263,-0.34999915957450667,-0.7177056074142077,0.0,-1.9499998092600312,0.19700008630700977,-0.43451607367268963,0.0
1759840257.0178063,0,-1.2050001621246338,-0.8299997448921204,-0.717703018022787,0.0,-1.7349997758865263,-0.34999915957450667,-0.7177056074142077,0.0,-1.9499998092600312,0.19700008630700977,-0.43451607367268963,0.0
1759840257.0290384,0,-1.2050001621246338,-0.8299997448921204,-0.7177030192785026,0.0,-1.7349997758865263,-0.34999915957450667,-0.7177056074142077,0.0,-1.9499998092600312,0.19700008630700977,-0.43451607367268963,0.0
1759840257.0398471,0,-1.2050001621246338,-0.8299997448921204,-0.7177030205956036,0.0,-1.7349997758865263,-0.34999915957450667,-0.7177056074142077,0.0,-1.9499998092600312,0.19700008630700977,-0.43451607367268963,0.0
1759840257.0510323,0,-1.2050001621246338,-0.8299997448921204,-0.7177030215647591,0.0,-1.7349997758865263,-0.34999915957450667,-0.7177056074142077,0.0,-1.9499998092600312,0.19700008630700977,-0.43451607367268963,0.0
1759840257.0621183,0,-1.2050001621246338,-0.8299997448921204,-0.7177030224863117,0.0,-1.7349997758865263,-0.34999915957450667,-0.7177056074142077,0.0,-1.9499998092600312,0.19700008630700977,-0.43451607367268963,0.0
1759840257.0731032,0,-1.2050001621246338,-0.8299997448921204,-0.7177030233794284,0.0,-1.7349997758865263,-0.34999915957450667,-0.7177056074142077,0.0,-1.9499998092600312,0.19700008630700977,-0.43451607367268963,0.0
1759840257.084282,0,-1.2050001621246338,-0.8299997448921204,-0.7177030241190003,0.0,-1.7349997758865263,-0.34999915957450667,-0.7177056074142077,0.0,-1.9499998092600312,0.19700008630700977,-0.43451607367268963,0.0
1759840257.0956182,0,-1.2050001621246338,-0.8299997448921204,-0.7177030247593166,0.0,-1.7349997758865263,-0.34999915957450667,-0.7177056074142077,0.0,-1.9499998092600312,0.19700008630700977,-0.43451607367268963,0.0
1759840257.1063893,0,-1.2050001621246338,-0.8299997448921204,-0.717703025612531,0.0,-1.7349997758865263,-0.34999915957450667,-0.7177056074142077,0.0,-1.9499998092600312,0.19700008630700977,-0.43451607367268963,0.0
1759840257.117111,0,-1.2050001621246338,-0.8299997448921204,-0.7177030264113533,0.0,-1.7349997758865263,-0.34999915957450667,-0.7177056074142077,0.0,-1.9499998092600312,0.19700008630700977,-0.43451607367268963,0.0
1759840257.1271927,0,-1.2050001621246338,-0.8299997448921204,-0.717703027362429,0.0,-1.7349997758865263,-0.34999915957450667,-0.7177056074142077,0.0,-1.9499998092600312,0.19700008630700977,-0.43451607367268963,0.0
1759840257.1385102,0,-1.2050001621246338,-0.8299997448921204,-0.7177030277445553,0.0,-1.7349997758865263,-0.34999915957450667,-0.7177056074142077,0.0,-1.9499998092600312,0.19700008630700977,-0.43451607367268963,0.0
1759840257.1497684,0,-1.2050001621246338,-0.8299997448921204,-0.7177030281622692,0.0,-1.7349997758865263,-0.34999915957450667,-0.7177056074142077,0.0,-1.9499998092600312,0.19700008630700977,-0.43451607367268963,0.0
1759840257.1600654,0,-1.2050001621246338,-0.8299997448921204,-0.7177030289290904,0.0,-1.7349997758865263,-0.34999915957450667,-0.7177056074142077,0.0,-1.9499998092600312,0.19700008630700977,-0.43451607367268963,0.0
1759840257.1708055,0,-1.2050001621246338,-0.8299997448921204,-0.7177030294781304,0.0,-1.7349997758865263,-0.34999915957450667,-0.7177056074142077,0.0,-1.9499998092600312,0.19700008630700977,-0.43451607367268963,0.0
1759840257.181507,0,-1.2050001621246338,-0.8299997448921204,-0.7177030299977057,0.0,-1.7349997758865263,-0.34999915957450667,-0.7177056074142077,0.0,-1.9499998092600312,0.19700008630700977,-0.43451607367268963,0.0
1759840257.192152,0,-1.2050001621246338,-0.8299997448921204,-0.7177030305071916,0.0,-1.7349997758865263,-0.34999915957450667,-0.7177056074142077,0.0,-1.9499998092600312,0.19700008630700977,-0.43451607367268963,0.0
1759840257.203793,0,-1.2050001621246338,-0.8299997448921204,-0.7177030307025696,0.0,-1.7349997758865263,-0.34999915957450667,-0.7177056074142077,0.0,-1.9499998092600312,0.19700008630700977,-0.43451607367268963,0.0
1759840257.215134,0,-1.2050001621246338,-0.8299997448921204,-0.7177030310450352,0.0,-1.7349997758865263,-0.34999915957450667,-0.7177056074142077,0.0,-1.9499998092600312,0.19700008630700977,-0.43451607367268963,0.0
1759840257.2258427,0,-1.2050001621246338,-0.8299997448921204,-0.7177030315940112,0.0,-1.7349997758865263,-0.34999915957450667,-0.7177056074142077,0.0,-1.9499998092600312,0.19700008630700977,-0.43451607367268963,0.0
1759840257.2370174,0,-1.2050001621246338,-0.8299997448921204,-0.7177030319867974,0.0,-1.7349997758865263,-0.34999915957450667,-0.7177056074142077,0.0,-1.9499998092600312,0.19700008630700977,-0.43451607367268963,0.0
1759840257.2480953,0,-1.2050001621246338,-0.8299997448921204,-0.7177030323974591,0.0,-1.7349997758865263,-0.34999915957450667,-0.7177056074142077,0.0,-1.9499998092600312,0.19700008630700977,-0.43451607367268963,0.0
1759840257.2593217,0,-1.2050001621246338,-0.8299997448921204,-0.7177030327653976,0.0,-1.7349997758865263,-0.34999915957450667,-0.7177056074142077,0.0,-1.9499998092600312,0.19700008630700977,-0.43451607367268963,0.0
1759840257.269593,0,-1.2050001621246338,-0.8299997448921204,-0.7177030333559742,0.0,-1.7349997758865263,-0.34999915957450667,-0.7177056074142077,0.0,-1.9499998092600312,0.19700008630700977,-0.43451607367268963,0.0
1759840257.2801309,0,-1.2050001621246338,-0.8299997448921204,-0.7177030338173793,0.0,-1.7349997758865263,-0.34999915957450667,-0.7177056074142077,0.0,-1.9499998092600312,0.19700008630700977,-0.43451607367268963,0.0
1759840257.291523,0,-1.2050001621246338,-0.8299997448921204,-0.7177030340417881,0.0,-1.7349997758865263,-0.34999915957450667,-0.7177056074142077,0.0,-1.9499998092600312,0.19700008630700977,-0.43451607367268963,0.0
1759840257.303063,0,-1.2050001621246338,-0.8299997448921204,-0.7177030342580206,0.0,-1.7349997758865263,-0.34999915957450667,-0.7177056074142077,0.0,-1.9499998092600312,0.19700008630700977,-0.43451607367268963,0.0
1759840257.3142743,0,-1.2050001621246338,-0.8299997448921204,-0.7177030345787934,0.0,-1.7349997758865263,-0.34999915957450667,-0.7177056074142077,0.0,-1.9499998092600312,0.19700008630700977,-0.43451607367268963,0.0
1759840257.325138,0,-1.2050001621246338,-0.8299997448921204,-0.7177030349731339,0.0,-1.7349997758865263,-0.34999915957450667,-0.7177056074142077,0.0,-1.9499998092600312,0.19700008630700977,-0.43451607367268963,0.0
1759840257.3361292,0,-1.2050001621246338,-0.8299997448921204,-0.7177030353175269,0.0,-1.7349997758865263,-0.34999915957450667,-0.7177056074142077,0.0,-1.9499998092600312,0.19700008630700977,-0.43451607367268963,0.0
1759840257.3464298,0,-1.2050001621246338,-0.8299997448921204,-0.7177030357678351,0.0,-1.7349997758865263,-0.34999915957450667,-0.7177056074142077,0.0,-1.9499998092600312,0.19700008630700977,-0.43451607367268963,0.0
1759840257.3576236,0,-1.2050001621246338,-0.8299997448921204,-0.7177030360065473,0.0,-1.7349997758865263,-0.34999915957450667,-0.7177056074142077,0.0,-1.9499998092600312,0.19700008630700977,-0.43451607367268963,0.0
1759840257.3682823,0,-1.2050001621246338,-0.8299997448921204,-0.717703036334477,0.0,-1.7349997758865263,-0.34999915957450667,-0.7177056074142077,0.0,-1.9499998092600312,0.19700008630700977,-0.43451607367268963,0.0
1759840257.379706,0,-1.2050001621246338,-0.8299997448921204,-0.7177030365168164,0.0,-1.7349997758865263,-0.34999915957450667,-0.7177056074142077,0.0,-1.9499998092600312,0.19700008630700977,-0.43451607367268963,0.0
1759840257.390988,0,-1.2050001621246338,-0.8299997448921204,-0.7177030367379764,0.0,-1.7349997758865263,-0.34999915957450667,-0.7177056074142077,0.0,-1.9499998092600312,0.19700008630700977,-0.43451607367268963,0.0
1759840257.4089866,0,-1.2050001621246338,-0.8299997448921204,-0.7177030359659007,0.0,-1.7349997758865263,-0.34999915957450667,-0.7177056074142077,0.0,-1.9499998092600312,0.19700008630700977,-0.43451607367268963,0.0
1759840257.420139,0,-1.2050001621246338,-0.8299997448921204,-0.7177030365157453,0.0,-1.7349997758865263,-0.34999915957450667,-0.7177056074142077,0.0,-1.9499998092600312,0.19700008630700977,-0.43451607367268963,0.0
1759840257.4313674,0,-1.2050001621246338,-0.8299997448921204,-0.7177030370375022,0.0,-1.7349997758865263,-0.34999915957450667,-0.7177056074142077,0.0,-1.9499998092600312,0.19700008630700977,-0.43451607367268963,0.0
1759840257.44208,0,-1.2050001621246338,-0.8299997448921204,-0.7177030375390565,0.0,-1.7349997758865263,-0.34999915957450667,-0.7177056074142077,0.0,-1.9499998092600312,0.19700008630700977,-0.43451607367268963,0.0
1759840257.4521623,0,-1.2050001621246338,-0.8299997448921204,-0.7177030380309581,0.0,-1.7349997758865263,-0.34999915957450667,-0.7177056074142077,0.0,-1.9499998092600312,0.19700008630700977,-0.43451607367268963,0.0
1759840257.463562,0,-1.2050001621246338,-0.8299997448921204,-0.7177030382639629,0.0,-1.7349997758865263,-0.34999915957450667,-0.7177056074142077,0.0,-1.9499998092600312,0.19700008630700977,-0.43451607367268963,0.0
1759840257.4745965,0,-1.2050001621246338,-0.8299997448921204,-0.7177030385166958,0.0,-1.7349997758865263,-0.34999915957450667,-0.7177056074142077,0.0,-1.9499998092600312,0.19700008630700977,-0.43451607367268963,0.0
1759840257.4857562,0,-1.2050001621246338,-0.8299997448921204,-0.7177030387357721,0.0,-1.7349997758865263,-0.34999915957450667,-0.7177056074142077,0.0,-1.9499998092600312,0.19700008630700977,-0.43451607367268963,0.0
1759840257.4971972,0,-1.2050001621246338,-0.8299997448921204,-0.7177030389102264,0.0,-1.7349997758865263,-0.34999915957450667,-0.7177056074142077,0.0,-1.9499998092600312,0.19700008630700977,-0.43451607367268963,0.0
1759840257.5086164,0,-1.2050001621246338,-0.8299997448921204,-0.7177030390868229,0.0,-1.7349997758865263,-0.34999915957450667,-0.7177056074142077,0.0,-1.9499998092600312,0.19700008630700977,-0.43451607367268963,0.0
1759840257.5200462,0,-1.2050001621246338,-0.8299997448921204,-0.7177030392622772,0.0,-1.7349997758865263,-0.34999915957450667,-0.7177056074142077,0.0,-1.9499998092600312,0.19700008630700977,-0.43451607367268963,0.0
1759840257.5312834,0,-1.2050001621246338,-0.8299997448921204,-0.7177030394553956,0.0,-1.7349997758865263,-0.34999915957450667,-0.7177056074142077,0.0,-1.9499998092600312,0.19700008630700977,-0.43451607367268963,0.0
1759840257.5425913,0,-1.2050001621246338,-0.8299997448921204,-0.7177030396327382,0.0,-1.7349997758865263,-0.34999915957450667,-0.7177056074142077,0.0,-1.9499998092600312,0.19700008630700977,-0.43451607367268963,0.0
1759840257.5534873,0,-1.2050001621246338,-0.8299997448921204,-0.7177030398410018,0.0,-1.7349997758865263,-0.34999915957450667,-0.7177056074142077,0.0,-1.9499998092600312,0.19700008630700977,-0.43451607367268963,0.0
1759840257.563654,0,-1.2050001621246338,-0.8299997448921204,-0.7177030400966373,0.0,-1.7349997758865263,-0.34999915957450667,-0.7177056074142077,0.0,-1.9499998092600312,0.19700008630700977,-0.43451607367268963,0.0
1759840257.5739098,0,-1.2050001621246338,-0.8299997448921204,-0.7177030403068922,0.0,-1.7349997758865263,-0.34999915957450667,-0.7177056074142077,0.0,-1.9499998092600312,0.19700008630700977,-0.43451607367268963,0.0
1759840257.5847867,0,-1.2050001621246338,-0.8299997448921204,-0.7177030404338112,0.0,-1.7349997758865263,-0.34999915957450667,-0.7177056074142077,0.0,-1.9499998092600312,0.19700008630700977,-0.43451607367268963,0.0
1759840257.5958154,0,-1.2050001621246338,-0.8299997448921204,-0.7177030405421457,0.0,-1.7349997758865263,-0.34999915957450667,-0.7177056074142077,0.0,-1.9499998092600312,0.19700008630700977,-0.43451607367268963,0.0
1759840257.6073403,0,-1.2050001621246338,-0.8299997448921204,-0.7177030406141878,0.0,-1.7349997758865263,-0.34999915957450667,-0.7177056074142077,0.0,-1.9499998092600312,0.19700008630700977,-0.43451607367268963,0.0
1759840257.6188776,0,-1.2050001621246338,-0.8299997448921204,-0.7177030406999112,0.0,-1.7349997758865263,-0.34999915957450667,-0.7177056074142077,0.0,-1.9499998092600312,0.19700008630700977,-0.43451607367268963,0.0
1759840257.6300328,0,-1.2050001621246338,-0.8299997448921204,-0.7177030408263327,0.0,-1.7349997758865263,-0.34999915957450667,-0.7177056074142077,0.0,-1.9499998092600312,0.19700008630700977,-0.43451607367268963,0.0
1759840257.6409643,0,-1.2050001621246338,-0.8299997448921204,-0.7177030409675673,0.0,-1.7349997758865263,-0.34999915957450667,-0.7177056074142077,0.0,-1.9499998092600312,0.19700008630700977,-0.43451607367268963,0.0
1759840257.6524756,0,-1.2050001621246338,-0.8299997448921204,-0.7177030410598526,0.0,-1.7349997758865263,-0.34999915957450667,-0.7177056074142077,0.0,-1.9499998092600312,0.19700008630700977,-0.43451607367268963,0.0
1759840257.662675,0,-1.2050001621246338,-0.8299997448921204,-0.7177030412422063,0.0,-1.7349997758865263,-0.34999915957450667,-0.7177056074142077,0.0,-1.9499998092600312,0.19700008630700977,-0.43451607367268963,0.0
1759840257.6734285,0,-1.2050001621246338,-0.8299997448921204,-0.7177030413663985,0.0,-1.7349997758865263,-0.34999915957450667,-0.7177056074142077,0.0,-1.9499998092600312,0.19700008630700977,-0.43451607367268963,0.0
1759840257.683513,0,-1.2050001621246338,-0.8299997448921204,-0.717703041519453,0.0,-1.7349997758865263,-0.34999915957450667,-0.7177056074142077,0.0,-1.9499998092600312,0.19700008630700977,-0.43451607367268963,0.0
1759840257.693967,0,-1.2050001621246338,-0.8299997448921204,-0.7177030416302621,0.0,-1.7349997758865263,-0.34999915957450667,-0.7177056074142077,0.0,-1.9499998092600312,0.19700008630700977,-0.43451607367268963,0.0
1759840257.705364,0,-1.2050001621246338,-0.8299997448921204,-0.7177030416749961,0.0,-1.7349997758865263,-0.34999915957450667,-0.7177056074142077,0.0,-1.9499998092600312,0.19700008630700977,-0.43451607367268963,0.0
1759840257.7167459,0,-1.2050001621246338,-0.8299997448921204,-0.7177030417306155,0.0,-1.7349997758865263,-0.34999915957450667,-0.7177056074142077,0.0,-1.9499998092600312,0.19700008630700977,-0.43451607367268963,0.0
1759840257.72742,0,-1.2050001621246338,-0.8299997448921204,-0.717703041835188,0.0,-1.7349997758865263,-0.34999915957450667,-0.7177056074142077,0.0,-1.9499998092600312,0.19700008630700977,-0.43451607367268963,0.0
1759840257.7382493,0,-1.2050001621246338,-0.8299997448921204,-0.7177030419265229,0.0,-1.7349997758865263,-0.34999915957450667,-0.7177056074142077,0.0,-1.9499998092600312,0.19700008630700977,-0.43451607367268963,0.0
