timestamp,vehicle_id,x,y,theta,velocity,gps_available,dt,gps_x,gps_y,gps_theta,gps_velocity,control_steering,control_acceleration
1759840254.4252932,1,-1.735,-0.35,-0.7801621756414647,0.0,False,0.01,nan,nan,nan,nan,0.0,0.0
1759840254.4362404,1,-1.735,-0.35,-0.7801621756414647,0.0,False,0.010947227478027344,nan,nan,nan,nan,0.0,0.0
1759840254.4464526,1,-1.735,-0.35,-0.7801621756414647,0.0,False,0.010212182998657227,nan,nan,nan,nan,0.0,0.0
1759840254.457814,1,-1.735,-0.35,-0.7801621756414647,0.0,False,0.011361360549926758,nan,nan,nan,nan,0.0,0.0
1759840254.4682357,1,-1.735,-0.35,-0.7801621756414647,0.0,False,0.0104217529296875,nan,nan,nan,nan,0.0,0.0
1759840254.4793155,1,-1.735,-0.35,-0.7801621756414647,0.0,False,0.011079788208007812,nan,nan,nan,nan,0.0,0.0
1759840254.4905453,1,-1.735,-0.35,-0.7801621756414647,0.0,False,0.011229753494262695,nan,nan,nan,nan,0.0,0.0
1759840254.5013871,1,-1.735,-0.35,-0.7801621756414647,0.0,False,0.010841846466064453,nan,nan,nan,nan,0.0,0.0
1759840254.5128589,1,-1.735,-0.35,-0.7801621756414647,0.0,False,0.011471748352050781,nan,nan,nan,nan,0.0,0.0
1759840254.52356,1,-1.735,-0.35,-0.7801621756414647,0.0,False,0.010701179504394531,nan,nan,nan,nan,0.0,0.0
1759840254.5345848,1,-1.735,-0.35,-0.7801621756414647,0.0,False,0.011024713516235352,nan,nan,nan,nan,0.0,0.0
1759840254.5447774,1,-1.735,-0.35,-0.7801621756414647,0.0,False,0.010192632675170898,nan,nan,nan,nan,0.0,0.0
1759840254.5555878,1,-1.735,-0.35,-0.7801621756414647,0.0,False,0.010810375213623047,nan,nan,nan,nan,0.0,0.0
1759840254.5664296,1,-1.735,-0.35,-0.7801621756414647,0.0,False,0.010841846466064453,nan,nan,nan,nan,0.0,0.0
1759840254.5779374,1,-1.735,-0.35,-0.7801621756414647,0.0,False,0.011507749557495117,nan,nan,nan,nan,0.0,0.0
1759840254.5884829,1,-1.735,-0.35,-0.7801621756414647,0.0,False,0.010545492172241211,nan,nan,nan,nan,0.0,0.0
1759840254.599279,1,-1.735,-0.35,-0.7801621756414647,0.0,False,0.010796070098876953,nan,nan,nan,nan,0.0,0.0
1759840254.6102092,1,-1.735,-0.35,-0.7801621756414647,0.0,False,0.010930299758911133,nan,nan,nan,nan,0.0,0.0
1759840254.6223443,1,-1.734999777754148,-0.3499991665780544,-0.7230016739206171,0.0,True,0.012135028839111328,-1.7349997758865356,-0.34999915957450867,-0.7177056074142456,0.0,0.0,0.0
1759840254.633883,1,-1.7349997765108072,-0.34999916191552677,-0.7181155076054715,0.0,True,0.01153874397277832,-1.7349997758865356,-0.34999915957450867,-0.7177056074142456,0.0,0.0,0.0
1759840254.6445959,1,-1.734999776120719,-0.34999916045269625,-0.7176582417410096,0.0,True,0.010712862014770508,-1.7349997758865356,-0.34999915957450867,-0.7177056074142456,0.0,0.0,0.0
1759840254.6554646,1,-1.7349997759757527,-0.349999159909073,-0.7175989091010582,0.0,True,0.01086878776550293,-1.7349997758865356,-0.34999915957450867,-0.7177056074142456,0.0,0.0,0.0
1759840254.6660278,1,-1.7349997759206006,-0.3499991597022523,-0.7175932420653339,0.0,True,0.010563135147094727,-1.7349997758865356,-0.34999915957450867,-0.7177056074142456,0.0,0.0,0.0
1759840254.6762373,1,-1.7349997758995466,-0.3499991596232997,-0.7176013038210023,0.0,True,0.01020956039428711,-1.7349997758865356,-0.34999915957450867,-0.7177056074142456,0.0,0.0,0.0
1759840254.6869063,1,-1.7349997758915052,-0.34999915959314504,-0.7176115759583137,0.0,True,0.01066899299621582,-1.7349997758865356,-0.34999915957450867,-0.7177056074142456,0.0,0.0,0.0
1759840254.698548,1,-1.734999775888434,-0.34999915958162714,-0.7176211290325938,0.0,True,0.011641740798950195,-1.7349997758865356,-0.34999915957450867,-0.7177056074142456,0.0,0.0,0.0
1759840254.7089791,1,-1.7349997758872606,-0.34999915957722766,-0.7176326020844002,0.0,True,0.010431051254272461,-1.7349997758865356,-0.34999915957450867,-0.7177056074142456,0.0,0.0,0.0
1759840254.719103,1,-1.7349997758868125,-0.3499991595755472,-0.7176424108762163,0.0,True,0.010123968124389648,-1.7349997758865356,-0.34999915957450867,-0.7177056074142456,0.0,0.0,0.0
1759840254.7298803,1,-1.7349997758866413,-0.34999915957490535,-0.7176495135126721,0.0,True,0.01077723503112793,-1.7349997758865356,-0.34999915957450867,-0.7177056074142456,0.0,0.0,0.0
1759840254.7410429,1,-1.734999775886576,-0.3499991595746602,-0.7176551824559887,0.0,True,0.011162519454956055,-1.7349997758865356,-0.34999915957450867,-0.7177056074142456,0.0,0.0,0.0
1759840254.7516663,1,-1.7349997758865512,-0.34999915957456657,-0.7176606335110591,0.0,True,0.010623455047607422,-1.7349997758865356,-0.34999915957450867,-0.7177056074142456,0.0,0.0,0.0
1759840254.7620296,1,-1.7349997758865416,-0.34999915957453076,-0.7176653975127465,0.0,True,0.010363340377807617,-1.7349997758865356,-0.34999915957450867,-0.7177056074142456,0.0,0.0,0.0
1759840254.7732155,1,-1.7349997758865379,-0.3499991595745171,-0.7176687485445505,0.0,True,0.011185884475708008,-1.7349997758865356,-0.34999915957450867,-0.7177056074142456,0.0,0.0,0.0
1759840254.7843459,1,-1.7349997758865365,-0.3499991595745119,-0.7176717794395646,0.0,True,0.011130332946777344,-1.7349997758865356,-0.34999915957450867,-0.7177056074142456,0.0,0.0,0.0
1759840254.7948098,1,-1.734999775886536,-0.3499991595745099,-0.7176748851542456,0.0,True,0.010463953018188477,-1.7349997758865356,-0.34999915957450867,-0.7177056074142456,0.0,0.0,0.0
1759840254.805534,1,-1.7349997758865359,-0.3499991595745091,-0.7176773635684626,0.0,True,0.010724067687988281,-1.7349997758865356,-0.34999915957450867,-0.7177056074142456,0.0,0.0,0.0
1759840254.8200839,1,-1.7349997758865356,-0.34999915957450883,-0.717677609043653,0.0,True,0.014549970626831055,-1.7349997758865356,-0.34999915957450867,-0.7177056074142456,0.0,0.0,0.0
1759840254.827175,1,-1.7349997758865356,-0.3499991595745087,-0.7176819258460281,0.0,True,0.007091045379638672,-1.7349997758865356,-0.34999915957450867,-0.7177056074142456,0.0,0.0,0.0
1759840254.8382425,1,-1.7349997758865356,-0.34999915957450867,-0.7176834097071527,0.0,True,0.011067628860473633,-1.7349997758865356,-0.34999915957450867,-0.7177056074142456,0.0,0.0,0.0
1759840254.8491225,1,-1.7349997758865356,-0.34999915957450867,-0.7176847202284549,0.0,True,0.010879993438720703,-1.7349997758865356,-0.34999915957450867,-0.7177056074142456,0.0,0.0,0.0
1759840254.859836,1,-1.7349997758865356,-0.34999915957450867,-0.7176859991437254,0.0,True,0.010713577270507812,-1.7349997758865356,-0.34999915957450867,-0.7177056074142456,0.0,0.0,0.0
1759840254.8706808,1,-1.7349997758865356,-0.34999915957450867,-0.7176871124158328,0.0,True,0.010844707489013672,-1.7349997758865356,-0.34999915957450867,-0.7177056074142456,0.0,0.0,0.0
1759840254.8816357,1,-1.7349997758865356,-0.34999915957450867,-0.7176880982978737,0.0,True,0.010954856872558594,-1.7349997758865356,-0.34999915957450867,-0.7177056074142456,0.0,0.0,0.0
1759840254.8923483,1,-1.7349997758865356,-0.34999915957450867,-0.7176891022069363,0.0,True,0.010712623596191406,-1.7349997758865356,-0.34999915957450867,-0.7177056074142456,0.0,0.0,0.0
1759840254.903511,1,-1.7349997758865356,-0.34999915957450867,-0.7176898737505262,0.0,True,0.011162757873535156,-1.7349997758865356,-0.34999915957450867,-0.7177056074142456,0.0,0.0,0.0
1759840254.9139907,1,-1.7349997758865356,-0.34999915957450867,-0.7176908206725994,0.0,True,0.01047968864440918,-1.7349997758865356,-0.34999915957450867,-0.7177056074142456,0.0,0.0,0.0
1759840254.9254138,1,-1.7349997758865356,-0.34999915957450867,-0.7176913954206334,0.0,True,0.011423110961914062,-1.7349997758865356,-0.34999915957450867,-0.7177056074142456,0.0,0.0,0.0
1759840254.9365096,1,-1.7349997758865356,-0.34999915957450867,-0.7176920610896005,0.0,True,0.011095762252807617,-1.7349997758865356,-0.34999915957450867,-0.7177056074142456,0.0,0.0,0.0
1759840254.9478009,1,-1.7349997758865356,-0.34999915957450867,-0.7176926523796308,0.0,True,0.011291265487670898,-1.7349997758865356,-0.34999915957450867,-0.7177056074142456,0.0,0.0,0.0
1759840254.9580636,1,-1.7349997758865356,-0.34999915957450867,-0.7176934815208753,0.0,True,0.010262727737426758,-1.7349997758865356,-0.34999915957450867,-0.7177056074142456,0.0,0.0,0.0
1759840254.968787,1,-1.7349997758865356,-0.34999915957450867,-0.7176940921778012,0.0,True,0.010723352432250977,-1.7349997758865356,-0.34999915957450867,-0.7177056074142456,0.0,0.0,0.0
1759840254.979205,1,-1.7349997758865356,-0.34999915957450867,-0.7176947069068582,0.0,True,0.010417938232421875,-1.7349997758865356,-0.34999915957450867,-0.7177056074142456,0.0,0.0,0.0
1759840254.9898674,1,-1.7349997758865356,-0.34999915957450867,-0.717695199828233,0.0,True,0.010662555694580078,-1.7349997758865356,-0.34999915957450867,-0.7177056074142456,0.0,0.0,0.0
1759840255.0008166,1,-1.7349997758865356,-0.34999915957450867,-0.71769559261746,0.0,True,0.010949134826660156,-1.7349997758865356,-0.34999915957450867,-0.7177056074142456,0.0,0.0,0.0
1759840255.0114782,1,-1.7349997758865356,-0.34999915957450867,-0.7176960337165692,0.0,True,0.010661602020263672,-1.7349997758865356,-0.34999915957450867,-0.7177056074142456,0.0,0.0,0.0
1759840255.0251622,1,-1.7349997758865356,-0.34999915957450867,-0.7176958729341578,0.0,True,0.01368403434753418,-1.7349997758865356,-0.34999915957450867,-0.7177056074142456,0.0,0.0,0.0
1759840255.0360322,1,-1.7349997758865356,-0.34999915957450867,-0.7176963953856372,0.0,True,0.010869979858398438,-1.7349997758865356,-0.34999915957450867,-0.7177056074142456,0.0,0.0,0.0
1759840255.0467207,1,-1.7349997758865356,-0.34999915957450867,-0.7176969282513994,0.0,True,0.010688543319702148,-1.7349997758865356,-0.34999915957450867,-0.7177056074142456,0.0,0.0,0.0
1759840255.0575974,1,-1.7349997758865356,-0.34999915957450867,-0.7176973590803382,0.0,True,0.010876655578613281,-1.7349997758865356,-0.34999915957450867,-0.7177056074142456,0.0,0.0,0.0
1759840255.06777,1,-1.7349997758865356,-0.34999915957450867,-0.7176978547978372,0.0,True,0.010172605514526367,-1.7349997758865356,-0.34999915957450867,-0.7177056074142456,0.0,0.0,0.0
1759840255.0784466,1,-1.7349997758865356,-0.34999915957450867,-0.7176981998480425,0.0,True,0.01067662239074707,-1.7349997758865356,-0.34999915957450867,-0.7177056074142456,0.0,0.0,0.0
1759840255.0894618,1,-1.7349997758865356,-0.34999915957450867,-0.7176984574585035,0.0,True,0.011015176773071289,-1.7349997758865356,-0.34999915957450867,-0.7177056074142456,0.0,0.0,0.0
1759840255.1007712,1,-1.7349997758865356,-0.34999915957450867,-0.7176986666316498,0.0,True,0.011309385299682617,-1.7349997758865356,-0.34999915957450867,-0.7177056074142456,0.0,0.0,0.0
1759840255.1113255,1,-1.7349997758865356,-0.34999915957450867,-0.7176989906151832,0.0,True,0.010554313659667969,-1.7349997758865356,-0.34999915957450867,-0.7177056074142456,0.0,0.0,0.0
1759840255.1214101,1,-1.7349997758865356,-0.34999915957450867,-0.7176993509855834,0.0,True,0.01008462905883789,-1.7349997758865356,-0.34999915957450867,-0.7177056074142456,0.0,0.0,0.0
1759840255.1321542,1,-1.7349997758865356,-0.34999915957450867,-0.7176995772519934,0.0,True,0.010744094848632812,-1.7349997758865356,-0.34999915957450867,-0.7177056074142456,0.0,0.0,0.0
1759840255.1430843,1,-1.7349997758865356,-0.34999915957450867,-0.7176997651892822,0.0,True,0.010930061340332031,-1.7349997758865356,-0.34999915957450867,-0.7177056074142456,0.0,0.0,0.0
1759840255.154455,1,-1.7349997758865356,-0.34999915957450867,-0.7176999018071637,0.0,True,0.011370658874511719,-1.7349997758865356,-0.34999915957450867,-0.7177056074142456,0.0,0.0,0.0
1759840255.1646192,1,-1.7349997758865356,-0.34999915957450867,-0.7177001944422976,0.0,True,0.010164260864257812,-1.7349997758865356,-0.34999915957450867,-0.7177056074142456,0.0,0.0,0.0
1759840255.175375,1,-1.7349997758865356,-0.34999915957450867,-0.717700391479589,0.0,True,0.010755777359008789,-1.7349997758865356,-0.34999915957450867,-0.7177056074142456,0.0,0.0,0.0
1759840255.1855786,1,-1.7349997758865356,-0.34999915957450867,-0.7177006343297059,0.0,True,0.01020359992980957,-1.7349997758865356,-0.34999915957450867,-0.7177056074142456,0.0,0.0,0.0
1759840255.1968927,1,-1.7349997758865356,-0.34999915957450867,-0.7177007372272008,0.0,True,0.011314153671264648,-1.7349997758865356,-0.34999915957450867,-0.7177056074142456,0.0,0.0,0.0
1759840255.2082129,1,-1.7349997758865356,-0.34999915957450867,-0.7177008522255672,0.0,True,0.011320114135742188,-1.7349997758865356,-0.34999915957450867,-0.7177056074142456,0.0,0.0,0.0
1759840255.2258582,1,-1.7349997758865356,-0.34999915957450867,-0.7177003926507322,0.0,True,0.01764535903930664,-1.7349997758865356,-0.34999915957450867,-0.7177056074142456,0.0,0.0,0.0
1759840255.2304158,1,-1.7349997758865356,-0.34999915957450867,-0.7177013190611525,0.0,True,0.004557609558105469,-1.7349997758865356,-0.34999915957450867,-0.7177056074142456,0.0,0.0,0.0
1759840255.2411854,1,-1.7349997758865356,-0.34999915957450867,-0.717701505199047,0.0,True,0.01076960563659668,-1.7349997758865356,-0.34999915957450867,-0.7177056074142456,0.0,0.0,0.0
1759840255.252525,1,-1.7349997758865356,-0.34999915957450867,-0.7177015842169396,0.0,True,0.011339664459228516,-1.7349997758865356,-0.34999915957450867,-0.7177056074142456,0.0,0.0,0.0
1759840255.2627912,1,-1.7349997758865356,-0.34999915957450867,-0.7177017633660778,0.0,True,0.01026606559753418,-1.7349997758865356,-0.34999915957450867,-0.7177056074142456,0.0,0.0,0.0
1759840255.2740138,1,-1.7349997758865356,-0.34999915957450867,-0.717701852698541,0.0,True,0.011222600936889648,-1.7349997758865356,-0.34999915957450867,-0.7177056074142456,0.0,0.0,0.0
1759840255.2849655,1,-1.7349997758865356,-0.34999915957450867,-0.7177019690725892,0.0,True,0.010951757431030273,-1.7349997758865356,-0.34999915957450867,-0.7177056074142456,0.0,0.0,0.0
1759840255.2956474,1,-1.7349997758865356,-0.34999915957450867,-0.7177021076630368,0.0,True,0.010681867599487305,-1.7349997758865356,-0.34999915957450867,-0.7177056074142456,0.0,0.0,0.0
1759840255.3066165,1,-1.7349997758865356,-0.34999915957450867,-0.717702218420925,0.0,True,0.010969161987304688,-1.7349997758865356,-0.34999915957450867,-0.7177056074142456,0.0,0.0,0.0
1759840255.3171782,1,-1.7349997758865356,-0.34999915957450867,-0.7177023556139588,0.0,True,0.010561704635620117,-1.7349997758865356,-0.34999915957450867,-0.7177056074142456,0.0,0.0,0.0
1759840255.3286183,1,-1.7349997758865356,-0.34999915957450867,-0.7177024248073085,0.0,True,0.011440038681030273,-1.7349997758865356,-0.34999915957450867,-0.7177056074142456,0.0,0.0,0.0
1759840255.339381,1,-1.7349997758865356,-0.34999915957450867,-0.717702545846322,0.0,True,0.010762691497802734,-1.7349997758865356,-0.34999915957450867,-0.7177056074142456,0.0,0.0,0.0
1759840255.3501315,1,-1.7349997758865356,-0.34999915957450867,-0.7177026632817771,0.0,True,0.010750532150268555,-1.7349997758865356,-0.34999915957450867,-0.7177056074142456,0.0,0.0,0.0
1759840255.3608377,1,-1.7349997758865356,-0.34999915957450867,-0.7177027757518211,0.0,True,0.010706186294555664,-1.7349997758865356,-0.34999915957450867,-0.7177056074142456,0.0,0.0,0.0
1759840255.3715322,1,-1.7349997758865356,-0.34999915957450867,-0.7177028814348994,0.0,True,0.010694503784179688,-1.7349997758865356,-0.34999915957450867,-0.7177056074142456,0.0,0.0,0.0
1759840255.3817122,1,-1.7349997758865356,-0.34999915957450867,-0.717703009290279,0.0,True,0.010179996490478516,-1.7349997758865356,-0.34999915957450867,-0.7177056074142456,0.0,0.0,0.0
1759840255.3920574,1,-1.7349997758865356,-0.34999915957450867,-0.7177031137726324,0.0,True,0.010345220565795898,-1.7349997758865356,-0.34999915957450867,-0.7177056074142456,0.0,0.0,0.0
1759840255.4032888,1,-1.7349997758865356,-0.34999915957450867,-0.7177031614102365,0.0,True,0.011231422424316406,-1.7349997758865356,-0.34999915957450867,-0.7177056074142456,0.0,0.0,0.0
1759840255.4136105,1,-1.7349997758865356,-0.34999915957450867,-0.7177032619386701,0.0,True,0.010321617126464844,-1.7349997758865356,-0.34999915957450867,-0.7177056074142456,0.0,0.0,0.0
1759840255.4258628,1,-1.7349997758865356,-0.34999915957450867,-0.717703262101697,0.0,True,0.012252330780029297,-1.7349997758865356,-0.34999915957450867,-0.7177056074142456,0.0,0.0,0.0
1759840255.4370468,1,-1.7349997758865356,-0.34999915957450867,-0.7177033333360967,0.0,True,0.011183977127075195,-1.7349997758865356,-0.34999915957450867,-0.7177056074142456,0.0,0.0,0.0
1759840255.4479232,1,-1.7349997758865356,-0.34999915957450867,-0.7177034237785769,0.0,True,0.01087641716003418,-1.7349997758865356,-0.34999915957450867,-0.7177056074142456,0.0,0.0,0.0
1759840255.4582455,1,-1.7349997758865356,-0.34999915957450867,-0.71770353318351,0.0,True,0.010322332382202148,-1.7349997758865356,-0.34999915957450867,-0.7177056074142456,0.0,0.0,0.0
1759840255.4696465,1,-1.7349997758865356,-0.34999915957450867,-0.7177035837303762,0.0,True,0.011400938034057617,-1.7349997758865356,-0.34999915957450867,-0.7177056074142456,0.0,0.0,0.0
1759840255.4808972,1,-1.7349997758865356,-0.34999915957450867,-0.7177036425541203,0.0,True,0.011250734329223633,-1.7349997758865356,-0.34999915957450867,-0.7177056074142456,0.0,0.0,0.0
1759840255.4914627,1,-1.7349997758865356,-0.34999915957450867,-0.7177037306818761,0.0,True,0.010565519332885742,-1.7349997758865356,-0.34999915957450867,-0.7177056074142456,0.0,0.0,0.0
1759840255.5025456,1,-1.7349997758865356,-0.34999915957450867,-0.7177037915694946,0.0,True,0.011082887649536133,-1.7349997758865356,-0.34999915957450867,-0.7177056074142456,0.0,0.0,0.0
1759840255.513741,1,-1.7349997758865356,-0.34999915957450867,-0.7177038462855272,0.0,True,0.01119542121887207,-1.7349997758865356,-0.34999915957450867,-0.7177056074142456,0.0,0.0,0.0
1759840255.525228,1,-1.7349997758865356,-0.34999915957450867,-0.7177038914638061,0.0,True,0.011487007141113281,-1.7349997758865356,-0.34999915957450867,-0.7177056074142456,0.0,0.0,0.0
1759840255.5355277,1,-1.7349997758865356,-0.34999915957450867,-0.7177039804463412,0.0,True,0.0102996826171875,-1.7349997758865356,-0.34999915957450867,-0.7177056074142456,0.0,0.0,0.0
1759840255.5469813,1,-1.7349997758865356,-0.34999915957450867,-0.717704021627263,0.0,True,0.011453628540039062,-1.7349997758865356,-0.34999915957450867,-0.7177056074142456,0.0,0.0,0.0
1759840255.5582194,1,-1.7349997758865356,-0.34999915957450867,-0.717704070764956,0.0,True,0.01123809814453125,-1.7349997758865356,-0.34999915957450867,-0.7177056074142456,0.0,0.0,0.0
1759840255.5682795,1,-1.7349997758865356,-0.34999915957450867,-0.7177041568026112,0.0,True,0.01006007194519043,-1.7349997758865356,-0.34999915957450867,-0.7177056074142456,0.0,0.0,0.0
1759840255.5789914,1,-1.7349997758865356,-0.34999915957450867,-0.7177042121296324,0.0,True,0.010711908340454102,-1.7349997758865356,-0.34999915957450867,-0.7177056074142456,0.0,0.0,0.0
1759840255.5893056,1,-1.7349997758865356,-0.34999915957450867,-0.7177042733913375,0.0,True,0.010314226150512695,-1.7349997758865356,-0.34999915957450867,-0.7177056074142456,0.0,0.0,0.0
1759840255.600015,1,-1.7349997758865356,-0.34999915957450867,-0.7177043173601056,0.0,True,0.010709285736083984,-1.7349997758865356,-0.34999915957450867,-0.7177056074142456,0.0,0.0,0.0
1759840255.6112032,1,-1.7349997758865356,-0.34999915957450867,-0.7177043462471353,0.0,True,0.011188268661499023,-1.7349997758865356,-0.34999915957450867,-0.7177056074142456,0.0,0.0,0.0
1759840255.6223571,1,-1.7349997758865356,-0.34999915957450867,-0.7177043789057329,0.0,True,0.011153936386108398,-1.7349997758865356,-0.34999915957450867,-0.7177056074142456,0.0,0.0,0.0
1759840255.632703,1,-1.7349997758865356,-0.34999915957450867,-0.7177044341602006,0.0,True,0.010345935821533203,-1.7349997758865356,-0.34999915957450867,-0.7177056074142456,0.0,0.0,0.0
1759840255.6427548,1,-1.7349997758865356,-0.34999915957450867,-0.7177044915889983,0.0,True,0.010051727294921875,-1.7349997758865356,-0.34999915957450867,-0.7177056074142456,0.0,0.0,0.0
1759840255.6528947,1,-1.7349997758865356,-0.34999915957450867,-0.7177045393185217,0.0,True,0.010139942169189453,-1.7349997758865356,-0.34999915957450867,-0.7177056074142456,0.0,0.0,0.0
1759840255.6635644,1,-1.7349997758865356,-0.34999915957450867,-0.7177045692945097,0.0,True,0.010669708251953125,-1.7349997758865356,-0.34999915957450867,-0.7177056074142456,0.0,0.0,0.0
1759840255.6742203,1,-1.7349997758865356,-0.34999915957450867,-0.7177045990908972,0.0,True,0.010655879974365234,-1.7349997758865356,-0.34999915957450867,-0.7177056074142456,0.0,0.0,0.0
1759840255.6843588,1,-1.7349997758865356,-0.34999915957450867,-0.7177046401871383,0.0,True,0.010138511657714844,-1.7349997758865356,-0.34999915957450867,-0.7177056074142456,0.0,0.0,0.0
1759840255.6944296,1,-1.7349997758865356,-0.34999915957450867,-0.7177046793091311,0.0,True,0.01007080078125,-1.7349997758865356,-0.34999915957450867,-0.7177056074142456,0.0,0.0,0.0
1759840255.705222,1,-1.7349997758865356,-0.34999915957450867,-0.7177047000663705,0.0,True,0.010792255401611328,-1.7349997758865356,-0.34999915957450867,-0.7177056074142456,0.0,0.0,0.0
1759840255.7153673,1,-1.7349997758865356,-0.34999915957450867,-0.7177047345165306,0.0,True,0.010145425796508789,-1.7349997758865356,-0.34999915957450867,-0.7177056074142456,0.0,0.0,0.0
1759840255.7254462,1,-1.7349997758865356,-0.34999915957450867,-0.7177047681800559,0.0,True,0.010078907012939453,-1.7349997758865356,-0.34999915957450867,-0.7177056074142456,0.0,0.0,0.0
1759840255.7368524,1,-1.7349997758865356,-0.34999915957450867,-0.7177047748093663,0.0,True,0.011406183242797852,-1.7349997758865356,-0.34999915957450867,-0.7177056074142456,0.0,0.0,0.0
1759840255.74712,1,-1.7349997758865356,-0.34999915957450867,-0.7177048062471112,0.0,True,0.010267496109008789,-1.7349997758865356,-0.34999915957450867,-0.7177056074142456,0.0,0.0,0.0
1759840255.7582994,1,-1.7349997758865356,-0.34999915957450867,-0.7177048212858246,0.0,True,0.011179447174072266,-1.7349997758865356,-0.34999915957450867,-0.7177056074142456,0.0,0.0,0.0
1759840255.768787,1,-1.7349997758865356,-0.34999915957450867,-0.7177048499535061,0.0,True,0.010487556457519531,-1.7349997758865356,-0.34999915957450867,-0.7177056074142456,0.0,0.0,0.0
1759840255.7788055,1,-1.7349997758865356,-0.34999915957450867,-0.7177048850738608,0.0,True,0.010018587112426758,-1.7349997758865356,-0.34999915957450867,-0.7177056074142456,0.0,0.0,0.0
1759840255.7894797,1,-1.7349997758865356,-0.34999915957450867,-0.7177049061330969,0.0,True,0.010674238204956055,-1.7349997758865356,-0.34999915957450867,-0.7177056074142456,0.0,0.0,0.0
1759840255.80079,1,-1.7349997758865356,-0.34999915957450867,-0.7177049171844718,0.0,True,0.011310338973999023,-1.7349997758865356,-0.34999915957450867,-0.7177056074142456,0.0,0.0,0.0
1759840255.8110394,1,-1.7349997758865356,-0.34999915957450867,-0.7177049464371041,0.0,True,0.01024937629699707,-1.7349997758865356,-0.34999915957450867,-0.7177056074142456,0.0,0.0,0.0
1759840255.825582,1,-1.7349997758865356,-0.34999915957450867,-0.7177049150721366,0.0,True,0.014542579650878906,-1.7349997758865356,-0.34999915957450867,-0.7177056074142456,0.0,0.0,0.0
1759840255.8332117,1,-1.7349997758865356,-0.34999915957450867,-0.7177049905755979,0.0,True,0.0076296329498291016,-1.7349997758865356,-0.34999915957450867,-0.7177056074142456,0.0,0.0,0.0
1759840255.8439982,1,-1.7349997758865356,-0.34999915957450867,-0.717705012545423,0.0,True,0.01078653335571289,-1.7349997758865356,-0.34999915957450867,-0.7177056074142456,0.0,0.0,0.0
1759840255.855285,1,-1.7349997758865356,-0.34999915957450867,-0.7177050242866265,0.0,True,0.011286735534667969,-1.7349997758865356,-0.34999915957450867,-0.7177056074142456,0.0,0.0,0.0
1759840255.8656607,1,-1.7349997758865356,-0.34999915957450867,-0.717705048655823,0.0,True,0.010375738143920898,-1.7349997758865356,-0.34999915957450867,-0.7177056074142456,0.0,0.0,0.0
1759840255.8758957,1,-1.7349997758865356,-0.34999915957450867,-0.717705073041035,0.0,True,0.010235071182250977,-1.7349997758865356,-0.34999915957450867,-0.7177056074142456,0.0,0.0,0.0
1759840255.8871036,1,-1.7349997758865356,-0.34999915957450867,-0.7177050838916195,0.0,True,0.011207818984985352,-1.7349997758865356,-0.34999915957450867,-0.7177056074142456,0.0,0.0,0.0
1759840255.8982918,1,-1.7349997758865356,-0.34999915957450867,-0.7177050961327112,0.0,True,0.011188268661499023,-1.7349997758865356,-0.34999915957450867,-0.7177056074142456,0.0,0.0,0.0
1759840255.9094505,1,-1.7349997758865356,-0.34999915957450867,-0.7177051101681027,0.0,True,0.01115870475769043,-1.7349997758865356,-0.34999915957450867,-0.7177056074142456,0.0,0.0,0.0
1759840255.9218464,1,-1.7349997758865356,-0.34999915957450867,-0.7177051126792122,0.0,True,0.012395858764648438,-1.7349997758865356,-0.34999915957450867,-0.7177056074142456,0.0,0.0,0.0
1759840255.9329653,1,-1.7349997758865356,-0.34999915957450867,-0.7177051317878504,0.0,True,0.011118888854980469,-1.7349997758865356,-0.34999915957450867,-0.7177056074142456,0.0,0.0,0.0
1759840255.9431477,1,-1.7349997758865356,-0.34999915957450867,-0.7177051594506665,0.0,True,0.010182380676269531,-1.7349997758865356,-0.34999915957450867,-0.7177056074142456,0.0,0.0,0.0
1759840255.953827,1,-1.7349997758865356,-0.34999915957450867,-0.7177051786978623,0.0,True,0.010679244995117188,-1.7349997758865356,-0.34999915957450867,-0.7177056074142456,0.0,0.0,0.0
1759840255.9645355,1,-1.7349997758865356,-0.34999915957450867,-0.7177051953966149,0.0,True,0.01070857048034668,-1.7349997758865356,-0.34999915957450867,-0.7177056074142456,0.0,0.0,0.0
1759840255.9757447,1,-1.7349997758865356,-0.34999915957450867,-0.7177052065596925,0.0,True,0.011209249496459961,-1.7349997758865356,-0.34999915957450867,-0.7177056074142456,0.0,0.0,0.0
1759840255.9858525,1,-1.7349997758865356,-0.34999915957450867,-0.7177052269446413,0.0,True,0.010107755661010742,-1.7349997758865356,-0.34999915957450867,-0.7177056074142456,0.0,0.0,0.0
1759840255.996186,1,-1.7349997758865356,-0.34999915957450867,-0.7177052432180275,0.0,True,0.010333538055419922,-1.7349997758865356,-0.34999915957450867,-0.7177056074142456,0.0,0.0,0.0
1759840256.0063276,1,-1.7349997758865356,-0.34999915957450867,-0.717705259046765,0.0,True,0.010141611099243164,-1.7349997758865356,-0.34999915957450867,-0.7177056074142456,0.0,0.0,0.0
1759840256.016519,1,-1.7349997758865356,-0.34999915957450867,-0.7177052727256754,0.0,True,0.01019144058227539,-1.7349997758865356,-0.34999915957450867,-0.7177056074142456,0.0,0.0,0.0
1759840256.0281901,1,-1.7349997758865356,-0.34999915957450867,-0.7177052745056187,0.0,True,0.011671066284179688,-1.7349997758865356,-0.34999915957450867,-0.7177056074142456,0.0,0.0,0.0
1759840256.039303,1,-1.7349997758865356,-0.34999915957450867,-0.7177052823909449,0.0,True,0.01111292839050293,-1.7349997758865356,-0.34999915957450867,-0.7177056074142456,0.0,0.0,0.0
1759840256.0499501,1,-1.7349997758865356,-0.34999915957450867,-0.7177052945267128,0.0,True,0.010647058486938477,-1.7349997758865356,-0.34999915957450867,-0.7177056074142456,0.0,0.0,0.0
1759840256.0602396,1,-1.7349997758865356,-0.34999915957450867,-0.717705308439923,0.0,True,0.010289430618286133,-1.7349997758865356,-0.34999915957450867,-0.7177056074142456,0.0,0.0,0.0
1759840256.0703552,1,-1.7349997758865356,-0.34999915957450867,-0.7177053219882534,0.0,True,0.010115623474121094,-1.7349997758865356,-0.34999915957450867,-0.7177056074142456,0.0,0.0,0.0
1759840256.080679,1,-1.7349997758865356,-0.34999915957450867,-0.7177053326444529,0.0,True,0.010323762893676758,-1.7349997758865356,-0.34999915957450867,-0.7177056074142456,0.0,0.0,0.0
1759840256.0908356,1,-1.7349997758865356,-0.34999915957450867,-0.7177053433356804,0.0,True,0.010156631469726562,-1.7349997758865356,-0.34999915957450867,-0.7177056074142456,0.0,0.0,0.0
1759840256.1023,1,-1.7349997758865356,-0.34999915957450867,-0.7177053457053031,0.0,True,0.011464357376098633,-1.7349997758865356,-0.34999915957450867,-0.7177056074142456,0.0,0.0,0.0
1759840256.112465,1,-1.7349997758865356,-0.34999915957450867,-0.7177053566402058,0.0,True,0.010164976119995117,-1.7349997758865356,-0.34999915957450867,-0.7177056074142456,0.0,0.0,0.0
1759840256.1237702,1,-1.7349997758865356,-0.34999915957450867,-0.717705360935593,0.0,True,0.01130533218383789,-1.7349997758865356,-0.34999915957450867,-0.7177056074142456,0.0,0.0,0.0
1759840256.1349041,1,-1.7349997758865356,-0.34999915957450867,-0.7177053669151743,0.0,True,0.011133909225463867,-1.7349997758865356,-0.34999915957450867,-0.7177056074142456,0.0,0.0,0.0
1759840256.1456106,1,-1.7349997758865356,-0.34999915957450867,-0.7177053756614225,0.0,True,0.010706424713134766,-1.7349997758865356,-0.34999915957450867,-0.7177056074142456,0.0,0.0,0.0
1759840256.1565807,1,-1.7349997758865356,-0.34999915957450867,-0.7177053828502622,0.0,True,0.010970115661621094,-1.7349997758865356,-0.34999915957450867,-0.7177056074142456,0.0,0.0,0.0
1759840256.1673932,1,-1.7349997758865356,-0.34999915957450867,-0.7177053906791873,0.0,True,0.010812520980834961,-1.7349997758865356,-0.34999915957450867,-0.7177056074142456,0.0,0.0,0.0
1759840256.1780038,1,-1.7349997758865356,-0.34999915957450867,-0.7177053991328801,0.0,True,0.010610580444335938,-1.7349997758865356,-0.34999915957450867,-0.7177056074142456,0.0,0.0,0.0
1759840256.1886976,1,-1.7349997758865356,-0.34999915957450867,-0.7177054066425104,0.0,True,0.010693788528442383,-1.7349997758865356,-0.34999915957450867,-0.7177056074142456,0.0,0.0,0.0
1759840256.1998847,1,-1.7349997758865356,-0.34999915957450867,-0.7177054116739718,0.0,True,0.011187076568603516,-1.7349997758865356,-0.34999915957450867,-0.7177056074142456,0.0,0.0,0.0
1759840256.2101302,1,-1.7349997758865356,-0.34999915957450867,-0.7177054207427442,0.0,True,0.010245561599731445,-1.7349997758865356,-0.34999915957450867,-0.7177056074142456,0.0,0.0,0.0
1759840256.2213771,1,-1.7349997758865356,-0.34999915957450867,-0.7177054250908768,0.0,True,0.011246919631958008,-1.7349997758865356,-0.34999915957450867,-0.7177056074142456,0.0,0.0,0.0
1759840256.2316103,1,-1.7349997758865356,-0.34999915957450867,-0.7177054334542046,0.0,True,0.010233163833618164,-1.7349997758865356,-0.34999915957450867,-0.7177056074142456,0.0,0.0,0.0
1759840256.2424805,1,-1.7349997758865356,-0.34999915957450867,-0.7177054387580277,0.0,True,0.010870218276977539,-1.7349997758865356,-0.34999915957450867,-0.7177056074142456,0.0,0.0,0.0
1759840256.2538638,1,-1.7349997758865356,-0.34999915957450867,-0.7177054421153457,0.0,True,0.011383295059204102,-1.7349997758865356,-0.34999915957450867,-0.7177056074142456,0.0,0.0,0.0
1759840256.2644284,1,-1.7349997758865356,-0.34999915957450867,-0.7177054487751704,0.0,True,0.010564565658569336,-1.7349997758865356,-0.34999915957450867,-0.7177056074142456,0.0,0.0,0.0
1759840256.2758446,1,-1.7349997758865356,-0.34999915957450867,-0.7177054523145721,0.0,True,0.011416196823120117,-1.7349997758865356,-0.34999915957450867,-0.7177056074142456,0.0,0.0,0.0
1759840256.287223,1,-1.7349997758865356,-0.34999915957450867,-0.717705456316807,0.0,True,0.01137852668762207,-1.7349997758865356,-0.34999915957450867,-0.7177056074142456,0.0,0.0,0.0
1759840256.2978528,1,-1.7349997758865356,-0.34999915957450867,-0.7177054629281034,0.0,True,0.010629653930664062,-1.7349997758865356,-0.34999915957450867,-0.7177056074142456,0.0,0.0,0.0
1759840256.3080854,1,-1.7349997758865356,-0.34999915957450867,-0.7177054701854235,0.0,True,0.010232686996459961,-1.7349997758865356,-0.34999915957450867,-0.7177056074142456,0.0,0.0,0.0
1759840256.3193045,1,-1.7349997758865356,-0.34999915957450867,-0.7177054737188548,0.0,True,0.011219024658203125,-1.7349997758865356,-0.34999915957450867,-0.7177056074142456,0.0,0.0,0.0
1759840256.3300462,1,-1.7349997758865356,-0.34999915957450867,-0.7177054786002586,0.0,True,0.010741710662841797,-1.7349997758865356,-0.34999915957450867,-0.7177056074142456,0.0,0.0,0.0
1759840256.3401833,1,-1.7349997758865356,-0.34999915957450867,-0.7177054848815612,0.0,True,0.010137081146240234,-1.7349997758865356,-0.34999915957450867,-0.7177056074142456,0.0,0.0,0.0
1759840256.3515275,1,-1.7349997758865356,-0.34999915957450867,-0.7177054873394919,0.0,True,0.011344194412231445,-1.7349997758865356,-0.34999915957450867,-0.7177056074142456,0.0,0.0,0.0
1759840256.3616238,1,-1.7349997758865356,-0.34999915957450867,-0.7177054931113513,0.0,True,0.010096311569213867,-1.7349997758865356,-0.34999915957450867,-0.7177056074142456,0.0,0.0,0.0
1759840256.372471,1,-1.7349997758865356,-0.34999915957450867,-0.717705496529053,0.0,True,0.010847330093383789,-1.7349997758865356,-0.34999915957450867,-0.7177056074142456,0.0,0.0,0.0
1759840256.3836145,1,-1.7349997758865356,-0.34999915957450867,-0.7177054991530554,0.0,True,0.01114344596862793,-1.7349997758865356,-0.34999915957450867,-0.7177056074142456,0.0,0.0,0.0
1759840256.3936274,1,-1.7349997758865356,-0.34999915957450867,-0.7177055045137966,0.0,True,0.01001286506652832,-1.7349997758865356,-0.34999915957450867,-0.7177056074142456,0.0,0.0,0.0
1759840256.4044635,1,-1.7349997758865356,-0.34999915957450867,-0.7177055075205026,0.0,True,0.010836124420166016,-1.7349997758865356,-0.34999915957450867,-0.7177056074142456,0.0,0.0,0.0
1759840256.4147058,1,-1.7349997758865356,-0.34999915957450867,-0.7177055116660558,0.0,True,0.010242223739624023,-1.7349997758865356,-0.34999915957450867,-0.7177056074142456,0.0,0.0,0.0
1759840256.424882,1,-1.7349997758865356,-0.34999915957450867,-0.7177055156006062,0.0,True,0.01017618179321289,-1.7349997758865356,-0.34999915957450867,-0.7177056074142456,0.0,0.0,0.0
1759840256.4380283,1,-1.7349997758865356,-0.34999915957450867,-0.7177055133699817,0.0,True,0.013146400451660156,-1.7349997758865356,-0.34999915957450867,-0.7177056074142456,0.0,0.0,0.0
1759840256.4493222,1,-1.7349997758865356,-0.34999915957450867,-0.7177055160886017,0.0,True,0.011293888092041016,-1.7349997758865356,-0.34999915957450867,-0.7177056074142456,0.0,0.0,0.0
1759840256.4602993,1,-1.7349997758865356,-0.34999915957450867,-0.7177055197577431,0.0,True,0.010977029800415039,-1.7349997758865356,-0.34999915957450867,-0.7177056074142456,0.0,0.0,0.0
1759840256.4709363,1,-1.7349997758865356,-0.34999915957450867,-0.7177055238108192,0.0,True,0.010637044906616211,-1.7349997758865356,-0.34999915957450867,-0.7177056074142456,0.0,0.0,0.0
1759840256.4823813,1,-1.7349997758865356,-0.34999915957450867,-0.7177055260865313,0.0,True,0.011445045471191406,-1.7349997758865356,-0.34999915957450867,-0.7177056074142456,0.0,0.0,0.0
1759840256.492976,1,-1.7349997758865356,-0.34999915957450867,-0.7177055297783017,0.0,True,0.010594606399536133,-1.7349997758865356,-0.34999915957450867,-0.7177056074142456,0.0,0.0,0.0
1759840256.5043464,1,-1.7349997758865356,-0.34999915957450867,-0.7177055319420411,0.0,True,0.011370420455932617,-1.7349997758865356,-0.34999915957450867,-0.7177056074142456,0.0,0.0,0.0
1759840256.5150368,1,-1.7349997758865356,-0.34999915957450867,-0.7177055351517563,0.0,True,0.010690450668334961,-1.7349997758865356,-0.34999915957450867,-0.7177056074142456,0.0,0.0,0.0
1759840256.5250974,1,-1.7349997758865356,-0.34999915957450867,-0.7177055390399651,0.0,True,0.010060548782348633,-1.7349997758865356,-0.34999915957450867,-0.7177056074142456,0.0,0.0,0.0
1759840256.5359812,1,-1.7349997758865356,-0.34999915957450867,-0.7177055412192441,0.0,True,0.010883808135986328,-1.7349997758865356,-0.34999915957450867,-0.7177056074142456,0.0,0.0,0.0
1759840256.5464883,1,-1.7349997758865356,-0.34999915957450867,-0.717705543784847,0.0,True,0.01050710678100586,-1.7349997758865356,-0.34999915957450867,-0.7177056074142456,0.0,0.0,0.0
1759840256.5572405,1,-1.7349997758865356,-0.34999915957450867,-0.7177055458514605,0.0,True,0.010752201080322266,-1.7349997758865356,-0.34999915957450867,-0.7177056074142456,0.0,0.0,0.0
1759840256.5687208,1,-1.7349997758865356,-0.34999915957450867,-0.7177055469156688,0.0,True,0.011480331420898438,-1.7349997758865356,-0.34999915957450867,-0.7177056074142456,0.0,0.0,0.0
1759840256.579253,1,-1.7349997758865356,-0.34999915957450867,-0.7177055493833073,0.0,True,0.010532140731811523,-1.7349997758865356,-0.34999915957450867,-0.7177056074142456,0.0,0.0,0.0
1759840256.5903797,1,-1.7349997758865356,-0.34999915957450867,-0.7177055510093915,0.0,True,0.01112675666809082,-1.7349997758865356,-0.34999915957450867,-0.7177056074142456,0.0,0.0,0.0
1759840256.6007457,1,-1.7349997758865356,-0.34999915957450867,-0.7177055535213626,0.0,True,0.010365962982177734,-1.7349997758865356,-0.34999915957450867,-0.7177056074142456,0.0,0.0,0.0
1759840256.6115644,1,-1.7349997758865356,-0.34999915957450867,-0.7177055553040113,0.0,True,0.010818719863891602,-1.7349997758865356,-0.34999915957450867,-0.7177056074142456,0.0,0.0,0.0
1759840256.6220794,1,-1.7349997758865356,-0.34999915957450867,-0.7177055573240843,0.0,True,0.010514974594116211,-1.7349997758865356,-0.34999915957450867,-0.7177056074142456,0.0,0.0,0.0
1759840256.6390464,1,-1.7349997758865356,-0.34999915957450867,-0.7177055526257039,0.0,True,0.016967058181762695,-1.7349997758865356,-0.34999915957450867,-0.7177056074142456,0.0,0.0,0.0
1759840256.6502457,1,-1.7349997758865356,-0.34999915957450867,-0.717705555574371,0.0,True,0.011199235916137695,-1.7349997758865356,-0.34999915957450867,-0.7177056074142456,0.0,0.0,0.0
1759840256.6610522,1,-1.7349997758865356,-0.34999915957450867,-0.7177055589333463,0.0,True,0.010806560516357422,-1.7349997758865356,-0.34999915957450867,-0.7177056074142456,0.0,0.0,0.0
1759840256.6718278,1,-1.7349997758865356,-0.34999915957450867,-0.717705561778569,0.0,True,0.010775566101074219,-1.7349997758865356,-0.34999915957450867,-0.7177056074142456,0.0,0.0,0.0
1759840256.6830773,1,-1.7349997758865356,-0.34999915957450867,-0.7177055637467511,0.0,True,0.011249542236328125,-1.7349997758865356,-0.34999915957450867,-0.7177056074142456,0.0,0.0,0.0
1759840256.693233,1,-1.7349997758865356,-0.34999915957450867,-0.7177055664223246,0.0,True,0.010155677795410156,-1.7349997758865356,-0.34999915957450867,-0.7177056074142456,0.0,0.0,0.0
1759840256.7043095,1,-1.7349997758865356,-0.34999915957450867,-0.7177055679313984,0.0,True,0.01107645034790039,-1.7349997758865356,-0.34999915957450867,-0.7177056074142456,0.0,0.0,0.0
1759840256.7155828,1,-1.7349997758865356,-0.34999915957450867,-0.717705569144746,0.0,True,0.011273384094238281,-1.7349997758865356,-0.34999915957450867,-0.7177056074142456,0.0,0.0,0.0
1759840256.72635,1,-1.7349997758865356,-0.34999915957450867,-0.7177055707372428,0.0,True,0.010767221450805664,-1.7349997758865356,-0.34999915957450867,-0.7177056074142456,0.0,0.0,0.0
1759840256.7370539,1,-1.7349997758865356,-0.34999915957450867,-0.7177055722573975,0.0,True,0.010703802108764648,-1.7349997758865356,-0.34999915957450867,-0.7177056074142456,0.0,0.0,0.0
1759840256.747758,1,-1.7349997758865356,-0.34999915957450867,-0.7177055736379003,0.0,True,0.01070404052734375,-1.7349997758865356,-0.34999915957450867,-0.7177056074142456,0.0,0.0,0.0
1759840256.758172,1,-1.7349997758865356,-0.34999915957450867,-0.7177055751038317,0.0,True,0.01041412353515625,-1.7349997758865356,-0.34999915957450867,-0.7177056074142456,0.0,0.0,0.0
1759840256.7692657,1,-1.7349997758865356,-0.34999915957450867,-0.7177055759663666,0.0,True,0.011093616485595703,-1.7349997758865356,-0.34999915957450867,-0.7177056074142456,0.0,0.0,0.0
1759840256.780082,1,-1.7349997758865356,-0.34999915957450867,-0.7177055770154865,0.0,True,0.010816335678100586,-1.7349997758865356,-0.34999915957450867,-0.7177056074142456,0.0,0.0,0.0
1759840256.790149,1,-1.7349997758865356,-0.34999915957450867,-0.7177055785085784,0.0,True,0.010066986083984375,-1.7349997758865356,-0.34999915957450867,-0.7177056074142456,0.0,0.0,0.0
1759840256.801111,1,-1.7349997758865356,-0.34999915957450867,-0.7177055792822671,0.0,True,0.01096200942993164,-1.7349997758865356,-0.34999915957450867,-0.7177056074142456,0.0,0.0,0.0
1759840256.8113797,1,-1.7349997758865356,-0.34999915957450867,-0.7177055804525647,0.0,True,0.010268688201904297,-1.7349997758865356,-0.34999915957450867,-0.7177056074142456,0.0,0.0,0.0
1759840256.822369,1,-1.7349997758865356,-0.34999915957450867,-0.7177055811203257,0.0,True,0.01098942756652832,-1.7349997758865356,-0.34999915957450867,-0.7177056074142456,0.0,0.0,0.0
1759840256.8373551,1,-1.7349997758865356,-0.34999915957450867,-0.717705579655469,0.0,True,0.014986038208007812,-1.7349997758865356,-0.34999915957450867,-0.7177056074142456,0.0,0.0,0.0
1759840256.8475513,1,-1.7349997758865356,-0.34999915957450867,-0.7177055814014466,0.0,True,0.010196208953857422,-1.7349997758865356,-0.34999915957450867,-0.7177056074142456,0.0,0.0,0.0
1759840256.8578823,1,-1.7349997758865356,-0.34999915957450867,-0.7177055829579793,0.0,True,0.010330915451049805,-1.7349997758865356,-0.34999915957450867,-0.7177056074142456,0.0,0.0,0.0
1759840256.8680315,1,-1.7349997758865356,-0.34999915957450867,-0.7177055843376916,0.0,True,0.010149240493774414,-1.7349997758865356,-0.34999915957450867,-0.7177056074142456,0.0,0.0,0.0
1759840256.8782136,1,-1.7349997758865356,-0.34999915957450867,-0.7177055854744694,0.0,True,0.01018214225769043,-1.7349997758865356,-0.34999915957450867,-0.7177056074142456,0.0,0.0,0.0
1759840256.8887513,1,-1.7349997758865356,-0.34999915957450867,-0.7177055862818236,0.0,True,0.01053762435913086,-1.7349997758865356,-0.34999915957450867,-0.7177056074142456,0.0,0.0,0.0
1759840256.9002242,1,-1.7349997758865356,-0.34999915957450867,-0.7177055866052164,0.0,True,0.011472940444946289,-1.7349997758865356,-0.34999915957450867,-0.7177056074142456,0.0,0.0,0.0
1759840256.9102805,1,-1.7349997758865356,-0.34999915957450867,-0.7177055876161536,0.0,True,0.010056257247924805,-1.7349997758865356,-0.34999915957450867,-0.7177056074142456,0.0,0.0,0.0
1759840256.9239674,1,-1.7349997758865356,-0.34999915957450867,-0.7177055870423423,0.0,True,0.013686895370483398,-1.7349997758865356,-0.34999915957450867,-0.7177056074142456,0.0,0.12114686464757796,0.0
1759840256.9386647,1,-1.7349997758865356,-0.34999915957450867,-0.71770558644074,0.0,True,0.01469731330871582,-1.7349997758865356,-0.34999915957450867,-0.7177056074142456,0.0,0.12114686464757796,0.0
1759840256.9495304,1,-1.7349997758865356,-0.34999915957450867,-0.717705587752608,0.0,True,0.01086568832397461,-1.7349997758865356,-0.34999915957450867,-0.7177056074142456,0.0,0.12114686464757796,0.0
1759840256.962166,1,-1.7349997758865356,-0.34999915957450867,-0.7177055883273944,0.0,True,0.01263570785522461,-1.7349997758865356,-0.34999915957450867,-0.7177056074142456,0.0,0.12114686464757796,0.0
1759840256.9723306,1,-1.7349997758865356,-0.34999915957450867,-0.7177055897570348,0.0,True,0.010164499282836914,-1.7349997758865356,-0.34999915957450867,-0.7177056074142456,0.0,0.12114686464757796,0.0
1759840256.9847634,1,-1.7349997758865356,-0.34999915957450867,-0.7177055901999037,0.0,True,0.01243281364440918,-1.7349997758865356,-0.34999915957450867,-0.7177056074142456,0.0,0.12114686464757796,0.0
1759840256.9958236,1,-1.7349997758865356,-0.34999915957450867,-0.7177055910858456,0.0,True,0.011060237884521484,-1.7349997758865356,-0.34999915957450867,-0.7177056074142456,0.0,0.12114686464757796,0.0
1759840257.0070071,1,-1.7349997758865356,-0.34999915957450867,-0.7177055918471567,0.0,True,0.011183500289916992,-1.7349997758865356,-0.34999915957450867,-0.7177056074142456,0.0,0.12114686464757796,0.0
1759840257.0178525,1,-1.7349997758865356,-0.34999915957450867,-0.7177055926229432,0.0,True,0.010845422744750977,-1.7349997758865356,-0.34999915957450867,-0.7177056074142456,0.0,0.12114686464757796,0.0
1759840257.0295491,1,-1.7349997758865356,-0.34999915957450867,-0.7177055930586285,0.0,True,0.011696577072143555,-1.7349997758865356,-0.34999915957450867,-0.7177056074142456,0.0,0.12114686464757796,0.0
1759840257.0443056,1,-1.7349997758865356,-0.34999915957450867,-0.717705592656241,0.0,True,0.014756441116333008,-1.7349997758865356,-0.34999915957450867,-0.7177056074142456,0.0,0.12114686464757796,0.0
1759840257.0546286,1,-1.7349997758865356,-0.34999915957450867,-0.7177055937049559,0.0,True,0.010323047637939453,-1.7349997758865356,-0.34999915957450867,-0.7177056074142456,0.0,0.12114686464757796,0.0
1759840257.0657973,1,-1.7349997758865356,-0.34999915957450867,-0.7177055944211084,0.0,True,0.011168718338012695,-1.7349997758865356,-0.34999915957450867,-0.7177056074142456,0.0,0.12114686464757796,0.0
1759840257.0763204,1,-1.7349997758865356,-0.34999915957450867,-0.7177055951855849,0.0,True,0.010523080825805664,-1.7349997758865356,-0.34999915957450867,-0.7177056074142456,0.0,0.12114686464757796,0.0
1759840257.0878448,1,-1.7349997758865356,-0.34999915957450867,-0.7177055955927738,0.0,True,0.011524438858032227,-1.7349997758865356,-0.34999915957450867,-0.7177056074142456,0.0,0.12114686464757796,0.0
1759840257.098066,1,-1.7349997758865356,-0.34999915957450867,-0.7177055962741363,0.0,True,0.010221242904663086,-1.7349997758865356,-0.34999915957450867,-0.7177056074142456,0.0,0.12114686464757796,0.0
1759840257.1093698,1,-1.7349997758865356,-0.34999915957450867,-0.7177055966201031,0.0,True,0.01130366325378418,-1.7349997758865356,-0.34999915957450867,-0.7177056074142456,0.0,0.12114686464757796,0.0
1759840257.120142,1,-1.7349997758865356,-0.34999915957450867,-0.7177055970618795,0.0,True,0.010772228240966797,-1.7349997758865356,-0.34999915957450867,-0.7177056074142456,0.0,0.12114686464757796,0.0
1759840257.1313574,1,-1.7349997758865356,-0.34999915957450867,-0.7177055973785951,0.0,True,0.011215448379516602,-1.7349997758865356,-0.34999915957450867,-0.7177056074142456,0.0,0.12114686464757796,0.0
1759840257.1414835,1,-1.7349997758865356,-0.34999915957450867,-0.7177055979081466,0.0,True,0.010126113891601562,-1.7349997758865356,-0.34999915957450867,-0.7177056074142456,0.0,0.12114686464757796,0.0
1759840257.1527324,1,-1.7349997758865356,-0.34999915957450867,-0.717705598152099,0.0,True,0.01124882698059082,-1.7349997758865356,-0.34999915957450867,-0.7177056074142456,0.0,0.12114686464757796,0.0
1759840257.1634226,1,-1.7349997758865356,-0.34999915957450867,-0.7177055985008565,0.0,True,0.01069021224975586,-1.7349997758865356,-0.34999915957450867,-0.7177056074142456,0.0,0.12114686464757796,0.0
1759840257.1748047,1,-1.7349997758865356,-0.34999915957450867,-0.7177055987056669,0.0,True,0.011382102966308594,-1.7349997758865356,-0.34999915957450867,-0.7177056074142456,0.0,0.12114686464757796,0.0
1759840257.1855955,1,-1.7349997758865356,-0.34999915957450867,-0.7177055990301966,0.0,True,0.010790824890136719,-1.7349997758865356,-0.34999915957450867,-0.7177056074142456,0.0,0.12114686464757796,0.0
1759840257.1973076,1,-1.7349997758865356,-0.34999915957450867,-0.7177055991851322,0.0,True,0.011712074279785156,-1.7349997758865356,-0.34999915957450867,-0.7177056074142456,0.0,0.12114686464757796,0.0
1759840257.2079468,1,-1.7349997758865356,-0.34999915957450867,-0.7177055995436952,0.0,True,0.010639190673828125,-1.7349997758865356,-0.34999915957450867,-0.7177056074142456,0.0,0.12114686464757796,0.0
1759840257.2195864,1,-1.7349997758865356,-0.34999915957450867,-0.7177055997193449,0.0,True,0.011639595031738281,-1.7349997758865356,-0.34999915957450867,-0.7177056074142456,0.0,0.12114686464757796,0.0
1759840257.2298799,1,-1.7349997758865356,-0.34999915957450867,-0.7177056001152984,0.0,True,0.01029348373413086,-1.7349997758865356,-0.34999915957450867,-0.7177056074142456,0.0,0.12114686464757796,0.0
1759840257.2476928,1,-1.7349997758865356,-0.34999915957450867,-0.7177055993790038,0.0,True,0.01781296730041504,-1.7349997758865356,-0.34999915957450867,-0.7177056074142456,0.0,0.12114686464757796,0.0
1759840257.2561946,1,-1.7349997758865356,-0.34999915957450867,-0.71770560023878,0.0,True,0.008501768112182617,-1.7349997758865356,-0.34999915957450867,-0.7177056074142456,0.0,0.12114686464757796,0.0
1759840257.2669985,1,-1.7349997758865356,-0.34999915957450867,-0.7177056006653295,0.0,True,0.010803937911987305,-1.7349997758865356,-0.34999915957450867,-0.7177056074142456,0.0,0.12114686464757796,0.0
1759840257.2781649,1,-1.7349997758865356,-0.34999915957450867,-0.7177056009538507,0.0,True,0.01116633415222168,-1.7349997758865356,-0.34999915957450867,-0.7177056074142456,0.0,0.12114686464757796,0.0
1759840257.288975,1,-1.7349997758865356,-0.34999915957450867,-0.7177056012544618,0.0,True,0.010810136795043945,-1.7349997758865356,-0.34999915957450867,-0.7177056074142456,0.0,0.12114686464757796,0.0
1759840257.2999792,1,-1.7349997758865356,-0.34999915957450867,-0.7177056014983556,0.0,True,0.011004209518432617,-1.7349997758865356,-0.34999915957450867,-0.7177056074142456,0.0,0.12114686464757796,0.0
1759840257.3113906,1,-1.7349997758865356,-0.34999915957450867,-0.7177056016737282,0.0,True,0.011411428451538086,-1.7349997758865356,-0.34999915957450867,-0.7177056074142456,0.0,0.12114686464757796,0.0
1759840257.3228962,1,-1.7349997758865356,-0.34999915957450867,-0.7177056018388193,0.0,True,0.011505603790283203,-1.7349997758865356,-0.34999915957450867,-0.7177056074142456,0.0,0.12114686464757796,0.0
1759840257.3342855,1,-1.7349997758865356,-0.34999915957450867,-0.7177056020223667,0.0,True,0.01138925552368164,-1.7349997758865356,-0.34999915957450867,-0.7177056074142456,0.0,0.12114686464757796,0.0
1759840257.34528,1,-1.7349997758865356,-0.34999915957450867,-0.7177056022465642,0.0,True,0.010994434356689453,-1.7349997758865356,-0.34999915957450867,-0.7177056074142456,0.0,0.12114686464757796,0.0
1759840257.3565235,1,-1.7349997758865356,-0.34999915957450867,-0.7177056024290511,0.0,True,0.011243581771850586,-1.7349997758865356,-0.34999915957450867,-0.7177056074142456,0.0,0.12114686464757796,0.0
1759840257.3667748,1,-1.7349997758865356,-0.34999915957450867,-0.7177056026999402,0.0,True,0.010251283645629883,-1.7349997758865356,-0.34999915957450867,-0.7177056074142456,0.0,0.12114686464757796,0.0
1759840257.3769605,1,-1.7349997758865356,-0.34999915957450867,-0.7177056029410593,0.0,True,0.010185718536376953,-1.7349997758865356,-0.34999915957450867,-0.7177056074142456,0.0,0.12114686464757796,0.0
1759840257.388924,1,-1.7349997758865356,-0.34999915957450867,-0.7177056029824271,0.0,True,0.011963367462158203,-1.7349997758865356,-0.34999915957450867,-0.7177056074142456,0.0,0.12114686464757796,0.0
1759840257.4000537,1,-1.7349997758865356,-0.34999915957450867,-0.7177056031207272,0.0,True,0.01112985610961914,-1.7349997758865356,-0.34999915957450867,-0.7177056074142456,0.0,0.12114686464757796,0.0
1759840257.410343,1,-1.7349997758865356,-0.34999915957450867,-0.7177056033361051,0.0,True,0.010289192199707031,-1.7349997758865356,-0.34999915957450867,-0.7177056074142456,0.0,0.12114686464757796,0.0
1759840257.4216082,1,-1.7349997758865356,-0.34999915957450867,-0.7177056034453493,0.0,True,0.011265277862548828,-1.7349997758865356,-0.34999915957450867,-0.7177056074142456,0.0,0.12114686464757796,0.0
1759840257.431901,1,-1.7349997758865356,-0.34999915957450867,-0.7177056036323108,0.0,True,0.010292768478393555,-1.7349997758865356,-0.34999915957450867,-0.7177056074142456,0.0,0.12114686464757796,0.0
1759840257.442038,1,-1.7349997758865356,-0.34999915957450867,-0.7177056038122984,0.0,True,0.010137081146240234,-1.7349997758865356,-0.34999915957450867,-0.7177056074142456,0.0,0.12114686464757796,0.0
1759840257.4599,1,-1.7349997758865356,-0.34999915957450867,-0.7177056033966345,0.0,True,0.01786184310913086,-1.7349997758865356,-0.34999915957450867,-0.7177056074142456,0.0,0.12114686464757796,0.0
1759840257.4689863,1,-1.7349997758865356,-0.34999915957450867,-0.7177056037676692,0.0,True,0.009086370468139648,-1.7349997758865356,-0.34999915957450867,-0.7177056074142456,0.0,0.12114686464757796,0.0
1759840257.4793625,1,-1.7349997758865356,-0.34999915957450867,-0.7177056040086551,0.0,True,0.010376214981079102,-1.7349997758865356,-0.34999915957450867,-0.7177056074142456,0.0,0.12114686464757796,0.0
1759840257.4909027,1,-1.7349997758865356,-0.34999915957450867,-0.717705604122342,0.0,True,0.01154017448425293,-1.7349997758865356,-0.34999915957450867,-0.7177056074142456,0.0,0.12114686464757796,0.0
1759840257.5015483,1,-1.7349997758865356,-0.34999915957450867,-0.717705604284971,0.0,True,0.010645627975463867,-1.7349997758865356,-0.34999915957450867,-0.7177056074142456,0.0,0.12114686464757796,0.0
1759840257.5129976,1,-1.7349997758865356,-0.34999915957450867,-0.7177056043800718,0.0,True,0.011449337005615234,-1.7349997758865356,-0.34999915957450867,-0.7177056074142456,0.0,0.12114686464757796,0.0
1759840257.5244153,1,-1.7349997758865356,-0.34999915957450867,-0.7177056044749683,0.0,True,0.011417627334594727,-1.7349997758865356,-0.34999915957450867,-0.7177056074142456,0.0,0.12114686464757796,0.0
1759840257.5346987,1,-1.7349997758865356,-0.34999915957450867,-0.7177056046357109,0.0,True,0.010283470153808594,-1.7349997758865356,-0.34999915957450867,-0.7177056074142456,0.0,0.12114686464757796,0.0
1759840257.5449264,1,-1.7349997758865356,-0.34999915957450867,-0.7177056047789208,0.0,True,0.010227680206298828,-1.7349997758865356,-0.34999915957450867,-0.7177056074142456,0.0,0.12114686464757796,0.0
1759840257.5563827,1,-1.7349997758865356,-0.34999915957450867,-0.7177056048343005,0.0,True,0.01145625114440918,-1.7349997758865356,-0.34999915957450867,-0.7177056074142456,0.0,0.12114686464757796,0.0
1759840257.5677698,1,-1.7349997758865356,-0.34999915957450867,-0.717705604897386,0.0,True,0.011387109756469727,-1.7349997758865356,-0.34999915957450867,-0.7177056074142456,0.0,0.12114686464757796,0.0
1759840257.5779138,1,-1.7349997758865356,-0.34999915957450867,-0.7177056050293515,0.0,True,0.01014399528503418,-1.7349997758865356,-0.34999915957450867,-0.7177056074142456,0.0,0.12114686464757796,0.0
1759840257.588143,1,-1.7349997758865356,-0.34999915957450867,-0.7177056051416439,0.0,True,0.010229349136352539,-1.7349997758865356,-0.34999915957450867,-0.7177056074142456,0.0,0.12114686464757796,0.0
1759840257.5995328,1,-1.7349997758865356,-0.34999915957450867,-0.7177056051837383,0.0,True,0.011389732360839844,-1.7349997758865356,-0.34999915957450867,-0.7177056074142456,0.0,0.12114686464757796,0.0
1759840257.6097538,1,-1.7349997758865356,-0.34999915957450867,-0.717705605284543,0.0,True,0.010221004486083984,-1.7349997758865356,-0.34999915957450867,-0.7177056074142456,0.0,0.12114686464757796,0.0
1759840257.6203573,1,-1.7349997758865356,-0.34999915957450867,-0.7177056053597397,0.0,True,0.01060342788696289,-1.7349997758865356,-0.34999915957450867,-0.7177056074142456,0.0,0.12114686464757796,0.0
1759840257.6313343,1,-1.7349997758865356,-0.34999915957450867,-0.7177056054133892,0.0,True,0.010977029800415039,-1.7349997758865356,-0.34999915957450867,-0.7177056074142456,0.0,0.12114686464757796,0.0
1759840257.6420836,1,-1.7349997758865356,-0.34999915957450867,-0.7177056054779793,0.0,True,0.010749340057373047,-1.7349997758865356,-0.34999915957450867,-0.7177056074142456,0.0,0.12114686464757796,0.0
1759840257.6526823,1,-1.7349997758865356,-0.34999915957450867,-0.7177056055476072,0.0,True,0.01059865951538086,-1.7349997758865356,-0.34999915957450867,-0.7177056074142456,0.0,0.12114686464757796,0.0
1759840257.6697896,1,-1.7349997758865356,-0.34999915957450867,-0.7177056053660458,0.0,True,0.017107248306274414,-1.7349997758865356,-0.34999915957450867,-0.7177056074142456,0.0,0.12114686464757796,0.0
1759840257.6784303,1,-1.7349997758865356,-0.34999915957450867,-0.7177056055694244,0.0,True,0.008640766143798828,-1.7349997758865356,-0.34999915957450867,-0.7177056074142456,0.0,0.12114686464757796,0.0
1759840257.6886985,1,-1.7349997758865356,-0.34999915957450867,-0.7177056056879714,0.0,True,0.010268211364746094,-1.7349997758865356,-0.34999915957450867,-0.7177056074142456,0.0,0.12114686464757796,0.0
1759840257.700826,1,-1.7349997758865356,-0.34999915957450867,-0.7177056057174891,0.0,True,0.012127399444580078,-1.7349997758865356,-0.34999915957450867,-0.7177056074142456,0.0,0.12114686464757796,0.0
1759840257.711277,1,-1.7349997758865356,-0.34999915957450867,-0.7177056058067119,0.0,True,0.010451078414916992,-1.7349997758865356,-0.34999915957450867,-0.7177056074142456,0.0,0.12114686464757796,0.0
1759840257.722195,1,-1.7349997758865356,-0.34999915957450867,-0.7177056058718261,0.0,True,0.010917901992797852,-1.7349997758865356,-0.34999915957450867,-0.7177056074142456,0.0,0.12114686464757796,0.0
1759840257.733052,1,-1.7349997758865356,-0.34999915957450867,-0.7177056059323501,0.0,True,0.010857105255126953,-1.7349997758865356,-0.34999915957450867,-0.7177056074142456,0.0,0.12114686464757796,0.0
1759840257.7442563,1,-1.7349997758865356,-0.34999915957450867,-0.7177056059779119,0.0,True,0.011204242706298828,-1.7349997758865356,-0.34999915957450867,-0.7177056074142456,0.0,0.12114686464757796,0.0
1759840257.7545555,1,-1.7349997758865356,-0.34999915957450867,-0.7177056060488916,0.0,True,0.010299205780029297,-1.7349997758865356,-0.34999915957450867,-0.7177056074142456,0.0,0.12114686464757796,0.0
1759840257.7659483,1,-1.7349997758865356,-0.34999915957450867,-0.7177056060814238,0.0,True,0.011392831802368164,-1.7349997758865356,-0.34999915957450867,-0.7177056074142456,0.0,0.12114686464757796,0.0
1759840257.7765636,1,-1.7349997758865356,-0.34999915957450867,-0.7177056061361178,0.0,True,0.010615348815917969,-1.7349997758865356,-0.34999915957450867,-0.7177056074142456,0.0,0.12114686464757796,0.0
1759840257.7879488,1,-1.7349997758865356,-0.34999915957450867,-0.7177056061672324,0.0,True,0.011385202407836914,-1.7349997758865356,-0.34999915957450867,-0.7177056074142456,0.0,0.12114686464757796,0.0
1759840257.7983305,1,-1.7349997758865356,-0.34999915957450867,-0.7177056062251914,0.0,True,0.010381698608398438,-1.7349997758865356,-0.34999915957450867,-0.7177056074142456,0.0,0.12114686464757796,0.0
1759840257.809006,1,-1.7349997758865356,-0.34999915957450867,-0.7177056062705738,0.0,True,0.010675430297851562,-1.7349997758865356,-0.34999915957450867,-0.7177056074142456,0.0,0.12114686464757796,0.0
1759840257.8197377,1,-1.7349997758865356,-0.34999915957450867,-0.7177056063107052,0.0,True,0.010731697082519531,-1.7349997758865356,-0.34999915957450867,-0.7177056074142456,0.0,0.12114686464757796,0.0
1759840257.8305416,1,-1.7349997758865356,-0.34999915957450867,-0.7177056063469696,0.0,True,0.010803937911987305,-1.7349997758865356,-0.34999915957450867,-0.7177056074142456,0.0,0.12114686464757796,0.0
1759840257.840712,1,-1.7349997758865356,-0.34999915957450867,-0.7177056063959171,0.0,True,0.010170459747314453,-1.7349997758865356,-0.34999915957450867,-0.7177056074142456,0.0,0.12114686464757796,0.0
1759840257.8509765,1,-1.7349997758865356,-0.34999915957450867,-0.7177056064375975,0.0,True,0.010264396667480469,-1.7349997758865356,-0.34999915957450867,-0.7177056074142456,0.0,0.12114686464757796,0.0
1759840257.8619635,1,-1.7349997758865356,-0.34999915957450867,-0.7177056064598872,0.0,True,0.010987043380737305,-1.7349997758865356,-0.34999915957450867,-0.7177056074142456,0.0,0.12114686464757796,0.0
1759840257.8750196,1,-1.7349997758865356,-0.34999915957450867,-0.7177056064425162,0.0,True,0.013056039810180664,-1.7349997758865356,-0.34999915957450867,-0.7177056074142456,0.0,0.12114686464757796,0.0
1759840257.886215,1,-1.7349997758865356,-0.34999915957450867,-0.7177056064754215,0.0,True,0.01119542121887207,-1.7349997758865356,-0.34999915957450867,-0.7177056074142456,0.0,0.12114686464757796,0.0
1759840257.897467,1,-1.7349997758865356,-0.34999915957450867,-0.7177056065094831,0.0,True,0.01125192642211914,-1.7349997758865356,-0.34999915957450867,-0.7177056074142456,0.0,0.12114686464757796,0.0
1759840257.9081259,1,-1.7349997758865356,-0.34999915957450867,-0.7177056065527907,0.0,True,0.010658979415893555,-1.7349997758865356,-0.34999915957450867,-0.7177056074142456,0.0,0.12114686464757796,0.0
1759840257.919093,1,-1.7349997758865356,-0.34999915957450867,-0.7177056065862111,0.0,True,0.010967016220092773,-1.7349997758865356,-0.34999915957450867,-0.7177056074142456,0.0,0.12114686464757796,0.0
1759840257.929635,1,-1.7349997758865356,-0.34999915957450867,-0.717705606623916,0.0,True,0.010542154312133789,-1.7349997758865356,-0.34999915957450867,-0.7177056074142456,0.0,0.12114686464757796,0.0
1759840257.94149,1,-1.7349997758865356,-0.34999915957450867,-0.7177056066367058,0.0,True,0.011854887008666992,-1.7349997758865356,-0.34999915957450867,-0.7177056074142456,0.0,0.12114686464757796,0.0
1759840257.9529178,1,-1.7349997758865356,-0.34999915957450867,-0.7177056066590772,0.0,True,0.011427879333496094,-1.7349997758865356,-0.34999915957450867,-0.7177056074142456,0.0,0.12114686464757796,0.0
1759840257.9640896,1,-1.7349997758865356,-0.34999915957450867,-0.7177056066866818,0.0,True,0.011171817779541016,-1.7349997758865356,-0.34999915957450867,-0.7177056074142456,0.0,0.12114686464757796,0.0
