timestamp,vehicle_id,x,y,theta,velocity,gps_available,dt,gps_x,gps_y,gps_theta,gps_velocity,control_steering,control_acceleration
1759840254.593903,0,-1.205,-0.83,-0.7801621756414647,0.0,False,0.01,nan,nan,nan,nan,0.0,0.0
1759840254.605031,0,-1.205,-0.83,-0.7801621756414647,0.0,False,0.011127948760986328,nan,nan,nan,nan,0.0,0.0
1759840254.6155958,0,-1.205,-0.83,-0.7801621756414647,0.0,False,0.010564804077148438,nan,nan,nan,nan,0.0,0.0
1759840254.6266687,0,-1.205,-0.83,-0.7801621756414647,0.0,False,0.011072874069213867,nan,nan,nan,nan,0.0,0.0
1759840254.6381528,0,-1.205,-0.83,-0.7801621756414647,0.0,False,0.011484146118164062,nan,nan,nan,nan,0.0,0.0
1759840254.6481895,0,-1.205,-0.83,-0.7801621756414647,0.0,False,0.010036706924438477,nan,nan,nan,nan,0.0,0.0
1759840254.6594281,0,-1.205,-0.83,-0.7801621756414647,0.0,False,0.011238574981689453,nan,nan,nan,nan,0.0,0.0
1759840254.6695929,0,-1.205,-0.83,-0.7801621756414647,0.0,False,0.010164737701416016,nan,nan,nan,nan,0.0,0.0
1759840254.6803901,0,-1.205,-0.83,-0.7801621756414647,0.0,False,0.010797262191772461,nan,nan,nan,nan,0.0,0.0
1759840254.6916666,0,-1.205,-0.83,-0.7801621756414647,0.0,False,0.011276483535766602,nan,nan,nan,nan,0.0,0.0
1759840254.7022896,0,-1.205,-0.83,-0.7801621756414647,0.0,False,0.010622978210449219,nan,nan,nan,nan,0.0,0.0
1759840254.7135742,0,-1.205,-0.83,-0.7801621756414647,0.0,False,0.011284589767456055,nan,nan,nan,nan,0.0,0.0
1759840254.724222,0,-1.205,-0.83,-0.7801621756414647,0.0,False,0.010647773742675781,nan,nan,nan,nan,0.0,0.0
1759840254.734853,0,-1.205,-0.83,-0.7801621756414647,0.0,False,0.010631084442138672,nan,nan,nan,nan,0.0,0.0
1759840254.7457235,0,-1.205,-0.83,-0.7801621756414647,0.0,False,0.01087045669555664,nan,nan,nan,nan,0.0,0.0
1759840254.7564042,0,-1.205,-0.83,-0.7801621756414647,0.0,False,0.010680675506591797,nan,nan,nan,nan,0.0,0.0
1759840254.767033,0,-1.205,-0.83,-0.7801621756414647,0.0,False,0.010628938674926758,nan,nan,nan,nan,0.0,0.0
1759840254.777999,0,-1.205,-0.83,-0.7801621756414647,0.0,False,0.010965824127197266,nan,nan,nan,nan,0.0,0.0
1759840254.7919998,0,-1.2050001607735952,-0.8299997470180194,-0.7229993053598136,0.0,True,0.014000892639160156,-1.2050001621246338,-0.8299997448921204,-0.7177030444145203,0.0,0.0,0.0
1759840254.8027737,0,-1.205000161673033,-0.8299997456027273,-0.7181163668025388,0.0,True,0.010773897171020508,-1.2050001621246338,-0.8299997448921204,-0.7177030444145203,0.0,0.0,0.0
1759840254.8140166,0,-1.2050001619552244,-0.8299997451586908,-0.7176542623864499,0.0,True,0.011242866516113281,-1.2050001621246338,-0.8299997448921204,-0.7177030444145203,0.0,0.0,0.0
1759840254.825049,0,-1.2050001620600936,-0.829999744993676,-0.7175945902569936,0.0,True,0.011032342910766602,-1.2050001621246338,-0.8299997448921204,-0.7177030444145203,0.0,0.0,0.0
1759840254.8358517,0,-1.205000162099991,-0.8299997449308965,-0.7175892182132788,0.0,True,0.010802745819091797,-1.2050001621246338,-0.8299997448921204,-0.7177030444145203,0.0,0.0,0.0
1759840254.8462958,0,-1.2050001621152215,-0.8299997449069307,-0.7175978357759742,0.0,True,0.010444164276123047,-1.2050001621246338,-0.8299997448921204,-0.7177030444145203,0.0,0.0,0.0
1759840254.8564553,0,-1.2050001621210387,-0.8299997448977774,-0.7176098898439864,0.0,True,0.010159492492675781,-1.2050001621246338,-0.8299997448921204,-0.7177030444145203,0.0,0.0,0.0
1759840254.8668513,0,-1.2050001621232607,-0.8299997448942812,-0.717620935468009,0.0,True,0.010396003723144531,-1.2050001621246338,-0.8299997448921204,-0.7177030444145203,0.0,0.0,0.0
1759840254.8776019,0,-1.2050001621241093,-0.8299997448929457,-0.7176303884775965,0.0,True,0.010750532150268555,-1.2050001621246338,-0.8299997448921204,-0.7177030444145203,0.0,0.0,0.0
1759840254.88907,0,-1.2050001621244335,-0.8299997448924357,-0.7176380356445016,0.0,True,0.011468172073364258,-1.2050001621246338,-0.8299997448921204,-0.7177030444145203,0.0,0.0,0.0
1759840254.8997698,0,-1.2050001621245572,-0.8299997448922408,-0.7176459145800855,0.0,True,0.010699748992919922,-1.2050001621246338,-0.8299997448921204,-0.7177030444145203,0.0,0.0,0.0
1759840254.9101138,0,-1.2050001621246045,-0.8299997448921663,-0.7176528097145365,0.0,True,0.01034402847290039,-1.2050001621246338,-0.8299997448921204,-0.7177030444145203,0.0,0.0,0.0
1759840254.9207072,0,-1.2050001621246227,-0.8299997448921379,-0.7176581600959473,0.0,True,0.010593414306640625,-1.2050001621246338,-0.8299997448921204,-0.7177030444145203,0.0,0.0,0.0
1759840254.9314947,0,-1.2050001621246296,-0.829999744892127,-0.7176624629946033,0.0,True,0.010787487030029297,-1.2050001621246338,-0.8299997448921204,-0.7177030444145203,0.0,0.0,0.0
1759840254.9417574,0,-1.2050001621246322,-0.8299997448921229,-0.7176665209946318,0.0,True,0.010262727737426758,-1.2050001621246338,-0.8299997448921204,-0.7177030444145203,0.0,0.0,0.0
1759840254.9530075,0,-1.2050001621246331,-0.8299997448921214,-0.7176692582854578,0.0,True,0.011250019073486328,-1.2050001621246338,-0.8299997448921204,-0.7177030444145203,0.0,0.0,0.0
1759840254.9639256,0,-1.2050001621246336,-0.8299997448921207,-0.7176719602712573,0.0,True,0.010918140411376953,-1.2050001621246338,-0.8299997448921204,-0.7177030444145203,0.0,0.0,0.0
1759840254.9745677,0,-1.2050001621246338,-0.8299997448921205,-0.717674523604714,0.0,True,0.010642051696777344,-1.2050001621246338,-0.8299997448921204,-0.7177030444145203,0.0,0.0,0.0
1759840254.9921117,0,-1.2050001621246338,-0.8299997448921204,-0.7176733688585948,0.0,True,0.017544031143188477,-1.2050001621246338,-0.8299997448921204,-0.7177030444145203,0.0,0.0,0.0
1759840254.996681,0,-1.2050001621246338,-0.8299997448921204,-0.717679457770453,0.0,True,0.004569292068481445,-1.2050001621246338,-0.8299997448921204,-0.7177030444145203,0.0,0.0,0.0
1759840255.007848,0,-1.2050001621246338,-0.8299997448921204,-0.7176809608417436,0.0,True,0.011167049407958984,-1.2050001621246338,-0.8299997448921204,-0.7177030444145203,0.0,0.0,0.0
1759840255.0181904,0,-1.2050001621246338,-0.8299997448921204,-0.7176824596206153,0.0,True,0.01034235954284668,-1.2050001621246338,-0.8299997448921204,-0.7177030444145203,0.0,0.0,0.0
1759840255.029073,0,-1.2050001621246338,-0.8299997448921204,-0.7176835625591274,0.0,True,0.01088261604309082,-1.2050001621246338,-0.8299997448921204,-0.7177030444145203,0.0,0.0,0.0
1759840255.0397696,0,-1.2050001621246338,-0.8299997448921204,-0.7176846631813483,0.0,True,0.010696649551391602,-1.2050001621246338,-0.8299997448921204,-0.7177030444145203,0.0,0.0,0.0
1759840255.050428,0,-1.2050001621246338,-0.8299997448921204,-0.7176856943893206,0.0,True,0.01065826416015625,-1.2050001621246338,-0.8299997448921204,-0.7177030444145203,0.0,0.0,0.0
1759840255.061134,0,-1.2050001621246338,-0.8299997448921204,-0.7176866224938827,0.0,True,0.010706186294555664,-1.2050001621246338,-0.8299997448921204,-0.7177030444145203,0.0,0.0,0.0
1759840255.0711377,0,-1.2050001621246338,-0.8299997448921204,-0.7176877033700642,0.0,True,0.01000356674194336,-1.2050001621246338,-0.8299997448921204,-0.7177030444145203,0.0,0.0,0.0
1759840255.0814028,0,-1.2050001621246338,-0.8299997448921204,-0.7176885566449904,0.0,True,0.010265111923217773,-1.2050001621246338,-0.8299997448921204,-0.7177030444145203,0.0,0.0,0.0
1759840255.0919209,0,-1.2050001621246338,-0.8299997448921204,-0.7176892343139389,0.0,True,0.010518074035644531,-1.2050001621246338,-0.8299997448921204,-0.7177030444145203,0.0,0.0,0.0
1759840255.102085,0,-1.2050001621246338,-0.8299997448921204,-0.7176899632024458,0.0,True,0.010164260864257812,-1.2050001621246338,-0.8299997448921204,-0.7177030444145203,0.0,0.0,0.0
1759840255.1133282,0,-1.2050001621246338,-0.8299997448921204,-0.7176903317494965,0.0,True,0.011243104934692383,-1.2050001621246338,-0.8299997448921204,-0.7177030444145203,0.0,0.0,0.0
1759840255.1242535,0,-1.2050001621246338,-0.8299997448921204,-0.7176908181638222,0.0,True,0.01092529296875,-1.2050001621246338,-0.8299997448921204,-0.7177030444145203,0.0,0.0,0.0
1759840255.1351144,0,-1.2050001621246338,-0.8299997448921204,-0.7176913299331034,0.0,True,0.010860919952392578,-1.2050001621246338,-0.8299997448921204,-0.7177030444145203,0.0,0.0,0.0
1759840255.1457946,0,-1.2050001621246338,-0.8299997448921204,-0.7176918700696717,0.0,True,0.010680198669433594,-1.2050001621246338,-0.8299997448921204,-0.7177030444145203,0.0,0.0,0.0
1759840255.1564305,0,-1.2050001621246338,-0.8299997448921204,-0.7176923856265276,0.0,True,0.010635852813720703,-1.2050001621246338,-0.8299997448921204,-0.7177030444145203,0.0,0.0,0.0
1759840255.1672528,0,-1.2050001621246338,-0.8299997448921204,-0.717692823189612,0.0,True,0.010822296142578125,-1.2050001621246338,-0.8299997448921204,-0.7177030444145203,0.0,0.0,0.0
1759840255.1780636,0,-1.2050001621246338,-0.8299997448921204,-0.7176932427941107,0.0,True,0.01081085205078125,-1.2050001621246338,-0.8299997448921204,-0.7177030444145203,0.0,0.0,0.0
1759840255.1891985,0,-1.2050001621246338,-0.8299997448921204,-0.7176935811348777,0.0,True,0.011134862899780273,-1.2050001621246338,-0.8299997448921204,-0.7177030444145203,0.0,0.0,0.0
1759840255.2001083,0,-1.2050001621246338,-0.8299997448921204,-0.7176939653001124,0.0,True,0.010909795761108398,-1.2050001621246338,-0.8299997448921204,-0.7177030444145203,0.0,0.0,0.0
1759840255.2115753,0,-1.2050001621246338,-0.8299997448921204,-0.7176942369177937,0.0,True,0.01146697998046875,-1.2050001621246338,-0.8299997448921204,-0.7177030444145203,0.0,0.0,0.0
1759840255.2223608,0,-1.2050001621246338,-0.8299997448921204,-0.7176946427765447,0.0,True,0.010785579681396484,-1.2050001621246338,-0.8299997448921204,-0.7177030444145203,0.0,0.0,0.0
1759840255.2336812,0,-1.2050001621246338,-0.8299997448921204,-0.7176949347730481,0.0,True,0.011320352554321289,-1.2050001621246338,-0.8299997448921204,-0.7177030444145203,0.0,0.0,0.0
1759840255.2449713,0,-1.2050001621246338,-0.8299997448921204,-0.7176952299370694,0.0,True,0.01129007339477539,-1.2050001621246338,-0.8299997448921204,-0.7177030444145203,0.0,0.0,0.0
1759840255.2556765,0,-1.2050001621246338,-0.8299997448921204,-0.717695613087697,0.0,True,0.010705232620239258,-1.2050001621246338,-0.8299997448921204,-0.7177030444145203,0.0,0.0,0.0
1759840255.267132,0,-1.2050001621246338,-0.8299997448921204,-0.7176958520742076,0.0,True,0.011455535888671875,-1.2050001621246338,-0.8299997448921204,-0.7177030444145203,0.0,0.0,0.0
1759840255.277768,0,-1.2050001621246338,-0.8299997448921204,-0.717696207360401,0.0,True,0.010635852813720703,-1.2050001621246338,-0.8299997448921204,-0.7177030444145203,0.0,0.0,0.0
1759840255.2882793,0,-1.2050001621246338,-0.8299997448921204,-0.717696547125211,0.0,True,0.010511398315429688,-1.2050001621246338,-0.8299997448921204,-0.7177030444145203,0.0,0.0,0.0
1759840255.299343,0,-1.2050001621246338,-0.8299997448921204,-0.717696775044038,0.0,True,0.011063814163208008,-1.2050001621246338,-0.8299997448921204,-0.7177030444145203,0.0,0.0,0.0
1759840255.309751,0,-1.2050001621246338,-0.8299997448921204,-0.7176970761989878,0.0,True,0.01040792465209961,-1.2050001621246338,-0.8299997448921204,-0.7177030444145203,0.0,0.0,0.0
1759840255.320029,0,-1.2050001621246338,-0.8299997448921204,-0.7176973634106432,0.0,True,0.010277986526489258,-1.2050001621246338,-0.8299997448921204,-0.7177030444145203,0.0,0.0,0.0
1759840255.3302135,0,-1.2050001621246338,-0.8299997448921204,-0.717697627301007,0.0,True,0.010184526443481445,-1.2050001621246338,-0.8299997448921204,-0.7177030444145203,0.0,0.0,0.0
1759840255.3404324,0,-1.2050001621246338,-0.8299997448921204,-0.717697856254901,0.0,True,0.01021885871887207,-1.2050001621246338,-0.8299997448921204,-0.7177030444145203,0.0,0.0,0.0
1759840255.3506212,0,-1.2050001621246338,-0.8299997448921204,-0.7176980653111009,0.0,True,0.010188817977905273,-1.2050001621246338,-0.8299997448921204,-0.7177030444145203,0.0,0.0,0.0
1759840255.3608236,0,-1.2050001621246338,-0.8299997448921204,-0.7176982543324808,0.0,True,0.010202407836914062,-1.2050001621246338,-0.8299997448921204,-0.7177030444145203,0.0,0.0,0.0
1759840255.372107,0,-1.2050001621246338,-0.8299997448921204,-0.7176983182755521,0.0,True,0.011283397674560547,-1.2050001621246338,-0.8299997448921204,-0.7177030444145203,0.0,0.0,0.0
1759840255.3828466,0,-1.2050001621246338,-0.8299997448921204,-0.7176984592673641,0.0,True,0.010739564895629883,-1.2050001621246338,-0.8299997448921204,-0.7177030444145203,0.0,0.0,0.0
1759840255.3931298,0,-1.2050001621246338,-0.8299997448921204,-0.7176986505117302,0.0,True,0.010283231735229492,-1.2050001621246338,-0.8299997448921204,-0.7177030444145203,0.0,0.0,0.0
1759840255.4033751,0,-1.2050001621246338,-0.8299997448921204,-0.7176988308680983,0.0,True,0.010245323181152344,-1.2050001621246338,-0.8299997448921204,-0.7177030444145203,0.0,0.0,0.0
1759840255.4133837,0,-1.2050001621246338,-0.8299997448921204,-0.7176990158350876,0.0,True,0.010008573532104492,-1.2050001621246338,-0.8299997448921204,-0.7177030444145203,0.0,0.0,0.0
1759840255.423762,0,-1.2050001621246338,-0.8299997448921204,-0.7176991489257283,0.0,True,0.010378360748291016,-1.2050001621246338,-0.8299997448921204,-0.7177030444145203,0.0,0.0,0.0
1759840255.4341614,0,-1.2050001621246338,-0.8299997448921204,-0.7176992732020864,0.0,True,0.010399341583251953,-1.2050001621246338,-0.8299997448921204,-0.7177030444145203,0.0,0.0,0.0
1759840255.4444828,0,-1.2050001621246338,-0.8299997448921204,-0.7176994007223172,0.0,True,0.010321378707885742,-1.2050001621246338,-0.8299997448921204,-0.7177030444145203,0.0,0.0,0.0
1759840255.4554286,0,-1.2050001621246338,-0.8299997448921204,-0.7176994746712158,0.0,True,0.010945796966552734,-1.2050001621246338,-0.8299997448921204,-0.7177030444145203,0.0,0.0,0.0
1759840255.4663942,0,-1.2050001621246338,-0.8299997448921204,-0.7176995572954539,0.0,True,0.010965585708618164,-1.2050001621246338,-0.8299997448921204,-0.7177030444145203,0.0,0.0,0.0
1759840255.4766722,0,-1.2050001621246338,-0.8299997448921204,-0.7176997001214751,0.0,True,0.010277986526489258,-1.2050001621246338,-0.8299997448921204,-0.7177030444145203,0.0,0.0,0.0
1759840255.4878013,0,-1.2050001621246338,-0.8299997448921204,-0.7176997740979765,0.0,True,0.011129140853881836,-1.2050001621246338,-0.8299997448921204,-0.7177030444145203,0.0,0.0,0.0
1759840255.4990063,0,-1.2050001621246338,-0.8299997448921204,-0.7176998500490264,0.0,True,0.011204957962036133,-1.2050001621246338,-0.8299997448921204,-0.7177030444145203,0.0,0.0,0.0
1759840255.5104353,0,-1.2050001621246338,-0.8299997448921204,-0.7176999215498157,0.0,True,0.011429071426391602,-1.2050001621246338,-0.8299997448921204,-0.7177030444145203,0.0,0.0,0.0
1759840255.5207443,0,-1.2050001621246338,-0.8299997448921204,-0.7177000742232025,0.0,True,0.010308980941772461,-1.2050001621246338,-0.8299997448921204,-0.7177030444145203,0.0,0.0,0.0
1759840255.5321813,0,-1.2050001621246338,-0.8299997448921204,-0.7177001442938522,0.0,True,0.011436939239501953,-1.2050001621246338,-0.8299997448921204,-0.7177030444145203,0.0,0.0,0.0
1759840255.5434341,0,-1.2050001621246338,-0.8299997448921204,-0.7177002298100703,0.0,True,0.011252880096435547,-1.2050001621246338,-0.8299997448921204,-0.7177030444145203,0.0,0.0,0.0
1759840255.5540397,0,-1.2050001621246338,-0.8299997448921204,-0.7177003555092867,0.0,True,0.010605573654174805,-1.2050001621246338,-0.8299997448921204,-0.7177030444145203,0.0,0.0,0.0
1759840255.5647256,0,-1.2050001621246338,-0.8299997448921204,-0.7177004664765327,0.0,True,0.010685920715332031,-1.2050001621246338,-0.8299997448921204,-0.7177030444145203,0.0,0.0,0.0
1759840255.576053,0,-1.2050001621246338,-0.8299997448921204,-0.7177005341068252,0.0,True,0.011327266693115234,-1.2050001621246338,-0.8299997448921204,-0.7177030444145203,0.0,0.0,0.0
1759840255.5862234,0,-1.2050001621246338,-0.8299997448921204,-0.7177006629409739,0.0,True,0.010170459747314453,-1.2050001621246338,-0.8299997448921204,-0.7177030444145203,0.0,0.0,0.0
1759840255.5974133,0,-1.2050001621246338,-0.8299997448921204,-0.7177007277171068,0.0,True,0.011189937591552734,-1.2050001621246338,-0.8299997448921204,-0.7177030444145203,0.0,0.0,0.0
1759840255.6080832,0,-1.2050001621246338,-0.8299997448921204,-0.7177008170669126,0.0,True,0.010669946670532227,-1.2050001621246338,-0.8299997448921204,-0.7177030444145203,0.0,0.0,0.0
1759840255.6189108,0,-1.2050001621246338,-0.8299997448921204,-0.7177008946531522,0.0,True,0.01082754135131836,-1.2050001621246338,-0.8299997448921204,-0.7177030444145203,0.0,0.0,0.0
1759840255.6299877,0,-1.2050001621246338,-0.8299997448921204,-0.7177009578655476,0.0,True,0.011076927185058594,-1.2050001621246338,-0.8299997448921204,-0.7177030444145203,0.0,0.0,0.0
1759840255.6401267,0,-1.2050001621246338,-0.8299997448921204,-0.7177010615206463,0.0,True,0.010138988494873047,-1.2050001621246338,-0.8299997448921204,-0.7177030444145203,0.0,0.0,0.0
1759840255.6507971,0,-1.2050001621246338,-0.8299997448921204,-0.7177011317715412,0.0,True,0.01067042350769043,-1.2050001621246338,-0.8299997448921204,-0.7177030444145203,0.0,0.0,0.0
1759840255.66095,0,-1.2050001621246338,-0.8299997448921204,-0.7177012173690649,0.0,True,0.010152816772460938,-1.2050001621246338,-0.8299997448921204,-0.7177030444145203,0.0,0.0,0.0
1759840255.672084,0,-1.2050001621246338,-0.8299997448921204,-0.717701256342675,0.0,True,0.011134147644042969,-1.2050001621246338,-0.8299997448921204,-0.7177030444145203,0.0,0.0,0.0
1759840255.6822138,0,-1.2050001621246338,-0.8299997448921204,-0.7177013358265913,0.0,True,0.010129690170288086,-1.2050001621246338,-0.8299997448921204,-0.7177030444145203,0.0,0.0,0.0
1759840255.6924412,0,-1.2050001621246338,-0.8299997448921204,-0.7177014050424511,0.0,True,0.010227441787719727,-1.2050001621246338,-0.8299997448921204,-0.7177030444145203,0.0,0.0,0.0
1759840255.7035987,0,-1.2050001621246338,-0.8299997448921204,-0.7177014349386965,0.0,True,0.011157512664794922,-1.2050001621246338,-0.8299997448921204,-0.7177030444145203,0.0,0.0,0.0
1759840255.7149093,0,-1.2050001621246338,-0.8299997448921204,-0.7177014644494122,0.0,True,0.011310577392578125,-1.2050001621246338,-0.8299997448921204,-0.7177030444145203,0.0,0.0,0.0
1759840255.7261372,0,-1.2050001621246338,-0.8299997448921204,-0.7177015037678096,0.0,True,0.011227846145629883,-1.2050001621246338,-0.8299997448921204,-0.7177030444145203,0.0,0.0,0.0
1759840255.7373927,0,-1.2050001621246338,-0.8299997448921204,-0.7177015464554746,0.0,True,0.011255502700805664,-1.2050001621246338,-0.8299997448921204,-0.7177030444145203,0.0,0.0,0.0
1759840255.7476213,0,-1.2050001621246338,-0.8299997448921204,-0.7177016223728501,0.0,True,0.010228633880615234,-1.2050001621246338,-0.8299997448921204,-0.7177030444145203,0.0,0.0,0.0
1759840255.7581089,0,-1.2050001621246338,-0.8299997448921204,-0.7177016823140665,0.0,True,0.010487556457519531,-1.2050001621246338,-0.8299997448921204,-0.7177030444145203,0.0,0.0,0.0
1759840255.7685587,0,-1.2050001621246338,-0.8299997448921204,-0.717701736756883,0.0,True,0.010449886322021484,-1.2050001621246338,-0.8299997448921204,-0.7177030444145203,0.0,0.0,0.0
1759840255.7788217,0,-1.2050001621246338,-0.8299997448921204,-0.7177017914155357,0.0,True,0.01026296615600586,-1.2050001621246338,-0.8299997448921204,-0.7177030444145203,0.0,0.0,0.0
1759840255.7890942,0,-1.2050001621246338,-0.8299997448921204,-0.7177018404383819,0.0,True,0.010272502899169922,-1.2050001621246338,-0.8299997448921204,-0.7177030444145203,0.0,0.0,0.0
1759840255.800364,0,-1.2050001621246338,-0.8299997448921204,-0.7177018595726388,0.0,True,0.011269807815551758,-1.2050001621246338,-0.8299997448921204,-0.7177030444145203,0.0,0.0,0.0
1759840255.8118212,0,-1.2050001621246338,-0.8299997448921204,-0.7177018785496916,0.0,True,0.011457204818725586,-1.2050001621246338,-0.8299997448921204,-0.7177030444145203,0.0,0.0,0.0
1759840255.8220305,0,-1.2050001621246338,-0.8299997448921204,-0.717701933362644,0.0,True,0.010209321975708008,-1.2050001621246338,-0.8299997448921204,-0.7177030444145203,0.0,0.0,0.0
1759840255.8327727,0,-1.2050001621246338,-0.8299997448921204,-0.7177019712331258,0.0,True,0.0107421875,-1.2050001621246338,-0.8299997448921204,-0.7177030444145203,0.0,0.0,0.0
1759840255.8437371,0,-1.2050001621246338,-0.8299997448921204,-0.7177020019064688,0.0,True,0.010964393615722656,-1.2050001621246338,-0.8299997448921204,-0.7177030444145203,0.0,0.0,0.0
1759840255.854433,0,-1.2050001621246338,-0.8299997448921204,-0.7177020387567055,0.0,True,0.010695934295654297,-1.2050001621246338,-0.8299997448921204,-0.7177030444145203,0.0,0.0,0.0
1759840255.8651664,0,-1.2050001621246338,-0.8299997448921204,-0.7177020734835367,0.0,True,0.010733366012573242,-1.2050001621246338,-0.8299997448921204,-0.7177030444145203,0.0,0.0,0.0
1759840255.8753896,0,-1.2050001621246338,-0.8299997448921204,-0.7177021169474713,0.0,True,0.010223150253295898,-1.2050001621246338,-0.8299997448921204,-0.7177030444145203,0.0,0.0,0.0
1759840255.8865747,0,-1.2050001621246338,-0.8299997448921204,-0.7177021373516954,0.0,True,0.011185169219970703,-1.2050001621246338,-0.8299997448921204,-0.7177030444145203,0.0,0.0,0.0
1759840255.8979352,0,-1.2050001621246338,-0.8299997448921204,-0.7177021560569941,0.0,True,0.011360406875610352,-1.2050001621246338,-0.8299997448921204,-0.7177030444145203,0.0,0.0,0.0
1759840255.9080741,0,-1.2050001621246338,-0.8299997448921204,-0.7177022000297626,0.0,True,0.010138988494873047,-1.2050001621246338,-0.8299997448921204,-0.7177030444145203,0.0,0.0,0.0
1759840255.9192004,0,-1.2050001621246338,-0.8299997448921204,-0.7177022223337186,0.0,True,0.011126279830932617,-1.2050001621246338,-0.8299997448921204,-0.7177030444145203,0.0,0.0,0.0
1759840255.9294078,0,-1.2050001621246338,-0.8299997448921204,-0.7177022602415271,0.0,True,0.010207414627075195,-1.2050001621246338,-0.8299997448921204,-0.7177030444145203,0.0,0.0,0.0
1759840255.9400613,0,-1.2050001621246338,-0.8299997448921204,-0.7177022872205008,0.0,True,0.010653495788574219,-1.2050001621246338,-0.8299997448921204,-0.7177030444145203,0.0,0.0,0.0
1759840255.9512584,0,-1.2050001621246338,-0.8299997448921204,-0.7177023039245789,0.0,True,0.011197090148925781,-1.2050001621246338,-0.8299997448921204,-0.7177030444145203,0.0,0.0,0.0
1759840255.9624965,0,-1.2050001621246338,-0.8299997448921204,-0.7177023217613439,0.0,True,0.01123809814453125,-1.2050001621246338,-0.8299997448921204,-0.7177030444145203,0.0,0.0,0.0
1759840255.9727445,0,-1.2050001621246338,-0.8299997448921204,-0.7177023560088998,0.0,True,0.010247945785522461,-1.2050001621246338,-0.8299997448921204,-0.7177030444145203,0.0,0.0,0.0
1759840255.982944,0,-1.2050001621246338,-0.8299997448921204,-0.7177023876269715,0.0,True,0.010199546813964844,-1.2050001621246338,-0.8299997448921204,-0.7177030444145203,0.0,0.0,0.0
1759840255.998703,0,-1.2050001621246338,-0.8299997448921204,-0.7177023399254381,0.0,True,0.015758991241455078,-1.2050001621246338,-0.8299997448921204,-0.7177030444145203,0.0,0.0,0.0
1759840256.0043566,0,-1.2050001621246338,-0.8299997448921204,-0.7177024452193521,0.0,True,0.0056536197662353516,-1.2050001621246338,-0.8299997448921204,-0.7177030444145203,0.0,0.0,0.0
1759840256.0144012,0,-1.2050001621246338,-0.8299997448921204,-0.7177024737072148,0.0,True,0.010044574737548828,-1.2050001621246338,-0.8299997448921204,-0.7177030444145203,0.0,0.0,0.0
1759840256.0250235,0,-1.2050001621246338,-0.8299997448921204,-0.717702486912124,0.0,True,0.010622262954711914,-1.2050001621246338,-0.8299997448921204,-0.7177030444145203,0.0,0.0,0.0
1759840256.035731,0,-1.2050001621246338,-0.8299997448921204,-0.7177024993190315,0.0,True,0.010707616806030273,-1.2050001621246338,-0.8299997448921204,-0.7177030444145203,0.0,0.0,0.0
1759840256.0469959,0,-1.2050001621246338,-0.8299997448921204,-0.7177025065173801,0.0,True,0.011264801025390625,-1.2050001621246338,-0.8299997448921204,-0.7177030444145203,0.0,0.0,0.0
1759840256.057089,0,-1.2050001621246338,-0.8299997448921204,-0.7177025297590465,0.0,True,0.010093212127685547,-1.2050001621246338,-0.8299997448921204,-0.7177030444145203,0.0,0.0,0.0
1759840256.0673933,0,-1.2050001621246338,-0.8299997448921204,-0.7177025490590001,0.0,True,0.01030421257019043,-1.2050001621246338,-0.8299997448921204,-0.7177030444145203,0.0,0.0,0.0
1759840256.0788903,0,-1.2050001621246338,-0.8299997448921204,-0.7177025541686692,0.0,True,0.011497020721435547,-1.2050001621246338,-0.8299997448921204,-0.7177030444145203,0.0,0.0,0.0
1759840256.089885,0,-1.2050001621246338,-0.8299997448921204,-0.7177025670754276,0.0,True,0.010994672775268555,-1.2050001621246338,-0.8299997448921204,-0.7177030444145203,0.0,0.0,0.0
1759840256.1008706,0,-1.2050001621246338,-0.8299997448921204,-0.7177025812660229,0.0,True,0.010985612869262695,-1.2050001621246338,-0.8299997448921204,-0.7177030444145203,0.0,0.0,0.0
1759840256.1110256,0,-1.2050001621246338,-0.8299997448921204,-0.7177026035951002,0.0,True,0.010154962539672852,-1.2050001621246338,-0.8299997448921204,-0.7177030444145203,0.0,0.0,0.0
1759840256.1221945,0,-1.2050001621246338,-0.8299997448921204,-0.7177026142340033,0.0,True,0.011168956756591797,-1.2050001621246338,-0.8299997448921204,-0.7177030444145203,0.0,0.0,0.0
1759840256.132576,0,-1.2050001621246338,-0.8299997448921204,-0.7177026322147988,0.0,True,0.010381460189819336,-1.2050001621246338,-0.8299997448921204,-0.7177030444145203,0.0,0.0,0.0
1759840256.1428661,0,-1.2050001621246338,-0.8299997448921204,-0.7177026496750063,0.0,True,0.010290145874023438,-1.2050001621246338,-0.8299997448921204,-0.7177030444145203,0.0,0.0,0.0
1759840256.1531065,0,-1.2050001621246338,-0.8299997448921204,-0.7177026657575603,0.0,True,0.010240316390991211,-1.2050001621246338,-0.8299997448921204,-0.7177030444145203,0.0,0.0,0.0
1759840256.163478,0,-1.2050001621246338,-0.8299997448921204,-0.7177026791961651,0.0,True,0.01037144660949707,-1.2050001621246338,-0.8299997448921204,-0.7177030444145203,0.0,0.0,0.0
1759840256.174425,0,-1.2050001621246338,-0.8299997448921204,-0.7177026872348584,0.0,True,0.010946989059448242,-1.2050001621246338,-0.8299997448921204,-0.7177030444145203,0.0,0.0,0.0
1759840256.184584,0,-1.2050001621246338,-0.8299997448921204,-0.717702701883626,0.0,True,0.010159015655517578,-1.2050001621246338,-0.8299997448921204,-0.7177030444145203,0.0,0.0,0.0
1759840256.1979008,0,-1.2050001621246338,-0.8299997448921204,-0.7177026926990564,0.0,True,0.013316869735717773,-1.2050001621246338,-0.8299997448921204,-0.7177030444145203,0.0,0.0,0.0
1759840256.205071,0,-1.2050001621246338,-0.8299997448921204,-0.7177027321751588,0.0,True,0.007170200347900391,-1.2050001621246338,-0.8299997448921204,-0.7177030444145203,0.0,0.0,0.0
1759840256.2153041,0,-1.2050001621246338,-0.8299997448921204,-0.7177027434497933,0.0,True,0.010233163833618164,-1.2050001621246338,-0.8299997448921204,-0.7177030444145203,0.0,0.0,0.0
1759840256.2261744,0,-1.2050001621246338,-0.8299997448921204,-0.7177027481466887,0.0,True,0.010870218276977539,-1.2050001621246338,-0.8299997448921204,-0.7177030444145203,0.0,0.0,0.0
1759840256.2375576,0,-1.2050001621246338,-0.8299997448921204,-0.7177027505965725,0.0,True,0.011383295059204102,-1.2050001621246338,-0.8299997448921204,-0.7177030444145203,0.0,0.0,0.0
1759840256.2481222,0,-1.2050001621246338,-0.8299997448921204,-0.7177027601915427,0.0,True,0.010564565658569336,-1.2050001621246338,-0.8299997448921204,-0.7177030444145203,0.0,0.0,0.0
1759840256.2595384,0,-1.2050001621246338,-0.8299997448921204,-0.7177027648774725,0.0,True,0.011416196823120117,-1.2050001621246338,-0.8299997448921204,-0.7177030444145203,0.0,0.0,0.0
1759840256.270917,0,-1.2050001621246338,-0.8299997448921204,-0.7177027709705577,0.0,True,0.01137852668762207,-1.2050001621246338,-0.8299997448921204,-0.7177030444145203,0.0,0.0,0.0
1759840256.2810423,0,-1.2050001621246338,-0.8299997448921204,-0.7177027850049615,0.0,True,0.010125398635864258,-1.2050001621246338,-0.8299997448921204,-0.7177030444145203,0.0,0.0,0.0
1759840256.2912648,0,-1.2050001621246338,-0.8299997448921204,-0.717702797003934,0.0,True,0.010222434997558594,-1.2050001621246338,-0.8299997448921204,-0.7177030444145203,0.0,0.0,0.0
1759840256.301993,0,-1.2050001621246338,-0.8299997448921204,-0.7177028048404104,0.0,True,0.010728120803833008,-1.2050001621246338,-0.8299997448921204,-0.7177030444145203,0.0,0.0,0.0
1759840256.312716,0,-1.2050001621246338,-0.8299997448921204,-0.7177028123537497,0.0,True,0.010723114013671875,-1.2050001621246338,-0.8299997448921204,-0.7177030444145203,0.0,0.0,0.0
1759840256.322847,0,-1.2050001621246338,-0.8299997448921204,-0.7177028226221402,0.0,True,0.010130882263183594,-1.2050001621246338,-0.8299997448921204,-0.7177030444145203,0.0,0.0,0.0
1759840256.334183,0,-1.2050001621246338,-0.8299997448921204,-0.7177028262540759,0.0,True,0.011336088180541992,-1.2050001621246338,-0.8299997448921204,-0.7177030444145203,0.0,0.0,0.0
1759840256.3453176,0,-1.2050001621246338,-0.8299997448921204,-0.717702831535254,0.0,True,0.011134624481201172,-1.2050001621246338,-0.8299997448921204,-0.7177030444145203,0.0,0.0,0.0
1759840256.356165,0,-1.2050001621246338,-0.8299997448921204,-0.7177028386761748,0.0,True,0.010847330093383789,-1.2050001621246338,-0.8299997448921204,-0.7177030444145203,0.0,0.0,0.0
1759840256.3673084,0,-1.2050001621246338,-0.8299997448921204,-0.7177028444995006,0.0,True,0.01114344596862793,-1.2050001621246338,-0.8299997448921204,-0.7177030444145203,0.0,0.0,0.0
1759840256.378358,0,-1.2050001621246338,-0.8299997448921204,-0.717702850858803,0.0,True,0.011049509048461914,-1.2050001621246338,-0.8299997448921204,-0.7177030444145203,0.0,0.0,0.0
1759840256.3896713,0,-1.2050001621246338,-0.8299997448921204,-0.7177028562056478,0.0,True,0.011313438415527344,-1.2050001621246338,-0.8299997448921204,-0.7177030444145203,0.0,0.0,0.0
1759840256.3999307,0,-1.2050001621246338,-0.8299997448921204,-0.7177028657494535,0.0,True,0.010259389877319336,-1.2050001621246338,-0.8299997448921204,-0.7177030444145203,0.0,0.0,0.0
1759840256.4106,0,-1.2050001621246338,-0.8299997448921204,-0.7177028727418211,0.0,True,0.010669231414794922,-1.2050001621246338,-0.8299997448921204,-0.7177030444145203,0.0,0.0,0.0
1759840256.4217222,0,-1.2050001621246338,-0.8299997448921204,-0.7177028774888186,0.0,True,0.01112222671508789,-1.2050001621246338,-0.8299997448921204,-0.7177030444145203,0.0,0.0,0.0
1759840256.4320056,0,-1.2050001621246338,-0.8299997448921204,-0.7177028851677179,0.0,True,0.010283470153808594,-1.2050001621246338,-0.8299997448921204,-0.7177030444145203,0.0,0.0,0.0
1759840256.4424007,0,-1.2050001621246338,-0.8299997448921204,-0.7177028917414461,0.0,True,0.010395050048828125,-1.2050001621246338,-0.8299997448921204,-0.7177030444145203,0.0,0.0,0.0
1759840256.4535978,0,-1.2050001621246338,-0.8299997448921204,-0.7177028950911115,0.0,True,0.011197090148925781,-1.2050001621246338,-0.8299997448921204,-0.7177030444145203,0.0,0.0,0.0
1759840256.4645643,0,-1.2050001621246338,-0.8299997448921204,-0.7177028994368175,0.0,True,0.01096653938293457,-1.2050001621246338,-0.8299997448921204,-0.7177030444145203,0.0,0.0,0.0
1759840256.4751234,0,-1.2050001621246338,-0.8299997448921204,-0.7177029051350559,0.0,True,0.01055908203125,-1.2050001621246338,-0.8299997448921204,-0.7177030444145203,0.0,0.0,0.0
1759840256.4854572,0,-1.2050001621246338,-0.8299997448921204,-0.7177029111152713,0.0,True,0.010333776473999023,-1.2050001621246338,-0.8299997448921204,-0.7177030444145203,0.0,0.0,0.0
1759840256.4966583,0,-1.2050001621246338,-0.8299997448921204,-0.7177029140916034,0.0,True,0.011201143264770508,-1.2050001621246338,-0.8299997448921204,-0.7177030444145203,0.0,0.0,0.0
1759840256.5072653,0,-1.2050001621246338,-0.8299997448921204,-0.7177029188821162,0.0,True,0.010607004165649414,-1.2050001621246338,-0.8299997448921204,-0.7177030444145203,0.0,0.0,0.0
1759840256.517567,0,-1.2050001621246338,-0.8299997448921204,-0.7177029242794966,0.0,True,0.010301589965820312,-1.2050001621246338,-0.8299997448921204,-0.7177030444145203,0.0,0.0,0.0
1759840256.5281136,0,-1.2050001621246338,-0.8299997448921204,-0.7177029285350223,0.0,True,0.010546684265136719,-1.2050001621246338,-0.8299997448921204,-0.7177030444145203,0.0,0.0,0.0
1759840256.538899,0,-1.2050001621246338,-0.8299997448921204,-0.7177029319229682,0.0,True,0.010785341262817383,-1.2050001621246338,-0.8299997448921204,-0.7177030444145203,0.0,0.0,0.0
1759840256.549893,0,-1.2050001621246338,-0.8299997448921204,-0.7177029348116086,0.0,True,0.01099395751953125,-1.2050001621246338,-0.8299997448921204,-0.7177030444145203,0.0,0.0,0.0
1759840256.5603986,0,-1.2050001621246338,-0.8299997448921204,-0.7177029389654255,0.0,True,0.01050567626953125,-1.2050001621246338,-0.8299997448921204,-0.7177030444145203,0.0,0.0,0.0
1759840256.570547,0,-1.2050001621246338,-0.8299997448921204,-0.717702943681445,0.0,True,0.01014852523803711,-1.2050001621246338,-0.8299997448921204,-0.7177030444145203,0.0,0.0,0.0
1759840256.581331,0,-1.2050001621246338,-0.8299997448921204,-0.7177029465364484,0.0,True,0.010783910751342773,-1.2050001621246338,-0.8299997448921204,-0.7177030444145203,0.0,0.0,0.0
1759840256.5921316,0,-1.2050001621246338,-0.8299997448921204,-0.7177029493122316,0.0,True,0.010800600051879883,-1.2050001621246338,-0.8299997448921204,-0.7177030444145203,0.0,0.0,0.0
1759840256.6027324,0,-1.2050001621246338,-0.8299997448921204,-0.7177029525403658,0.0,True,0.010600805282592773,-1.2050001621246338,-0.8299997448921204,-0.7177030444145203,0.0,0.0,0.0
1759840256.6134458,0,-1.2050001621246338,-0.8299997448921204,-0.7177029554527152,0.0,True,0.010713338851928711,-1.2050001621246338,-0.8299997448921204,-0.7177030444145203,0.0,0.0,0.0
1759840256.6247926,0,-1.2050001621246338,-0.8299997448921204,-0.7177029571322429,0.0,True,0.011346817016601562,-1.2050001621246338,-0.8299997448921204,-0.7177030444145203,0.0,0.0,0.0
1759840256.6360219,0,-1.2050001621246338,-0.8299997448921204,-0.7177029593315787,0.0,True,0.011229276657104492,-1.2050001621246338,-0.8299997448921204,-0.7177030444145203,0.0,0.0,0.0
1759840256.646282,0,-1.2050001621246338,-0.8299997448921204,-0.7177029634136591,0.0,True,0.01026010513305664,-1.2050001621246338,-0.8299997448921204,-0.7177030444145203,0.0,0.0,0.0
1759840256.6576436,0,-1.2050001621246338,-0.8299997448921204,-0.7177029652581552,0.0,True,0.01136159896850586,-1.2050001621246338,-0.8299997448921204,-0.7177030444145203,0.0,0.0,0.0
1759840256.668354,0,-1.2050001621246338,-0.8299997448921204,-0.7177029682668739,0.0,True,0.010710477828979492,-1.2050001621246338,-0.8299997448921204,-0.7177030444145203,0.0,0.0,0.0
1759840256.6784394,0,-1.2050001621246338,-0.8299997448921204,-0.7177029721164061,0.0,True,0.010085344314575195,-1.2050001621246338,-0.8299997448921204,-0.7177030444145203,0.0,0.0,0.0
1759840256.6895154,0,-1.2050001621246338,-0.8299997448921204,-0.7177029739902707,0.0,True,0.011075973510742188,-1.2050001621246338,-0.8299997448921204,-0.7177030444145203,0.0,0.0,0.0
1759840256.7002833,0,-1.2050001621246338,-0.8299997448921204,-0.7177029763215828,0.0,True,0.010767936706542969,-1.2050001621246338,-0.8299997448921204,-0.7177030444145203,0.0,0.0,0.0
1759840256.711055,0,-1.2050001621246338,-0.8299997448921204,-0.7177029786116673,0.0,True,0.010771751403808594,-1.2050001621246338,-0.8299997448921204,-0.7177030444145203,0.0,0.0,0.0
1759840256.721778,0,-1.2050001621246338,-0.8299997448921204,-0.7177029808948792,0.0,True,0.010722875595092773,-1.2050001621246338,-0.8299997448921204,-0.7177030444145203,0.0,0.0,0.0
1759840256.7324595,0,-1.2050001621246338,-0.8299997448921204,-0.7177029831377642,0.0,True,0.010681629180908203,-1.2050001621246338,-0.8299997448921204,-0.7177030444145203,0.0,0.0,0.0
1759840256.7434537,0,-1.2050001621246338,-0.8299997448921204,-0.717702984878013,0.0,True,0.010994195938110352,-1.2050001621246338,-0.8299997448921204,-0.7177030444145203,0.0,0.0,0.0
1759840256.754471,0,-1.2050001621246338,-0.8299997448921204,-0.7177029866138191,0.0,True,0.011017322540283203,-1.2050001621246338,-0.8299997448921204,-0.7177030444145203,0.0,0.0,0.0
1759840256.765404,0,-1.2050001621246338,-0.8299997448921204,-0.7177029884873534,0.0,True,0.01093292236328125,-1.2050001621246338,-0.8299997448921204,-0.7177030444145203,0.0,0.0,0.0
1759840256.775931,0,-1.2050001621246338,-0.8299997448921204,-0.7177029908030406,0.0,True,0.010526895523071289,-1.2050001621246338,-0.8299997448921204,-0.7177030444145203,0.0,0.0,0.0
1759840256.7877507,0,-1.2050001621246338,-0.8299997448921204,-0.7177029915179407,0.0,True,0.011819839477539062,-1.2050001621246338,-0.8299997448921204,-0.7177030444145203,0.0,0.0,0.0
1759840256.8045506,0,-1.2050001621246338,-0.8299997448921204,-0.7177029873474616,0.0,True,0.0167999267578125,-1.2050001621246338,-0.8299997448921204,-0.7177030444145203,0.0,0.0,0.0
1759840256.809257,0,-1.2050001621246338,-0.8299997448921204,-0.717702997243105,0.0,True,0.004706382751464844,-1.2050001621246338,-0.8299997448921204,-0.7177030444145203,0.0,0.0,0.0
1759840256.8200436,0,-1.2050001621246338,-0.8299997448921204,-0.7177029991143371,0.0,True,0.01078653335571289,-1.2050001621246338,-0.8299997448921204,-0.7177030444145203,0.0,0.0,0.0
1759840256.8307393,0,-1.2050001621246338,-0.8299997448921204,-0.7177030004746889,0.0,True,0.010695695877075195,-1.2050001621246338,-0.8299997448921204,-0.7177030444145203,0.0,0.0,0.0
1759840256.841576,0,-1.2050001621246338,-0.8299997448921204,-0.7177030016708343,0.0,True,0.01083683967590332,-1.2050001621246338,-0.8299997448921204,-0.7177030444145203,0.0,0.0,0.0
1759840256.852229,0,-1.2050001621246338,-0.8299997448921204,-0.7177030030624465,0.0,True,0.010653018951416016,-1.2050001621246338,-0.8299997448921204,-0.7177030444145203,0.0,0.0,0.0
1759840256.8629398,0,-1.2050001621246338,-0.8299997448921204,-0.7177030043767925,0.0,True,0.010710716247558594,-1.2050001621246338,-0.8299997448921204,-0.7177030444145203,0.0,0.0,0.0
1759840256.8729582,0,-1.2050001621246338,-0.8299997448921204,-0.7177030062391019,0.0,True,0.010018348693847656,-1.2050001621246338,-0.8299997448921204,-0.7177030444145203,0.0,0.0,0.0
1759840256.883413,0,-1.2050001621246338,-0.8299997448921204,-0.7177030075435376,0.0,True,0.010454893112182617,-1.2050001621246338,-0.8299997448921204,-0.7177030444145203,0.0,0.0,0.0
1759840256.894488,0,-1.2050001621246338,-0.8299997448921204,-0.7177030082696838,0.0,True,0.011075019836425781,-1.2050001621246338,-0.8299997448921204,-0.7177030444145203,0.0,0.0,0.0
1759840256.9178016,0,-1.2050001621246338,-0.8299997448921204,-0.7177030002123761,0.0,True,0.023313522338867188,-1.2050001621246338,-0.8299997448921204,-0.7177030444145203,0.0,0,0
1759840256.9291933,0,-1.2050001621246338,-0.8299997448921204,-0.7177030035775367,0.0,True,0.011391639709472656,-1.2050001621246338,-0.8299997448921204,-0.7177030444145203,0.0,0,0
1759840256.9393098,0,-1.2050001621246338,-0.8299997448921204,-0.7177030077642819,0.0,True,0.0101165771484375,-1.2050001621246338,-0.8299997448921204,-0.7177030444145203,0.0,0,0
1759840256.94942,0,-1.2050001621246338,-0.8299997448921204,-0.7177030110224738,0.0,True,0.010110139846801758,-1.2050001621246338,-0.8299997448921204,-0.7177030444145203,0.0,0,0
1759840256.959581,0,-1.2050001621246338,-0.8299997448921204,-0.7177030134888476,0.0,True,0.01016092300415039,-1.2050001621246338,-0.8299997448921204,-0.7177030444145203,0.0,0,0
1759840256.970594,0,-1.2050001621246338,-0.8299997448921204,-0.7177030149200316,0.0,True,0.011013031005859375,-1.2050001621246338,-0.8299997448921204,-0.7177030444145203,0.0,0,0
1759840256.981574,0,-1.2050001621246338,-0.8299997448921204,-0.7177030161589002,0.0,True,0.01098012924194336,-1.2050001621246338,-0.8299997448921204,-0.7177030444145203,0.0,0,0
1759840256.9927688,0,-1.2050001621246338,-0.8299997448921204,-0.7177030171602432,0.0,True,0.011194705963134766,-1.2050001621246338,-0.8299997448921204,-0.7177030444145203,0.0,0,0
1759840257.006664,0,-1.2050001621246338,-0.8299997448921204,-0.7177030166724645,0.0,True,0.013895273208618164,-1.2050001621246338,-0.8299997448921204,-0.7177030444145203,0.0,0,0
1759840257.0178063,0,-1.2050001621246338,-0.8299997448921204,-0.717703018022787,0.0,True,0.011142253875732422,-1.2050001621246338,-0.8299997448921204,-0.7177030444145203,0.0,0,0
1759840257.0290384,0,-1.2050001621246338,-0.8299997448921204,-0.7177030192785026,0.0,True,0.011232137680053711,-1.2050001621246338,-0.8299997448921204,-0.7177030444145203,0.0,0,0
1759840257.0398471,0,-1.2050001621246338,-0.8299997448921204,-0.7177030205956036,0.0,True,0.010808706283569336,-1.2050001621246338,-0.8299997448921204,-0.7177030444145203,0.0,0,0
1759840257.0510323,0,-1.2050001621246338,-0.8299997448921204,-0.7177030215647591,0.0,True,0.011185169219970703,-1.2050001621246338,-0.8299997448921204,-0.7177030444145203,0.0,0,0
1759840257.0621183,0,-1.2050001621246338,-0.8299997448921204,-0.7177030224863117,0.0,True,0.011085987091064453,-1.2050001621246338,-0.8299997448921204,-0.7177030444145203,0.0,0,0
1759840257.0731032,0,-1.2050001621246338,-0.8299997448921204,-0.7177030233794284,0.0,True,0.01098489761352539,-1.2050001621246338,-0.8299997448921204,-0.7177030444145203,0.0,0,0
1759840257.084282,0,-1.2050001621246338,-0.8299997448921204,-0.7177030241190003,0.0,True,0.011178731918334961,-1.2050001621246338,-0.8299997448921204,-0.7177030444145203,0.0,0,0
1759840257.0956182,0,-1.2050001621246338,-0.8299997448921204,-0.7177030247593166,0.0,True,0.011336326599121094,-1.2050001621246338,-0.8299997448921204,-0.7177030444145203,0.0,0,0
1759840257.1063893,0,-1.2050001621246338,-0.8299997448921204,-0.717703025612531,0.0,True,0.010771036148071289,-1.2050001621246338,-0.8299997448921204,-0.7177030444145203,0.0,0,0
1759840257.117111,0,-1.2050001621246338,-0.8299997448921204,-0.7177030264113533,0.0,True,0.010721683502197266,-1.2050001621246338,-0.8299997448921204,-0.7177030444145203,0.0,0,0
1759840257.1271927,0,-1.2050001621246338,-0.8299997448921204,-0.717703027362429,0.0,True,0.010081768035888672,-1.2050001621246338,-0.8299997448921204,-0.7177030444145203,0.0,0,0
1759840257.1385102,0,-1.2050001621246338,-0.8299997448921204,-0.7177030277445553,0.0,True,0.01131749153137207,-1.2050001621246338,-0.8299997448921204,-0.7177030444145203,0.0,0,0
1759840257.1497684,0,-1.2050001621246338,-0.8299997448921204,-0.7177030281622692,0.0,True,0.011258125305175781,-1.2050001621246338,-0.8299997448921204,-0.7177030444145203,0.0,0,0
1759840257.1600654,0,-1.2050001621246338,-0.8299997448921204,-0.7177030289290904,0.0,True,0.010297060012817383,-1.2050001621246338,-0.8299997448921204,-0.7177030444145203,0.0,0,0
1759840257.1708055,0,-1.2050001621246338,-0.8299997448921204,-0.7177030294781304,0.0,True,0.010740041732788086,-1.2050001621246338,-0.8299997448921204,-0.7177030444145203,0.0,0,0
1759840257.181507,0,-1.2050001621246338,-0.8299997448921204,-0.7177030299977059,0.0,True,0.010701656341552734,-1.2050001621246338,-0.8299997448921204,-0.7177030444145203,0.0,0,0
1759840257.192152,0,-1.2050001621246338,-0.8299997448921204,-0.7177030305071916,0.0,True,0.010644912719726562,-1.2050001621246338,-0.8299997448921204,-0.7177030444145203,0.0,0,0
1759840257.203793,0,-1.2050001621246338,-0.8299997448921204,-0.7177030307025696,0.0,True,0.01164102554321289,-1.2050001621246338,-0.8299997448921204,-0.7177030444145203,0.0,0,0
1759840257.215134,0,-1.2050001621246338,-0.8299997448921204,-0.7177030310450352,0.0,True,0.011340856552124023,-1.2050001621246338,-0.8299997448921204,-0.7177030444145203,0.0,0,0
1759840257.2258427,0,-1.2050001621246338,-0.8299997448921204,-0.7177030315940112,0.0,True,0.010708808898925781,-1.2050001621246338,-0.8299997448921204,-0.7177030444145203,0.0,0,0
1759840257.2370174,0,-1.2050001621246338,-0.8299997448921204,-0.7177030319867974,0.0,True,0.011174678802490234,-1.2050001621246338,-0.8299997448921204,-0.7177030444145203,0.0,0,0
1759840257.2480953,0,-1.2050001621246338,-0.8299997448921204,-0.7177030323974591,0.0,True,0.011077880859375,-1.2050001621246338,-0.8299997448921204,-0.7177030444145203,0.0,0,0
1759840257.2593217,0,-1.2050001621246338,-0.8299997448921204,-0.7177030327653977,0.0,True,0.011226415634155273,-1.2050001621246338,-0.8299997448921204,-0.7177030444145203,0.0,0,0
1759840257.269593,0,-1.2050001621246338,-0.8299997448921204,-0.7177030333559742,0.0,True,0.010271310806274414,-1.2050001621246338,-0.8299997448921204,-0.7177030444145203,0.0,0,0
1759840257.2801309,0,-1.2050001621246338,-0.8299997448921204,-0.7177030338173793,0.0,True,0.010537862777709961,-1.2050001621246338,-0.8299997448921204,-0.7177030444145203,0.0,0,0
1759840257.291523,0,-1.2050001621246338,-0.8299997448921204,-0.7177030340417883,0.0,True,0.01139211654663086,-1.2050001621246338,-0.8299997448921204,-0.7177030444145203,0.0,0,0
1759840257.303063,0,-1.2050001621246338,-0.8299997448921204,-0.7177030342580206,0.0,True,0.011539936065673828,-1.2050001621246338,-0.8299997448921204,-0.7177030444145203,0.0,0,0
1759840257.3142743,0,-1.2050001621246338,-0.8299997448921204,-0.7177030345787934,0.0,True,0.011211395263671875,-1.2050001621246338,-0.8299997448921204,-0.7177030444145203,0.0,0,0
1759840257.325138,0,-1.2050001621246338,-0.8299997448921204,-0.7177030349731339,0.0,True,0.010863780975341797,-1.2050001621246338,-0.8299997448921204,-0.7177030444145203,0.0,0,0
1759840257.3361292,0,-1.2050001621246338,-0.8299997448921204,-0.7177030353175269,0.0,True,0.010991096496582031,-1.2050001621246338,-0.8299997448921204,-0.7177030444145203,0.0,0,0
1759840257.3464298,0,-1.2050001621246338,-0.8299997448921204,-0.7177030357678351,0.0,True,0.010300636291503906,-1.2050001621246338,-0.8299997448921204,-0.7177030444145203,0.0,0,0
1759840257.3576236,0,-1.2050001621246338,-0.8299997448921204,-0.7177030360065473,0.0,True,0.01119375228881836,-1.2050001621246338,-0.8299997448921204,-0.7177030444145203,0.0,0,0
1759840257.3682823,0,-1.2050001621246338,-0.8299997448921204,-0.717703036334477,0.0,True,0.010658740997314453,-1.2050001621246338,-0.8299997448921204,-0.7177030444145203,0.0,0,0
1759840257.379706,0,-1.2050001621246338,-0.8299997448921204,-0.7177030365168164,0.0,True,0.011423587799072266,-1.2050001621246338,-0.8299997448921204,-0.7177030444145203,0.0,0,0
1759840257.390988,0,-1.2050001621246338,-0.8299997448921204,-0.7177030367379764,0.0,True,0.011282205581665039,-1.2050001621246338,-0.8299997448921204,-0.7177030444145203,0.0,0,0
1759840257.4089866,0,-1.2050001621246338,-0.8299997448921204,-0.7177030359659007,0.0,True,0.017998456954956055,-1.2050001621246338,-0.8299997448921204,-0.7177030444145203,0.0,0,0
1759840257.420139,0,-1.2050001621246338,-0.8299997448921204,-0.7177030365157453,0.0,True,0.011152505874633789,-1.2050001621246338,-0.8299997448921204,-0.7177030444145203,0.0,0,0
1759840257.4313674,0,-1.2050001621246338,-0.8299997448921204,-0.7177030370375022,0.0,True,0.011228322982788086,-1.2050001621246338,-0.8299997448921204,-0.7177030444145203,0.0,0,0
1759840257.44208,0,-1.2050001621246338,-0.8299997448921204,-0.7177030375390565,0.0,True,0.010712623596191406,-1.2050001621246338,-0.8299997448921204,-0.7177030444145203,0.0,0,0
1759840257.4521623,0,-1.2050001621246338,-0.8299997448921204,-0.7177030380309581,0.0,True,0.010082244873046875,-1.2050001621246338,-0.8299997448921204,-0.7177030444145203,0.0,0,0
1759840257.463562,0,-1.2050001621246338,-0.8299997448921204,-0.7177030382639629,0.0,True,0.01139974594116211,-1.2050001621246338,-0.8299997448921204,-0.7177030444145203,0.0,0,0
1759840257.4745965,0,-1.2050001621246338,-0.8299997448921204,-0.7177030385166958,0.0,True,0.011034488677978516,-1.2050001621246338,-0.8299997448921204,-0.7177030444145203,0.0,0,0
1759840257.4857562,0,-1.2050001621246338,-0.8299997448921204,-0.7177030387357721,0.0,True,0.011159658432006836,-1.2050001621246338,-0.8299997448921204,-0.7177030444145203,0.0,0,0
1759840257.4971972,0,-1.2050001621246338,-0.8299997448921204,-0.7177030389102264,0.0,True,0.01144099235534668,-1.2050001621246338,-0.8299997448921204,-0.7177030444145203,0.0,0,0
1759840257.5086164,0,-1.2050001621246338,-0.8299997448921204,-0.7177030390868229,0.0,True,0.011419296264648438,-1.2050001621246338,-0.8299997448921204,-0.7177030444145203,0.0,0,0
1759840257.5200462,0,-1.2050001621246338,-0.8299997448921204,-0.7177030392622772,0.0,True,0.011429786682128906,-1.2050001621246338,-0.8299997448921204,-0.7177030444145203,0.0,0,0
1759840257.5312834,0,-1.2050001621246338,-0.8299997448921204,-0.7177030394553956,0.0,True,0.011237144470214844,-1.2050001621246338,-0.8299997448921204,-0.7177030444145203,0.0,0,0
1759840257.5425913,0,-1.2050001621246338,-0.8299997448921204,-0.7177030396327382,0.0,True,0.011307954788208008,-1.2050001621246338,-0.8299997448921204,-0.7177030444145203,0.0,0,0
1759840257.5534873,0,-1.2050001621246338,-0.8299997448921204,-0.7177030398410018,0.0,True,0.010895967483520508,-1.2050001621246338,-0.8299997448921204,-0.7177030444145203,0.0,0,0
1759840257.563654,0,-1.2050001621246338,-0.8299997448921204,-0.7177030400966373,0.0,True,0.010166645050048828,-1.2050001621246338,-0.8299997448921204,-0.7177030444145203,0.0,0,0
1759840257.5739098,0,-1.2050001621246338,-0.8299997448921204,-0.7177030403068922,0.0,True,0.010255813598632812,-1.2050001621246338,-0.8299997448921204,-0.7177030444145203,0.0,0,0
1759840257.5847867,0,-1.2050001621246338,-0.8299997448921204,-0.7177030404338112,0.0,True,0.010876893997192383,-1.2050001621246338,-0.8299997448921204,-0.7177030444145203,0.0,0,0
1759840257.5958154,0,-1.2050001621246338,-0.8299997448921204,-0.7177030405421458,0.0,True,0.011028766632080078,-1.2050001621246338,-0.8299997448921204,-0.7177030444145203,0.0,0,0
1759840257.6073403,0,-1.2050001621246338,-0.8299997448921204,-0.7177030406141878,0.0,True,0.01152491569519043,-1.2050001621246338,-0.8299997448921204,-0.7177030444145203,0.0,0,0
1759840257.6188776,0,-1.2050001621246338,-0.8299997448921204,-0.7177030406999112,0.0,True,0.011537313461303711,-1.2050001621246338,-0.8299997448921204,-0.7177030444145203,0.0,0,0
1759840257.6300328,0,-1.2050001621246338,-0.8299997448921204,-0.7177030408263327,0.0,True,0.011155128479003906,-1.2050001621246338,-0.8299997448921204,-0.7177030444145203,0.0,0,0
1759840257.6409643,0,-1.2050001621246338,-0.8299997448921204,-0.7177030409675673,0.0,True,0.01093149185180664,-1.2050001621246338,-0.8299997448921204,-0.7177030444145203,0.0,0,0
1759840257.6524756,0,-1.2050001621246338,-0.8299997448921204,-0.7177030410598526,0.0,True,0.01151132583618164,-1.2050001621246338,-0.8299997448921204,-0.7177030444145203,0.0,0,0
1759840257.662675,0,-1.2050001621246338,-0.8299997448921204,-0.7177030412422063,0.0,True,0.010199308395385742,-1.2050001621246338,-0.8299997448921204,-0.7177030444145203,0.0,0,0
1759840257.6734285,0,-1.2050001621246338,-0.8299997448921204,-0.7177030413663985,0.0,True,0.010753631591796875,-1.2050001621246338,-0.8299997448921204,-0.7177030444145203,0.0,0,0
1759840257.683513,0,-1.2050001621246338,-0.8299997448921204,-0.717703041519453,0.0,True,0.010084390640258789,-1.2050001621246338,-0.8299997448921204,-0.7177030444145203,0.0,0,0
1759840257.693967,0,-1.2050001621246338,-0.8299997448921204,-0.7177030416302621,0.0,True,0.010454177856445312,-1.2050001621246338,-0.8299997448921204,-0.7177030444145203,0.0,0,0
1759840257.705364,0,-1.2050001621246338,-0.8299997448921204,-0.7177030416749961,0.0,True,0.01139688491821289,-1.2050001621246338,-0.8299997448921204,-0.7177030444145203,0.0,0,0
1759840257.7167459,0,-1.2050001621246338,-0.8299997448921204,-0.7177030417306156,0.0,True,0.011381864547729492,-1.2050001621246338,-0.8299997448921204,-0.7177030444145203,0.0,0,0
1759840257.72742,0,-1.2050001621246338,-0.8299997448921204,-0.717703041835188,0.0,True,0.010674238204956055,-1.2050001621246338,-0.8299997448921204,-0.7177030444145203,0.0,0,0
1759840257.7382493,0,-1.2050001621246338,-0.8299997448921204,-0.7177030419265229,0.0,True,0.01082921028137207,-1.2050001621246338,-0.8299997448921204,-0.7177030444145203,0.0,0,0
1759840257.7486365,0,-1.2050001621246338,-0.8299997448921204,-0.7177030420352093,0.0,True,0.010387182235717773,-1.2050001621246338,-0.8299997448921204,-0.7177030444145203,0.0,0,0
1759840257.758727,0,-1.2050001621246338,-0.8299997448921204,-0.7177030421477433,0.0,True,0.01009058952331543,-1.2050001621246338,-0.8299997448921204,-0.7177030444145203,0.0,0,0
1759840257.7699385,0,-1.2050001621246338,-0.8299997448921204,-0.7177030421925075,0.0,True,0.011211395263671875,-1.2050001621246338,-0.8299997448921204,-0.7177030444145203,0.0,0,0
1759840257.7810166,0,-1.2050001621246338,-0.8299997448921204,-0.7177030422477522,0.0,True,0.011078119277954102,-1.2050001621246338,-0.8299997448921204,-0.7177030444145203,0.0,0,0
1759840257.7911878,0,-1.2050001621246338,-0.8299997448921204,-0.7177030423480879,0.0,True,0.010171175003051758,-1.2050001621246338,-0.8299997448921204,-0.7177030444145203,0.0,0,0
1759840257.8059437,0,-1.2050001621246338,-0.8299997448921204,-0.7177030422432775,0.0,True,0.014755964279174805,-1.2050001621246338,-0.8299997448921204,-0.7177030444145203,0.0,0,0
1759840257.8121953,0,-1.2050001621246338,-0.8299997448921204,-0.7177030425386732,0.0,True,0.00625157356262207,-1.2050001621246338,-0.8299997448921204,-0.7177030444145203,0.0,0,0
1759840257.8233998,0,-1.2050001621246338,-0.8299997448921204,-0.7177030425773996,0.0,True,0.01120448112487793,-1.2050001621246338,-0.8299997448921204,-0.7177030444145203,0.0,0,0
1759840257.833664,0,-1.2050001621246338,-0.8299997448921204,-0.7177030426442457,0.0,True,0.010264158248901367,-1.2050001621246338,-0.8299997448921204,-0.7177030444145203,0.0,0,0
1759840257.8451505,0,-1.2050001621246338,-0.8299997448921204,-0.7177030426619382,0.0,True,0.011486530303955078,-1.2050001621246338,-0.8299997448921204,-0.7177030444145203,0.0,0,0
1759840257.8562624,0,-1.2050001621246338,-0.8299997448921204,-0.7177030427028477,0.0,True,0.011111974716186523,-1.2050001621246338,-0.8299997448921204,-0.7177030444145203,0.0,0,0
1759840257.867271,0,-1.2050001621246338,-0.8299997448921204,-0.717703042753044,0.0,True,0.011008501052856445,-1.2050001621246338,-0.8299997448921204,-0.7177030444145203,0.0,0,0
1759840257.878578,0,-1.2050001621246338,-0.8299997448921204,-0.717703042794593,0.0,True,0.011307001113891602,-1.2050001621246338,-0.8299997448921204,-0.7177030444145203,0.0,0,0
1759840257.8897846,0,-1.2050001621246338,-0.8299997448921204,-0.7177030428426328,0.0,True,0.011206626892089844,-1.2050001621246338,-0.8299997448921204,-0.7177030444145203,0.0,0,0
1759840257.9002376,0,-1.2050001621246338,-0.8299997448921204,-0.7177030429157742,0.0,True,0.010452985763549805,-1.2050001621246338,-0.8299997448921204,-0.7177030444145203,0.0,0,0
1759840257.9118025,0,-1.2050001621246338,-0.8299997448921204,-0.7177030429480133,0.0,True,0.011564970016479492,-1.2050001621246338,-0.8299997448921204,-0.7177030444145203,0.0,0.5235987755982988,0.030170490409084257
1759840257.9224832,0,-1.2050001621246338,-0.8299997448921204,-0.7177030430092284,0.0,True,0.010680675506591797,-1.2050001621246338,-0.8299997448921204,-0.7177030444145203,0.0,0.5235987755982988,0.029516511667894926
1759840257.9338036,0,-1.2050001621246338,-0.8299997448921204,-0.7177030430485587,0.0,True,0.011320352554321289,-1.2050001621246338,-0.8299997448921204,-0.7177030444145203,0.0,0.5235987755982988,0.03026273079611904
1759840257.9447532,0,-1.2050001621246338,-0.8299997448921204,-0.717703043098588,0.0,True,0.01094961166381836,-1.2050001621246338,-0.8299997448921204,-0.7177030444145203,0.0,0.5235987755982988,0.029690327528715896
1759840257.9560235,0,-1.2050001621246338,-0.8299997448921204,-0.7177030431383074,0.0,True,0.011270284652709961,-1.2050001621246338,-0.8299997448921204,-0.7177030444145203,0.0,0.5235987755982988,0.03204785001005838
1759840257.9671824,0,-1.2050001621246338,-0.8299997448921204,-0.7177030431810092,0.0,True,0.011158943176269531,-1.2050001621246338,-0.8299997448921204,-0.7177030444145203,0.0,0.5235987755982988,0.03400827222105511
1759840257.9776032,0,-1.2050001621246338,-0.8299997448921204,-0.7177030432411904,0.0,True,0.010420799255371094,-1.2050001621246338,-0.8299997448921204,-0.7177030444145203,0.0,0.5235987755982988,0.031054390246769422
1759840257.9882302,0,-1.2050001621246338,-0.8299997448921204,-0.7177030432898075,0.0,True,0.010627031326293945,-1.2050001621246338,-0.8299997448921204,-0.7177030444145203,0.0,0.5235987755982988,0.030206999241291294
1759840257.9989269,0,-1.2050001621246338,-0.8299997448921204,-0.717703043331813,0.0,True,0.010696649551391602,-1.2050001621246338,-0.8299997448921204,-0.7177030444145203,0.0,0.5235987755982988,0.034151709288601534
1759840258.012287,0,-1.2037832640724004,-0.8310600146699788,-0.7170799278438942,0.012361796292889839,True,0.013360023498535156,-1.2031080722808838,-0.8316481709480286,-0.7155547142028809,0.012361796292889839,0.5235987755982988,0.034970349262684414
1759840258.0227263,0,-1.2033288191286635,-0.8314559093701014,-0.7166151711568904,0.012361796292889839,True,0.010439395904541016,-1.2031080722808838,-0.8316481709480286,-0.7155547142028809,0.012361796292889839,0.5235987755982988,0.03355201454571235
1759840258.0338643,0,-1.2031527347986672,-0.831609277449616,-0.7162671364798214,0.012361796292889839,True,0.011137962341308594,-1.2031080722808838,-0.8316481709480286,-0.7155547142028809,0.012361796292889839,0.5235987755982988,0.03225329795729776
1759840258.0450506,0,-1.2030852924725144,-0.8316679954242318,-0.7160149629270851,0.012361796292889839,True,0.011186361312866211,-1.2031080722808838,-0.8316481709480286,-0.7155547142028809,0.012361796292889839,0.5235987755982988,0.031031492249537385
1759840258.0558517,0,-1.2030608956846573,-0.8316892197127531,-0.7158350009099888,0.012361796292889839,True,0.010801076889038086,-1.2031080722808838,-0.8316481709480286,-0.7155547142028809,0.012361796292889839,0.5235987755982988,0.03062001083606016
1759840258.0673063,0,-1.203049242851667,-0.831699345018285,-0.7157003489861111,0.012361796292889839,True,0.011454582214355469,-1.2031080722808838,-0.8316481709480286,-0.7155547142028809,0.012361796292889839,0.5235987755982988,0.03269165027435251
1759840258.077597,0,-1.2030489344619308,-0.8316996008094929,-0.7156120809636182,0.012361796292889839,True,0.01029062271118164,-1.2031080722808838,-0.8316481709480286,-0.7155547142028809,0.012361796292889839,0.5235987755982988,0.03222365997186626
1759840258.0886889,0,-1.2030459585323996,-0.831702177897992,-0.715542042500747,0.012361796292889839,True,0.011091947555541992,-1.2031080722808838,-0.8316481709480286,-0.7155547142028809,0.012361796292889839,0.5235987755982988,0.02978366355841208
1759840258.0987847,0,-1.203048369176058,-0.831700073794772,-0.7154998476224712,0.012361796292889839,True,0.010095834732055664,-1.2031080722808838,-0.8316481709480286,-0.7155547142028809,0.012361796292889839,0.5235987755982988,0.029290543269538446
1759840258.1095529,0,-1.203046892667978,-0.831701351295958,-0.7154643998962023,0.012361796292889839,True,0.01076817512512207,-1.2031080722808838,-0.8316481709480286,-0.7155547142028809,0.012361796292889839,0.5235987755982988,0.029930145101641215
1759840258.1207821,0,-1.2030446842867335,-0.8317032662243709,-0.7154378859954882,0.012361796292889839,True,0.011229276657104492,-1.2031080722808838,-0.8316481709480286,-0.7155547142028809,0.012361796292889839,0.5235987755982988,0.030493453439644116
1759840258.1313207,0,-1.2030463014136379,-0.8317018572257605,-0.7154250167617775,0.012361796292889839,True,0.010538578033447266,-1.2031080722808838,-0.8316481709480286,-0.7155547142028809,0.012361796292889839,0.5235987755982988,0.028829676038262256
1759840258.1424904,0,-1.2030446695403587,-0.831703273320026,-0.71541185333691,0.012361796292889839,True,0.011169672012329102,-1.2031080722808838,-0.8316481709480286,-0.7155547142028809,0.012361796292889839,0.5235987755982988,0.02958565239346929
1759840258.1536288,0,-1.2030441570956774,-0.8317037169785265,-0.7154047037236921,0.012361796292889839,True,0.011138439178466797,-1.2031080722808838,-0.8316481709480286,-0.7155547142028809,0.012361796292889839,0.5235987755982988,0.029594247831927992
1759840258.1647751,0,-1.203043933081744,-0.8317039105375944,-0.7154007356048329,0.012361796292889839,True,0.011146306991577148,-1.2031080722808838,-0.8316481709480286,-0.7155547142028809,0.012361796292889839,0.5235987755982988,0.027749594617139505
1759840258.1748946,0,-1.2030475071089024,-0.8317008037734891,-0.7154050236576417,0.012361796292889839,True,0.010119438171386719,-1.2031080722808838,-0.8316481709480286,-0.7155547142028809,0.012361796292889839,0.5235987755982988,0.028888638578906466
