timestamp,vehicle_id,x,y,theta,velocity,gps_available,dt,gps_x,gps_y,gps_theta,gps_velocity,control_steering,control_acceleration
1759840254.9156146,2,-1.95,0.197,-0.8848819307611251,0.0,False,0.01,nan,nan,nan,nan,0.0,0.0
1759840254.9267104,2,-1.95,0.197,-0.8848819307611251,0.0,False,0.011095762252807617,nan,nan,nan,nan,0.0,0.0
1759840254.9369717,2,-1.95,0.197,-0.8848819307611251,0.0,False,0.010261297225952148,nan,nan,nan,nan,0.0,0.0
1759840254.9482644,2,-1.95,0.197,-0.8848819307611251,0.0,False,0.011292695999145508,nan,nan,nan,nan,0.0,0.0
1759840254.9584763,2,-1.95,0.197,-0.8848819307611251,0.0,False,0.010211944580078125,nan,nan,nan,nan,0.0,0.0
1759840254.9688847,2,-1.95,0.197,-0.8848819307611251,0.0,False,0.010408401489257812,nan,nan,nan,nan,0.0,0.0
1759840254.9795618,2,-1.95,0.197,-0.8848819307611251,0.0,False,0.010677099227905273,nan,nan,nan,nan,0.0,0.0
1759840254.9905026,2,-1.95,0.197,-0.8848819307611251,0.0,False,0.010940790176391602,nan,nan,nan,nan,0.0,0.0
1759840255.0006742,2,-1.95,0.197,-0.8848819307611251,0.0,False,0.010171651840209961,nan,nan,nan,nan,0.0,0.0
1759840255.010814,2,-1.95,0.197,-0.8848819307611251,0.0,False,0.010139703750610352,nan,nan,nan,nan,0.0,0.0
1759840255.0216064,2,-1.95,0.197,-0.8848819307611251,0.0,False,0.01079249382019043,nan,nan,nan,nan,0.0,0.0
1759840255.0323856,2,-1.95,0.197,-0.8848819307611251,0.0,False,0.010779142379760742,nan,nan,nan,nan,0.0,0.0
1759840255.0431519,2,-1.95,0.197,-0.8848819307611251,0.0,False,0.010766267776489258,nan,nan,nan,nan,0.0,0.0
1759840255.0539045,2,-1.95,0.197,-0.8848819307611251,0.0,False,0.010752677917480469,nan,nan,nan,nan,0.0,0.0
1759840255.0645826,2,-1.95,0.197,-0.8848819307611251,0.0,False,0.01067805290222168,nan,nan,nan,nan,0.0,0.0
1759840255.0751283,2,-1.95,0.197,-0.8848819307611251,0.0,False,0.010545730590820312,nan,nan,nan,nan,0.0,0.0
1759840255.085234,2,-1.95,0.197,-0.8848819307611251,0.0,False,0.010105609893798828,nan,nan,nan,nan,0.0,0.0
1759840255.0962539,2,-1.95,0.197,-0.8848819307611251,0.0,False,0.01101994514465332,nan,nan,nan,nan,0.0,0.0
1759840255.1101012,2,-1.949999810854594,0.19700008558829626,-0.4727056911965768,0.0,True,0.01384735107421875,-1.9499998092651367,0.19700008630752563,-0.4345160722732544,0.0,0.0,0.0
1759840255.1213481,2,-1.9499998097964315,0.1970000860671147,-0.4374867967042668,0.0,True,0.011246919631958008,-1.9499998092651367,0.19700008630752563,-0.4345160722732544,0.0,0.0,0.0
1759840255.1322796,2,-1.9499998094644417,0.19700008621734014,-0.43417959936826733,0.0,True,0.01093149185180664,-1.9499998092651367,0.19700008630752563,-0.4345160722732544,0.0,0.0,0.0
1759840255.1426284,2,-1.9499998093410662,0.19700008627316754,-0.4337674458101901,0.0,True,0.010348796844482422,-1.9499998092651367,0.19700008630752563,-0.4345160722732544,0.0,0.0,0.0
1759840255.1538131,2,-1.9499998092941282,0.197000086294407,-0.4337053417288921,0.0,True,0.0111846923828125,-1.9499998092651367,0.19700008630752563,-0.4345160722732544,0.0,0.0,0.0
1759840255.1640167,2,-1.9499998092762099,0.19700008630251503,-0.4337679405472805,0.0,True,0.01020359992980957,-1.9499998092651367,0.19700008630752563,-0.4345160722732544,0.0,0.0,0.0
1759840255.1742651,2,-1.9499998092693662,0.19700008630561178,-0.43384989291086384,0.0,True,0.010248422622680664,-1.9499998092651367,0.19700008630752563,-0.4345160722732544,0.0,0.0,0.0
1759840255.1855783,2,-1.9499998092667523,0.1970000863067946,-0.4339187050545448,0.0,True,0.011313199996948242,-1.9499998092651367,0.19700008630752563,-0.4345160722732544,0.0,0.0,0.0
1759840255.1957054,2,-1.9499998092657538,0.1970000863072464,-0.43399917935686894,0.0,True,0.010127067565917969,-1.9499998092651367,0.19700008630752563,-0.4345160722732544,0.0,0.0,0.0
1759840255.2071319,2,-1.9499998092653723,0.19700008630741897,-0.43405468689739735,0.0,True,0.011426448822021484,-1.9499998092651367,0.19700008630752563,-0.4345160722732544,0.0,0.0,0.0
1759840255.2175782,2,-1.9499998092652266,0.1970000863074849,-0.43411219552222313,0.0,True,0.010446310043334961,-1.9499998092651367,0.19700008630752563,-0.4345160722732544,0.0,0.0,0.0
1759840255.2278373,2,-1.9499998092651711,0.19700008630751006,-0.4341604997237276,0.0,True,0.010259151458740234,-1.9499998092651367,0.19700008630752563,-0.4345160722732544,0.0,0.0,0.0
1759840255.2391565,2,-1.9499998092651498,0.1970000863075197,-0.43419315676898407,0.0,True,0.011319160461425781,-1.9499998092651367,0.19700008630752563,-0.4345160722732544,0.0,0.0,0.0
1759840255.250471,2,-1.9499998092651418,0.19700008630752336,-0.4342224731010891,0.0,True,0.011314630508422852,-1.9499998092651367,0.19700008630752563,-0.4345160722732544,0.0,0.0,0.0
1759840255.2611756,2,-1.9499998092651387,0.19700008630752477,-0.4342517420372438,0.0,True,0.010704517364501953,-1.9499998092651367,0.19700008630752563,-0.4345160722732544,0.0,0.0,0.0
1759840255.2720037,2,-1.9499998092651374,0.1970000863075253,-0.43427586536776985,0.0,True,0.010828018188476562,-1.9499998092651367,0.19700008630752563,-0.4345160722732544,0.0,0.0,0.0
1759840255.2832372,2,-1.949999809265137,0.1970000863075255,-0.4342947248186988,0.0,True,0.01123356819152832,-1.9499998092651367,0.19700008630752563,-0.4345160722732544,0.0,0.0,0.0
1759840255.293774,2,-1.9499998092651367,0.19700008630752558,-0.43431423211461606,0.0,True,0.010536670684814453,-1.9499998092651367,0.19700008630752563,-0.4345160722732544,0.0,0.0,0.0
1759840255.3043015,2,-1.9499998092651367,0.1970000863075256,-0.4343308035668656,0.0,True,0.010527610778808594,-1.9499998092651367,0.19700008630752563,-0.4345160722732544,0.0,0.0,0.0
1759840255.3198278,2,-1.9499998092651367,0.19700008630752563,-0.4343284934741636,0.0,True,0.015526294708251953,-1.9499998092651367,0.19700008630752563,-0.4345160722732544,0.0,0.0,0.0
1759840255.3310971,2,-1.9499998092651367,0.19700008630752563,-0.4343447456315275,0.0,True,0.011269330978393555,-1.9499998092651367,0.19700008630752563,-0.4345160722732544,0.0,0.0,0.0
1759840255.342383,2,-1.9499998092651367,0.19700008630752563,-0.43435933773153224,0.0,True,0.011285781860351562,-1.9499998092651367,0.19700008630752563,-0.4345160722732544,0.0,0.0,0.0
1759840255.3530521,2,-1.9499998092651367,0.19700008630752563,-0.4343731781841278,0.0,True,0.010669231414794922,-1.9499998092651367,0.19700008630752563,-0.4345160722732544,0.0,0.0,0.0
1759840255.3633,2,-1.9499998092651367,0.19700008630752563,-0.4343855464634636,0.0,True,0.010247945785522461,-1.9499998092651367,0.19700008630752563,-0.4345160722732544,0.0,0.0,0.0
1759840255.3739839,2,-1.9499998092651367,0.19700008630752563,-0.434394491070595,0.0,True,0.010683774948120117,-1.9499998092651367,0.19700008630752563,-0.4345160722732544,0.0,0.0,0.0
1759840255.385277,2,-1.9499998092651367,0.19700008630752563,-0.4344006656046737,0.0,True,0.011293172836303711,-1.9499998092651367,0.19700008630752563,-0.4345160722732544,0.0,0.0,0.0
1759840255.3965533,2,-1.9499998092651367,0.19700008630752563,-0.4344064544540096,0.0,True,0.0112762451171875,-1.9499998092651367,0.19700008630752563,-0.4345160722732544,0.0,0.0,0.0
1759840255.4078515,2,-1.9499998092651367,0.19700008630752563,-0.4344119030841096,0.0,True,0.011298179626464844,-1.9499998092651367,0.19700008630752563,-0.4345160722732544,0.0,0.0,0.0
1759840255.4183655,2,-1.9499998092651367,0.19700008630752563,-0.4344185862047958,0.0,True,0.010514020919799805,-1.9499998092651367,0.19700008630752563,-0.4345160722732544,0.0,0.0,0.0
1759840255.4287577,2,-1.9499998092651367,0.19700008630752563,-0.4344246400959779,0.0,True,0.010392189025878906,-1.9499998092651367,0.19700008630752563,-0.4345160722732544,0.0,0.0,0.0
1759840255.439635,2,-1.9499998092651367,0.19700008630752563,-0.4344289637316372,0.0,True,0.010877370834350586,-1.9499998092651367,0.19700008630752563,-0.4345160722732544,0.0,0.0,0.0
1759840255.4499855,2,-1.9499998092651367,0.19700008630752563,-0.4344338173948401,0.0,True,0.010350465774536133,-1.9499998092651367,0.19700008630752563,-0.4345160722732544,0.0,0.0,0.0
1759840255.4603617,2,-1.9499998092651367,0.19700008630752563,-0.4344380724694261,0.0,True,0.010376214981079102,-1.9499998092651367,0.19700008630752563,-0.4345160722732544,0.0,0.0,0.0
1759840255.4705818,2,-1.9499998092651367,0.19700008630752563,-0.43444208857206945,0.0,True,0.010220050811767578,-1.9499998092651367,0.19700008630752563,-0.4345160722732544,0.0,0.0,0.0
1759840255.4816635,2,-1.9499998092651367,0.19700008630752563,-0.43444433658285675,0.0,True,0.011081695556640625,-1.9499998092651367,0.19700008630752563,-0.4345160722732544,0.0,0.0,0.0
1759840255.4917397,2,-1.9499998092651367,0.19700008630752563,-0.43444810981716486,0.0,True,0.010076284408569336,-1.9499998092651367,0.19700008630752563,-0.4345160722732544,0.0,0.0,0.0
1759840255.5019257,2,-1.9499998092651367,0.19700008630752563,-0.4344513488594295,0.0,True,0.010185956954956055,-1.9499998092651367,0.19700008630752563,-0.4345160722732544,0.0,0.0,0.0
1759840255.517468,2,-1.9499998092651367,0.19700008630752563,-0.43444711320405816,0.0,True,0.015542268753051758,-1.9499998092651367,0.19700008630752563,-0.4345160722732544,0.0,0.0,0.0
1759840255.528609,2,-1.9499998092651367,0.19700008630752563,-0.4344506411897697,0.0,True,0.011141061782836914,-1.9499998092651367,0.19700008630752563,-0.4345160722732544,0.0,0.0,0.0
1759840255.5391912,2,-1.9499998092651367,0.19700008630752563,-0.4344549262997255,0.0,True,0.010582208633422852,-1.9499998092651367,0.19700008630752563,-0.4345160722732544,0.0,0.0,0.0
1759840255.549941,2,-1.9499998092651367,0.19700008630752563,-0.4344583752965452,0.0,True,0.01074981689453125,-1.9499998092651367,0.19700008630752563,-0.4345160722732544,0.0,0.0,0.0
1759840255.5600288,2,-1.9499998092651367,0.19700008630752563,-0.43446206687002764,0.0,True,0.010087728500366211,-1.9499998092651367,0.19700008630752563,-0.4345160722732544,0.0,0.0,0.0
1759840255.5712326,2,-1.9499998092651367,0.19700008630752563,-0.4344639573140672,0.0,True,0.011203765869140625,-1.9499998092651367,0.19700008630752563,-0.4345160722732544,0.0,0.0,0.0
1759840255.5815253,2,-1.9499998092651367,0.19700008630752563,-0.43446668681133715,0.0,True,0.010292768478393555,-1.9499998092651367,0.19700008630752563,-0.4345160722732544,0.0,0.0,0.0
1759840255.5917253,2,-1.9499998092651367,0.19700008630752563,-0.4344692026904369,0.0,True,0.010200023651123047,-1.9499998092651367,0.19700008630752563,-0.4345160722732544,0.0,0.0,0.0
1759840255.60241,2,-1.9499998092651367,0.19700008630752563,-0.4344709182403719,0.0,True,0.010684728622436523,-1.9499998092651367,0.19700008630752563,-0.4345160722732544,0.0,0.0,0.0
1759840255.6135848,2,-1.9499998092651367,0.19700008630752563,-0.4344720671581239,0.0,True,0.011174678802490234,-1.9499998092651367,0.19700008630752563,-0.4345160722732544,0.0,0.0,0.0
1759840255.6244128,2,-1.9499998092651367,0.19700008630752563,-0.4344736159833218,0.0,True,0.010828018188476562,-1.9499998092651367,0.19700008630752563,-0.4345160722732544,0.0,0.0,0.0
1759840255.6354902,2,-1.9499998092651367,0.19700008630752563,-0.43447493480263333,0.0,True,0.011077404022216797,-1.9499998092651367,0.19700008630752563,-0.4345160722732544,0.0,0.0,0.0
1759840255.6466336,2,-1.9499998092651367,0.19700008630752563,-0.4344762169082337,0.0,True,0.01114344596862793,-1.9499998092651367,0.19700008630752563,-0.4345160722732544,0.0,0.0,0.0
1759840255.6578102,2,-1.9499998092651367,0.19700008630752563,-0.4344775011553672,0.0,True,0.011176586151123047,-1.9499998092651367,0.19700008630752563,-0.4345160722732544,0.0,0.0,0.0
1759840255.6679606,2,-1.9499998092651367,0.19700008630752563,-0.4344795892535487,0.0,True,0.010150432586669922,-1.9499998092651367,0.19700008630752563,-0.4345160722732544,0.0,0.0,0.0
1759840255.6790955,2,-1.9499998092651367,0.19700008630752563,-0.43448069180523774,0.0,True,0.011134862899780273,-1.9499998092651367,0.19700008630752563,-0.4345160722732544,0.0,0.0,0.0
1759840255.6903055,2,-1.9499998092651367,0.19700008630752563,-0.43448171781200884,0.0,True,0.011209964752197266,-1.9499998092651367,0.19700008630752563,-0.4345160722732544,0.0,0.0,0.0
1759840255.7004902,2,-1.9499998092651367,0.19700008630752563,-0.43448349243318063,0.0,True,0.010184764862060547,-1.9499998092651367,0.19700008630752563,-0.4345160722732544,0.0,0.0,0.0
1759840255.714135,2,-1.9499998092651367,0.19700008630752563,-0.4344827801737523,0.0,True,0.013644695281982422,-1.9499998092651367,0.19700008630752563,-0.4345160722732544,0.0,0.0,0.0
1759840255.7219276,2,-1.9499998092651367,0.19700008630752563,-0.4344863197526152,0.0,True,0.00779271125793457,-1.9499998092651367,0.19700008630752563,-0.4345160722732544,0.0,0.0,0.0
1759840255.7321398,2,-1.9499998092651367,0.19700008630752563,-0.43448771524158936,0.0,True,0.010212182998657227,-1.9499998092651367,0.19700008630752563,-0.4345160722732544,0.0,0.0,0.0
1759840255.7433958,2,-1.9499998092651367,0.19700008630752563,-0.4344881960580107,0.0,True,0.011255979537963867,-1.9499998092651367,0.19700008630752563,-0.4345160722732544,0.0,0.0,0.0
1759840255.753614,2,-1.9499998092651367,0.19700008630752563,-0.4344893659608253,0.0,True,0.010218143463134766,-1.9499998092651367,0.19700008630752563,-0.4345160722732544,0.0,0.0,0.0
1759840255.7641015,2,-1.9499998092651367,0.19700008630752563,-0.43449031042894504,0.0,True,0.010487556457519531,-1.9499998092651367,0.19700008630752563,-0.4345160722732544,0.0,0.0,0.0
1759840255.7745626,2,-1.9499998092651367,0.19700008630752563,-0.4344912103684919,0.0,True,0.010461091995239258,-1.9499998092651367,0.19700008630752563,-0.4345160722732544,0.0,0.0,0.0
1759840255.785852,2,-1.9499998092651367,0.19700008630752563,-0.4344916325012811,0.0,True,0.011289358139038086,-1.9499998092651367,0.19700008630752563,-0.4345160722732544,0.0,0.0,0.0
1759840255.7966514,2,-1.9499998092651367,0.19700008630752563,-0.43449239805298845,0.0,True,0.010799407958984375,-1.9499998092651367,0.19700008630752563,-0.4345160722732544,0.0,0.0,0.0
1759840255.807879,2,-1.9499998092651367,0.19700008630752563,-0.43449297263376785,0.0,True,0.011227607727050781,-1.9499998092651367,0.19700008630752563,-0.4345160722732544,0.0,0.0,0.0
1759840255.8183281,2,-1.9499998092651367,0.19700008630752563,-0.43449396336118795,0.0,True,0.01044917106628418,-1.9499998092651367,0.19700008630752563,-0.4345160722732544,0.0,0.0,0.0
1759840255.829052,2,-1.9499998092651367,0.19700008630752563,-0.434494757625032,0.0,True,0.01072382926940918,-1.9499998092651367,0.19700008630752563,-0.4345160722732544,0.0,0.0,0.0
1759840255.8403034,2,-1.9499998092651367,0.19700008630752563,-0.4344952734466432,0.0,True,0.011251449584960938,-1.9499998092651367,0.19700008630752563,-0.4345160722732544,0.0,0.0,0.0
1759840255.851755,2,-1.9499998092651367,0.19700008630752563,-0.43449574592270856,0.0,True,0.011451482772827148,-1.9499998092651367,0.19700008630752563,-0.4345160722732544,0.0,0.0,0.0
1759840255.8630345,2,-1.9499998092651367,0.19700008630752563,-0.43449635577209733,0.0,True,0.011279582977294922,-1.9499998092651367,0.19700008630752563,-0.4345160722732544,0.0,0.0,0.0
1759840255.8742437,2,-1.9499998092651367,0.19700008630752563,-0.4344970183781456,0.0,True,0.011209249496459961,-1.9499998092651367,0.19700008630752563,-0.4345160722732544,0.0,0.0,0.0
1759840255.8854165,2,-1.9499998092651367,0.19700008630752563,-0.43449769034493,0.0,True,0.011172771453857422,-1.9499998092651367,0.19700008630752563,-0.4345160722732544,0.0,0.0,0.0
1759840255.896104,2,-1.9499998092651367,0.19700008630752563,-0.43449852036050274,0.0,True,0.010687589645385742,-1.9499998092651367,0.19700008630752563,-0.4345160722732544,0.0,0.0,0.0
1759840255.9074757,2,-1.9499998092651367,0.19700008630752563,-0.43449903445041826,0.0,True,0.011371612548828125,-1.9499998092651367,0.19700008630752563,-0.4345160722732544,0.0,0.0,0.0
1759840255.9196417,2,-1.9499998092651367,0.19700008630752563,-0.43449928393477677,0.0,True,0.012166023254394531,-1.9499998092651367,0.19700008630752563,-0.4345160722732544,0.0,0.0,0.0
1759840255.9297504,2,-1.9499998092651367,0.19700008630752563,-0.4345002987892741,0.0,True,0.010108709335327148,-1.9499998092651367,0.19700008630752563,-0.4345160722732544,0.0,0.0,0.0
1759840255.9399672,2,-1.9499998092651367,0.19700008630752563,-0.4345011533948835,0.0,True,0.010216712951660156,-1.9499998092651367,0.19700008630752563,-0.4345160722732544,0.0,0.0,0.0
1759840255.9506216,2,-1.9499998092651367,0.19700008630752563,-0.4345017390535695,0.0,True,0.010654449462890625,-1.9499998092651367,0.19700008630752563,-0.4345160722732544,0.0,0.0,0.0
1759840255.9607997,2,-1.9499998092651367,0.19700008630752563,-0.43450240605073986,0.0,True,0.010178089141845703,-1.9499998092651367,0.19700008630752563,-0.4345160722732544,0.0,0.0,0.0
1759840255.9710305,2,-1.9499998092651367,0.19700008630752563,-0.4345029807834493,0.0,True,0.010230779647827148,-1.9499998092651367,0.19700008630752563,-0.4345160722732544,0.0,0.0,0.0
1759840255.9823217,2,-1.9499998092651367,0.19700008630752563,-0.4345031989163637,0.0,True,0.011291265487670898,-1.9499998092651367,0.19700008630752563,-0.4345160722732544,0.0,0.0,0.0
1759840255.993508,2,-1.9499998092651367,0.19700008630752563,-0.4345034878893088,0.0,True,0.011186361312866211,-1.9499998092651367,0.19700008630752563,-0.4345160722732544,0.0,0.0,0.0
1759840256.003693,2,-1.9499998092651367,0.19700008630752563,-0.4345040757647496,0.0,True,0.010185003280639648,-1.9499998092651367,0.19700008630752563,-0.4345160722732544,0.0,0.0,0.0
1759840256.014415,2,-1.9499998092651367,0.19700008630752563,-0.43450447451978746,0.0,True,0.010721921920776367,-1.9499998092651367,0.19700008630752563,-0.4345160722732544,0.0,0.0,0.0
1759840256.0244453,2,-1.9499998092651367,0.19700008630752563,-0.4345050173036942,0.0,True,0.010030269622802734,-1.9499998092651367,0.19700008630752563,-0.4345160722732544,0.0,0.0,0.0
1759840256.0355766,2,-1.9499998092651367,0.19700008630752563,-0.4345052423381901,0.0,True,0.01113128662109375,-1.9499998092651367,0.19700008630752563,-0.4345160722732544,0.0,0.0,0.0
1759840256.0468497,2,-1.9499998092651367,0.19700008630752563,-0.434505456065466,0.0,True,0.01127314567565918,-1.9499998092651367,0.19700008630752563,-0.4345160722732544,0.0,0.0,0.0
1759840256.0570323,2,-1.9499998092651367,0.19700008630752563,-0.4345059477954525,0.0,True,0.010182619094848633,-1.9499998092651367,0.19700008630752563,-0.4345160722732544,0.0,0.0,0.0
1759840256.0678484,2,-1.9499998092651367,0.19700008630752563,-0.43450626234681167,0.0,True,0.010816097259521484,-1.9499998092651367,0.19700008630752563,-0.4345160722732544,0.0,0.0,0.0
1759840256.0790164,2,-1.9499998092651367,0.19700008630752563,-0.43450649353051496,0.0,True,0.01116800308227539,-1.9499998092651367,0.19700008630752563,-0.4345160722732544,0.0,0.0,0.0
1759840256.0904658,2,-1.9499998092651367,0.19700008630752563,-0.4345066903659074,0.0,True,0.011449337005615234,-1.9499998092651367,0.19700008630752563,-0.4345160722732544,0.0,0.0,0.0
1759840256.1009984,2,-1.9499998092651367,0.19700008630752563,-0.4345070950925827,0.0,True,0.010532617568969727,-1.9499998092651367,0.19700008630752563,-0.4345160722732544,0.0,0.0,0.0
1759840256.1114583,2,-1.9499998092651367,0.19700008630752563,-0.43450748495502367,0.0,True,0.01045989990234375,-1.9499998092651367,0.19700008630752563,-0.4345160722732544,0.0,0.0,0.0
1759840256.1235955,2,-1.9499998092651367,0.19700008630752563,-0.4345075391578881,0.0,True,0.012137174606323242,-1.9499998092651367,0.19700008630752563,-0.4345160722732544,0.0,0.0,0.0
1759840256.1337795,2,-1.9499998092651367,0.19700008630752563,-0.43450798388461465,0.0,True,0.010184049606323242,-1.9499998092651367,0.19700008630752563,-0.4345160722732544,0.0,0.0,0.0
1759840256.1452727,2,-1.9499998092651367,0.19700008630752563,-0.43450817267705943,0.0,True,0.011493206024169922,-1.9499998092651367,0.19700008630752563,-0.4345160722732544,0.0,0.0,0.0
1759840256.1565897,2,-1.9499998092651367,0.19700008630752563,-0.4345083994535468,0.0,True,0.011317014694213867,-1.9499998092651367,0.19700008630752563,-0.4345160722732544,0.0,0.0,0.0
1759840256.1671999,2,-1.9499998092651367,0.19700008630752563,-0.4345087449621374,0.0,True,0.010610103607177734,-1.9499998092651367,0.19700008630752563,-0.4345160722732544,0.0,0.0,0.0
1759840256.1773632,2,-1.9499998092651367,0.19700008630752563,-0.43450912635551475,0.0,True,0.010163307189941406,-1.9499998092651367,0.19700008630752563,-0.4345160722732544,0.0,0.0,0.0
1759840256.187542,2,-1.9499998092651367,0.19700008630752563,-0.43450945299512966,0.0,True,0.010178804397583008,-1.9499998092651367,0.19700008630752563,-0.4345160722732544,0.0,0.0,0.0
1759840256.197734,2,-1.9499998092651367,0.19700008630752563,-0.43450973380499214,0.0,True,0.010192155838012695,-1.9499998092651367,0.19700008630752563,-0.4345160722732544,0.0,0.0,0.0
1759840256.2085445,2,-1.9499998092651367,0.19700008630752563,-0.4345098995008314,0.0,True,0.010810375213623047,-1.9499998092651367,0.19700008630752563,-0.4345160722732544,0.0,0.0,0.0
1759840256.2187505,2,-1.9499998092651367,0.19700008630752563,-0.43451014503186514,0.0,True,0.010205984115600586,-1.9499998092651367,0.19700008630752563,-0.4345160722732544,0.0,0.0,0.0
1759840256.2294943,2,-1.9499998092651367,0.19700008630752563,-0.4345103051353263,0.0,True,0.010743856430053711,-1.9499998092651367,0.19700008630752563,-0.4345160722732544,0.0,0.0,0.0
1759840256.2409973,2,-1.9499998092651367,0.19700008630752563,-0.4345103739129339,0.0,True,0.011502981185913086,-1.9499998092651367,0.19700008630752563,-0.4345160722732544,0.0,0.0,0.0
1759840256.2511456,2,-1.9499998092651367,0.19700008630752563,-0.4345106337555116,0.0,True,0.010148286819458008,-1.9499998092651367,0.19700008630752563,-0.4345160722732544,0.0,0.0,0.0
1759840256.2625098,2,-1.9499998092651367,0.19700008630752563,-0.43451073569302423,0.0,True,0.011364221572875977,-1.9499998092651367,0.19700008630752563,-0.4345160722732544,0.0,0.0,0.0
1759840256.2727642,2,-1.9499998092651367,0.19700008630752563,-0.43451097316180487,0.0,True,0.010254383087158203,-1.9499998092651367,0.19700008630752563,-0.4345160722732544,0.0,0.0,0.0
1759840256.2830203,2,-1.9499998092651367,0.19700008630752563,-0.43451119151413486,0.0,True,0.010256052017211914,-1.9499998092651367,0.19700008630752563,-0.4345160722732544,0.0,0.0,0.0
1759840256.2932193,2,-1.9499998092651367,0.19700008630752563,-0.4345113918132384,0.0,True,0.01019906997680664,-1.9499998092651367,0.19700008630752563,-0.4345160722732544,0.0,0.0,0.0
1759840256.3034341,2,-1.9499998092651367,0.19700008630752563,-0.43451157003279306,0.0,True,0.010214805603027344,-1.9499998092651367,0.19700008630752563,-0.4345160722732544,0.0,0.0,0.0
1759840256.3146336,2,-1.9499998092651367,0.19700008630752563,-0.4345116378747065,0.0,True,0.011199474334716797,-1.9499998092651367,0.19700008630752563,-0.4345160722732544,0.0,0.0,0.0
1759840256.3248227,2,-1.9499998092651367,0.19700008630752563,-0.4345118166720354,0.0,True,0.010189056396484375,-1.9499998092651367,0.19700008630752563,-0.4345160722732544,0.0,0.0,0.0
1759840256.3356307,2,-1.9499998092651367,0.19700008630752563,-0.4345119293870905,0.0,True,0.010807991027832031,-1.9499998092651367,0.19700008630752563,-0.4345160722732544,0.0,0.0,0.0
1759840256.3462033,2,-1.9499998092651367,0.19700008630752563,-0.43451206397511655,0.0,True,0.010572671890258789,-1.9499998092651367,0.19700008630752563,-0.4345160722732544,0.0,0.0,0.0
1759840256.357529,2,-1.9499998092651367,0.19700008630752563,-0.4345121328916548,0.0,True,0.011325597763061523,-1.9499998092651367,0.19700008630752563,-0.4345160722732544,0.0,0.0,0.0
1759840256.3682518,2,-1.9499998092651367,0.19700008630752563,-0.43451226594308423,0.0,True,0.010722875595092773,-1.9499998092651367,0.19700008630752563,-0.4345160722732544,0.0,0.0,0.0
1759840256.378744,2,-1.9499998092651367,0.19700008630752563,-0.4345124163386025,0.0,True,0.010492086410522461,-1.9499998092651367,0.19700008630752563,-0.4345160722732544,0.0,0.0,0.0
1759840256.3895133,2,-1.9499998092651367,0.19700008630752563,-0.4345125347269736,0.0,True,0.010769367218017578,-1.9499998092651367,0.19700008630752563,-0.4345160722732544,0.0,0.0,0.0
1759840256.4008138,2,-1.9499998092651367,0.19700008630752563,-0.4345126102429582,0.0,True,0.01130056381225586,-1.9499998092651367,0.19700008630752563,-0.4345160722732544,0.0,0.0,0.0
1759840256.411534,2,-1.9499998092651367,0.19700008630752563,-0.4345127364013024,0.0,True,0.010720252990722656,-1.9499998092651367,0.19700008630752563,-0.4345160722732544,0.0,0.0,0.0
1759840256.4222655,2,-1.9499998092651367,0.19700008630752563,-0.4345128579625275,0.0,True,0.01073145866394043,-1.9499998092651367,0.19700008630752563,-0.4345160722732544,0.0,0.0,0.0
1759840256.4334419,2,-1.9499998092651367,0.19700008630752563,-0.4345129436101658,0.0,True,0.011176347732543945,-1.9499998092651367,0.19700008630752563,-0.4345160722732544,0.0,0.0,0.0
1759840256.4442036,2,-1.9499998092651367,0.19700008630752563,-0.4345130587933781,0.0,True,0.010761737823486328,-1.9499998092651367,0.19700008630752563,-0.4345160722732544,0.0,0.0,0.0
1759840256.4550595,2,-1.9499998092651367,0.19700008630752563,-0.43451316358098246,0.0,True,0.010855913162231445,-1.9499998092651367,0.19700008630752563,-0.4345160722732544,0.0,0.0,0.0
1759840256.465857,2,-1.9499998092651367,0.19700008630752563,-0.43451326739170426,0.0,True,0.010797500610351562,-1.9499998092651367,0.19700008630752563,-0.4345160722732544,0.0,0.0,0.0
1759840256.476164,2,-1.9499998092651367,0.19700008630752563,-0.43451339444361814,0.0,True,0.010307073593139648,-1.9499998092651367,0.19700008630752563,-0.4345160722732544,0.0,0.0,0.0
1759840256.4867659,2,-1.9499998092651367,0.19700008630752563,-0.4345134919660367,0.0,True,0.01060175895690918,-1.9499998092651367,0.19700008630752563,-0.4345160722732544,0.0,0.0,0.0
1759840256.4980905,2,-1.9499998092651367,0.19700008630752563,-0.4345135435199019,0.0,True,0.011324644088745117,-1.9499998092651367,0.19700008630752563,-0.4345160722732544,0.0,0.0,0.0
1759840256.5091329,2,-1.9499998092651367,0.19700008630752563,-0.4345136170129962,0.0,True,0.011042356491088867,-1.9499998092651367,0.19700008630752563,-0.4345160722732544,0.0,0.0,0.0
1759840256.5256681,2,-1.9499998092651367,0.19700008630752563,-0.4345134249138347,0.0,True,0.016535282135009766,-1.9499998092651367,0.19700008630752563,-0.4345160722732544,0.0,0.0,0.0
1759840256.5361755,2,-1.9499998092651367,0.19700008630752563,-0.43451360444429454,0.0,True,0.010507345199584961,-1.9499998092651367,0.19700008630752563,-0.4345160722732544,0.0,0.0,0.0
1759840256.5474412,2,-1.9499998092651367,0.19700008630752563,-0.4345137383828668,0.0,True,0.011265754699707031,-1.9499998092651367,0.19700008630752563,-0.4345160722732544,0.0,0.0,0.0
1759840256.5579143,2,-1.9499998092651367,0.19700008630752563,-0.4345138868701177,0.0,True,0.010473012924194336,-1.9499998092651367,0.19700008630752563,-0.4345160722732544,0.0,0.0,0.0
1759840256.5679421,2,-1.9499998092651367,0.19700008630752563,-0.43451402966730157,0.0,True,0.010027885437011719,-1.9499998092651367,0.19700008630752563,-0.4345160722732544,0.0,0.0,0.0
1759840256.578566,2,-1.9499998092651367,0.19700008630752563,-0.4345141220300981,0.0,True,0.010623931884765625,-1.9499998092651367,0.19700008630752563,-0.4345160722732544,0.0,0.0,0.0
1759840256.5894136,2,-1.9499998092651367,0.19700008630752563,-0.43451419266395597,0.0,True,0.01084756851196289,-1.9499998092651367,0.19700008630752563,-0.4345160722732544,0.0,0.0,0.0
1759840256.600202,2,-1.9499998092651367,0.19700008630752563,-0.4345142606609791,0.0,True,0.010788440704345703,-1.9499998092651367,0.19700008630752563,-0.4345160722732544,0.0,0.0,0.0
1759840256.610756,2,-1.9499998092651367,0.19700008630752563,-0.43451433354268687,0.0,True,0.010553836822509766,-1.9499998092651367,0.19700008630752563,-0.4345160722732544,0.0,0.0,0.0
1759840256.6214628,2,-1.9499998092651367,0.19700008630752563,-0.4345143949927568,0.0,True,0.010706901550292969,-1.9499998092651367,0.19700008630752563,-0.4345160722732544,0.0,0.0,0.0
1759840256.632843,2,-1.9499998092651367,0.19700008630752563,-0.43451442951314334,0.0,True,0.011380195617675781,-1.9499998092651367,0.19700008630752563,-0.4345160722732544,0.0,0.0,0.0
1759840256.64409,2,-1.9499998092651367,0.19700008630752563,-0.4345144730282957,0.0,True,0.011246919631958008,-1.9499998092651367,0.19700008630752563,-0.4345160722732544,0.0,0.0,0.0
1759840256.65432,2,-1.9499998092651367,0.19700008630752563,-0.43451455240689185,0.0,True,0.010230064392089844,-1.9499998092651367,0.19700008630752563,-0.4345160722732544,0.0,0.0,0.0
1759840256.6656814,2,-1.9499998092651367,0.19700008630752563,-0.4345145879449497,0.0,True,0.011361360549926758,-1.9499998092651367,0.19700008630752563,-0.4345160722732544,0.0,0.0,0.0
1759840256.6763744,2,-1.9499998092651367,0.19700008630752563,-0.4345146451914541,0.0,True,0.010693073272705078,-1.9499998092651367,0.19700008630752563,-0.4345160722732544,0.0,0.0,0.0
1759840256.6878374,2,-1.9499998092651367,0.19700008630752563,-0.4345146772979991,0.0,True,0.011462926864624023,-1.9499998092651367,0.19700008630752563,-0.4345160722732544,0.0,0.0,0.0
1759840256.6980474,2,-1.9499998092651367,0.19700008630752563,-0.4345147474870519,0.0,True,0.010210037231445312,-1.9499998092651367,0.19700008630752563,-0.4345160722732544,0.0,0.0,0.0
1759840256.7088387,2,-1.9499998092651367,0.19700008630752563,-0.4345147944331167,0.0,True,0.010791301727294922,-1.9499998092651367,0.19700008630752563,-0.4345160722732544,0.0,0.0,0.0
1759840256.7226717,2,-1.9499998092651367,0.19700008630752563,-0.434514758889712,0.0,True,0.013833045959472656,-1.9499998092651367,0.19700008630752563,-0.4345160722732544,0.0,0.0,0.0
1759840256.7292914,2,-1.9499998092651367,0.19700008630752563,-0.4345149276654503,0.0,True,0.006619691848754883,-1.9499998092651367,0.19700008630752563,-0.4345160722732544,0.0,0.0,0.0
1759840256.7404969,2,-1.9499998092651367,0.19700008630752563,-0.43451495035099086,0.0,True,0.011205434799194336,-1.9499998092651367,0.19700008630752563,-0.4345160722732544,0.0,0.0,0.0
1759840256.7509663,2,-1.9499998092651367,0.19700008630752563,-0.4345149862539941,0.0,True,0.010469436645507812,-1.9499998092651367,0.19700008630752563,-0.4345160722732544,0.0,0.0,0.0
1759840256.7614822,2,-1.9499998092651367,0.19700008630752563,-0.43451502070570847,0.0,True,0.010515928268432617,-1.9499998092651367,0.19700008630752563,-0.4345160722732544,0.0,0.0,0.0
1759840256.771911,2,-1.9499998092651367,0.19700008630752563,-0.4345150560879869,0.0,True,0.010428667068481445,-1.9499998092651367,0.19700008630752563,-0.4345160722732544,0.0,0.0,0.0
1759840256.7824378,2,-1.9499998092651367,0.19700008630752563,-0.4345150877927324,0.0,True,0.010526895523071289,-1.9499998092651367,0.19700008630752563,-0.4345160722732544,0.0,0.0,0.0
1759840256.7942576,2,-1.9499998092651367,0.19700008630752563,-0.4345150917348839,0.0,True,0.011819839477539062,-1.9499998092651367,0.19700008630752563,-0.4345160722732544,0.0,0.0,0.0
1759840256.8049521,2,-1.9499998092651367,0.19700008630752563,-0.43451512586873164,0.0,True,0.010694503784179688,-1.9499998092651367,0.19700008630752563,-0.4345160722732544,0.0,0.0,0.0
1759840256.815764,2,-1.9499998092651367,0.19700008630752563,-0.4345151579438671,0.0,True,0.010811805725097656,-1.9499998092651367,0.19700008630752563,-0.4345160722732544,0.0,0.0,0.0
1759840256.8265505,2,-1.9499998092651367,0.19700008630752563,-0.4345151893265715,0.0,True,0.01078653335571289,-1.9499998092651367,0.19700008630752563,-0.4345160722732544,0.0,0.0,0.0
1759840256.8372462,2,-1.9499998092651367,0.19700008630752563,-0.4345152211485619,0.0,True,0.010695695877075195,-1.9499998092651367,0.19700008630752563,-0.4345160722732544,0.0,0.0,0.0
1759840256.848083,2,-1.9499998092651367,0.19700008630752563,-0.4345152488406896,0.0,True,0.01083683967590332,-1.9499998092651367,0.19700008630752563,-0.4345160722732544,0.0,0.0,0.0
1759840256.858736,2,-1.9499998092651367,0.19700008630752563,-0.434515278840264,0.0,True,0.010653018951416016,-1.9499998092651367,0.19700008630752563,-0.4345160722732544,0.0,0.0,0.0
1759840256.8689325,2,-1.9499998092651367,0.19700008630752563,-0.43451531472489435,0.0,True,0.010196447372436523,-1.9499998092651367,0.19700008630752563,-0.4345160722732544,0.0,0.0,0.0
1759840256.879465,2,-1.9499998092651367,0.19700008630752563,-0.4345153414027614,0.0,True,0.010532617568969727,-1.9499998092651367,0.19700008630752563,-0.4345160722732544,0.0,0.0,0.0
1759840256.88992,2,-1.9499998092651367,0.19700008630752563,-0.43451536734536944,0.0,True,0.010454893112182617,-1.9499998092651367,0.19700008630752563,-0.4345160722732544,0.0,0.0,0.0
1759840256.9004812,2,-1.9499998092651367,0.19700008630752563,-0.43451539018818863,0.0,True,0.010561227798461914,-1.9499998092651367,0.19700008630752563,-0.4345160722732544,0.0,0.0,0.0
1759840256.9141681,2,-1.9499998092651367,0.19700008630752563,-0.4345153676823976,0.0,True,0.013686895370483398,-1.9499998092651367,0.19700008630752563,-0.4345160722732544,0.0,0.6,0.0
1759840256.936708,2,-1.9499998092651367,0.19700008630752563,-0.4345152436814601,0.0,True,0.022539854049682617,-1.9499998092651367,0.19700008630752563,-0.4345160722732544,0.0,0.6,0.0
1759840256.9473302,2,-1.9499998092651367,0.19700008630752563,-0.4345153230985215,0.0,True,0.010622262954711914,-1.9499998092651367,0.19700008630752563,-0.4345160722732544,0.0,0.6,0.0
1759840256.9594707,2,-1.9499998092651367,0.19700008630752563,-0.4345153776372257,0.0,True,0.012140512466430664,-1.9499998092651367,0.19700008630752563,-0.4345160722732544,0.0,0.6,0.0
1759840256.9708772,2,-1.9499998092651367,0.19700008630752563,-0.4345154299046534,0.0,True,0.011406421661376953,-1.9499998092651367,0.19700008630752563,-0.4345160722732544,0.0,0.6,0.0
1759840256.9829967,2,-1.9499998092651367,0.19700008630752563,-0.43451546460296697,0.0,True,0.012119531631469727,-1.9499998092651367,0.19700008630752563,-0.4345160722732544,0.0,0.6,0.0
1759840256.9936714,2,-1.9499998092651367,0.19700008630752563,-0.4345155095510549,0.0,True,0.010674715042114258,-1.9499998092651367,0.19700008630752563,-0.4345160722732544,0.0,0.6,0.0
1759840257.0050323,2,-1.9499998092651367,0.19700008630752563,-0.4345155394776228,0.0,True,0.011360883712768555,-1.9499998092651367,0.19700008630752563,-0.4345160722732544,0.0,0.6,0.0
1759840257.0156884,2,-1.9499998092651367,0.19700008630752563,-0.4345155716760942,0.0,True,0.010656118392944336,-1.9499998092651367,0.19700008630752563,-0.4345160722732544,0.0,0.6,0.0
1759840257.0268948,2,-1.9499998092651367,0.19700008630752563,-0.4345155935102092,0.0,True,0.011206388473510742,-1.9499998092651367,0.19700008630752563,-0.4345160722732544,0.0,0.6,0.0
1759840257.0376575,2,-1.9499998092651367,0.19700008630752563,-0.4345156168558937,0.0,True,0.010762691497802734,-1.9499998092651367,0.19700008630752563,-0.4345160722732544,0.0,0.6,0.0
1759840257.048838,2,-1.9499998092651367,0.19700008630752563,-0.43451563365069745,0.0,True,0.011180400848388672,-1.9499998092651367,0.19700008630752563,-0.4345160722732544,0.0,0.6,0.0
1759840257.0595875,2,-1.9499998092651367,0.19700008630752563,-0.43451565291637095,0.0,True,0.010749578475952148,-1.9499998092651367,0.19700008630752563,-0.4345160722732544,0.0,0.6,0.0
1759840257.070146,2,-1.9499998092651367,0.19700008630752563,-0.434515671913136,0.0,True,0.010558605194091797,-1.9499998092651367,0.19700008630752563,-0.4345160722732544,0.0,0.6,0.0
1759840257.0816317,2,-1.9499998092651367,0.19700008630752563,-0.43451568121539275,0.0,True,0.011485576629638672,-1.9499998092651367,0.19700008630752563,-0.4345160722732544,0.0,0.6,0.0
1759840257.092301,2,-1.9499998092651367,0.19700008630752563,-0.43451569740744844,0.0,True,0.010669231414794922,-1.9499998092651367,0.19700008630752563,-0.4345160722732544,0.0,0.6,0.0
1759840257.1026294,2,-1.9499998092651367,0.19700008630752563,-0.4345157150616856,0.0,True,0.010328531265258789,-1.9499998092651367,0.19700008630752563,-0.4345160722732544,0.0,0.6,0.0
1759840257.1134021,2,-1.9499998092651367,0.19700008630752563,-0.43451572730196375,0.0,True,0.010772705078125,-1.9499998092651367,0.19700008630752563,-0.4345160722732544,0.0,0.6,0.0
1759840257.1291697,2,-1.9499998092651367,0.19700008630752563,-0.4345157036975422,0.0,True,0.015767574310302734,-1.9499998092651367,0.19700008630752563,-0.4345160722732544,0.0,0.6,0.0
1759840257.1393795,2,-1.9499998092651367,0.19700008630752563,-0.4345157282330039,0.0,True,0.010209798812866211,-1.9499998092651367,0.19700008630752563,-0.4345160722732544,0.0,0.6,0.0
1759840257.1506042,2,-1.9499998092651367,0.19700008630752563,-0.43451574440387475,0.0,True,0.011224746704101562,-1.9499998092651367,0.19700008630752563,-0.4345160722732544,0.0,0.6,0.0
1759840257.161394,2,-1.9499998092651367,0.19700008630752563,-0.4345157611203181,0.0,True,0.010789632797241211,-1.9499998092651367,0.19700008630752563,-0.4345160722732544,0.0,0.6,0.0
1759840257.172625,2,-1.9499998092651367,0.19700008630752563,-0.43451577300463384,0.0,True,0.011231184005737305,-1.9499998092651367,0.19700008630752563,-0.4345160722732544,0.0,0.6,0.0
1759840257.182923,2,-1.9499998092651367,0.19700008630752563,-0.43451578938578805,0.0,True,0.010298013687133789,-1.9499998092651367,0.19700008630752563,-0.4345160722732544,0.0,0.6,0.0
1759840257.1955996,2,-1.9499998092651367,0.19700008630752563,-0.4345157900828269,0.0,True,0.012676477432250977,-1.9499998092651367,0.19700008630752563,-0.4345160722732544,0.0,0.6,0.0
1759840257.2057538,2,-1.9499998092651367,0.19700008630752563,-0.434515806623466,0.0,True,0.010154247283935547,-1.9499998092651367,0.19700008630752563,-0.4345160722732544,0.0,0.6,0.0
1759840257.217517,2,-1.9499998092651367,0.19700008630752563,-0.43451581285085084,0.0,True,0.01176309585571289,-1.9499998092651367,0.19700008630752563,-0.4345160722732544,0.0,0.6,0.0
1759840257.2281997,2,-1.9499998092651367,0.19700008630752563,-0.43451582477716144,0.0,True,0.010682821273803711,-1.9499998092651367,0.19700008630752563,-0.4345160722732544,0.0,0.6,0.0
1759840257.239935,2,-1.9499998092651367,0.19700008630752563,-0.43451583051313847,0.0,True,0.011735200881958008,-1.9499998092651367,0.19700008630752563,-0.4345160722732544,0.0,0.6,0.0
1759840257.2499437,2,-1.9499998092651367,0.19700008630752563,-0.4345158448315445,0.0,True,0.010008811950683594,-1.9499998092651367,0.19700008630752563,-0.4345160722732544,0.0,0.6,0.0
1759840257.260757,2,-1.9499998092651367,0.19700008630752563,-0.43451585351816036,0.0,True,0.010813236236572266,-1.9499998092651367,0.19700008630752563,-0.4345160722732544,0.0,0.6,0.0
1759840257.271411,2,-1.9499998092651367,0.19700008630752563,-0.43451586198670533,0.0,True,0.010653972625732422,-1.9499998092651367,0.19700008630752563,-0.4345160722732544,0.0,0.6,0.0
1759840257.283087,2,-1.9499998092651367,0.19700008630752563,-0.43451586539903175,0.0,True,0.01167607307434082,-1.9499998092651367,0.19700008630752563,-0.4345160722732544,0.0,0.6,0.0
1759840257.2933655,2,-1.9499998092651367,0.19700008630752563,-0.4345158754024574,0.0,True,0.010278463363647461,-1.9499998092651367,0.19700008630752563,-0.4345160722732544,0.0,0.6,0.0
1759840257.3048491,2,-1.9499998092651367,0.19700008630752563,-0.43451587962936244,0.0,True,0.01148366928100586,-1.9499998092651367,0.19700008630752563,-0.4345160722732544,0.0,0.6,0.0
1759840257.3151324,2,-1.9499998092651367,0.19700008630752563,-0.4345158888338698,0.0,True,0.010283231735229492,-1.9499998092651367,0.19700008630752563,-0.4345160722732544,0.0,0.6,0.0
1759840257.3285933,2,-1.9499998092651367,0.19700008630752563,-0.4345158852769728,0.0,True,0.013460874557495117,-1.9499998092651367,0.19700008630752563,-0.4345160722732544,0.0,0.6,0.0
1759840257.3401003,2,-1.9499998092651367,0.19700008630752563,-0.43451589143474223,0.0,True,0.011507034301757812,-1.9499998092651367,0.19700008630752563,-0.4345160722732544,0.0,0.6,0.0
1759840257.3508656,2,-1.9499998092651367,0.19700008630752563,-0.43451590067247636,0.0,True,0.010765314102172852,-1.9499998092651367,0.19700008630752563,-0.4345160722732544,0.0,0.6,0.0
1759840257.3620853,2,-1.9499998092651367,0.19700008630752563,-0.43451590736549406,0.0,True,0.01121973991394043,-1.9499998092651367,0.19700008630752563,-0.4345160722732544,0.0,0.6,0.0
1759840257.3730414,2,-1.9499998092651367,0.19700008630752563,-0.4345159143524633,0.0,True,0.010956048965454102,-1.9499998092651367,0.19700008630752563,-0.4345160722732544,0.0,0.6,0.0
1759840257.3836718,2,-1.9499998092651367,0.19700008630752563,-0.43451592175103926,0.0,True,0.010630369186401367,-1.9499998092651367,0.19700008630752563,-0.4345160722732544,0.0,0.6,0.0
1759840257.394906,2,-1.9499998092651367,0.19700008630752563,-0.4345159264885794,0.0,True,0.011234283447265625,-1.9499998092651367,0.19700008630752563,-0.4345160722732544,0.0,0.6,0.0
1759840257.405196,2,-1.9499998092651367,0.19700008630752563,-0.43451593381222864,0.0,True,0.010289907455444336,-1.9499998092651367,0.19700008630752563,-0.4345160722732544,0.0,0.6,0.0
1759840257.4154935,2,-1.9499998092651367,0.19700008630752563,-0.43451594025565043,0.0,True,0.010297536849975586,-1.9499998092651367,0.19700008630752563,-0.4345160722732544,0.0,0.6,0.0
1759840257.4261415,2,-1.9499998092651367,0.19700008630752563,-0.4345159448949829,0.0,True,0.010648012161254883,-1.9499998092651367,0.19700008630752563,-0.4345160722732544,0.0,0.6,0.0
1759840257.4368684,2,-1.9499998092651367,0.19700008630752563,-0.4345159489772463,0.0,True,0.0107269287109375,-1.9499998092651367,0.19700008630752563,-0.4345160722732544,0.0,0.6,0.0
1759840257.447075,2,-1.9499998092651367,0.19700008630752563,-0.43451595425760914,0.0,True,0.010206460952758789,-1.9499998092651367,0.19700008630752563,-0.4345160722732544,0.0,0.6,0.0
1759840257.459187,2,-1.9499998092651367,0.19700008630752563,-0.434515954313337,0.0,True,0.012112140655517578,-1.9499998092651367,0.19700008630752563,-0.4345160722732544,0.0,0.6,0.0
1759840257.4695632,2,-1.9499998092651367,0.19700008630752563,-0.4345159594682233,0.0,True,0.010376214981079102,-1.9499998092651367,0.19700008630752563,-0.4345160722732544,0.0,0.6,0.0
1759840257.4811034,2,-1.9499998092651367,0.19700008630752563,-0.43451596167106743,0.0,True,0.01154017448425293,-1.9499998092651367,0.19700008630752563,-0.4345160722732544,0.0,0.6,0.0
1759840257.491749,2,-1.9499998092651367,0.19700008630752563,-0.43451596615715893,0.0,True,0.010645627975463867,-1.9499998092651367,0.19700008630752563,-0.4345160722732544,0.0,0.6,0.0
1759840257.503704,2,-1.9499998092651367,0.19700008630752563,-0.4345159675833443,0.0,True,0.011955022811889648,-1.9499998092651367,0.19700008630752563,-0.4345160722732544,0.0,0.6,0.0
1759840257.5151234,2,-1.9499998092651367,0.19700008630752563,-0.43451597063990555,0.0,True,0.011419296264648438,-1.9499998092651367,0.19700008630752563,-0.4345160722732544,0.0,0.6,0.0
1759840257.532105,2,-1.9499998092651367,0.19700008630752563,-0.4345159630402513,0.0,True,0.01698160171508789,-1.9499998092651367,0.19700008630752563,-0.4345160722732544,0.0,0.6,0.0
1759840257.5429907,2,-1.9499998092651367,0.19700008630752563,-0.43451597049106994,0.0,True,0.01088571548461914,-1.9499998092651367,0.19700008630752563,-0.4345160722732544,0.0,0.6,0.0
1759840257.553902,2,-1.9499998092651367,0.19700008630752563,-0.43451597741665005,0.0,True,0.010911226272583008,-1.9499998092651367,0.19700008630752563,-0.4345160722732544,0.0,0.6,0.0
1759840257.5641446,2,-1.9499998092651367,0.19700008630752563,-0.43451598426059945,0.0,True,0.010242700576782227,-1.9499998092651367,0.19700008630752563,-0.4345160722732544,0.0,0.6,0.0
1759840257.575306,2,-1.9499998092651367,0.19700008630752563,-0.4345159882408822,0.0,True,0.011161327362060547,-1.9499998092651367,0.19700008630752563,-0.4345160722732544,0.0,0.6,0.0
1759840257.585621,2,-1.9499998092651367,0.19700008630752563,-0.43451599304438915,0.0,True,0.010315179824829102,-1.9499998092651367,0.19700008630752563,-0.4345160722732544,0.0,0.6,0.0
1759840257.596841,2,-1.9499998092651367,0.19700008630752563,-0.4345159957078266,0.0,True,0.011219978332519531,-1.9499998092651367,0.19700008630752563,-0.4345160722732544,0.0,0.6,0.0
1759840257.6069562,2,-1.9499998092651367,0.19700008630752563,-0.4345159998711914,0.0,True,0.01011514663696289,-1.9499998092651367,0.19700008630752563,-0.4345160722732544,0.0,0.6,0.0
1759840257.618434,2,-1.9499998092651367,0.19700008630752563,-0.43451600146685365,0.0,True,0.01147770881652832,-1.9499998092651367,0.19700008630752563,-0.4345160722732544,0.0,0.6,0.0
1759840257.628456,2,-1.9499998092651367,0.19700008630752563,-0.43451600521625444,0.0,True,0.010022163391113281,-1.9499998092651367,0.19700008630752563,-0.4345160722732544,0.0,0.6,0.0
1759840257.6395698,2,-1.9499998092651367,0.19700008630752563,-0.4345160070105152,0.0,True,0.011113643646240234,-1.9499998092651367,0.19700008630752563,-0.4345160722732544,0.0,0.6,0.0
1759840257.6499903,2,-1.9499998092651367,0.19700008630752563,-0.4345160097021399,0.0,True,0.010420560836791992,-1.9499998092651367,0.19700008630752563,-0.4345160722732544,0.0,0.6,0.0
1759840257.6617174,2,-1.9499998092651367,0.19700008630752563,-0.4345160104971235,0.0,True,0.011727094650268555,-1.9499998092651367,0.19700008630752563,-0.4345160722732544,0.0,0.6,0.0
1759840257.6732543,2,-1.9499998092651367,0.19700008630752563,-0.43451601182133714,0.0,True,0.011536836624145508,-1.9499998092651367,0.19700008630752563,-0.4345160722732544,0.0,0.6,0.0
1759840257.6837592,2,-1.9499998092651367,0.19700008630752563,-0.4345160146270981,0.0,True,0.010504961013793945,-1.9499998092651367,0.19700008630752563,-0.4345160722732544,0.0,0.6,0.0
1759840257.6942382,2,-1.9499998092651367,0.19700008630752563,-0.4345160172166107,0.0,True,0.010478973388671875,-1.9499998092651367,0.19700008630752563,-0.4345160722732544,0.0,0.6,0.0
1759840257.705516,2,-1.9499998092651367,0.19700008630752563,-0.4345160186057182,0.0,True,0.011277914047241211,-1.9499998092651367,0.19700008630752563,-0.4345160722732544,0.0,0.6,0.0
1759840257.7169836,2,-1.9499998092651367,0.19700008630752563,-0.4345160198309479,0.0,True,0.011467456817626953,-1.9499998092651367,0.19700008630752563,-0.4345160722732544,0.0,0.6,0.0
1759840257.73238,2,-1.9499998092651367,0.19700008630752563,-0.4345160171615472,0.0,True,0.015396356582641602,-1.9499998092651367,0.19700008630752563,-0.4345160722732544,0.0,0.6,0.0
1759840257.7416182,2,-1.9499998092651367,0.19700008630752563,-0.4345160220198956,0.0,True,0.009238243103027344,-1.9499998092651367,0.19700008630752563,-0.4345160722732544,0.0,0.6,0.0
1759840257.752954,2,-1.9499998092651367,0.19700008630752563,-0.43451602419266244,0.0,True,0.01133584976196289,-1.9499998092651367,0.19700008630752563,-0.4345160722732544,0.0,0.6,0.0
1759840257.7635813,2,-1.9499998092651367,0.19700008630752563,-0.4345160266909449,0.0,True,0.010627269744873047,-1.9499998092651367,0.19700008630752563,-0.4345160722732544,0.0,0.6,0.0
1759840257.7739236,2,-1.9499998092651367,0.19700008630752563,-0.43451602912279697,0.0,True,0.01034235954284668,-1.9499998092651367,0.19700008630752563,-0.4345160722732544,0.0,0.6,0.0
1759840257.785437,2,-1.9499998092651367,0.19700008630752563,-0.4345160301778179,0.0,True,0.011513471603393555,-1.9499998092651367,0.19700008630752563,-0.4345160722732544,0.0,0.6,0.0
1759840257.7956474,2,-1.9499998092651367,0.19700008630752563,-0.43451603235321734,0.0,True,0.010210275650024414,-1.9499998092651367,0.19700008630752563,-0.4345160722732544,0.0,0.6,0.0
1759840257.806849,2,-1.9499998092651367,0.19700008630752563,-0.434516033474333,0.0,True,0.011201620101928711,-1.9499998092651367,0.19700008630752563,-0.4345160722732544,0.0,0.6,0.0
1759840257.8181949,2,-1.9499998092651367,0.19700008630752563,-0.4345160344619359,0.0,True,0.011345863342285156,-1.9499998092651367,0.19700008630752563,-0.4345160722732544,0.0,0.6,0.0
1759840257.8299067,2,-1.9499998092651367,0.19700008630752563,-0.43451603524380644,0.0,True,0.011711835861206055,-1.9499998092651367,0.19700008630752563,-0.4345160722732544,0.0,0.6,0.0
1759840257.8411772,2,-1.9499998092651367,0.19700008630752563,-0.4345160364841085,0.0,True,0.011270523071289062,-1.9499998092651367,0.19700008630752563,-0.4345160722732544,0.0,0.6,0.0
1759840257.8521643,2,-1.9499998092651367,0.19700008630752563,-0.4345160379277253,0.0,True,0.010987043380737305,-1.9499998092651367,0.19700008630752563,-0.4345160722732544,0.0,0.6,0.0
1759840257.8627694,2,-1.9499998092651367,0.19700008630752563,-0.4345160395327703,0.0,True,0.010605096817016602,-1.9499998092651367,0.19700008630752563,-0.4345160722732544,0.0,0.6,0.0
1759840257.8737779,2,-1.9499998092651367,0.19700008630752563,-0.43451604069478833,0.0,True,0.011008501052856445,-1.9499998092651367,0.19700008630752563,-0.4345160722732544,0.0,0.6,0.0
1759840257.884078,2,-1.9499998092651367,0.19700008630752563,-0.4345160422309249,0.0,True,0.010300159454345703,-1.9499998092651367,0.19700008630752563,-0.4345160722732544,0.0,0.6,0.0
1759840257.895286,2,-1.9499998092651367,0.19700008630752563,-0.4345160430291912,0.0,True,0.011208057403564453,-1.9499998092651367,0.19700008630752563,-0.4345160722732544,0.0,0.6,0.0
1759840257.9067445,2,-1.9499998092651367,0.19700008630752563,-0.4345160436819473,0.0,True,0.011458396911621094,-1.9499998092651367,0.19700008630752563,-0.4345160722732544,0.0,0.6,0.0
1759840257.9183095,2,-1.9499998092651367,0.19700008630752563,-0.43451604435749047,0.0,True,0.011564970016479492,-1.9499998092651367,0.19700008630752563,-0.4345160722732544,0.0,0.6,0.0
1759840257.9357266,2,-1.9499998092651367,0.19700008630752563,-0.43451604196484794,0.0,True,0.017417192459106445,-1.9499998092651367,0.19700008630752563,-0.4345160722732544,0.0,0.6,0.0
1759840257.9461706,2,-1.9499998092651367,0.19700008630752563,-0.43451604427906076,0.0,True,0.010443925857543945,-1.9499998092651367,0.19700008630752563,-0.4345160722732544,0.0,0.6,0.0
1759840257.956311,2,-1.9499998092651367,0.19700008630752563,-0.4345160465478273,0.0,True,0.010140419006347656,-1.9499998092651367,0.19700008630752563,-0.4345160722732544,0.0,0.6,0.0
1759840257.9670293,2,-1.9499998092651367,0.19700008630752563,-0.434516048065543,0.0,True,0.010718345642089844,-1.9499998092651367,0.19700008630752563,-0.4345160722732544,0.0,0.6,0.0
1759840257.978476,2,-1.9499998092651367,0.19700008630752563,-0.4345160489641806,0.0,True,0.011446714401245117,-1.9499998092651367,0.19700008630752563,-0.4345160722732544,0.0,0.6,0.0
1759840257.9891777,2,-1.9499998092651367,0.19700008630752563,-0.4345160501240102,0.0,True,0.010701656341552734,-1.9499998092651367,0.19700008630752563,-0.4345160722732544,0.0,0.6,0.0
1759840257.999876,2,-1.9499998092651367,0.19700008630752563,-0.434516051151693,0.0,True,0.010698318481445312,-1.9499998092651367,0.19700008630752563,-0.4345160722732544,0.0,0.6,0.0
1759840258.0105724,2,-1.9499998092651367,0.19700008630752563,-0.4345160520547786,0.0,True,0.0106964111328125,-1.9499998092651367,0.19700008630752563,-0.4345160722732544,0.0,0.6,0.0
1759840258.0218616,2,-1.9499998092651367,0.19700008630752563,-0.4345160526208005,0.0,True,0.011289119720458984,-1.9499998092651367,0.19700008630752563,-0.4345160722732544,0.0,0.6,0.0
1759840258.0325267,2,-1.9499998092651367,0.19700008630752563,-0.4345160534342636,0.0,True,0.010665178298950195,-1.9499998092651367,0.19700008630752563,-0.4345160722732544,0.0,0.6,0.0
1759840258.0439208,2,-1.9499998092651367,0.19700008630752563,-0.4345160539100945,0.0,True,0.011394023895263672,-1.9499998092651367,0.19700008630752563,-0.4345160722732544,0.0,0.6,0.0
1759840258.0561805,2,-1.9499998092651367,0.19700008630752563,-0.43451605408955274,0.0,True,0.012259721755981445,-1.9499998092651367,0.19700008630752563,-0.4345160722732544,0.0,0.6,0.0
1759840258.0666375,2,-1.9499998092651367,0.19700008630752563,-0.4345160550335567,0.0,True,0.010457038879394531,-1.9499998092651367,0.19700008630752563,-0.4345160722732544,0.0,0.6,0.0
1759840258.078364,2,-1.9499998092651367,0.19700008630752563,-0.43451605545630656,0.0,True,0.01172637939453125,-1.9499998092651367,0.19700008630752563,-0.4345160722732544,0.0,0.6,0.0
1759840258.0890253,2,-1.9499998092651367,0.19700008630752563,-0.43451605624590073,0.0,True,0.01066136360168457,-1.9499998092651367,0.19700008630752563,-0.4345160722732544,0.0,0.6,0.0
1759840258.1007543,2,-1.9499998092651367,0.19700008630752563,-0.43451605662505166,0.0,True,0.011729001998901367,-1.9499998092651367,0.19700008630752563,-0.4345160722732544,0.0,0.6,0.0
1759840258.1114566,2,-1.9499998092651367,0.19700008630752563,-0.43451605734268917,0.0,True,0.010702371597290039,-1.9499998092651367,0.19700008630752563,-0.4345160722732544,0.0,0.6,0.0
1759840258.1224544,2,-1.9499998092651367,0.19700008630752563,-0.43451605791198666,0.0,True,0.010997772216796875,-1.9499998092651367,0.19700008630752563,-0.4345160722732544,0.0,0.6,0.0
1759840258.1373029,2,-1.9499998092651367,0.19700008630752563,-0.4345160573485245,0.0,True,0.014848470687866211,-1.9499998092651367,0.19700008630752563,-0.4345160722732544,0.0,0.6,0.0
1759840258.1484907,2,-1.9499998092651367,0.19700008630752563,-0.4345160581019307,0.0,True,0.01118779182434082,-1.9499998092651367,0.19700008630752563,-0.4345160722732544,0.0,0.6,0.0
1759840258.158618,2,-1.9499998092651367,0.19700008630752563,-0.434516059115996,0.0,True,0.01012730598449707,-1.9499998092651367,0.19700008630752563,-0.4345160722732544,0.0,0.6,0.0
1759840258.1692703,2,-1.9499998092651367,0.19700008630752563,-0.43451605981652364,0.0,True,0.010652303695678711,-1.9499998092651367,0.19700008630752563,-0.4345160722732544,0.0,0.6,0.0
1759840258.1803942,2,-1.9499998092651367,0.19700008630752563,-0.43451606028499157,0.0,True,0.011123895645141602,-1.9499998092651367,0.19700008630752563,-0.4345160722732544,0.0,0.6,0.0
1759840258.1911824,2,-1.9499998092651367,0.19700008630752563,-0.4345160607934062,0.0,True,0.010788202285766602,-1.9499998092651367,0.19700008630752563,-0.4345160722732544,0.0,0.6,0.0
1759840258.2033777,2,-1.9499998092651367,0.19700008630752563,-0.43451606093491435,0.0,True,0.012195348739624023,-1.9499998092651367,0.19700008630752563,-0.4345160722732544,0.0,0.6,0.0
1759840258.213574,2,-1.9499998092651367,0.19700008630752563,-0.4345160615767565,0.0,True,0.010196208953857422,-1.9499998092651367,0.19700008630752563,-0.4345160722732544,0.0,0.6,0.0
1759840258.2248032,2,-1.9499998092651367,0.19700008630752563,-0.43451606192424563,0.0,True,0.011229276657104492,-1.9499998092651367,0.19700008630752563,-0.4345160722732544,0.0,0.6,0.0
1759840258.2350602,2,-1.9499998092651367,0.19700008630752563,-0.43451606245133334,0.0,True,0.01025700569152832,-1.9499998092651367,0.19700008630752563,-0.4345160722732544,0.0,0.6,0.0
1759840258.2464814,2,-1.9499998092651367,0.19700008630752563,-0.4345160626817357,0.0,True,0.01142120361328125,-1.9499998092651367,0.19700008630752563,-0.4345160722732544,0.0,0.6,0.0
1759840258.257819,2,-1.9499998092651367,0.19700008630752563,-0.43451606293735523,0.0,True,0.011337518692016602,-1.9499998092651367,0.19700008630752563,-0.4345160722732544,0.0,0.6,0.0
1759840258.2686744,2,-1.9499998092651367,0.19700008630752563,-0.4345160632990126,0.0,True,0.010855436325073242,-1.9499998092651367,0.19700008630752563,-0.4345160722732544,0.0,0.6,0.0
1759840258.2794302,2,-1.9499998092651367,0.19700008630752563,-0.43451606365907125,0.0,True,0.010755777359008789,-1.9499998092651367,0.19700008630752563,-0.4345160722732544,0.0,0.6,0.0
1759840258.292065,2,-1.9499998092651367,0.19700008630752563,-0.434516063664546,0.0,True,0.012634754180908203,-1.9499998092651367,0.19700008630752563,-0.4345160722732544,0.0,0.6,0.0
1759840258.3027651,2,-1.9499998092651367,0.19700008630752563,-0.4345160640696726,0.0,True,0.010700225830078125,-1.9499998092651367,0.19700008630752563,-0.4345160722732544,0.0,0.6,0.0
1759840258.3140717,2,-1.9499998092651367,0.19700008630752563,-0.43451606435269596,0.0,True,0.011306524276733398,-1.9499998092651367,0.19700008630752563,-0.4345160722732544,0.0,0.6,0.0
1759840258.357609,2,-1.9499998092651367,0.19700008630752563,-0.43451606013496935,0.0,True,0.04353737831115723,-1.9499998092651367,0.19700008630752563,-0.4345160722732544,0.0,0.6,0.0
1759840258.367119,2,-1.9499998092651367,0.19700008630752563,-0.43451606211664995,0.0,True,0.009510040283203125,-1.9499998092651367,0.19700008630752563,-0.4345160722732544,0.0,0.6,0.0
1759840258.3772466,2,-1.9499998092651367,0.19700008630752563,-0.43451606374723895,0.0,True,0.010127544403076172,-1.9499998092651367,0.19700008630752563,-0.4345160722732544,0.0,0.6,0.0
1759840258.3872669,2,-1.9499998092651367,0.19700008630752563,-0.4345160649123905,0.0,True,0.010020256042480469,-1.9499998092651367,0.19700008630752563,-0.4345160722732544,0.0,0.6,0.0
1759840258.3981504,2,-1.9499998092651367,0.19700008630752563,-0.43451606564824274,0.0,True,0.010883569717407227,-1.9499998092651367,0.19700008630752563,-0.4345160722732544,0.0,0.6,0.0
1759840258.408932,2,-1.9499998092651367,0.19700008630752563,-0.43451606620398486,0.0,True,0.010781526565551758,-1.9499998092651367,0.19700008630752563,-0.4345160722732544,0.0,0.6,0.0
1759840258.4201763,2,-1.9499998092651367,0.19700008630752563,-0.43451606658430286,0.0,True,0.01124429702758789,-1.9499998092651367,0.19700008630752563,-0.4345160722732544,0.0,0.6,0.0
1759840258.430452,2,-1.9499998092651367,0.19700008630752563,-0.43451606699197143,0.0,True,0.010275840759277344,-1.9499998092651367,0.19700008630752563,-0.4345160722732544,0.0,0.6,0.0
1759840258.441837,2,-1.9499998092651367,0.19700008630752563,-0.43451606721041713,0.0,True,0.011384963989257812,-1.9499998092651367,0.19700008630752563,-0.4345160722732544,0.0,0.6,0.0
1759840258.4531236,2,-1.9499998092651367,0.19700008630752563,-0.4345160674089321,0.0,True,0.011286497116088867,-1.9499998092651367,0.19700008630752563,-0.4345160722732544,0.0,0.6,0.0
1759840258.4634748,2,-1.9499998092651367,0.19700008630752563,-0.434516067679251,0.0,True,0.010351181030273438,-1.9499998092651367,0.19700008630752563,-0.4345160722732544,0.0,0.6,0.0
1759840258.4746897,2,-1.9499998092651367,0.19700008630752563,-0.43451606783159846,0.0,True,0.011214971542358398,-1.9499998092651367,0.19700008630752563,-0.4345160722732544,0.0,0.6,0.0
1759840258.485296,2,-1.9499998092651367,0.19700008630752563,-0.43451606802573295,0.0,True,0.01060628890991211,-1.9499998092651367,0.19700008630752563,-0.4345160722732544,0.0,0.6,0.0
1759840258.4961772,2,-1.9499998092651367,0.19700008630752563,-0.4345160681766025,0.0,True,0.010881185531616211,-1.9499998092651367,0.19700008630752563,-0.4345160722732544,0.0,0.6,0.0
1759840258.5068028,2,-1.9499998092651367,0.19700008630752563,-0.43451606833702705,0.0,True,0.010625600814819336,-1.9499998092651367,0.19700008630752563,-0.4345160722732544,0.0,0.6,0.0
1759840258.517531,2,-1.9499998092651367,0.19700008630752563,-0.4345160684753182,0.0,True,0.010728120803833008,-1.9499998092651367,0.19700008630752563,-0.4345160722732544,0.0,0.6,0.0
1759840258.528528,2,-1.9499998092651367,0.19700008630752563,-0.43451606858284286,0.0,True,0.01099705696105957,-1.9499998092651367,0.19700008630752563,-0.4345160722732544,0.0,0.6,0.0
1759840258.539866,2,-1.9499998092651367,0.19700008630752563,-0.4345160686638252,0.0,True,0.011337995529174805,-1.9499998092651367,0.19700008630752563,-0.4345160722732544,0.0,0.6,0.0
1759840258.5504987,2,-1.9499998092651367,0.19700008630752563,-0.4345160688044487,0.0,True,0.010632753372192383,-1.9499998092651367,0.19700008630752563,-0.4345160722732544,0.0,0.6,0.0
1759840258.566169,2,-1.9499998092651367,0.19700008630752563,-0.43451606858431546,0.0,True,0.015670299530029297,-1.9499998092651367,0.19700008630752563,-0.4345160722732544,0.0,0.6,0.0
1759840258.5762641,2,-1.9499998092651367,0.19700008630752563,-0.434516068838942,0.0,True,0.01009511947631836,-1.9499998092651367,0.19700008630752563,-0.4345160722732544,0.0,0.6,0.0
1759840258.58769,2,-1.9499998092651367,0.19700008630752563,-0.4345160689853955,0.0,True,0.011425971984863281,-1.9499998092651367,0.19700008630752563,-0.4345160722732544,0.0,0.6,0.0
1759840258.5990837,2,-1.9499998092651367,0.19700008630752563,-0.43451606911558827,0.0,True,0.011393547058105469,-1.9499998092651367,0.19700008630752563,-0.4345160722732544,0.0,0.6,0.0
1759840258.6097648,2,-1.9499998092651367,0.19700008630752563,-0.43451606927922803,0.0,True,0.01068115234375,-1.9499998092651367,0.19700008630752563,-0.4345160722732544,0.0,0.6,0.0
1759840258.6205873,2,-1.9499998092651367,0.19700008630752563,-0.434516069413764,0.0,True,0.010822534561157227,-1.9499998092651367,0.19700008630752563,-0.4345160722732544,0.0,0.6,0.0
