timestamp,observer_vehicle_id,vehicle_0_x,vehicle_0_y,vehicle_0_theta,vehicle_0_velocity,vehicle_1_x,vehicle_1_y,vehicle_1_theta,vehicle_1_velocity
1759682225.4816427,0,-1.205,-0.83,-0.7801621756414646,0.0,-0.2841393094062805,-0.05731916904449463,1.7674180751020796,0.0
1759682225.4920294,0,-1.205,-0.83,-0.7801621756414646,0.0,-0.5187314602760671,-0.10464323406145445,-3.032635100101828,0.0
1759682225.5022762,0,-1.205,-0.83,-0.7801621756414646,0.0,-0.7128994435070852,-0.14381256785445526,-0.7781182542542087,0.0
1759682225.5125246,0,-1.205,-0.83,-0.7801621756414646,0.0,-0.873975007461711,-0.17630619747066217,1.1163583632932907,0.0
1759682225.523397,0,-1.205,-0.83,-0.7801621756414646,0.0,-1.0077939664870763,-0.20330137652477043,2.7162674533778457,0.0
1759682225.5346644,0,-1.205,-0.83,-0.7801621756414646,0.0,-1.1191762753816514,-0.22577043019226398,-2.207925363451799,0.0
1759682225.5454152,0,-1.205,-0.83,-0.7801621756414646,0.0,-1.21217462814697,-0.2445309048135098,-0.0979244645186019,0.0
1759682225.5563045,0,-1.205,-0.83,-0.7801621756414646,0.0,-1.2899902353884463,-0.26022857774406694,1.6947853530462622,0.0
1759682225.56705,0,-1.205,-0.83,-0.7801621756414646,0.0,-1.355267651069497,-0.2733969324924057,-3.0573264737047117,0.0
1759682225.5774822,0,-1.205,-0.83,-0.7801621756414646,0.0,-1.4101773870603,-0.284473824479023,-0.8340586048343208,0.0
1759682225.587731,0,-1.205,-0.83,-0.7801621756414646,0.0,-1.4564813124713094,-0.29381467398556665,1.067483665679583,0.0
1759682225.5979931,0,-1.205,-0.83,-0.7801621756414646,0.0,-1.4956129017349142,-0.30170865452865697,2.701622387697079,0.0
1759682225.6081922,0,-1.205,-0.83,-0.7801621756414646,0.0,-1.52875823778329,-0.30839503355858866,-2.170044220440301,0.0
1759682225.6195498,0,-1.205,-0.83,-0.7801621756414646,0.0,-1.5568458184584237,-0.3140611161155321,-0.08729767179510858,0.0
1759682225.6309695,0,-1.205,-0.83,-0.7801621756414646,0.0,-1.5807013214956152,-0.318873465431392,1.713244338218484,0.0
1759682225.642098,0,-1.205,-0.83,-0.7801621756414646,0.0,-1.6010190642775268,-0.32297214553148945,-3.005087662582846,0.0
1759682225.6529367,0,-1.205,-0.83,-0.7801621756414646,0.0,-1.6183709700481863,-0.32647252998090204,-0.8238922694482482,0.0
1759682225.663927,0,-1.205,-0.83,-0.7801621756414646,0.0,-1.633219266496858,-0.3294678635584439,1.0745825295801839,0.0
1759682225.6789567,0,-1.2049998061259588,-0.8299996288021405,-0.7230000858972119,0.0,-1.6458712477620567,-0.3320201364361497,2.7367458479842823,0.0
1759682225.689342,0,-1.2049998050413424,-0.829999626725497,-0.7181192895616065,0.0,-1.6567653833674678,-0.33421780067931617,-2.0837183492936644,0.0
1759682225.6995018,0,-1.2049998047010528,-0.8299996260739668,-0.7176613561776399,0.0,-1.6661689690209323,-0.3361147776122917,-0.03457145274162852,0.0
1759682225.7100768,0,-1.2049998045745929,-0.8299996258318424,-0.7175988700052542,0.0,-1.6742966911507278,-0.33775437573645795,1.7697184557229548,0.0
1759682225.7205803,0,-1.2049998045264814,-0.8299996257397265,-0.7175904701775195,0.0,-1.6813371538565243,-0.33917464198834774,-2.9170061909088747,0.0
1759682225.7320862,0,-1.2049998045081152,-0.8299996257045619,-0.717594723419932,0.0,-1.687437565669705,-0.3404052726134851,-0.7820329972408151,0.0
1759682225.7426143,0,-1.2049998045011003,-0.8299996256911313,-0.7176075008176213,0.0,-1.6927443321601636,-0.34147580187668997,1.1101002147274175,0.0
1759682225.7532887,0,-1.204999804498421,-0.8299996256860013,-0.7176197230630432,0.0,-1.6973924556225457,-0.3424134636702541,2.793997469789558,0.0
1759682225.7641087,0,-1.2049998044973975,-0.8299996256840418,-0.7176303090128062,0.0,-1.7015292855040656,-0.3432479826665262,-1.990519280384723,0.0
1759682225.7750032,0,-1.2049998044970067,-0.8299996256832933,-0.7176393150220761,0.0,-1.7052110640986184,-0.3439907045732083,0.034446119139753394,0.0
1759682225.7858872,0,-1.2049998044968575,-0.8299996256830074,-0.7176469579422431,0.0,-1.7084878470477705,-0.34465172707015534,1.8366653247165365,0.0
1759682225.7961345,0,-1.2049998044968004,-0.8299996256828983,-0.7176539450149608,0.0,-1.7114041838725158,-0.3452400370924383,-2.8425448894997127,0.0
1759682225.8065605,0,-1.2049998044967787,-0.8299996256828566,-0.7176593930823286,0.0,-1.7114041838725158,-0.3452400370924383,-2.8425448894997127,0.0
1759682225.8171258,0,-1.2049998044967702,-0.8299996256828407,-0.7176637582691541,0.0,-1.7114041838725158,-0.3452400370924383,-2.8425448894997127,0.0
1759682225.827474,0,-1.2049998044967671,-0.8299996256828346,-0.7176676001414428,0.0,-1.7114041838725158,-0.3452400370924383,-2.8425448894997127,0.0
1759682225.838848,0,-1.2049998044967658,-0.8299996256828323,-0.717670176848193,0.0,-1.7114041838725158,-0.3452400370924383,-2.8425448894997127,0.0
1759682225.849288,0,-1.2049998044967654,-0.8299996256828314,-0.7176731494445062,0.0,-1.7114041838725158,-0.3452400370924383,-2.8425448894997127,0.0
1759682225.8607938,0,-1.2049998044967651,-0.829999625682831,-0.717675123797907,0.0,-1.7114041838725158,-0.3452400370924383,-2.8425448894997127,0.0
1759682225.871058,0,-1.2049998044967651,-0.8299996256828309,-0.7176776284025159,0.0,-1.7114041838725158,-0.3452400370924383,-2.8425448894997127,0.0
1759682225.8831296,0,-1.2049998044967651,-0.8299996256828308,-0.7176788965036351,0.0,-1.7114041838725158,-0.3452400370924383,-2.8425448894997127,0.0
1759682225.8941793,0,-1.2049998044967651,-0.8299996256828308,-0.7176806601905703,0.0,-1.7114041838725158,-0.3452400370924383,-2.8425448894997127,0.0
1759682225.9055943,0,-1.2049998044967651,-0.8299996256828308,-0.7176821151066282,0.0,-1.7114041838725158,-0.3452400370924383,-2.8425448894997127,0.0
1759682225.9162095,0,-1.2049998044967651,-0.8299996256828308,-0.7176837663565578,0.0,-1.7114041838725158,-0.3452400370924383,-2.8425448894997127,0.0
1759682225.9275088,0,-1.2049998044967651,-0.8299996256828308,-0.7176849360490607,0.0,-1.7114041838725158,-0.3452400370924383,-2.8425448894997127,0.0
1759682225.938532,0,-1.2049998044967651,-0.8299996256828308,-0.7176861000197956,0.0,-1.7114041838725158,-0.3452400370924383,-2.8425448894997127,0.0
1759682225.9490566,0,-1.2049998044967651,-0.8299996256828308,-0.7176873164476234,0.0,-1.7114041838725158,-0.3452400370924383,-2.8425448894997127,0.0
1759682225.960305,0,-1.2049998044967651,-0.8299996256828308,-0.7176881414105871,0.0,-1.7114041838725158,-0.3452400370924383,-2.8425448894997127,0.0
1759682225.9707947,0,-1.2049998044967651,-0.8299996256828308,-0.7176891363350625,0.0,-1.7114041838725158,-0.3452400370924383,-2.8425448894997127,0.0
1759682225.980997,0,-1.2049998044967651,-0.8299996256828308,-0.7176900932936158,0.0,-1.7114041838725158,-0.3452400370924383,-2.8425448894997127,0.0
1759682225.9915388,0,-1.2049998044967651,-0.8299996256828308,-0.7176908179089558,0.0,-1.7114041838725158,-0.3452400370924383,-2.8425448894997127,0.0
1759682226.0020328,0,-1.2049998044967651,-0.8299996256828308,-0.7176914749406968,0.0,-1.7114041838725158,-0.3452400370924383,-2.8425448894997127,0.0
1759682226.0124722,0,-1.2049998044967651,-0.8299996256828308,-0.7176920846961146,0.0,-1.7114041838725158,-0.3452400370924383,-2.8425448894997127,0.0
1759682226.0231547,0,-1.2049998044967651,-0.8299996256828308,-0.7176925812488513,0.0,-1.7114041838725158,-0.3452400370924383,-2.8425448894997127,0.0
1759682226.0332181,0,-1.2049998044967651,-0.8299996256828308,-0.7176931930090227,0.0,-1.7114041838725158,-0.3452400370924383,-2.8425448894997127,0.0
1759682226.0434322,0,-1.2049998044967651,-0.8299996256828308,-0.7176937026929657,0.0,-1.7114041838725158,-0.3452400370924383,-2.8425448894997127,0.0
1759682226.0539112,0,-1.2049998044967651,-0.8299996256828308,-0.7176941027930113,0.0,-1.7114041838725158,-0.3452400370924383,-2.8425448894997127,0.0
1759682226.0649,0,-1.2049998044967651,-0.8299996256828308,-0.7176943779660121,0.0,-1.7114041838725158,-0.3452400370924383,-2.8425448894997127,0.0
1759682226.082284,0,-1.2049998044967651,-0.8299996256828308,-0.7176934593427973,0.0,-1.7114041838725158,-0.3452400370924383,-2.8425448894997127,0.0
1759682226.0925784,0,-1.2049998044967651,-0.8299996256828308,-0.7176942739342618,0.0,-1.7114041838725158,-0.3452400370924383,-2.8425448894997127,0.0
1759682226.1031566,0,-1.2049998044967651,-0.8299996256828308,-0.7176949781925579,0.0,-1.7114041838725158,-0.3452400370924383,-2.8425448894997127,0.0
1759682226.1143453,0,-1.2049998044967651,-0.8299996256828308,-0.7176954506546629,0.0,-1.7114041838725158,-0.3452400370924383,-2.8425448894997127,0.0
1759682226.1245415,0,-1.2049998044967651,-0.8299996256828308,-0.7176960174844282,0.0,-1.7114041838725158,-0.3452400370924383,-2.8425448894997127,0.0
1759682226.1353488,0,-1.2049998044967651,-0.8299996256828308,-0.7176963985698546,0.0,-1.7114041838725158,-0.3452400370924383,-2.8425448894997127,0.0
1759682226.1457853,0,-1.2049998044967651,-0.8299996256828308,-0.717696786120726,0.0,-1.7114041838725158,-0.3452400370924383,-2.8425448894997127,0.0
1759682226.1562047,0,-1.2049998044967651,-0.8299996256828308,-0.7176971286080978,0.0,-1.7114041838725158,-0.3452400370924383,-2.8425448894997127,0.0
1759682226.1665456,0,-1.2049998044967651,-0.8299996256828308,-0.7176974413944759,0.0,-1.7114041838725158,-0.3452400370924383,-2.8425448894997127,0.0
1759682226.1769853,0,-1.2049998044967651,-0.8299996256828308,-0.7176977064779209,0.0,-1.7114041838725158,-0.3452400370924383,-2.8425448894997127,0.0
1759682226.187644,0,-1.2049998044967651,-0.8299996256828308,-0.7176979203356666,0.0,-1.7114041838725158,-0.3452400370924383,-2.8425448894997127,0.0
1759682226.198557,0,-1.2049998044967651,-0.8299996256828308,-0.7176980944171092,0.0,-1.7114041838725158,-0.3452400370924383,-2.8425448894997127,0.0
1759682226.2091994,0,-1.2049998044967651,-0.8299996256828308,-0.7176983049738476,0.0,-1.7114041838725158,-0.3452400370924383,-2.8425448894997127,0.0
1759682226.219727,0,-1.2049998044967651,-0.8299996256828308,-0.7176985219247953,0.0,-1.7114041838725158,-0.3452400370924383,-2.8425448894997127,0.0
1759682226.2300677,0,-1.2049998044967651,-0.8299996256828308,-0.7176987460435722,0.0,-1.7114041838725158,-0.3452400370924383,-2.8425448894997127,0.0
1759682226.2405994,0,-1.2049998044967651,-0.8299996256828308,-0.7176989304666499,0.0,-1.7114041838725158,-0.3452400370924383,-2.8425448894997127,0.0
1759682226.2511365,0,-1.2049998044967651,-0.8299996256828308,-0.7176991037550238,0.0,-1.7114041838725158,-0.3452400370924383,-2.8425448894997127,0.0
1759682226.2622275,0,-1.2049998044967651,-0.8299996256828308,-0.7176992144654832,0.0,-1.7114041838725158,-0.3452400370924383,-2.8425448894997127,0.0
1759682226.278409,0,-1.2049998044967651,-0.8299996256828308,-0.7176988553086048,0.0,-1.7160860561206286,-0.34618449704612736,-2.4209307004658505,0.0
1759682226.2846365,0,-1.2049998044967651,-0.8299996256828308,-0.7176995704080849,0.0,-1.7198153873436208,-0.34693680377461156,-2.0850951893934586,0.0
1759682226.2949307,0,-1.2049998044967651,-0.8299996256828308,-0.7176997873344817,0.0,-1.7227781218059735,-0.34753446725298487,-1.818293614837241,0.0
1759682226.3052294,0,-1.2049998044967651,-0.8299996256828308,-0.717699947523105,0.0,-1.7251376024934748,-0.34801043816862576,-1.6058165364626642,0.0
1759682226.316594,0,-1.2049998044967651,-0.8299996256828308,-0.7177000032168621,0.0,-1.7270191523331977,-0.34838999753725325,-1.4363783143665054,0.0
1759682226.3272586,0,-1.2049998044967651,-0.8299996256828308,-0.717700132662781,0.0,-1.7285247094301706,-0.34869370902503605,-1.3007991697753156,0.0
1759682226.3377657,0,-1.2049998044967651,-0.8299996256828308,-0.7177002751731116,0.0,-1.729732633986581,-0.34893737999898605,-1.1920225724492532,0.0
1759682226.3479679,0,-1.2049998044967651,-0.8299996256828308,-0.7177004319096767,0.0,-1.7307044727926206,-0.3491334261072743,-1.1045060815314909,0.0
1759682226.357999,0,-1.2049998044967651,-0.8299996256828308,-0.7177005854571447,0.0,-1.7314883804769026,-0.3492915614377486,-1.033913253476605,0.0
1759682226.368366,0,-1.2049998044967651,-0.8299996256828308,-0.7177006976754754,0.0,-1.7321219418263298,-0.3494193678559994,-0.9768594851578101,0.0
1759682226.3788764,0,-1.2049998044967651,-0.8299996256828308,-0.7177007928839316,0.0,-1.7326351401886262,-0.34952289381224116,-0.9306447018688638,0.0
1759682226.389296,0,-1.2049998044967651,-0.8299996256828308,-0.7177008929724575,0.0,-1.7330518932037084,-0.34960696413976516,-0.8931150609112016,0.0
1759682226.3997855,0,-1.2049998044967651,-0.8299996256828308,-0.717700986057384,0.0,-1.7333911095230206,-0.3496753932237406,-0.8625677914013435,0.0
1759682226.4103477,0,-1.2049998044967651,-0.8299996256828308,-0.7177010729317832,0.0,-1.7337107428596976,-0.3497398718917515,-0.8337840179684817,0.0
1759682226.4211202,0,-1.2049998044967651,-0.8299996256828308,-0.7177011469414136,0.0,-1.7339640895619493,-0.34979097875712406,-0.8109695201023139,0.0
1759682226.4325666,0,-1.2049998044967651,-0.8299996256828308,-0.7177011855559705,0.0,-1.7341652724819039,-0.34983156278018024,-0.7928524999981514,0.0
1759682226.4430044,0,-1.2049998044967651,-0.8299996256828308,-0.7177012943540859,0.0,-1.7343256333905321,-0.3498639119021362,-0.7784116030959998,0.0
1759682226.4532301,0,-1.2049998044967651,-0.8299996256828308,-0.7177014094060237,0.0,-1.7344538000959009,-0.34988976658466536,-0.7668698739155675,0.0
1759682226.4635165,0,-1.2049998044967651,-0.8299996256828308,-0.7177015090430423,0.0,-1.7345564767703696,-0.34991047924021734,-0.7576235851352116,0.0
1759682226.4738195,0,-1.2049998044967651,-0.8299996256828308,-0.7177015982154682,0.0,-1.734638930517586,-0.3499271123857093,-0.7501984210292412,0.0
1759682226.4870431,0,-1.2049998044967651,-0.8299996256828308,-0.7177015398597106,0.0,-1.7347050935086272,-0.34994045924614103,-0.7442402798554455,0.0
1759682226.4974203,0,-1.2049998044967651,-0.8299996256828308,-0.7177016522446813,0.0,-1.7347585135561516,-0.349951235511049,-0.7394296722989796,0.0
1759682226.5078871,0,-1.2049998044967651,-0.8299996256828308,-0.7177017566038337,0.0,-1.7348017445631478,-0.34995995637157273,-0.7355366130718429,0.0
1759682226.518633,0,-1.2049998044967651,-0.8299996256828308,-0.7177018364843324,0.0,-1.7348368035479909,-0.34996702871473945,-0.7323794646748754,0.0
1759682226.5297444,0,-1.2049998044967651,-0.8299996256828308,-0.717701895078994,0.0,-1.7348652936018913,-0.34997277592729925,-0.7298138647750309,0.0
1759682226.5401218,0,-1.2049998044967651,-0.8299996256828308,-0.7177019840591079,0.0,-1.734888524043751,-0.3499774621342011,-0.7277219059631435,0.0
1759682226.551149,0,-1.2049998044967651,-0.8299996256828308,-0.7177020397967055,0.0,-1.7349074963069309,-0.3499812893515737,-0.7260134066853349,0.0
1759682226.561525,0,-1.2049998044967651,-0.8299996256828308,-0.7177021193389201,0.0,-1.7349258368355354,-0.3499849891310376,-0.7243617966703156,0.0
1759682226.5718317,0,-1.2049998044967651,-0.8299996256828308,-0.7177021946648345,0.0,-1.7349403797796041,-0.34998792283523833,-0.7230521685461837,0.0
1759682226.5821085,0,-1.2049998044967651,-0.8299996256828308,-0.7177022631424048,0.0,-1.7349519402168387,-0.34999025488733987,-0.7220111225476423,0.0
1759682226.592582,0,-1.2049998044967651,-0.8299996256828308,-0.7177023182362525,0.0,-1.7349611504112348,-0.3499921128320491,-0.7211817217363133,0.0
1759682226.6030092,0,-1.2049998044967651,-0.8299996256828308,-0.717702371689267,0.0,-1.73496850673986,-0.34999359680201336,-0.7205192661281176,0.0
1759682226.613745,0,-1.2049998044967651,-0.8299996256828308,-0.7177024127219838,0.0,-1.7349743948957983,-0.34999478460193406,-0.7199890231058155,0.0
1759682226.6243343,0,-1.2049998044967651,-0.8299996256828308,-0.7177024589912104,0.0,-1.7349791205252079,-0.3499957378888878,-0.7195634684760558,0.0
1759682226.6348808,0,-1.2049998044967651,-0.8299996256828308,-0.7177025060219986,0.0,-1.734982922732208,-0.3499965048966268,-0.7192210703208024,0.0
1759682226.6453085,0,-1.2049998044967651,-0.8299996256828308,-0.7177025549771318,0.0,-1.7349859898868454,-0.34999712362447183,-0.7189448654509201,0.0
1759682226.6566308,0,-1.2049998044967651,-0.8299996256828308,-0.7177025763553821,0.0,-1.7349884676233436,-0.3499976234507751,-0.7187217391439712,0.0
1759682226.6669784,0,-1.2049998044967651,-0.8299996256828308,-0.7177026291475475,0.0,-1.7349904766373883,-0.34999802872311303,-0.7185408224545914,0.0
1759682226.6772234,0,-1.2049998044967651,-0.8299996256828308,-0.7177026817118257,0.0,-1.7349921096778096,-0.34999835815142694,-0.7183937631209807,0.0
1759682226.6888227,0,-1.2049998044967651,-0.8299996256828308,-0.7177026949556868,0.0,-1.734993637247995,-0.3499986663035486,-0.7182562016432601,0.0
1759682226.698941,0,-1.2049998044967651,-0.8299996256828308,-0.7177027503261275,0.0,-1.7349948480118083,-0.3499989105472773,-0.7181471693638133,0.0
1759682226.7096024,0,-1.2049998044967651,-0.8299996256828308,-0.7177027884712821,0.0,-1.7349958094611861,-0.34999910449755756,-0.7180605884666412,0.0
1759682226.720043,0,-1.2049998044967651,-0.8299996256828308,-0.7177028293411958,0.0,-1.734996575045327,-0.34999925893653494,-0.7179916457190522,0.0
1759682226.7306898,0,-1.2049998044967651,-0.8299996256828308,-0.717702863039646,0.0,-1.7349971860436102,-0.34999938219137394,-0.7179366238107209,0.0
1759682226.741316,0,-1.2049998044967651,-0.8299996256828308,-0.7177028960701985,0.0,-1.7349976749062983,-0.3499994808081681,-0.7178926005151435,0.0
1759682226.752304,0,-1.2049998044967651,-0.8299996256828308,-0.7177029208192991,0.0,-1.7349980668734093,-0.34999955987851,-0.717857302906224,0.0
1759682226.7627683,0,-1.2049998044967651,-0.8299996256828308,-0.7177029573426985,0.0,-1.734998382136911,-0.34999962347566443,-0.7178289126472458,0.0
1759682226.7730827,0,-1.2049998044967651,-0.8299996256828308,-0.7177029947943261,0.0,-1.734998636368257,-0.3499996747609863,-0.7178060184850165,0.0
1759682226.7833161,0,-1.2049998044967651,-0.8299996256828308,-0.7177030304142313,0.0,-1.7349988418934938,-0.3499997162209718,-0.7177875104285428,0.0
1759682226.7938466,0,-1.2049998044967651,-0.8299996256828308,-0.7177030573377756,0.0,-1.7349990083828113,-0.3499997498063591,-0.7177725176532671,0.0
1759682226.80414,0,-1.2049998044967651,-0.8299996256828308,-0.7177030873021355,0.0,-1.7349991436144487,-0.34999977708622904,-0.717760339709453,0.0
1759682226.8155415,0,-1.2049998044967651,-0.8299996256828308,-0.7177030968049127,0.0,-1.7349992535769563,-0.3499997992686337,-0.7177504373133662,0.0
1759682226.8259363,0,-1.2049998044967651,-0.8299996256828308,-0.7177031266100151,0.0,-1.7349993570893938,-0.34999982014988523,-0.717741115762064,0.0
1759682226.8361754,0,-1.2049998044967651,-0.8299996256828308,-0.7177031578288452,0.0,-1.7349994392298902,-0.3499998367198396,-0.7177337188069675,0.0
1759682226.847803,0,-1.2049998044967651,-0.8299996256828308,-0.7177031650249983,0.0,-1.7349995044769086,-0.3499998498819237,-0.7177278431513858,0.0
1759682226.8579352,0,-1.2049998044967651,-0.8299996256828308,-0.7177031980898008,0.0,-1.7349995565284928,-0.34999986038213254,-0.7177231557773533,0.0
1759682226.868365,0,-1.2049998044967651,-0.8299996256828308,-0.717703224380891,0.0,-1.7349995981399255,-0.34999986877628125,-0.7177194085647994,0.0
1759682226.8789923,0,-1.2049998044967651,-0.8299996256828308,-0.7177032455901422,0.0,-1.7349996314800267,-0.3499998755018792,-0.7177164062061308,0.0
1759682226.8891,0,-1.2049998044967651,-0.8299996256828308,-0.7177032728983798,0.0,-1.7349996582745681,-0.34999988090706113,-0.7177139932913218,0.0
1759682226.8996596,0,-1.2049998044967651,-0.8299996256828308,-0.7177032917798964,0.0,-1.7349996798490122,-0.3499998852592086,-0.7177120504591966,0.0
1759682226.9105031,0,-1.2049998044967651,-0.8299996256828308,-0.7177033063630347,0.0,-1.7349996972576176,-0.349999888770994,-0.717710482771169,0.0
1759682226.920749,0,-1.2049998044967651,-0.8299996256828308,-0.71770332894814,0.0,-1.734999711349463,-0.3499998916136995,-0.7177092137655955,0.0
1759682226.9312038,0,-1.2049998044967651,-0.8299996256828308,-0.7177033476177677,0.0,-1.7349997227808276,-0.34999989391971414,-0.7177081843429169,0.0
1759682226.9417458,0,-1.2049998044967651,-0.8299996256828308,-0.7177033642861819,0.0,-1.7349997320754027,-0.34999989579468077,-0.7177073473434086,0.0
1759682226.952096,0,-1.2049998044967651,-0.8299996256828308,-0.7177033826324539,0.0,-1.7349997407691682,-0.34999989754844785,-0.7177065644483019,0.0
1759682226.9628868,0,-1.2049998044967651,-0.8299996256828308,-0.7177033953555654,0.0,-1.7349997476619767,-0.3499998989389133,-0.7177059437338247,0.0
1759682226.973671,0,-1.2049998044967651,-0.8299996256828308,-0.7177034085817553,0.0,-1.7349997531409946,-0.3499999000441791,-0.7177054503346793,0.0
1759682226.9837801,0,-1.2049998044967651,-0.8299996256828308,-0.7177034289542235,0.0,-1.734999757510425,-0.34999990092561106,-0.7177050568566551,0.0
1759682226.9940825,0,-1.2049998044967651,-0.8299996256828308,-0.7177034456735445,0.0,-1.7349997610026224,-0.3499999016300815,-0.7177047423756462,0.0
1759682227.005537,0,-1.2049998044967651,-0.8299996256828308,-0.7177034504015207,0.0,-1.7349997637970644,-0.34999990219379584,-0.7177044907292198,0.0
1759682227.016246,0,-1.2049998044967651,-0.8299996256828308,-0.7177034640626019,0.0,-1.734999766040959,-0.3499999026464499,-0.7177042886609553,0.0
1759682227.0263715,0,-1.2049998044967651,-0.8299996256828308,-0.7177034830331516,0.0,-1.7349997678484324,-0.34999990301106604,-0.7177041258935166,0.0
1759682227.036924,0,-1.2049998044967651,-0.8299996256828308,-0.7177034964969007,0.0,-1.7349997693071213,-0.34999990330532293,-0.7177039945349662,0.0
1759682227.047154,0,-1.2049998044967651,-0.8299996256828308,-0.7177035117080965,0.0,-1.7349997704876379,-0.349999903543465,-0.7177038882265329,0.0
1759682227.0576868,0,-1.2049998044967651,-0.8299996256828308,-0.7177035233221574,0.0,-1.734999771444966,-0.3499999037365839,-0.7177038020167529,0.0
1759682227.068068,0,-1.2049998044967651,-0.8299996256828308,-0.7177035356388384,0.0,-1.73499977222332,-0.34999990389359886,-0.717703731924066,0.0
1759682227.0784297,0,-1.2049998044967651,-0.8299996256828308,-0.7177035475188979,0.0,-1.7349997729525597,-0.3499999040407062,-0.7177036662542137,0.0
1759682227.0893812,0,-1.2049998044967651,-0.8299996256828308,-0.7177035546124397,0.0,-1.7349997735302027,-0.34999990415723237,-0.717703614236024,0.0
1759682227.0998046,0,-1.2049998044967651,-0.8299996256828308,-0.7177035660342277,0.0,-1.734999773989207,-0.34999990424982586,-0.717703572901565,0.0
1759682227.1104178,0,-1.2049998044967651,-0.8299996256828308,-0.717703575849189,0.0,-1.7349997743547716,-0.34999990432357014,-0.7177035399815634,0.0
1759682227.120713,0,-1.2049998044967651,-0.8299996256828308,-0.7177035874596758,0.0,-1.7349997746467476,-0.34999990438246964,-0.7177035136883883,0.0
1759682227.1311002,0,-1.2049998044967651,-0.8299996256828308,-0.7177035977073842,0.0,-1.7349997748804933,-0.3499999044296225,-0.7177034926390049,0.0
1759682227.1416013,0,-1.2049998044967651,-0.8299996256828308,-0.7177036066470367,0.0,-1.7349997750680564,-0.34999990446745904,-0.7177034757484794,0.0
1759682227.1524916,0,-1.2049998044967651,-0.8299996256828308,-0.7177036130665577,0.0,-1.7349997752188682,-0.3499999044978819,-0.7177034621675016,0.0
1759682227.1630685,0,-1.2049998044967651,-0.8299996256828308,-0.7177036217137491,0.0,-1.7349997753404793,-0.34999990452241414,-0.7177034512161233,0.0
1759682227.1738305,0,-1.2049998044967651,-0.8299996256828308,-0.7177036292686783,0.0,-1.7349997754387645,-0.3499999045422409,-0.7177034423653051,0.0
1759682227.1841104,0,-1.2049998044967651,-0.8299996256828308,-0.7177036393632646,0.0,-1.7349997755184385,-0.3499999045583133,-0.7177034351904555,0.0
1759682227.1947963,0,-1.2049998044967651,-0.8299996256828308,-0.7177036466504951,0.0,-1.734999775583149,-0.34999990457136715,-0.7177034293631048,0.0
1759682227.2055218,0,-1.2049998044967651,-0.8299996256828308,-0.717703653570247,0.0,-1.7349997756358329,-0.34999990458199487,-0.7177034246187941,0.0
1759682227.216851,0,-1.2049998044967651,-0.8299996256828308,-0.7177036576790297,0.0,-1.7349997756854054,-0.349999904591995,-0.7177034201546675,0.0
1759682227.227686,0,-1.2049998044967651,-0.8299996256828308,-0.7177036648858817,0.0,-1.73499977572474,-0.34999990459992986,-0.7177034166125004,0.0
1759682227.2379265,0,-1.2049998044967651,-0.8299996256828308,-0.717703674749167,0.0,-1.7349997757560505,-0.349999904606246,-0.7177034137929059,0.0
1759682227.248377,0,-1.2049998044967651,-0.8299996256828308,-0.7177036827120363,0.0,-1.734999775781029,-0.3499999046112849,-0.7177034115435168,0.0
1759682227.2589653,0,-1.2049998044967651,-0.8299996256828308,-0.7177036893893386,0.0,-1.7349997758010025,-0.3499999046153141,-0.7177034097448458,0.0
1759682227.2694006,0,-1.2049998044967651,-0.8299996256828308,-0.7177036963410295,0.0,-1.7349997758170164,-0.3499999046185445,-0.7177034083027591,0.0
1759682227.2799392,0,-1.2049998044967651,-0.8299996256828308,-0.71770370247385,0.0,-1.7349997758298856,-0.34999990462114056,-0.7177034071438612,0.0
1759682227.291269,0,-1.2049998044967651,-0.8299996256828308,-0.7177037054046096,0.0,-1.7349997758402442,-0.34999990462323016,-0.7177034062110541,0.0
1759682227.3018537,0,-1.2049998044967651,-0.8299996256828308,-0.7177037116952825,0.0,-1.7349997758486106,-0.34999990462491787,-0.7177034054576361,0.0
1759682227.3123195,0,-1.2049998044967651,-0.8299996256828308,-0.7177037182398571,0.0,-1.7349997758553857,-0.34999990462628455,-0.7177034048475348,0.0
1759682227.323753,0,-1.2049998044967651,-0.8299996256828308,-0.7177037210650639,0.0,-1.734999775860879,-0.3499999046273927,-0.7177034043528369,0.0
1759682227.3342695,0,-1.2049998044967651,-0.8299996256828308,-0.7177037274030126,0.0,-1.7349997758653497,-0.3499999046282946,-0.7177034039502402,0.0
1759682227.3448584,0,-1.2049998044967651,-0.8299996256828308,-0.7177037331948526,0.0,-1.7349997758689963,-0.34999990462903025,-0.7177034036218366,0.0
1759682227.3554757,0,-1.2049998044967651,-0.8299996256828308,-0.7177037384733325,0.0,-1.734999775872493,-0.3499999046297356,-0.7177034033069436,0.0
1759682227.3657048,0,-1.2049998044967651,-0.8299996256828308,-0.7177037445643855,0.0,-1.734999775875264,-0.34999990463029457,-0.7177034030574175,0.0
1759682227.377064,0,-1.2049998044967651,-0.8299996256828308,-0.7177037468717966,0.0,-1.7349997758774625,-0.34999990463073805,-0.7177034028594348,0.0
1759682227.387286,0,-1.2049998044967651,-0.8299996256828308,-0.7177037526976306,0.0,-1.7349997758792135,-0.3499999046310913,-0.7177034027017392,0.0
1759682227.3979962,0,-1.2049998044967651,-0.8299996256828308,-0.7177037567964887,0.0,-1.734999775880611,-0.34999990463137326,-0.7177034025758923,0.0
1759682227.409233,0,-1.2049998044967651,-0.8299996256828308,-0.7177037593720978,0.0,-1.7349997758817284,-0.3499999046315987,-0.7177034024752642,0.0
1759682227.4196863,0,-1.2049998044967651,-0.8299996256828308,-0.7177037642014472,0.0,-1.734999775882625,-0.34999990463177955,-0.7177034023945214,0.0
1759682227.430265,0,-1.2049998044967651,-0.8299996256828308,-0.7177037684478513,0.0,-1.7349997758833462,-0.349999904631925,-0.7177034023295842,0.0
1759682227.440801,0,-1.2049998044967651,-0.8299996256828308,-0.7177037724977264,0.0,-1.7349997758839275,-0.3499999046320423,-0.7177034022772273,0.0
1759682227.4511518,0,-1.2049998044967651,-0.8299996256828308,-0.7177037767012635,0.0,-1.7349997758843976,-0.3499999046321371,-0.7177034022349015,0.0
1759682227.4614468,0,-1.2049998044967651,-0.8299996256828308,-0.7177037806814521,0.0,-1.7349997758847786,-0.3499999046322139,-0.7177034022006006,0.0
1759682227.4718385,0,-1.2049998044967651,-0.8299996256828308,-0.7177037841199194,0.0,-1.734999775885088,-0.34999990463227637,-0.7177034021727401,0.0
1759682227.4957397,0,-1.2049998044967651,-0.8299996256828308,-0.717703761188778,0.0,-1.734999775885336,-0.3499999046323264,-0.7177034021504088,0.0
1759682227.50103,0,-1.2049998044967651,-0.8299996256828308,-0.7177037812565263,0.0,-1.7349997758855402,-0.3499999046323676,-0.7177034021320176,0.0
1759682227.511736,0,-1.2049998044967651,-0.8299996256828308,-0.7177037881667623,0.0,-1.7349979767332082,-0.35000147531565245,-0.7183010988699432,0.0014502239813209646
1759682227.5224116,0,-1.2049998044967651,-0.8299996256828308,-0.7177037931378578,0.0,-1.7349946144768424,-0.3500182494818523,-0.7187811662445391,0.002615041272228119
1759682227.533392,0,-1.2049998044967651,-0.8299996256828308,-0.7177037967779789,0.0,-1.7349903405563396,-0.35004429336620657,-0.7191688805126214,0.0035557803987150056
1759682227.5448072,0,-1.2049998044967651,-0.8299996256828308,-0.7177037993282376,0.0,-1.7349855885769518,-0.35007555124432915,-0.7194840390899032,0.004320476469427883
1759682227.5556228,0,-1.2049998044967651,-0.8299996256828308,-0.7177038027868328,0.0,-1.734980648094797,-0.35010928613091824,-0.7197419177905092,0.0049461933181161035
1759682227.565684,0,-1.2049998044967651,-0.8299996256828308,-0.7177038071062363,0.0,-1.734975710325099,-0.35014367756237463,-0.7199543142039805,0.005461555462662408
1759682227.5763457,0,-1.2049998044967651,-0.8299996256828308,-0.7177038099035365,0.0,-1.7349708834749213,-0.350177587478536,-0.7201308611220688,0.005889935470370797
1759682227.5870914,0,-1.2049998044967651,-0.8299996256828308,-0.7177038122836645,0.0,-1.7349662306956841,-0.3502103284819562,-0.7202790249455506,0.00624944929985974
1759682227.5977755,0,-1.2049998044967651,-0.8299996256828308,-0.717703814623306,0.0,-1.7349617840059464,-0.35024152046880747,-0.7204046459529908,0.006554267348386239
1759682227.6085756,0,-1.2049998044967651,-0.8299996256828308,-0.7177038166918024,0.0,-1.7349575510349242,-0.3502710024348923,-0.7205124167644451,0.006815775494695701
1759682227.6193829,0,-1.2049998044967651,-0.8299996256828308,-0.7177038186920797,0.0,-1.7349535268439296,-0.3502987483419693,-0.7206060183209404,0.007042904906729219
1759682227.6303005,0,-1.2049998044967651,-0.8299996256828308,-0.7177038205112112,0.0,-1.7349496958995387,-0.35032482785079483,-0.7206884273854798,0.007242878230292692
1759682227.6412804,0,-1.2049998044967651,-0.8299996256828308,-0.7177038222507939,0.0,-1.7349460383149944,-0.35034936286140783,-0.7207620004417173,0.007421413088394351
1759682227.6520731,0,-1.2049998044967651,-0.8299996256828308,-0.7177038242191731,0.0,-1.7356295479972734,-0.34981603586100685,-0.720218098106135,0.012052930152465504
1759682227.6627254,0,-1.2049998044967651,-0.8299996256828308,-0.7177038262749562,0.0,-1.736162653723507,-0.3494459626348222,-0.7197947922976125,0.015740786754322517
1759682227.6735582,0,-1.2049998044967651,-0.8299996256828308,-0.7177038280044261,0.0,-1.7365782533640322,-0.34919544440198375,-0.7194666677439759,0.018686726093944072
1759682227.684381,0,-1.2049998044967651,-0.8299996256828308,-0.7177038296825202,0.0,-1.736901976822975,-0.3490321640627457,-0.7192136949730258,0.02104848512390565
1759682227.6963418,0,-1.2049998044967651,-0.8299996256828308,-0.7177038301707519,0.0,-1.7371529538745953,-0.3489330978968837,-0.7190214364578198,0.022948124192018034
1759682227.707036,0,-1.2049998044967651,-0.8299996256828308,-0.7177038321975377,0.0,-1.737347594313817,-0.34887981300109666,-0.7188761102767255,0.024483693766616757
1759682227.7179046,0,-1.2049998044967651,-0.8299996256828308,-0.7177038339696189,0.0,-1.7374977228283774,-0.34885968740785966,-0.7187684092008145,0.025730408701295063
1759682227.7287524,0,-1.2049998044967651,-0.8299996256828308,-0.7177038356367972,0.0,-1.7376126769484475,-0.3488633685260161,-0.7186908275132134,0.026747565888342664
1759682227.7394934,0,-1.2049998044967651,-0.8299996256828308,-0.7177038372966145,0.0,-1.7376997940287497,-0.34888397830386575,-0.7186373767382956,0.027581872821573445
1759682227.750407,0,-1.2049998044967651,-0.8299996256828308,-0.7177038386966395,0.0,-1.737764678748375,-0.34891668446848073,-0.7186035899362638,0.02827029345860934
1759682227.761856,0,-1.2049998044967651,-0.8299996256828308,-0.7177038396058517,0.0,-1.737811558657758,-0.3489582380726553,-0.7185862685865694,0.028842382256047242
1759682227.7731502,0,-1.2049998044967651,-0.8299996256828308,-0.7177038407348384,0.0,-1.7379034681595238,-0.34892448199303533,-0.7184664748625011,0.029287664812499208
1759682227.7838354,0,-1.2049998044967651,-0.8299996256828308,-0.7177038423780928,0.0,-1.7380826452300806,-0.3488226882237844,-0.7182460969911193,0.029866927413550414
1759682227.7945218,0,-1.2049998044967651,-0.8299996256828308,-0.7177038438915204,0.0,-1.738221288336653,-0.34875360947709355,-0.7180780443112769,0.030341311936150035
1759682227.8052669,0,-1.2049998044967651,-0.8299996256828308,-0.7177038452228999,0.0,-1.738328084160634,-0.3487094575804621,-0.7179513580369881,0.03073352163622362
1759682227.8163497,0,-1.2049998044967651,-0.8299996256828308,-0.7177038462242749,0.0,-1.738409678671427,-0.34868453675776545,-0.7178577133699835,0.031061566766059097
1759682227.8272114,0,-1.2049998044967651,-0.8299996256828308,-0.7177038473680639,0.0,-1.738471450634629,-0.3486742378257277,-0.7177901713034796,0.031339002726240225
1759682227.8384967,0,-1.2049998044967651,-0.8299996256828308,-0.71770384820244,0.0,-1.7385173673286136,-0.3486754562723498,-0.7177437940277415,0.031577138270408416
1759682227.8492637,0,-1.2049998044967651,-0.8299996256828308,-0.7177038493923291,0.0,-1.738550844542325,-0.34868531907559297,-0.7177140102574187,0.03178381999056015
1759682227.860727,0,-1.2049998044967651,-0.8299996256828308,-0.7177038501051456,0.0,-1.7385741575328149,-0.34870234592869703,-0.7176981227619565,0.0319666327490821
1759682227.8710048,0,-1.2049998044967651,-0.8299996256828308,-0.7177038515490217,0.0,-1.7385896922358337,-0.34872434918882944,-0.7176926401813704,0.03212929755754651
1759682227.882394,0,-1.2049998044967651,-0.8299996256828308,-0.7177038522215593,0.0,-1.7385986006164913,-0.3487509715977616,-0.7176964668861293,0.03227757501976546
1759682227.8992414,0,-1.2049998044967651,-0.8299996256828308,-0.7177038500495367,0.0,-1.7386004144105898,-0.34878465040152073,-0.7177119469943318,0.03242195337262458
1759682227.9100678,0,-1.2049998044967651,-0.8299996256828308,-0.7177038519160739,0.0,-1.7396423161956929,-0.3479015191338522,-0.7167926365742218,0.03505318102241289
1759682227.9211407,0,-1.2049998044967651,-0.8299996256828308,-0.7177038535734308,0.0,-1.7409699126189944,-0.3468295663750772,-0.7156904333693195,0.03959185938069126
1759682227.9319923,0,-1.2049998044967651,-0.8299996256828308,-0.7177038550634265,0.0,-1.7420084969956937,-0.34603774327997383,-0.7148275100823774,0.043206788690731225
1759682227.9427927,0,-1.2049998044967651,-0.8299996256828308,-0.7177038563390283,0.0,-1.742820864172188,-0.34545754595028594,-0.7141528222817003,0.04609599164194323
1759682227.9535441,0,-1.2049998044967651,-0.8299996256828308,-0.7177038574477166,0.0,-1.743455717592103,-0.3450374765212736,-0.7136266458485138,0.048413608392028136
1759682227.9643958,0,-1.2049998044967651,-0.8299996256828308,-0.7177038583675975,0.0,-1.7439507096101206,-0.34473899038829753,-0.7132182233284943,0.050279806651044354
1759682227.9752142,0,-1.2049998044967651,-0.8299996256828308,-0.7177038592039899,0.0,-1.7443353777605983,-0.34453281079281234,-0.7129032645586251,0.051788831789382234
1759682227.9864666,0,-1.2049998044967651,-0.8299996256828308,-0.7177038597949981,0.0,-1.7446322119295377,-0.344397523083538,-0.7126634083268739,0.05301451016297827
1759682227.9972684,0,-1.2049998044967651,-0.8299996256828308,-0.71770386055206,0.0,-1.7448598806117248,-0.3443156842159433,-0.7124829371311625,0.05401516047364729
1759682228.0085742,0,-1.2049998044967651,-0.8299996256828308,-0.7177038610747992,0.0,-1.7450319069634221,-0.34427545073347604,-0.7123508228496013,0.054836695281269464
1759682228.019459,0,-1.2049998044967651,-0.8299996256828308,-0.7177038617515699,0.0,-1.7451599373624693,-0.3442665944658998,-0.712257098375308,0.055515255162380525
1759682228.0309741,0,-1.2049998044967651,-0.8299996256828308,-0.7177038621776575,0.0,-1.745252012632342,-0.3442828259311962,-0.7121952893845892,0.05607985946370324
1759682228.0414147,0,-1.2049998044967651,-0.8299996256828308,-0.717703862985374,0.0,-1.7454476123779328,-0.3441363525641565,-0.7119903427174569,0.056564793353368246
1759682228.051889,0,-1.2049998044967651,-0.8299996256828308,-0.7177038637013791,0.0,-1.7458604694288067,-0.34382002603412304,-0.7115122258927323,0.05720839418053913
1759682228.0628562,0,-1.2049998044967651,-0.8299996256828308,-0.7177038641784357,0.0,-1.7461807675815026,-0.3435870350451966,-0.7111410431970636,0.05773519432292738
1759682228.0741465,0,-1.2049998044967651,-0.8299996256828308,-0.7177038645404145,0.0,-1.7464280881489742,-0.34341920553277216,-0.7108544930462565,0.05817079643252835
1759682228.0848596,0,-1.2049998044967651,-0.8299996256828308,-0.7177038650947621,0.0,-1.7466183967559503,-0.34330147191168214,-0.710634219832745,0.058534277325412304
1759682228.095524,0,-1.2049998044967651,-0.8299996256828308,-0.7177038656331193,0.0,-1.7467636617425422,-0.3432229157601861,-0.7104664920424706,0.058841000580348364
1759682228.1067798,0,-1.2049998044967651,-0.8299996256828308,-0.7177038659694261,0.0,-1.7468727572749578,-0.3431758990259974,-0.7103411794451115,0.0591037819454898
1759682228.118064,0,-1.2049998044967651,-0.8299996256828308,-0.7177038663125028,0.0,-1.746953050960549,-0.34315387678249526,-0.7102497734484542,0.05933209862774705
1759682228.1291642,0,-1.2049998044967651,-0.8299996256828308,-0.7177038667230295,0.0,-1.7470104594924694,-0.3431515447974495,-0.7101853957487738,0.05953313876803228
1759682228.1394715,0,-1.2049998044967651,-0.8299996256828308,-0.7177038673238609,0.0,-1.7470500399002444,-0.34316406216570583,-0.7101420799732205,0.059711723140086145
1759682228.150493,0,-1.2049998044967651,-0.8299996256828308,-0.7177038676873835,0.0,-1.747074754490276,-0.3431894194085143,-0.7101164758193041,0.05987365063811907
1759682228.1616225,0,-1.2049998044967651,-0.8299996256828308,-0.7177038680103216,0.0,-1.7470873417862327,-0.3432253935659666,-0.7101053947010421,0.06002277318448782
1759682228.172703,0,-1.2049998044967651,-0.8299996256828308,-0.717703868349858,0.0,-1.7470900668876979,-0.3432700813976939,-0.7101061736272843,0.06016194893512381
1759682228.1840274,0,-1.2049998044967651,-0.8299996256828308,-0.7177038686381447,0.0,-1.7482116902974985,-0.3422718954043182,-0.7091100993085012,0.059753093041542193
1759682228.1951675,0,-1.2049998044967651,-0.8299996256828308,-0.7177038689762902,0.0,-1.749763037853675,-0.3409224366814454,-0.70783857111594,0.059193587665041944
1759682228.2055373,0,-1.2049998044967651,-0.8299996256828308,-0.7177038694635699,0.0,-1.7509852632584453,-0.33985837093927823,-0.7068405757008025,0.05876451520324041
1759682228.2156205,0,-1.2049998044967651,-0.8299996256828308,-0.7177038699504656,0.0,-1.7519489843194143,-0.33901988699588814,-0.706057477765437,0.058437852129477774
1759682228.2263324,0,-1.2049998044967651,-0.8299996256828308,-0.7177038702500749,0.0,-1.752707474679684,-0.3383621289462962,-0.7054453658352129,0.058193431720146516
1759682228.2372305,0,-1.2049998044967651,-0.8299996256828308,-0.7177038704946863,0.0,-1.7533033541478849,-0.3378487182721598,-0.7049689324461607,0.05801465529112317
1759682228.2475777,0,-1.2049998044967651,-0.8299996256828308,-0.7177038708368322,0.0,-1.7537711239467715,-0.3374495843148466,-0.7045993010300918,0.057887272323562985
1759682228.2591093,0,-1.2049998044967651,-0.8299996256828308,-0.717703870953784,0.0,-1.7541352627603934,-0.33714424962267286,-0.7043166328675197,0.05780304787354877
1759682228.2695293,0,-1.2049998044967651,-0.8299996256828308,-0.7177038712830885,0.0,-1.754418288084846,-0.33691235852862245,-0.7041017232989132,0.05775168856009921
1759682228.2803638,0,-1.2049998044967651,-0.8299996256828308,-0.7177038715280535,0.0,-1.7546358182785302,-0.33674049445168386,-0.7039417906964035,0.057727607287227894
1759682228.2917469,0,-1.2049998044967651,-0.8299996256828308,-0.7177038716806425,0.0,-1.75480006740511,-0.33661820507249124,-0.7038269050941155,0.05772663276781593
1759682228.3255231,0,-1.2049998044967651,-0.8299996256828308,-0.7177038688273356,0.0,-1.754894595860738,-0.3365730374873103,-0.7037798746542514,0.05778152014358813
1759682228.3362505,0,-1.2049998044967651,-0.8299996256828308,-0.7177038700672682,0.0,-1.7549601806992488,-0.33655367411278647,-0.7037558511072236,0.05784482329629475
1759682228.3465402,0,-1.2049998044967651,-0.8299996256828308,-0.717703871250741,0.0,-1.7550025696140843,-0.3365550090985045,-0.7037501874842244,0.057914642228256395
1759682228.357899,0,-1.2049998044967651,-0.8299996256828308,-0.717703871997946,0.0,-1.755547432485538,-0.33602261725113586,-0.7031250470374169,0.05780761497182672
1759682228.3691676,0,-1.2049998044967651,-0.8299996256828308,-0.7177038725655471,0.0,-1.7559722676408982,-0.3356112509968763,-0.7026378202805603,0.057740301090747834
1759682228.3798628,0,-1.2049998044967651,-0.8299996256828308,-0.7177038730705938,0.0,-1.7563033614815664,-0.3352947755079914,-0.7022583585983063,0.057703604932422554
1759682228.3906949,0,-1.2049998044967651,-0.8299996256828308,-0.7177038734557719,0.0,-1.7565603987599288,-0.3350538443843355,-0.7019641113830614,0.05769160367045464
1759682228.4019976,0,-1.2049998044967651,-0.8299996256828308,-0.7177038737190741,0.0,-1.7567584642826024,-0.33487373017981814,-0.7017378054330535,0.057700231763383916
1759682228.4132235,0,-1.2049998044967651,-0.8299996256828308,-0.7177038739524342,0.0,-1.756909826455279,-0.3347421402487524,-0.7015653465858557,0.05772545773184504
1759682228.4236288,0,-1.2049998044967651,-0.8299996256828308,-0.717703874237241,0.0,-1.7570246513947476,-0.33464847737755554,-0.7014350015718807,0.057762920962953136
1759682228.434019,0,-1.2049998044967651,-0.8299996256828308,-0.7177038744801827,0.0,-1.757110271121965,-0.3345854020796224,-0.701338348511407,0.057810467291386364
1759682228.444626,0,-1.2049998044967651,-0.8299996256828308,-0.7177038746658191,0.0,-1.757172290004485,-0.33454739657680155,-0.7012689597304027,0.057866788813807156
1759682228.4559608,0,-1.2049998044967651,-0.8299996256828308,-0.7177038747665492,0.0,-1.757214764931142,-0.3345307237694403,-0.7012222116430403,0.05793172787759277
1759682228.4673023,0,-1.2049998044967651,-0.8299996256828308,-0.7177038748706153,0.0,-1.7572414157099394,-0.3345315717612196,-0.7011938120737902,0.058004035107555585
1759682228.4785924,0,-1.2049998044967651,-0.8299996256828308,-0.717703874985979,0.0,-1.7572552223292557,-0.3345468491316832,-0.7011803169328895,0.058082638633309584
1759682228.489408,0,-1.2049998044967651,-0.8299996256828308,-0.7174080215890375,0.005235987755982988,-1.757258842669089,-0.3345735810565211,-0.7011786277563136,0.05816597888751129
1759682228.5050275,0,-1.2049998044967651,-0.8299996256828308,-0.7174104247801486,0.005235987755982988,-1.757250674234667,-0.3346158755910002,-0.70119088764821,0.0582618417344754
1759682228.516474,0,-1.20193144855183,-0.827887381277523,-0.7155810165955229,0.005288347633542818,-1.7593507442530747,-0.3328103126715257,-0.699354146313207,0.058203502927474
1759682228.5273948,0,-1.2019314485518302,-0.8278873812775231,-0.7155632209693696,0.005288347633542818,-1.7610045770260065,-0.33139140056931443,-0.6979099171151052,0.05817422742156505
1759682228.5379047,0,-1.2019314485518302,-0.8278873812775233,-0.7155446730828557,0.005288347633542818,-1.7623087963848132,-0.33027605870150367,-0.6967734176970186,0.058167493908368645
1759682228.548782,0,-1.2019314485518302,-0.8278873812775233,-0.7155626409837956,0.005288347633542818,-1.7633365857556123,-0.32940163498765895,-0.6958806322912854,0.05817946242042298
1759682228.5603068,0,-1.2019314485518302,-0.8278873812775234,-0.7155623068914754,0.005288347633542818,-1.7641447226322078,-0.32871958584128136,-0.695181954146309,0.058207611466648455
1759682228.5717876,0,-1.2019314485518304,-0.8278873812775234,-0.7155465251160206,0.005288347633542818,-1.764779099219035,-0.3281902253401529,-0.6946370254480452,0.058248911586543044
1759682228.582988,0,-1.2019314485518304,-0.8278873812775234,-0.7155515332098755,0.005288347633542818,-1.7652759892425474,-0.3277819884294428,-0.694213842517518,0.058300619230157745
1759682228.5942645,0,-1.2019314485518304,-0.8278873812775235,-0.7155397479639497,0.005288347633542818,-1.7656632086261967,-0.327470803510089,-0.6938879605854619,0.058361150960514425
1759682228.6053758,0,-1.2019314485518304,-0.8278873812775235,-0.7155603275066018,0.005288347633542818,-1.7659630111630233,-0.32723724504375895,-0.6936397279761253,0.05842888502527742
1759682228.6162102,0,-1.2019314485518304,-0.8278873812775236,-0.7155501236136029,0.005288347633542818,-1.766193077331995,-0.3270657824000546,-0.6934534805420144,0.0585023558249253
1759682228.6274593,0,-1.2019314485518304,-0.8278873812775236,-0.7155317876488076,0.005288347633542818,-1.7663663984189115,-0.32694535281917686,-0.6933179312169411,0.05858154269366258
1759682228.6389947,0,-1.2019314485518304,-0.8278873812775236,-0.7155203974713307,0.005288347633542818,-1.7664934693871872,-0.3268669518097408,-0.6932239177488586,0.058666269702188675
1759682228.6494873,0,-1.2019314485518307,-0.8278873812775237,-0.7155525552482132,0.005288347633542818,-1.7665843889012458,-0.3268211327213058,-0.6931621421598437,0.05875418501081215
1759682228.6605582,0,-1.2019314485518307,-0.8278873812775237,-0.7155564838489024,0.005288347633542818,-1.7668468646977191,-0.3265374219275117,-0.6928946310852407,0.058723796392716424
1759682228.6717567,0,-1.2024851490438773,-0.8282776937152184,-0.7158365860367443,0.00590307497264049,-1.767433121093982,-0.32600189475554675,-0.6921928345935845,0.058737176456853134
1759682228.6820695,0,-1.2024851490438777,-0.828277693715219,-0.7158658937159627,0.00590307497264049,-1.7678913449827682,-0.3255877795245866,-0.6916429698933062,0.05876532548468721
1759682228.6934028,0,-1.202485149043878,-0.8282776937152192,-0.7158732157855229,0.00590307497264049,-1.768247716510785,-0.3252711770657603,-0.6912140507961452,0.05880717629481148
1759682228.7044382,0,-1.1993292813288756,-0.8313659755558762,-0.7136001601365479,0.03986447437044844,-1.7685241013845605,-0.32503141862329926,-0.6908802064173205,0.05885973906348629
1759682228.7144387,0,-1.1981629453280822,-0.8323731128228478,-0.7118507434229028,0.03986447437044844,-1.768738166023499,-0.32485138134202957,-0.69062054082684,0.05891940828554313
1759682228.724742,0,-1.1977138648152166,-0.8327599513964195,-0.7105778046475215,0.03986447437044844,-1.7689024353491258,-0.3247194811302841,-0.6904201811007771,0.05898559031676622
1759682228.7361407,0,-1.1975311141729201,-0.8329166749650345,-0.709613689907811,0.03986447437044844,-1.7690260934712976,-0.32462762610525747,-0.6902681718435704,0.05905923318272621
1759682228.7474074,0,-1.1974622751477317,-0.8329751798029129,-0.7089148056716791,0.03986447437044844,-1.7691174184310565,-0.3245678646571185,-0.6901546778798281,0.05913904952854303
1759682228.758571,0,-1.1974367570427897,-0.8329964811340419,-0.7084321751539825,0.03986447437044844,-1.7691828852397622,-0.3245339708521688,-0.6900719972687218,0.05922407903997389
1759682228.7696216,0,-1.1974279493414757,-0.8330035414010452,-0.708081194466454,0.03986447437044844,-1.7692275987229666,-0.324521016774712,-0.690014052069345,0.05931355129167414
1759682228.7807019,0,-1.1974241716901057,-0.8330063998497225,-0.7078337465129446,0.03986447437044844,-1.769255476741711,-0.32452528124112523,-0.6899761656269621,0.05940711642959028
1759682228.7919586,0,-1.1974209025758755,-0.8330089177471837,-0.7076382026157209,0.03986447437044844,-1.7692695036372543,-0.3245440060454128,-0.689954762705895,0.0595047838561651
1759682228.8033836,0,-1.1974179325306242,-0.8330112546218191,-0.7075114735200091,0.03986447437044844,-1.7692720457909656,-0.3245750089751005,-0.6899470031426748,0.059606583989242345
1759682228.8137884,0,-1.1974268181901264,-0.8330035111420869,-0.7074463703418478,0.03986447437044844,-1.7705588871627018,-0.3234737620200108,-0.688666210277346,0.060069063218180334
1759682228.824579,0,-1.1977713959556313,-0.8334382089081385,-0.7074771524706684,0.041063988309654,-1.7723482096860594,-0.32198525691200724,-0.6869666420019549,0.06077232460391623
1759682228.8348184,0,-1.1977766500170555,-0.8334336537622209,-0.7074513624878256,0.041063988309654,-1.7737564512143558,-0.3208233941940061,-0.6856281363615391,0.06135165896465997
1759682228.8462248,0,-1.197767135619964,-0.8334417489489697,-0.7074040697184552,0.041063988309654,-1.7748622761812456,-0.3199209079253481,-0.6845768893525852,0.06183560659895171
1759682228.8564758,0,-1.1977748915917679,-0.8334350919124138,-0.7074101881167721,0.041063988309654,-1.77573240657513,-0.31921973241287016,-0.6837497154962334,0.06224307282876299
1759682228.867788,0,-1.1977673852641262,-0.8334414974446009,-0.7073741592121322,0.041063988309654,-1.776414140356087,-0.3186798443484823,-0.6831021807484354,0.06259225652297498
1759682228.8791635,0,-1.1977638943141187,-0.8334444754074456,-0.7073936692800176,0.041063988309654,-1.7769465998598117,-0.318267723951333,-0.6825972692505838,0.06289594625583177
1759682228.890173,0,-1.1977661722489803,-0.8334425271191456,-0.7073795987326567,0.041063988309654,-1.7773611052897302,-0.31795636659227955,-0.6822052199224138,0.06316341050036882
1759682228.9270191,0,-1.187799791197414,-0.8420589512462506,-0.6939607853328017,0.08803176638870078,-1.7776418004025742,-0.317773768445256,-0.6819459484621153,0.06345138371692664
1759682228.937912,0,-1.1846375073398148,-0.8445970256305095,-0.6850181754967037,0.08803176638870078,-1.77785597175048,-0.3176462301638235,-0.6817497845921034,0.06370980459831137
1759682228.9481773,0,-1.1834376337142416,-0.8455487071405438,-0.6786372498121338,0.08803176638870078,-1.778017301651717,-0.31756208755294746,-0.6816037710085537,0.0639437542252651
1759682228.95912,0,-1.1830883755445951,-0.8463937771359817,-0.673850359127462,0.0894638661978302,-1.77871199808154,-0.3169509986679987,-0.6807422413653601,0.06406242251700398
1759682228.9707112,0,-1.1828858435777565,-0.8465456612221098,-0.6705409330615345,0.0894638661978302,-1.7792531234773534,-0.3164811353407845,-0.6800672124540059,0.06418126317752447
1759682228.9821115,0,-1.1828105500998154,-0.8465979002734042,-0.6682047215284093,0.0894638661978302,-1.7796740377646514,-0.31612213832023567,-0.6795383529705279,0.06430039811392141
1759682228.993394,0,-1.1827828544392287,-0.8466141186811101,-0.6665633212978435,0.0894638661978302,-1.7800004834535794,-0.31585056685848995,-0.6791244849472715,0.06442006657296279
1759682229.004709,0,-1.1827702046400577,-0.8466198819289714,-0.6654025179087657,0.0894638661978302,-1.7802523057980904,-0.3156483925946385,-0.6788015095036091,0.06454077442112269
1759682229.0159888,0,-1.182765352367629,-0.846620678772346,-0.6645646732233937,0.0894638661978302,-1.78044504695238,-0.31550143895338,-0.678550536965846,0.06466279357663014
1759682229.026666,0,-1.1827777010230873,-0.8466091010816048,-0.6640705918081452,0.0894638661978302,-1.7805913746915139,-0.3153978269546908,-0.6783562654044802,0.06478512214933957
1759682229.0373006,0,-1.1827831009068048,-0.8466035785112678,-0.6637236724215925,0.0894638661978302,-1.7807006786888124,-0.31532899882251497,-0.6782072334123818,0.06490813188432364
1759682229.0482802,0,-1.182776458384497,-0.8466077827578056,-0.6634881920668125,0.0894638661978302,-1.7807800027470655,-0.3152887402488471,-0.6780947439966595,0.06503298381733091
1759682229.0590792,0,-1.182778208530105,-0.8466058463567203,-0.6633422354981805,0.0894638661978302,-1.7808353545955744,-0.3152714606175863,-0.6780114814986625,0.06515948541277924
1759682229.070394,0,-1.18276612834889,-0.8466147693073984,-0.6631930750267158,0.0894638661978302,-1.7808708831189002,-0.31527366920963495,-0.6779522323744123,0.06528905341125894
1759682229.0814972,0,-1.1827666721510095,-0.8466141396478745,-0.6631698162181886,0.0894638661978302,-1.7808904745902927,-0.3152916697777575,-0.6779122794613098,0.06542124298075674
1759682229.092906,0,-1.1827593825757279,-0.8466196643114505,-0.6631549497682437,0.0894638661978302,-1.780896774697105,-0.31532321690628284,-0.6778882916008745,0.06555688778693601
1759682229.1042228,0,-1.1709174130528606,-0.8561663928774449,-0.6470395712645107,0.14250143548160712,-1.782881676227107,-0.3136912857069635,-0.6755452730796723,0.06676203018083747
1759682229.114896,0,-1.1664916894849404,-0.8593259964293766,-0.6348138406770204,0.14250143548160712,-1.784439667404784,-0.31242342922376426,-0.6737000588215716,0.06775566679575168
1759682229.125622,0,-1.1647838481563997,-0.8605205886143553,-0.6258505003332944,0.14250143548160712,-1.785662734026266,-0.3114403545633665,-0.672246282580296,0.06858409256853484
1759682229.1371038,0,-1.1640892024725362,-0.8609886820367961,-0.6192024750075026,0.14250143548160712,-1.7866208629153941,-0.31068234632197494,-0.6711028610899548,0.06928545107058874
1759682229.1479895,0,-1.1638407220378677,-0.8611426834919536,-0.6144948641639835,0.14250143548160712,-1.7873715319695842,-0.31009988197428767,-0.670203033137242,0.06988577236090268
1759682229.1588168,0,-1.1637427025218288,-0.8611945325464784,-0.6111550739290867,0.14250143548160712,-1.7879583073959613,-0.30965580261461617,-0.6694960957838365,0.07040683963572134
1759682229.1697001,0,-1.1636989812766954,-0.8612121450812006,-0.60876256679061,0.14250143548160712,-1.78841503643234,-0.30932140808215186,-0.6689425649195787,0.0708661032564608
1759682229.181077,0,-1.1636587169582826,-0.8612301050166188,-0.6069687008655713,0.14250143548160712,-1.7887675597492971,-0.309075131591964,-0.6685122100383915,0.07127880000018681
1759682229.1922188,0,-1.1636512266319783,-0.8612283527916307,-0.6057459496065132,0.14250143548160712,-1.7890373447136956,-0.3088987179784054,-0.6681798712366528,0.07165461164670016
1759682229.2036629,0,-1.1636342806615652,-0.8612348630307579,-0.604889023215126,0.14250143548160712,-1.7892404529527073,-0.30877886366711277,-0.6679266583402058,0.07200302304335256
1759682229.2142758,0,-1.1636619820008354,-0.8612131069317511,-0.6044261693143834,0.14250143548160712,-1.7893911719535998,-0.30870307866378893,-0.6677357799303373,0.07232758042425437
1759682229.2245772,0,-1.1636852802387172,-0.8611956154440007,-0.6041802260107814,0.14250143548160712,-1.7895000284281783,-0.3086624286258872,-0.6675948213887967,0.07263277027817731
1759682229.2355137,0,-1.1632122067592487,-0.8619588561465746,-0.6021849493874792,0.14486673034809458,-1.7901137426604203,-0.3081301974029066,-0.6666307038218816,0.07438796862895765
1759682229.2470117,0,-1.1631814245711114,-0.8619785911260247,-0.6019848008136425,0.14486673034809458,-1.7905867363509484,-0.3077398651550273,-0.6658729539118458,0.07583928805882868
1759682229.258239,0,-1.1631809939293645,-0.8619784185220758,-0.6019526225552504,0.14486673034809458,-1.7909501506808894,-0.30745819743255925,-0.6652769370970928,0.07705241644932678
1759682229.2689903,0,-1.1632009828642103,-0.8619650359492242,-0.6020025153796021,0.14486673034809458,-1.7912282129248025,-0.30725964818580087,-0.6648078364927341,0.07807732373311828
1759682229.2800727,0,-1.1631948210255931,-0.8619693695712949,-0.602046668622509,0.14486673034809458,-1.7914387994686558,-0.3071259912677724,-0.6644394360381106,0.07895628667042286
1759682229.2908964,0,-1.163203552726396,-0.8619639123053127,-0.6021708068493123,0.14486673034809458,-1.7915964098070847,-0.307042447221386,-0.6641506182834558,0.07971988316396605
1759682229.3220685,0,-1.1511449528449338,-0.8693083956646354,-0.5830475424930016,0.1141194904919679,-1.7916925308669631,-0.30702813765276715,-0.6639427079502164,0.08049157865697087
1759682229.3335354,0,-1.1471058267647052,-0.8718016815061835,-0.5710533187104003,0.1141194904919679,-1.7917584068203114,-0.3070410902056944,-0.6637817719192323,0.08118118458489741
1759682229.3449347,0,-1.1455549236686853,-0.8727411788311384,-0.5624619448974374,0.1141194904919679,-1.7918000878500522,-0.30707555362503464,-0.6636585394681919,0.08180633422337977
1759682229.3564231,0,-1.1441981865833415,-0.8739767160512459,-0.5539101959520232,0.11549046518592113,-1.7936170549067538,-0.3056651962063483,-0.6596481573889963,0.08191696060471702
1759682229.3672829,0,-1.1439840468951608,-0.8740930873137088,-0.5497183411959679,0.11549046518592113,-1.7950412092824284,-0.304561417353926,-0.6564871305415614,0.08206207532788161
1759682229.3786688,0,-1.143881125779448,-0.8741439000827147,-0.5466294158452383,0.11549046518592113,-1.7961561977182787,-0.3037011290487346,-0.6539962129093712,0.08223823640339564
1759682229.3894675,0,-1.1438591070670383,-0.8741489582933359,-0.5445835588013535,0.11549046518592113,-1.797029552758948,-0.30303225018903124,-0.6520306422264387,0.08243709033713935
1759682229.4003644,0,-1.1438457629335002,-0.8741509090122523,-0.5431508270208898,0.11549046518592113,-1.7977121652893733,-0.30251575827456906,-0.6504807646281037,0.08265563060791217
1759682229.4112797,0,-1.1438389291625173,-0.8741506964717767,-0.5421379356530022,0.11549046518592113,-1.7982439012852538,-0.3021208491585778,-0.6492604501752243,0.08289114583922896
1759682229.4223745,0,-1.1438295322518377,-0.8741532213563519,-0.5414688440525168,0.1153075242773671,-1.798655654416366,-0.30182363246443933,-0.6483026726764645,0.08314242420139094
1759682229.4337,0,-1.1438176364036892,-0.8741580362557276,-0.5409581242124778,0.11549046518592113,-1.798971575746338,-0.3016053776179075,-0.6475548347054355,0.08340889168960124
1759682229.444491,0,-1.1438308989778465,-0.8741492122716195,-0.540796802951712,0.11515522756985865,-1.799211811415544,-0.30144982128512365,-0.6469733234988665,0.08368601797433743
1759682229.4556854,0,-1.1438222156083508,-0.87415349684817,-0.5405912615676597,0.11549046518592113,-1.7993907715085726,-0.3013458828185822,-0.6465263930912748,0.08397529431504623
1759682229.4667654,0,-1.143822814963126,-0.8741529337043853,-0.5406329646303882,0.11472554211211905,-1.799520587206154,-0.30128382597441844,-0.6461875107344113,0.08427518690810909
1759682229.4773529,0,-1.1438396859767879,-0.8741432236635999,-0.5406914964182484,0.11531390694202637,-1.7996113709607635,-0.30125521025687396,-0.6459347218222041,0.08458234812513421
1759682229.4880848,0,-1.1438414201017062,-0.8741424821250028,-0.5407723502259344,0.11549046518592113,-1.7996702422565616,-0.3012544634863024,-0.6457521902147633,0.08489762901747179
1759682229.503036,0,-1.128911429614196,-0.8823645436753226,-0.5215503573825415,0.1532825173713099,-1.7999052778687394,-0.30100417400231383,-0.6452717776788425,0.08556191406975518
1759682229.51035,0,-1.123006870353185,-0.8858393399388905,-0.5055874050490559,0.15447037135463498,-1.8004131827077432,-0.30056696607956584,-0.6438319044708882,0.0862814230249157
1759682229.5217516,0,-1.1207795585358686,-0.886978022614199,-0.4946290460509912,0.15396624769880635,-1.8008031117966206,-0.30024154186396074,-0.6426990447975449,0.0869257887027058
1759682229.5327182,0,-1.1199380525121831,-0.8873866044520498,-0.4867656986773118,0.15400319998116135,-1.8011011538861306,-0.30000317624466344,-0.6418067379256309,0.08751015909241976
1759682229.5435932,0,-1.119612928028932,-0.887529297854869,-0.4810746854688088,0.1545168034706731,-1.8013270582482148,-0.29983332929157963,-0.6411040609560812,0.08804822680903093
1759682229.5543373,0,-1.1194895595660097,-0.8875729651188785,-0.4771607564464459,0.15370067541762478,-1.8014961871956208,-0.2997175668204372,-0.6405512382540215,0.0885504390698638
1759682229.5653534,0,-1.1194251399025423,-0.8875901988831812,-0.47412986556432196,0.15490026584371716,-1.8016200732747845,-0.29964529701953835,-0.6401177334922564,0.08902749594943915
1759682229.5761325,0,-1.1194093582822657,-0.8875874423372044,-0.4722120199452254,0.15424746200787795,-1.801708225147413,-0.29960750893911225,-0.6397788640720614,0.08948472021236915
1759682229.5864966,0,-1.1194216608893137,-0.8875742630396024,-0.47098322256016684,0.15386974577121004,-1.8017682438446971,-0.29959687959932174,-0.6395150495917281,0.0899250810525809
1759682229.597194,0,-1.119409026404843,-0.8875752025360149,-0.47004084317374956,0.1539527179107844,-1.8018053596992205,-0.2996087896145074,-0.6393117839627053,0.09035569706150647
1759682229.6079383,0,-1.1194010431730796,-0.8875753821950156,-0.46935391803559323,0.1545604534437098,-1.801823944452632,-0.2996392301482436,-0.6391572399983515,0.09078049576423484
1759682229.6187441,0,-1.1193947027250035,-0.8875763178315192,-0.46906259684798113,0.1535225007321024,-1.8018274164757462,-0.2996850929058633,-0.6390420656853358,0.09120276321474059
