timestamp,observer_vehicle_id,vehicle_0_x,vehicle_0_y,vehicle_0_theta,vehicle_0_velocity,vehicle_1_x,vehicle_1_y,vehicle_1_theta,vehicle_1_velocity
1759682225.2994752,1,0.0,0.0,0.0,0.0,-1.735,-0.35,-0.7801621756414646,0.0
1759682226.2705164,1,-0.23378996465358456,-0.1610337050900313,-0.13924646613952235,0.0,-1.7349997780623945,-0.3499999055584658,-0.7229652303128518,0.0
1759682226.4038208,1,-0.41718295734903954,-0.28735415321130764,-0.248476245037142,0.0,-1.7349997766141767,-0.3499999049422029,-0.7180979350750842,0.0
1759682226.5526707,1,-0.5678493155135079,-0.3911326106125759,-0.3382138775809524,0.0,-1.7349997761595117,-0.34999990474872844,-0.7176990074385579,0.0
1759682226.6851237,1,-0.6930343877596542,-0.47735964792630564,-0.4127747294529551,0.0,-1.7349997759905325,-0.3499999046768224,-0.7176744618575839,0.0
1759682226.816053,1,-0.7910802549958912,-0.544893296315411,-0.47117133579343795,0.0,-1.7349997759262439,-0.3499999046494655,-0.7176785252371349,0.0
1759682226.9432647,1,-0.8728657180381081,-0.601226835506055,-0.5198831644944164,0.0,-1.734999775901702,-0.34999990463902214,-0.7176832597774716,0.0
1759682227.072105,1,-0.9369894941299339,-0.6453950668659033,-0.558075604574294,0.0,-1.7349997758923286,-0.34999990463503344,-0.717687010854508,0.0
1759682227.2045097,1,-0.9900708973261823,-0.681957350626609,-0.589691152417662,0.0,-1.7349997758887483,-0.34999990463350994,-0.7176900170442213,0.0
1759682227.352321,1,-1.0309097694155869,-0.7100870220348716,-0.6140149878226576,0.0,-1.7349997758873807,-0.349999904632928,-0.7176925039368367,0.0
1759682227.4969888,1,-1.0645096412733863,-0.7332304955532024,-0.6340272386729965,0.0,-1.7349997758868585,-0.34999990463270575,-0.7181946024722692,0.0012113935864640625
1759682227.6381164,1,-1.0920812993832114,-0.7522217566515117,-0.6504490554224408,0.0,-1.7371952946531382,-0.34835522847606193,-0.7168807197298155,0.023890541569374146
1759682227.7669027,1,-1.1138149585282096,-0.7671918246031826,-0.6633937309422226,0.0,-1.7383214620853897,-0.3474789374626661,-0.715542128736725,0.0260376050103768
1759682227.9054868,1,-1.1319473966778222,-0.7796813842037179,-0.6741935013197419,0.0,-1.7437191892096433,-0.3431561586977364,-0.7116319864648959,0.050751205461081264
1759682228.0346494,1,-1.1461916255206397,-0.7894927589139541,-0.6826774348888494,0.0,-1.7464130922771686,-0.34095598995038084,-0.7083596498025757,0.0532218825281902
1759682228.1808002,1,-1.157875986183302,-0.7975409054283039,-0.689636698233562,0.0,-1.753213412822782,-0.33521157833359055,-0.7033452560019582,0.050671492458406873
1759682228.3465402,1,-1.1672089650537312,-0.8039694284372325,-0.6951954668838235,0.0,-1.7565208731259645,-0.33239466585596994,-0.6992922878157095,0.05055203800955008
1759682228.503228,1,-1.1743201894100637,-0.8088737381473486,-0.6994037566091619,0.0005235987755982988,-1.7645618261304614,-0.32571027391292084,-0.6929962595962602,0.0511125257057627
1759682228.6558712,1,-1.1799035028336273,-0.8127364345691765,-0.7023535711599315,0.006670872166575018,-1.7684691121533993,-0.3224455017144797,-0.6879568105740097,0.05130091139618294
1759682228.8074107,1,-1.1834445451735138,-0.8170023714509578,-0.7031533750203185,0.018666011558630593,-1.7764145822028303,-0.3160034320461926,-0.6809037879234277,0.054491596682346134
1759682228.949205,1,-1.184860597235956,-0.8216378775348426,-0.7015144770742043,0.032987009649924924,-1.780194995332437,-0.3129133797771255,-0.6754984714765379,0.05502847194122185
1759682229.093917,1,-1.1842878505111145,-0.8271367346231648,-0.6937677725873335,0.04965453746144021,-1.787883211201431,-0.3068053493325623,-0.6671864341160031,0.05546118907743235
1759682229.2245772,1,-1.1799487513592517,-0.8345489254233118,-0.6761632046068966,0.07330748612631477,-1.7915361917342625,-0.3038990622078625,-0.6605546219989524,0.05771877037193293
1759682229.3439238,1,-1.172538547376908,-0.8433320858722573,-0.6515653570951682,0.08701723306584701,-1.7984762202826174,-0.29860043280617354,-0.6478858284202283,0.05898120060224071
1759682229.4952273,1,-1.1664628397359342,-0.8504431263713166,-0.6297664826109202,0.09752557377057738,-1.8018096887260011,-0.2960380755862871,-0.6371672237753636,0.060435253651181686
1759682229.6197543,1,-1.1562069352467728,-0.8592431098452622,-0.5967445040563827,0.11417824887968181,-1.8092304165869266,-0.2906604225406993,-0.6184667953588092,0.05859565772929726
1759682229.7522712,1,-1.1432395769177273,-0.8684225889014208,-0.5599971268492029,0.12220421856232495,-1.8127292202157879,-0.28807332372874894,-0.6033998012607624,0.05846228267060275
1759682229.9004097,1,-1.132128311219045,-0.8761239489505099,-0.5267706009441842,0.12627626124527708,-1.820517130766718,-0.2828619178548977,-0.5797613066705896,0.05963975177235904
1759682230.025759,1,-1.1171760855310835,-0.8844897682734506,-0.4893272181662785,0.13883256090041673,-1.8242121159192584,-0.28031960418769897,-0.5608849063156506,0.059735717555734036
1759682230.1592138,1,-1.0987138694576395,-0.8932303590468458,-0.4535446801205105,0.1432111558330711,-1.8300459169919236,-0.27649971240678783,-0.5416615496307859,0.04258782827903028
1759682230.2854495,1,-1.0836660299638345,-0.9002586372448849,-0.4240671857016539,0.14527747036152436,-1.83278138472982,-0.2746859282104126,-0.5275006536473796,0.04098944662336892
1759682230.4206088,1,-1.0636819107674609,-0.9083098246569741,-0.39891056195303803,0.15259605587433683,-1.8299042955304927,-0.2763520227333139,-0.527778303003351,0.042106825337275396
1759682230.5496497,1,-1.041103523491158,-0.9168095798382662,-0.38115243384001224,0.15804625944082054,-1.8283643737161939,-0.27726504856848133,-0.5313404647487983,0.04215120591992743
1759682230.6770382,1,-1.0225828962279755,-0.9237472093388225,-0.3680787977258882,0.16265547592262244,-1.8147592148779232,-0.28667035844991,-0.5582866399310309,0.09466245798373686
1759682230.8076103,1,-0.9995586771956256,-0.9320954399472723,-0.3610541043070348,0.1723735952653927,-1.8081820612387076,-0.29139367183112563,-0.585219008402452,0.09844031079622967
1759682230.9339745,1,-0.9734299185642049,-0.9415718125103616,-0.35763577077849457,0.18271287059658983,-1.7934805285923223,-0.3031381063946527,-0.6279404045225195,0.11483096354288318
1759682231.0449002,1,-0.9515823241705536,-0.9495287690219767,-0.35556468566494825,0.19173859501205687,-1.7866605140668606,-0.30888988093552,-0.6639842903541833,0.11406155240643409
1759682231.1627562,1,-0.9263969663695317,-0.9587197191145328,-0.35401067158366833,0.19417069083549215,-1.7731772317315526,-0.3211410230830705,-0.7023283464346427,0.11655194978701136
1759682231.2955213,1,-0.9061633903207489,-0.9661256590554985,-0.3526857788344671,0.19626864167866181,-1.7668177501934748,-0.3272025793332489,-0.7318151204378345,0.11546885216965429
1759682231.4197335,1,-0.8820653927696345,-0.9749124741692065,-0.34969837270967197,0.2054102229824863,-1.748579199853074,-0.3453383766088627,-0.7594286010937044,0.14877930112391294
1759682231.5532935,1,-0.8541518958249241,-0.9848615797551165,-0.3443350903604528,0.20686286844509097,-1.739900037994374,-0.3541909281635439,-0.7793788286026284,0.1506176145902064
1759682231.672764,1,-0.831122534664475,-0.993045222289703,-0.33911539712102196,0.2079103464549171,-1.718191599503373,-0.37646708759204134,-0.7931470009870007,0.17063843238924273
1759682231.7898517,1,-0.8035210349506753,-1.0024736925224014,-0.32979910485341885,0.22091916070800927,-1.707838735400521,-0.38717131682318334,-0.801261013032536,0.17200662731692168
1759682231.914217,1,-0.7811415951882174,-1.0101319819789774,-0.3219715865473052,0.23150589597703633,-1.6876659111460817,-0.40757646248133256,-0.8019738098721072,0.1746711717176763
1759682232.0282204,1,-0.7532674881312992,-1.0190296165330885,-0.3090855256335934,0.23762806284880272,-1.678059197862531,-0.41723692288628533,-0.7999835523644254,0.1748231728234062
1759682232.173604,1,-0.723156373177757,-1.0279320763321935,-0.29277798817430867,0.235883536877704,-1.6564071679238148,-0.4383715306182578,-0.7917871000428739,0.17074576964419322
1759682232.2984436,1,-0.6988334819713509,-1.035046989931899,-0.27884160441256917,0.23471436671141155,-1.645934448732152,-0.4484398677531897,-0.7840923867961145,0.17054245511359437
1759682232.4229412,1,-0.6679871313908475,-1.0429438987760244,-0.2574986439019127,0.24269150546168838,-1.6202764555641163,-0.4729827649185979,-0.7716037534620921,0.20154142585067142
1759682232.5465128,1,-0.635358296480603,-1.0503128505572246,-0.23348824959180875,0.2442948483694464,-1.607846794109876,-0.48461377883463164,-0.7608885520925286,0.20449997551659693
1759682232.6771226,1,-0.6086971321984084,-1.056177208708737,-0.2122247613973721,0.245000966168302,-1.5788675822917426,-0.5111762715362318,-0.7476278349782793,0.22574637816435106
1759682232.827603,1,-0.5768775259225559,-1.0617895657954153,-0.1854523240291433,0.24786464061697575,-1.5646577289185604,-0.523976132188989,-0.7370890653589266,0.22792937734241261
1759682232.9594564,1,-0.5471093818100354,-1.0663731035278097,-0.16213958807823425,0.2497330884966384,-1.5360488120423978,-0.5487840799899486,-0.7256611570039904,0.20658414922468366
1759682233.1037574,1,-0.5172322340023121,-1.0703140039807322,-0.13836138715970053,0.25110237228976856,-1.5220512886849995,-0.5607860681737843,-0.7171463929666403,0.20434817165903993
1759682233.2411919,1,-0.4819625500768519,-1.0736465159905269,-0.115451341788578,0.2591040799595637,-1.4935246407695186,-0.5850151858636254,-0.706550598865842,0.1980295321700751
1759682233.3770623,1,-0.4432163209567907,-1.0764557981020226,-0.09528070275642356,0.2557498399969828,-1.4797534855552004,-0.5965685955589727,-0.6987728653412589,0.197336067569858
1759682233.511221,1,-0.4123928369546296,-1.0785987956722638,-0.07931439661176426,0.25338403650133323,-1.4461425022303191,-0.6240506899013788,-0.6815364024691924,0.23051018647233548
1759682233.6474466,1,-0.3752390583421867,-1.0804695029880527,-0.06604773788608787,0.26376256222979166,-1.4298339037725132,-0.6370294319054604,-0.6670794868722212,0.2331603983903369
1759682233.7779865,1,-0.3363012518069408,-1.082027235824075,-0.05545192297565433,0.25950000585038163,-1.3952846069106122,-0.6624282664785598,-0.6393577210202945,0.2352699125788847
1759682233.90698,1,-0.3049598122532769,-1.0832271952498282,-0.04704579262071578,0.2561409943787528,-1.3782817864854244,-0.6744469533226388,-0.616319767060273,0.23584081603838833
1759682234.0450916,1,-0.2689269635042888,-1.0842713927483263,-0.039392069307935235,0.26624054094296806,-1.343092748308064,-0.6972579773009594,-0.5845944574877617,0.2307704989400423
1759682234.188996,1,-0.22909791150952596,-1.0851258305823752,-0.03148940239643585,0.26036215487300796,-1.3260758461648494,-0.7078059089078854,-0.5595254454254035,0.23045987616016206
1759682234.3273976,1,-0.1973642100847191,-1.0857670378145723,-0.0250120151380773,0.25545441623687787,-1.2800617207054499,-0.7338812617321615,-0.5196588139349361,0.27007653503970735
1759682234.4459414,1,-0.15838774485274837,-1.0861923551532275,-0.01759573979818759,0.27869142603990216,-1.2576168697023198,-0.7458743682065715,-0.4875784302788625,0.27459137712153125
1759682234.5819528,1,-0.1181126027486169,-1.0863607242681508,-0.010823517862940245,0.26997375690327485,-1.2184926027734706,-0.7646419123820463,-0.45546821378633434,0.2417513031652905
1759682234.7183528,1,-0.08597006433057976,-1.0864570335131234,-0.005314704571129303,0.2629021593343921,-1.1994909883465692,-0.7733208290015806,-0.4322826287615552,0.23920894270679877
1759682234.8741436,1,-0.04826937297844006,-1.0863156190625693,-0.0005718646694931847,0.27709593843407304,-1.1512771729078926,-0.7945878673000565,-0.4070401007290824,0.27253485929852955
1759682234.9941332,1,-0.005743238270751494,-1.0860149959774803,0.0028632287088666353,0.275577835615828,-1.1280437930125657,-0.8044239601153266,-0.3891262329894674,0.27545861234835384
1759682235.1401033,1,0.031000510949024448,-1.0857305936919461,0.005304344662459985,0.2774827755514962,-1.0808197260896566,-0.8232101782561724,-0.3664285189977528,0.27630872911462856
1759682235.264082,1,0.06841830773283951,-1.0854239734333855,0.006026940010772472,0.28192555912776995,-1.0582522118199438,-0.8318072245516918,-0.3501813356420585,0.2765148766481062
1759682235.3954163,1,0.11087505311714944,-1.0851519797877724,0.005293049486403706,0.2863718851836733,-1.0173213584474239,-0.8463628394118093,-0.33110553683454225,0.24549925386252455
1759682235.5232553,1,0.1449320630189415,-1.0849383266288164,0.004644276563166416,0.2901206245644767,-0.9976577169820887,-0.8531057638188154,-0.31768976655344117,0.24287034811629743
1759682235.6583102,1,0.1846520895646724,-1.0848225725037168,0.0030718403593951796,0.29027872978043684,-0.948882931359335,-0.8686694504453396,-0.29660464701923234,0.27743580454305217
1759682235.7835352,1,0.2263787794117107,-1.0848164775418287,0.0016466804559199183,0.28111215163312453,-0.9253989676521247,-0.8758116559725447,-0.2801376812136446,0.2807752946666765
1759682235.9271483,1,0.25941436433369397,-1.0848195096551934,0.0005436299570029886,0.27390784293251114,-0.8727036456795302,-0.890153047269592,-0.2571321523920059,0.2982038944917721
1759682236.0539842,1,0.2993954956585731,-1.0848989851380026,9.805459180788816e-05,0.2897807044506559,-0.8473241519583548,-0.8966511460136394,-0.23953678494349268,0.3003767655169826
1759682236.1887121,1,0.3408338309449822,-1.0849798638433379,0.0005073720713001908,0.2823276152463988,-0.8013768642205026,-0.9073928745722539,-0.22265408976322051,0.26803941179616947
1759682236.3268597,1,0.3757378725062863,-1.085044370807959,0.001022744590809241,0.2759158470707987,-0.7790641477496,-0.9123839333619489,-0.21134251261491757,0.2652772991846854
1759682236.4665205,1,0.4147341476629953,-1.085046999253922,0.002445230903984243,0.2856612905561471,-0.7271084877620371,-0.9237094826761715,-0.20041854518051436,0.2914666626458676
1759682236.604608,1,0.45692017761215264,-1.0849666820205508,0.004046110895968032,0.2787482964203211,-0.702458639043132,-0.9289210189308698,-0.19358616270368859,0.2936729118120112
1759682236.7399952,1,0.4906856840777762,-1.084892326704536,0.005418673600994311,0.27305938385868134,-0.6484436806199628,-0.9398883601393386,-0.1850359246837953,0.2906415294597746
1759682236.8747942,1,0.5309188172599155,-1.0847235855025763,0.006579966516216654,0.2867426469459304,-0.6224006570335893,-0.9450437529296267,-0.17941624130766412,0.29039729083017285
1759682237.0098164,1,0.5732080006469025,-1.084524080001251,0.00683446009473292,0.290527209048452,-0.5733220318156317,-0.9542673731458639,-0.17200136934583588,0.27740247985310823
1759682237.1321144,1,0.6093635208655108,-1.0843534908281285,0.006996762536833556,0.2938878671348292,-0.5498410747099135,-0.9585673383127754,-0.1673571464831512,0.27629287676088277
1759682237.2580776,1,0.6492259772559823,-1.0842128276255472,0.006046854374304507,0.2933828043074824,-0.5018324109584822,-0.9667767822164743,-0.15870490640255538,0.2827511681108716
1759682237.3957474,1,0.6914952717917054,-1.084149855573892,0.004593045637359613,0.2841116340389411,-0.47897898054934424,-0.9705373006017322,-0.15198960349229995,0.2833034159757631
1759682237.525686,1,0.7255405936868482,-1.084109503102059,0.003303738059277743,0.27684056853231576,-0.4247956080200079,-0.9785651651126082,-0.13993539996164825,0.3029961622221946
1759682237.6584177,1,0.7663178107998766,-1.0841745415145463,0.0017779446768042457,0.28821892704132185,-0.398847166358004,-0.9821975354273258,-0.1304062744883856,0.30504745526691285
1759682237.8333933,1,0.809412848716179,-1.0843047876866718,0.0009148582708080328,0.29053917272840635,-0.3440440191988322,-0.9889522336385433,-0.11835413991354735,0.2715110762446668
1759682237.9989917,1,0.855190853755345,-1.0844520617991447,0.0007817094328083995,0.2869359869838912,-0.3178794187057179,-0.992000392720754,-0.10955677098910549,0.2685077574513724
1759682238.1462364,1,0.8933554781415474,-1.0845744942256197,0.0008130311798708555,0.2839541398870142,-0.24818522775108084,-0.9994840581946979,-0.0994714193620729,0.32576211784890957
1759682238.2785892,1,0.9350727779838446,-1.0846775898498169,0.0012875256431005707,0.2967363374205804,-0.21442559640233214,-1.0029251143245885,-0.09258089473352656,0.3313440295357089
1759682238.4198875,1,0.9806881116308288,-1.084747797221796,0.001932233892884587,0.2894831784411789,-0.16158036151739652,-1.008008379981567,-0.08728996755366783,0.29245872308933624
1759682238.5523763,1,1.0171150288221427,-1.084799830309743,0.0024969156499435588,0.28410445107973903,-0.13636946900019223,-1.0103661476144228,-0.0847365462923581,0.28893076356659614
1759682238.6937811,1,1.0594425532615124,-1.084807308524044,0.003342233807233047,0.29832324086837897,-0.08464024405589819,-1.015215807543852,-0.08223592665479637,0.2772486199480939
1759682238.8197906,1,1.103341368253699,-1.0846949970744766,0.006181982921870642,0.29969118221225355,-0.059843195477268095,-1.0175112109531925,-0.0809562941854761,0.27616085330871476
1759682238.9606097,1,1.14380940681592,-1.0844686467452962,0.009385948465643196,0.30253178912191625,-0.004828782192786564,-1.02249919801641,-0.07929116849218162,0.30038847274436087
1759682239.097383,1,1.1836245356126958,-1.083981489726286,0.01660869361132814,0.3058522048765666,0.021641208136065102,-1.0248687036850745,-0.07825757792839319,0.3029299062445682
1759682239.2528768,1,1.2277351313580058,-1.0826799108814416,0.03161993243504814,0.3025160487529952,0.07601207393475334,-1.029672347247837,-0.07828205848577373,0.2805598761601759
1759682239.3899305,1,1.2739544236215083,-1.0803126006457258,0.05211501633693999,0.29673809296994413,0.10182168637319232,-1.031962062563156,-0.08007357804993046,0.2786790498622706
1759682239.5548623,1,1.3099877384979968,-1.0782872254172868,0.06999639139378193,0.292218532283517,0.15937016428132159,-1.0378365432236456,-0.0881470574329,0.28849415123765887
1759682239.6970074,1,1.3526417857054285,-1.0740401172461926,0.09834716282309554,0.30560268004964086,0.18701717448802596,-1.0408133792907157,-0.09614999943856506,0.2895155772850072
1759682239.8683655,1,1.3974663050011167,-1.0676875097117366,0.13296125766899447,0.30479972537249045,0.24876352358716103,-1.0489533571687888,-0.11283939198219074,0.2975672728554191
1759682240.033689,1,1.4436469751957006,-1.059068686165548,0.17160181396448373,0.29942222694690696,0.27842402418690276,-1.0531649608313374,-0.12836541623754483,0.2977696421695347
1759682240.1608868,1,1.4807467718774843,-1.0519194866127353,0.20339668282022308,0.29506466599889125,0.3408894425567087,-1.0636805890306127,-0.1476571486255737,0.3125486760472386
1759682240.3004982,1,1.522789989175558,-1.0412769331326037,0.24243288578409536,0.30419823195695833,0.37122223276534944,-1.0691232729827942,-0.16366291144113676,0.3132909969762164
1759682240.4421215,1,1.5646649206715524,-1.028456877323406,0.2832121078266871,0.3041553794752981,0.42372911067559543,-1.0786888216858215,-0.17083564415635408,0.2825134526738227
1759682240.572321,1,1.60329433506097,-1.0156317665841907,0.319681142573982,0.3059951095621326,0.44883828059030784,-1.0833222115419305,-0.17488135278473596,0.2795659805226442
1759682240.710442,1,1.640868586199394,-1.001273100610984,0.358850461271938,0.31000143561139293,0.4985513482549086,-1.091572689374702,-0.1691126160466024,0.2768987939855041
1759682240.8476667,1,1.681400425973915,-0.9833067274597912,0.40233402927337875,0.3064792898563857,0.5224465309139665,-1.0953904537566108,-0.1623678264830758,0.2765611245211759
1759682240.985813,1,1.717129178091512,-0.9661001017310151,0.43944138001401306,0.3060684006637439,0.5755465055505324,-1.102609598704113,-0.146962804470965,0.2826783548530769
1759682241.1035538,1,1.7511636264817882,-0.9481730264702519,0.47808011632419334,0.3079845306069486,0.6009961445795333,-1.105801202963415,-0.1335334463168659,0.2834235042539373
1759682241.23126,1,1.7888566511976096,-0.9255144923466258,0.5221783119808271,0.3086437344415241,0.6466005741016518,-1.1106367211587742,-0.11705503747519651,0.27935865079199745
1759682241.3524086,1,1.8189951441938552,-0.9070613294737498,0.558548907713751,0.3095181164592892,0.6683735339112523,-1.1127004923779904,-0.10424450899017111,0.27920298495099316
1759682241.4951742,1,1.850006989108684,-0.8853003697688346,0.5983830164482407,0.3115242622758677,0.7162697848945706,-1.1164392964650414,-0.08648842627811312,0.2712568669618781
1759682241.6256163,1,1.883586317673833,-0.8587267210230058,0.6445512163391991,0.3110591699033606,0.7392955547900614,-1.1179749450122543,-0.07240465949283727,0.27037616781090296
1759682241.7446668,1,1.9105374056476938,-0.8370372022948338,0.6826286571803495,0.31062885869789114,0.789280529562535,-1.1203869538801563,-0.052127150065286836,0.2892242842418712
1759682241.8618915,1,1.938812977748882,-0.8110772693924001,0.7264815763919866,0.3059979081507714,0.8129916415667098,-1.1212182587352937,-0.03644325831596533,0.29101918939028865
1759682241.983559,1,1.9640677515193088,-0.7861074904283929,0.7653643871562696,0.30670288481194996,0.8564026781032765,-1.121895953846158,-0.0178674735925542,0.2716023924630925
1759682242.12763,1,1.9885907766768909,-0.759797822488541,0.8084818398006501,0.311998291236586,0.877358531912581,-1.1219573079516645,-0.004146621889880207,0.26966425364629515
1759682242.2513344,1,2.0136717507143667,-0.7290785573995979,0.8562446496518467,0.3079180177406407,0.9207695265290308,-1.1214926388883593,0.013096714395719583,0.2400122737964181
1759682242.3867264,1,2.0385796771113673,-0.694601929858234,0.9057467998748049,0.31501402571722215,0.9417952279991278,-1.121059894772801,0.026022995361267735,0.23741649595607045
1759682242.5291648,1,2.058580244909515,-0.665518463138843,0.9491284186447634,0.32072576573710326,0.9926136645275097,-1.1186434728426506,0.04827511985105162,0.2736166739839237
1759682242.6805892,1,2.078481043088644,-0.6329540838850256,0.995628542081348,0.3111726293765247,1.0171856686669276,-1.1171070776853456,0.06632124699332811,0.27696574618590064
1759682242.8367505,1,2.0983923031403613,-0.5950535415910473,1.0456198987372525,0.3095860223711599,1.0714204743038822,-1.1115333900443654,0.09839331406707623,0.2647369635618092
1759682242.9710457,1,2.113822186867821,-0.5648470384848155,1.086505771349437,0.30853075346570347,1.0975952344934223,-1.1083546788557634,0.12435408238059621,0.2640101056860422
1759682243.1022358,1,2.1295702556215024,-0.5277767339460894,1.1340892559278712,0.321657882165031,1.1401940395777335,-1.101718565543367,0.15303991843357667,0.2362298634323023
1759682243.2462604,1,2.143462552821758,-0.488798746425936,1.1826863849270952,0.3163498759245728,1.1605167628156097,-1.0981886594754868,0.17433593029906014,0.23309611734335636
1759682243.3935635,1,2.155422222243147,-0.4517574475743408,1.22641849076656,0.3112561164318059,1.2111255835962713,-1.0872908760681057,0.21099680769605753,0.2559965431908821
1759682243.5284455,1,2.166069140850281,-0.41438059915156444,1.2717875363172257,0.3061127263184976,1.2354516771768083,-1.0815146542276692,0.24025864088471616,0.2586172701203487
1759682243.6529825,1,2.1751240054116767,-0.3731954055191701,1.3158564502259835,0.3089870184056317,1.2782053437718452,-1.0694016032000575,0.2751552036707521,0.25261118782047476
1759682243.7810402,1,2.1821642720462755,-0.3370437350091809,1.3516616862983113,0.3086755761222505,1.2984802618165394,-1.0631671115755756,0.3019824751550584,0.2526279658114152
1759682243.9247437,1,2.1882895032396728,-0.299316202759723,1.3847593538465564,0.3063468593459953,1.3393659896345516,-1.0488074437909447,0.3373792081497232,0.2322913007923773
1759682244.0587451,1,2.193365481900518,-0.25844454833338726,1.411761247654284,0.3052598749304968,1.3589025046983674,-1.0414743982704788,0.3645978929852903,0.2298723055702502
1759682244.1721616,1,2.197340550844928,-0.2251723333902273,1.433732955334559,0.30409694343409593,1.3991742073966702,-1.0242433915485012,0.4042038127152833,0.2599020350204533
1759682244.2969916,1,2.201226153758591,-0.18530037998427668,1.4521311505475294,0.3088079676264126,1.418312142231298,-1.0154350424626426,0.4349245600613964,0.262895104730495
1759682244.4291134,1,2.204656767955923,-0.14379109326313086,1.4665358330661773,0.29950431259220206,1.454576346781261,-0.9968559821669304,0.47590774162114047,0.2325957777708368
1759682244.5376415,1,2.2074967535749486,-0.10996131971560652,1.478254114860246,0.2923386111580813,1.4716306564263089,-0.9875681106977274,0.5076849451543042,0.23069695147425315
1759682244.6610427,1,2.2100711759310743,-0.07087352974975754,1.488475652254294,0.29773168515780846,1.5060532713354244,-0.9664114896827383,0.5492359848711021,0.24350494447864604
1759682244.796889,1,2.2123890421024246,-0.03453021430922848,1.4973799931740046,0.300666176332441,1.522351167004338,-0.9557453787974468,0.5820394712520411,0.24552290590641415
1759682244.924533,1,2.214329405964963,0.002214865501725184,1.5059932371942248,0.30103106734221735,1.5582881236450699,-0.9296191678459296,0.6254999864385268,0.2487701084917608
1759682245.048859,1,2.215998703214183,0.04176505978826651,1.514920439672302,0.3008269086150863,1.5752027502099073,-0.9166261070657135,0.6593414220316828,0.249296519002269
1759682245.191127,1,2.2174859627405015,0.07828570940302476,1.5227989107129076,0.3007237150634303,1.6122050228460802,-0.8851159255669224,0.7045220341961137,0.264827544717827
1759682245.3186264,1,2.218601199500903,0.11514123594702308,1.5308422857684054,0.3008561566322269,1.6294801580121228,-0.8696134385591838,0.7386633772617756,0.26687319216277466
1759682245.454643,1,2.219764024180614,0.15744851823309378,1.538671331078588,0.29438834215442555,1.6618429391598473,-0.8384808327760128,0.7756202965595749,0.25032363879017466
1759682245.5866287,1,2.220618034175509,0.19112370396645811,1.5449971527006272,0.28923480507450927,1.6771252947127702,-0.8231408938875109,0.8027284367422627,0.24934757385179657
1759682245.726157,1,2.221265866947228,0.23033944070810927,1.550621971289986,0.2984542975286569,1.710365752410797,-0.7866872702409136,0.8378044257829845,0.2696030061970584
1759682245.8452291,1,2.2216817051137157,0.2728468715812714,1.5552050930571648,0.2981426257693544,1.725939589549172,-0.7689138281931891,0.8643293220301154,0.2714337226433379
1759682245.9820325,1,2.2221495213550857,0.30855772826261263,1.5590676192630384,0.29818112561145005,1.7568752462699744,-0.7304029140715168,0.9010102308839623,0.2843110609252904
1759682246.1166816,1,2.2223397856035088,0.3478245347274695,1.56238247705846,0.29829722209901816,1.77132057728246,-0.7115190091863646,0.9288751589271552,0.2860186038814952
1759682246.2544076,1,2.222519902095772,0.3899918591164469,1.5657105430657074,0.29194881858021104,1.7988203232662998,-0.6733978511124508,0.9621047269168712,0.25573933921772235
1759682246.390133,1,2.2228980314802183,0.42549138103778034,1.5685629809932058,0.2862267761318524,1.8117346646790309,-0.6547304891466119,0.9868724007331632,0.253586667544383
1759682246.5317888,1,2.222772084402931,0.46424049801294837,1.5717069861153001,0.2952721863706804,1.8391255592420404,-0.6110438575220873,1.018560186535489,0.26836147709728225
1759682246.6794043,1,2.222620983863029,0.5072552904070057,1.5748289849074242,0.2935284618098372,1.851967186239565,-0.5896354073235088,1.0425681284587205,0.26987512560432625
1759682246.8417144,1,2.2224210491276124,0.5525367756156071,1.5771169243155096,0.2894391910655459,1.881025291681598,-0.5363223312810415,1.0761411449257148,0.2991610673886276
1759682246.979165,1,2.222182018875798,0.5884973823773022,1.5788906593875391,0.2863052104201428,1.8946263935991943,-0.5103165517600037,1.10216430908223,0.30284282159695236
1759682247.166205,1,2.221946519101734,0.6311753005485425,1.5788420755201196,0.29228029313056925,1.920248054806949,-0.45669410787035014,1.1346537594806603,0.2754007515425845
1759682247.300874,1,2.2217298685676075,0.6756279313546075,1.5772261720665983,0.28754254421343206,1.932070007239184,-0.4310898302823344,1.159101653051523,0.272919782797176
1759682247.437123,1,2.221768696639295,0.7232374394552223,1.5746888027087973,0.2895339067495401,1.952470052280631,-0.38220550242950735,1.1868071132604412,0.2832102025426765
1759682247.5673094,1,2.2216882557812907,0.7614321373703877,1.572464653474899,0.2911127967064442,1.9618226024017456,-0.3586725176941172,1.2066118280466798,0.28443283299105127
1759682247.7065263,1,2.22186961793492,0.8053527616054947,1.5698867042787203,0.295106431355901,1.97904422940345,-0.3138466238872025,1.227166193480962,0.25703794727294377
1759682247.8360715,1,2.2220860302862713,0.8504140203488917,1.5681878219906211,0.29316888655759854,1.9870343240388268,-0.2923377306317532,1.2412841419122003,0.25442012824183013
1759682247.9754589,1,2.222150405792524,0.8863652475324336,1.5669739940174299,0.29152013478964706,2.0046333026616114,-0.23771538475214563,1.2633055988559863,0.3074857000234002
1759682248.122062,1,2.22230763540964,0.9281485518204547,1.567425367760825,0.2958693412526717,2.0127427160369775,-0.21131280926538484,1.2801689148992195,0.31295446148579753
1759682248.2650232,1,2.222590039009078,0.9741360226278774,1.5691843809882355,0.2923587945526532,2.0283147273588837,-0.15827133824988285,1.2993992341919984,0.2951025525591078
1759682248.41283,1,2.2226486161392764,1.0217036116031943,1.5712732629732777,0.30267095680449535,2.0355789691128607,-0.13252219917601282,1.3132912964968821,0.29377199386347735
1759682248.5447247,1,2.2224033310233775,1.0615961309531254,1.5732335460271454,0.31089125217101804,2.0487602406305148,-0.08558351521804633,1.324954318490087,0.2633057638757862
1759682248.677707,1,2.222089332960044,1.1035986223026524,1.5743230972457691,0.305662419125388,2.054939015710424,-0.06289215428703013,1.3320780516923416,0.26012916385269846
1759682248.8181283,1,2.2219610441041984,1.1425492610641443,1.575048696672076,0.30481888698099846,2.068462048971357,-0.007061674715998611,1.3429060775025996,0.2967755203382361
1759682248.9467123,1,2.2217016308946524,1.1818513897773937,1.5745763952480336,0.3076467842165794,2.074852734656088,0.020031316492128286,1.350421395371904,0.3002612581010205
1759682249.0891461,1,2.221733836707977,1.225096655045755,1.5733931457595423,0.3024775864944845,2.086591783762527,0.07208299553450988,1.3624892657501844,0.2939907401079709
1759682249.241508,1,2.222037023767893,1.2693065262685599,1.5722255602214594,0.29297627187720915,2.092060237729301,0.09710286639978088,1.3716096365323842,0.29347369338742646
1759682249.4121854,1,2.222252248374837,1.3097127440000809,1.571263463046585,0.29602555244221757,2.1042694816281085,0.16284139874896136,1.390080641812921,0.3082750211785224
1759682249.558941,1,2.2223396382886653,1.3524964633877776,1.570841111758805,0.3098735862690344,2.109945420852883,0.19472752670842206,1.4051179729666716,0.3102577632986676
1759682249.7071674,1,2.222342438713981,1.3971770636878174,1.5711152896089395,0.30453862422905914,2.1192202158905373,0.251504213370204,1.4200101398845268,0.2867897182043243
1759682249.8532841,1,2.2225866184934198,1.4443941108520908,1.5717153504651902,0.2978275081824726,2.1234754027182166,0.27867933689930663,1.429999635193557,0.28484487087110166
1759682250.0006695,1,2.2226766834161067,1.4815021262975168,1.5723171036884989,0.29248759092117377,2.1317001989222946,0.33579100738686113,1.4378827838753687,0.28728426563467774
1759682250.1273844,1,2.2227188948150856,1.5263842703617707,1.5729405938991954,0.3061195197052537,2.135576272533494,0.36321627334612233,1.4424785324320548,0.2873612083844148
1759682250.2749395,1,2.2227724215660056,1.5723420350387665,1.5730839017382066,0.2958741905366929,2.1430718235433663,0.41985060648485445,1.4473305981194422,0.3089426354163959
1759682250.405422,1,2.2228611904397204,1.6091088332477606,1.5731753228649061,0.2878586912946269,2.1466727864929838,0.4469978354359462,1.4494430588883316,0.31098171851943285
1759682250.5457,1,2.2229096537750035,1.6523570216719758,1.5725279536957772,0.3025248929113773,2.1536840610808805,0.5024095176206895,1.4552995671961722,0.3090025391293576
1759682250.690756,1,2.223100711267164,1.6995276961829113,1.571581164127345,0.3018889861727816,2.1569950070815334,0.5289858290365534,1.459922748988281,0.30881792675679826
1759682250.8320777,1,2.223094845023955,1.7412520385033308,1.5707857187053438,0.30340905823300157,2.1635629862867547,0.58740307722538,1.4687490785239072,0.29983436898866433
1759682250.9570048,1,2.2230123243126547,1.7811627848195069,1.570135780561979,0.30670672395252707,2.166603422952287,0.615466369230573,1.4757010185731236,0.2992416488306849
1759682251.1055052,1,2.2232491864264263,1.825935321256118,1.570090278221733,0.30121542692662506,2.171656570835165,0.6694297568280799,1.4836887925220799,0.2970805764157673
1759682251.224546,1,2.223468194140272,1.8619893247612547,1.5700735246792754,0.2968314540730165,2.1740018973262347,0.6947787991999225,1.488558049403702,0.2970597546231016
1759682251.368167,1,2.2237795275537557,1.90350976099839,1.57093005873893,0.2971578679914032,2.178505442821996,0.7468013698852238,1.4934009155213965,0.28952311437375894
1759682251.4966059,1,2.2239394627572677,1.9475863806635332,1.5722234480107518,0.2957607490712826,2.180638889314713,0.7713347928759644,1.4963728913500547,0.2888389747906369
1759682251.6383243,1,2.2240511028299013,1.9939012680791577,1.5733805107056673,0.30098829724105397,2.184891467148043,0.8265465786394176,1.498831946967185,0.3044182451831385
1759682251.7765875,1,2.223895100398932,2.032486985423089,1.5742977139067018,0.3051677001572335,2.1868895717604815,0.8532025112330573,1.4999102175990147,0.30585864721955197
1759682251.9108715,1,2.22369819669257,2.073984311032872,1.5745019305652248,0.30002580756456393,2.1913779720407707,0.9063721129498673,1.5021059462912034,0.28752066556374856
1759682252.0377421,1,2.223733319982393,2.112869629496532,1.5744933797504976,0.30040679309736307,2.1934959248983144,0.9320038274629945,1.5028705576783523,0.28582520273940404
1759682252.182226,1,2.22353975921601,2.151378930051426,1.5738392702760224,0.30550685386852516,2.197188389727594,0.987436937160158,1.5067161319604314,0.3038738734659066
1759682252.3221262,1,2.2235746424741616,2.194665849356504,1.5728855996895754,0.30409208554556455,2.198900544217193,1.014138995046959,1.5098783013917092,0.30560526441806446
1759682252.4694438,1,2.223900699825791,2.2396481772219583,1.5723849771023897,0.2937882883266373,2.2023902380394813,1.073969243392609,1.5166122821280914,0.3042571290593063
1759682252.6081102,1,2.2241540026204536,2.275077504125797,1.572042667715006,0.2856545888280132,2.203995153991767,1.102920905033194,1.5213714443418391,0.3043779915813663
1759682252.7472112,1,2.2244425313466083,2.3174321882027673,1.5724248339813114,0.2898554061052204,2.206546303931859,1.160539555055733,1.5271282323218907,0.3147734189429185
1759682252.8812563,1,2.2246142783331853,2.3621237118689447,1.57311907610928,0.2891613238898314,2.2077119113640506,1.1881768094550345,1.531294016036111,0.3158453862497705
1759682253.0294359,1,2.224838644210059,2.3992686174749966,1.573748228860978,0.2885069528653011,2.2102598040939387,1.2464300618943942,1.533635095755191,0.3098562481071948
1759682253.178785,1,2.2245461417938612,2.4399845094549533,1.5743518348883743,0.30276958447376634,2.211504922162079,1.2745609787594203,1.5345933796501716,0.30923584837013274
1759682253.3226016,1,2.224452564830694,2.4845562960027223,1.574695901683677,0.29870308161099246,2.2144151106039653,1.3296311979278832,1.5353076812386712,0.2830985983620886
1759682253.4677155,1,2.2246324768045636,2.531020930835647,1.5748266561994377,0.2890694031532555,2.215803950455004,1.3561461265856367,1.535143707734762,0.2805152351944175
1759682253.6265724,1,2.2249541707291027,2.569528962657801,1.574832467060305,0.2813587835850561,2.2181641679596926,1.4216976177810274,1.5366787278394523,0.3090571350107332
1759682253.7585304,1,2.2249117192782255,2.613403470031284,1.5744406826203838,0.2965563510331141,2.2193211024246557,1.4533062174615285,1.5376043042211773,0.31176317914758883
1759682253.9100041,1,2.225001126740232,2.6594799498770367,1.5739515947251514,0.2915653321047441,2.2215190516732157,1.5100025614332768,1.5407551927141212,0.29515030398773967
1759682254.0577183,1,2.2248997083129365,2.7009837346297134,1.5735977222430035,0.2917041858564667,2.2225605639620842,1.5372041044587066,1.5426316465440775,0.2936279074056013
1759682254.1905994,1,2.2249236029457973,2.7424484507038875,1.5732948518720498,0.29589033178606877,2.2243413607709392,1.5916272320033167,1.545952598414715,0.28836494554018793
1759682254.32234,1,2.2248324008180163,2.786237871856996,1.5733762557189022,0.29575553837160523,2.2250948805974446,1.617605045940813,1.5485445378552463,0.2879576299210746
1759682254.4601686,1,2.2248379543522407,2.8336535410593777,1.5737967847250147,0.2983598215321975,2.22620520372644,1.6736569021934664,1.5507498864443763,0.304808735257272
1759682254.5976844,1,2.2246579940450877,2.8714602712104056,1.5742246859137512,0.3003924966628512,2.226737842194238,1.7005475108486372,1.5519581800561246,0.30645579425981984
1759682254.7388835,1,2.224641752907228,2.9144887659935352,1.5747089462983688,0.2970736675501498,2.228404114079007,1.751754078380462,1.5531690095877801,0.2774512535503708
1759682254.9014323,1,2.2247182899978797,2.9591563730102926,1.5750119566194412,0.2901508676831962,2.229150770588539,1.7765517018557233,1.553676200204349,0.27458646474124687
1759682255.0665822,1,2.224602346306492,3.0077094660257178,1.5748883994569347,0.30090903610950587,2.230237789416409,1.8444003560074673,1.5540926225020226,0.30951036442153
1759682255.2162683,1,2.224416547715169,3.0483068933869006,1.5747053901976116,0.309932453694655,2.230791643020992,1.8775198715852859,1.5537302904001493,0.3128744971558623
1759682255.3607445,1,2.2242166472540097,3.09079122207596,1.573971521907199,0.3031874976844189,2.2323665814486295,1.93652304511641,1.5550652767024025,0.2933918464632358
1759682255.4906626,1,2.224300206480126,3.13770059555838,1.5730454702569623,0.30201264114566007,2.233105240341003,1.9643214554523096,1.5560079698810676,0.29170114729639446
1759682255.6324043,1,2.224231604656679,3.1749229916628434,1.5722967646505577,0.30130689492947954,2.2337446302773305,2.023738794198368,1.5585048370359367,0.3171052660170888
1759682255.7702105,1,2.224200838096164,3.218298220923851,1.5715538347950282,0.31331005601026246,2.2340273457202677,2.0520533916584545,1.560396309975617,0.3195854938124124
1759682255.915702,1,2.2242659715244963,3.263413189355628,1.5715258863319,0.3011088659620238,2.2350240704706827,2.1064339283095603,1.56337816826894,0.2932372055574971
1759682256.0545444,1,2.2243486650857003,3.2992084109235327,1.5715690085592917,0.2914169997601201,2.2354904355243654,2.132585501690009,1.5648192406497878,0.2909022753697511
1759682256.1899254,1,2.224335246896116,3.340887404191952,1.5722245826938424,0.30744097668051845,2.236165037799513,2.186946103838476,1.5658855887279184,0.28736627765792827
1759682256.3248787,1,2.2245325909536002,3.3873426528360593,1.5731620944262257,0.30180416104007646,2.2364859775121593,2.2129408255146314,1.5662683777760245,0.2870353684328939
1759682256.4773293,1,2.224455707853241,3.428795667968739,1.573962044825392,0.30196935292526794,2.236660484934555,2.274885915717898,1.5650793161041117,0.32030691109031373
1759682256.6049943,1,2.224218657690858,3.4681826868481846,1.574717784518457,0.30685598137888936,2.236893992940283,2.304577696805819,1.5632498438778304,0.3233203061887279
1759682256.7391634,1,2.2241638731644855,3.512233531590643,1.5754329715693218,0.30515800461931986,2.2383002647278354,2.3543036667059263,1.5623514977744681,0.2805483095599395
1759682256.8724468,1,2.2239494843708845,3.551944020495366,1.576630364083817,0.30501088990476066,2.23901202328209,2.3780583706555642,1.5609991823956828,0.2764569988476756
1759682257.0047622,1,2.2238398784036937,3.59197659329184,1.5796309096173577,0.3065561114697345,2.239762107335841,2.4302313448887753,1.5612275964127107,0.28895089320997874
1759682257.1202178,1,2.223194425860682,3.6351478039791667,1.5890297688790485,0.3079043254661892,2.240118492956747,2.4550673520929434,1.561730360466955,0.2905088895309017
1759682257.2586722,1,2.2221494746756982,3.676543299514211,1.6033479902222725,0.30915131436349813,2.2407280951105557,2.5088359037918715,1.5576409430929172,0.31004366052771265
1759682257.3930361,1,2.2205873620129375,3.7140166753190442,1.6201647716833059,0.3098379113400397,2.241093656174083,2.5347433214979183,1.5539129521466817,0.31229113162630734
1759682257.520941,1,2.217123509590554,3.7561146454123455,1.6493619782640776,0.308505634757172,2.2433596917441876,2.5848769854918516,1.5437170217028542,0.28983561630050153
1759682257.6495657,1,2.2140696902064465,3.789781875591907,1.674688139411743,0.30698692856372917,2.2445948310977837,2.609168625074171,1.5330737671517625,0.2877027352790484
1759682257.794814,1,2.2083603326529353,3.8285286224323984,1.713128758376905,0.31679322834956136,2.2488373614833277,2.6652172593401406,1.5090101280445765,0.31047483045250884
1759682257.9270093,1,2.1998483426764266,3.8686573933484434,1.7590739819113286,0.3140069623544468,2.251374557507088,2.6922960417744153,1.486895830160954,0.3121434056637169
1759682258.0623555,1,2.1913151431299265,3.9050671607060163,1.800424846387238,0.31109895034686474,2.258929859172696,2.7468644720741953,1.457002372775517,0.3086618860148964
1759682258.194484,1,2.1811541759269657,3.9400347899206136,1.8456336654205463,0.3085424855895086,2.263121946999063,2.7732905133970185,1.432286428779498,0.3074125753853535
1759682258.3314412,1,2.1669814958865614,3.9787776572433953,1.8977226413162598,0.30917368829993896,2.272228691110443,2.821728004757506,1.4141801614528136,0.2682305442698837
1759682258.4587264,1,2.1553364036691165,4.009330627819872,1.9397766840477728,0.30969183820557433,2.2767936546624505,2.8450068797181594,1.401525970951788,0.2641489253686759
1759682258.595828,1,2.139361068346932,4.043723199989008,1.9894621599281488,0.30933749561304846,2.2853030727591532,2.896206052054697,1.3999044542591061,0.283476663246273
1759682258.7272375,1,2.119852491812451,4.07892955125875,2.042023419845543,0.30269189896465765,2.2892984485416674,2.9205069310752823,1.4014422203189232,0.2849634135373725
1759682258.8580093,1,2.1035721337625257,4.108303009687306,2.0878601995285333,0.2971351403718782,2.2964714023240287,2.9732357118466246,1.4140476674614872,0.3049828489128656
1759682258.9880505,1,2.0825876547219195,4.138834522707037,2.1389530765968807,0.3142245394019301,2.2996546831639284,2.9986127368637128,1.4262906014422028,0.30709248380163195
1759682259.1206822,1,2.058459650344804,4.169569642301904,2.193263574739888,0.30390356863904044,2.3051734259118906,3.044298888628491,1.4440640765868655,0.266029258615192
1759682259.2502844,1,2.03837584698943,4.195336481835321,2.2410695215289937,0.29480510622235656,2.3075483806641164,3.0662936186014056,1.4588530347030266,0.2625224338468958
1759682259.3873363,1,2.012914195316735,4.2219102767178205,2.295898011640444,0.30480532229145957,2.311285996386097,3.1142197174807915,1.478340880836569,0.2668754074461763
1759682259.5204937,1,1.9841624884718918,4.248139846939208,2.353224185779619,0.2983541597319835,2.3128264446120745,3.137085259903793,1.493786710547328,0.2670082867549133
1759682259.6497817,1,1.9610173912996505,4.268714932698706,2.401282685306435,0.292933602412311,2.3149202161298628,3.1864648627032586,1.5169248759618867,0.2729009937532408
1759682259.769982,1,1.9308082387234753,4.291266887864203,2.4591316621431676,0.3034976927524489,2.3156145063117277,3.2095899435908324,1.5348014189002743,0.27343920212391915
1759682259.9182353,1,1.8986921780773036,4.311696363936697,2.5161571480017892,0.30184659637049704,2.316140912939241,3.2552776815369264,1.5586167549800733,0.253403414097578
1759682260.0498924,1,1.8718509007327941,4.328659861557654,2.56597771800385,0.30011416752327036,2.316142884264114,3.276865188456926,1.5769580834371124,0.2518885250309156
1759682260.1957207,1,1.8399899149444536,4.344533451808165,2.6213599735114546,0.3047651937439982,2.3145394258284107,3.3227563871302674,1.6033861531393454,0.24398230615388014
1759682260.3139815,1,1.8093830629615208,4.35795370494511,2.671476663090796,0.3045861266350464,2.3135023700393296,3.344336375904952,1.6242979208777246,0.2438159209496358
1759682260.4537628,1,1.7784337436777986,4.370329706082141,2.72440254447831,0.30037168667668745,2.3104107852350166,3.384921904882784,1.6506367194999951,0.22455686863533866
1759682260.5750103,1,1.742219155085599,4.381390167536782,2.780663379790172,0.3029474445980974,2.308688036588739,3.403921014053675,1.6703362711906762,0.22227966408246522
1759682260.711198,1,1.7028865308074372,4.391212131342599,2.8349937189143084,0.30243350356238885,2.303040502775085,3.445369561697096,1.7006190287712564,0.23903856317152763
1759682260.8367243,1,1.6715805739311282,4.398486139127592,2.8795046649495455,0.3018781687619443,2.2999687583498725,3.465088131353588,1.7239721418277656,0.24076501907521466
1759682260.9684846,1,1.634047916889485,4.404334737757971,2.92069746384202,0.30455277910920353,2.2930882248696105,3.5027130253398577,1.7549598793513241,0.2254855593157463
1759682261.0895557,1,1.600519697339099,4.408651703888343,2.954143527444993,0.3079641681857309,2.2895234849930723,3.5205598785085312,1.7793687874706385,0.22445522862419143
1759682261.2207456,1,1.564587541616834,4.41248795337192,2.9835829572642654,0.311999025700952,2.2800483289375015,3.5580348582910615,1.8175216175716669,0.21634983370114372
1759682261.354192,1,1.5253766239114803,4.415591593153086,3.006407509615181,0.3087069723364543,2.2750855116533897,3.5758377574880202,1.8481381043460647,0.21525400716806461
1759682261.4819825,1,1.4923840496426075,4.418531240775846,3.0257292361705086,0.3063919621934804,2.260156362418042,3.616905492058666,1.8978277426682417,0.24753353114544677
1759682261.614592,1,1.4549756132614247,4.420973618192823,3.0399719447212905,0.30610001852777596,2.252363213132696,3.636355457575875,1.937821709788953,0.2511604196346866
1759682261.7436543,1,1.4139677458810767,4.423600634491048,3.0515111382437112,0.297358342295295,2.235755530298717,3.6735668165370234,1.9882041611316839,0.22962690090748517
1759682261.8839319,1,1.3798590367508456,4.4262032085239325,3.061086821311785,0.2901334327144631,2.227261020676493,3.6911656083821898,2.0277746914926547,0.22860252433798295
1759682262.0146396,1,1.3411651131144824,4.42813360892421,3.06992328064488,0.3024356275449459,2.2048645215697587,3.7299308635392396,2.079941098597927,0.2446146206919537
1759682262.14154,1,1.298921391642364,4.429994518468523,3.0790620865636513,0.2991203039078432,2.1937619227771665,3.747934520046241,2.120462540613443,0.2463267414026343
1759682262.2818077,1,1.263505228527907,4.4318283145489215,3.087108733529616,0.29626144070366056,2.1671802486041947,3.786269868010364,2.173538832497278,0.2450279943381429
1759682262.404054,1,1.2231387165778265,4.432968676303525,3.0963769946196575,0.30484616646237783,2.1540977674802204,3.804098075502325,2.213449705878089,0.24561961907730995
1759682262.5358357,1,1.1806796045083028,4.437360686988056,2.5142780354056558,0.29645680203867447,2.1266315091224985,3.837985598888412,2.2551754671505706,0.25088644435584306
1759682262.6587071,1,1.1445561479717148,4.447906290305182,1.4879230405559325,0.2896317650820942,2.1131966984994457,3.853838231035558,2.2854493285234283,0.252087650577842
1759682262.7994883,1,1.1061734064308606,4.462137097425889,0.6283226307634221,0.29691703422331067,2.081800622353203,3.887823724990583,2.322611617842901,0.25739804417804685
1759682262.9302695,1,1.0690314632519873,4.471802956234986,-0.06545196230490755,0.29423896351924905,2.066607169538689,3.903696601222588,2.350110589177091,0.25780169740745823
1759682263.074525,1,1.0380777095566434,4.476184910149221,-0.6432035756797694,0.29189104530463267,2.0289801476826317,3.938845636769191,2.390729490338142,0.2809871341615521
1759682263.20518,1,0.9987299216618891,4.477528147012637,-1.1010428154883827,0.29952019907147376,2.0108081548821626,3.955085506555768,2.4215135477932987,0.28355012900367865
1759682263.3506472,1,0.9521662102691618,4.47809578681546,-1.4843420105881675,0.29647779397885476,1.9749959258000518,3.9857715955834165,2.4581286061604697,0.25440768267042435
1759682263.4906385,1,0.9128028801555637,4.479681079580099,-1.7857786295214653,0.2943886367269336,1.9575575557913165,4.000051757084446,2.4846070477084012,0.2519832450006134
1759682263.6244519,1,0.8658890210599209,4.483029399299906,-2.038255990512705,0.3043984938898773,1.9211606035816393,4.027628254424057,2.5129440122484805,0.2518459678179956
1759682263.7516284,1,0.8172137984604058,4.487045708602384,-2.238339312251843,0.2947296171429333,1.9038004064383323,4.040349869091121,2.5326550708655726,0.251503014424265
1759682263.8876486,1,0.7783326085004997,4.491916893915343,-2.396551193176602,0.2867458619027153,1.8577571666501398,4.069610075948659,2.568479331798196,0.29288532828517966
1759682264.0113792,1,0.7338975757407218,4.497617154191058,-2.5322840729881246,0.2990167301237577,1.8355050887934767,4.083137228339004,2.5968376741122445,0.29746559805119355
1759682264.1697087,1,0.6865192352087134,4.503234226760928,-2.6446872159447374,0.2977884252812817,1.7900587568321644,4.109126851390393,2.632638440373316,0.2797454935637319
1759682264.2945206,1,0.6491585860102649,4.508762272120604,-2.73412981480004,0.29702990331656465,1.7682466585598953,4.121195310823233,2.6598429306109623,0.2788613135057949
1759682264.427301,1,0.6089009946359797,4.514005264835386,-2.8067903826102687,0.29684765678063935,1.7237758273177584,4.143227532601697,2.691345941338682,0.27564031724235705
1759682264.5482764,1,0.5662051847176771,4.512184357484718,-1.6812165376309058,0.2896741665831601,1.703106881050744,4.153077942974593,2.714196305750654,0.2760764428001584
1759682264.6923366,1,0.533736150534967,4.504532798108807,-0.8001720577893376,0.28423634882959775,1.6590106889919407,4.172643371361829,2.739284908528422,0.26623249593877857
1759682264.8155258,1,0.5009095278403812,4.498166876656578,-0.09380519212739986,0.29689132438917926,1.638212786121824,4.181658691367765,2.756601073629632,0.2651411601929314
1759682264.9506276,1,0.46457340496560434,4.497065988233048,0.5070486868329198,0.2892353381165355,1.5907150878360015,4.199770098704111,2.7787288613276337,0.2924670278117804
1759682265.0824904,1,0.4331735208348416,4.498849810010742,0.984651822541305,0.2832480436239589,1.5676747739584165,4.2081780932049915,2.794927337995462,0.29554940248199696
1759682265.2229095,1,0.39252224724599555,4.50081720870206,1.3851891772974054,0.28687321176255376,1.5162343411928982,4.225912994347464,2.8187396418140773,0.2920693091229742
1759682265.3657339,1,0.34710371933708234,4.501831740107669,1.703916369777634,0.2872524322963576,1.4915482284955295,4.234119917066027,2.8372855617208117,0.2921200475657262
1759682265.4998515,1,0.3071957915703954,4.5009422344326575,1.9723140079805115,0.2875626380563767,1.436344545580869,4.250081867208602,2.859101382474052,0.3140785495785804
1759682265.6401286,1,0.2629867020469157,4.49825102821236,2.1849204704120573,0.2964203505448527,1.4096681507670468,4.257373730561415,2.8749978960836913,0.3165535902882447
1759682265.7818153,1,0.21718737330019244,4.497055502806683,1.7796478758779672,0.28867023157581423,1.360415777480055,4.272242491427664,2.8890932103116644,0.27005273960332665
1759682265.922136,1,0.1725207289311641,4.501127309630131,0.8587054368478989,0.29849986780359883,1.3365544631069977,4.279251501588824,2.897882307795106,0.26584171265695766
1759682266.0627124,1,0.14014194931975849,4.5046067798243135,0.13626436532643924,0.3062608834970953,1.2809529617227287,4.292330076113666,2.907542381764478,0.30732115715132446
