timestamp,vehicle_id,x,y,theta,velocity,gps_available,dt,gps_x,gps_y,gps_theta,gps_velocity,control_steering,control_acceleration
1759682225.2994752,1,-1.735,-0.35,-0.7801621756414647,0.0,False,0.01,nan,nan,nan,nan,0.0,0.0
1759682226.2705164,1,-1.7349997780623945,-0.3499999055584658,-0.7229652303128518,0.0,True,0.1,-1.7349997758865356,-0.34999990463256836,-0.7177034020423889,0.0,0.0,0.0
1759682226.4038208,1,-1.7349997766141767,-0.3499999049422029,-0.7180979350750842,0.0,True,0.1,-1.7349997758865356,-0.34999990463256836,-0.7177034020423889,0.0,0.0,0.0
1759682226.5526707,1,-1.7349997761595117,-0.34999990474872844,-0.7176990074385579,0.0,True,0.1,-1.7349997758865356,-0.34999990463256836,-0.7177034020423889,0.0,0.0,0.0
1759682226.6851237,1,-1.7349997759905325,-0.3499999046768224,-0.7176744618575839,0.0,True,0.1,-1.7349997758865356,-0.34999990463256836,-0.7177034020423889,0.0,0.0,0.0
1759682226.816053,1,-1.7349997759262439,-0.3499999046494655,-0.7176785252371349,0.0,True,0.1,-1.7349997758865356,-0.34999990463256836,-0.7177034020423889,0.0,0.0,0.0
1759682226.9432647,1,-1.734999775901702,-0.34999990463902214,-0.7176832597774716,0.0,True,0.1,-1.7349997758865356,-0.34999990463256836,-0.7177034020423889,0.0,0.0,0.0
1759682227.072105,1,-1.7349997758923286,-0.34999990463503344,-0.7176870108545081,0.0,True,0.1,-1.7349997758865356,-0.34999990463256836,-0.7177034020423889,0.0,0.0,0.0
1759682227.2045097,1,-1.7349997758887483,-0.34999990463350994,-0.7176900170442213,0.0,True,0.1,-1.7349997758865356,-0.34999990463256836,-0.7177034020423889,0.0,0.0,0.0
1759682227.352321,1,-1.7349997758873807,-0.349999904632928,-0.7176925039368367,0.0,True,0.1,-1.7349997758865356,-0.34999990463256836,-0.7177034020423889,0.0,0.0,0.0
1759682227.4969888,1,-1.7349997758868585,-0.34999990463270575,-0.7176946024722692,0.0,True,0.1,-1.7349997758865356,-0.34999990463256836,-0.7177034020423889,0.0,0.12113935864640624,-0.05
1759682227.6381164,1,-1.7375074972455278,-0.34782449908077023,-0.7159020855458529,0.02439428906653424,True,0.1,-1.7401931285858154,-0.3454885482788086,-0.7135370373725891,0.02439428906653424,0.12113935864640624,-0.05
1759682227.7669027,1,-1.7384642951310343,-0.34699234431786424,-0.7146464108256652,0.02439428906653424,True,0.1,-1.7401931285858154,-0.3454885482788086,-0.7135370373725891,0.02439428906653424,0.12557155046350488,-0.05
1759682227.9054868,1,-1.7444401591654934,-0.3418679265845243,-0.7104025997514256,0.051408591616077415,True,0.1,-1.7505334615707397,-0.3366188704967499,-0.7051272392272949,0.051408591616077415,0.12557155046350488,-0.05
1759682228.0346494,1,-1.7467174485014905,-0.3399044524382622,-0.7073779120712409,0.051408591616077415,True,0.1,-1.7505334615707397,-0.3366188704967499,-0.7051272392272949,0.051408591616077415,0.13461641273502067,-0.05
1759682228.1808002,1,-1.7540697865644708,-0.33368020712862595,-0.7020385739242823,0.0481367233473421,True,0.1,-1.7608753442764282,-0.3279005289077759,-0.6963061094284058,0.0481367233473421,0.13461641273502067,-0.05
1759682228.3465402,1,-1.7568719554523569,-0.3312954945726607,-0.6982407807833191,0.0481367233473421,True,0.1,-1.7608753442764282,-0.3279005289077759,-0.6963061094284058,0.0481367233473421,0.14445046673127138,-0.05
1759682228.503228,1,-1.7655592746677697,-0.3240847520033663,-0.691531552022921,0.048723803499665395,True,0.1,-1.7732354402542114,-0.3176930248737335,-0.6851052045822144,0.048723803499665395,0.14445046673127138,-0.05
1759682228.6558712,1,-1.7688697819011177,-0.3213211886600981,-0.6868228848422504,0.048723803499665395,True,0.1,-1.7732354402542114,-0.3176930248737335,-0.6851052045822144,0.048723803499665395,0.15740697454028663,-0.05
1759682228.8074107,1,-1.777416795606848,-0.3143788329066378,-0.6793434306768447,0.05183893235273616,True,0.1,-1.7851769924163818,-0.3080572783946991,-0.673457682132721,0.05183893235273616,0.18758991659593605,-0.05
1759682228.949205,1,-1.780672412519249,-0.31171596315849437,-0.6742483255748084,0.05183893235273616,True,0.1,-1.7851769924163818,-0.3080572783946991,-0.673457682132721,0.05183893235273616,0.2002452363928171,-0.05
1759682229.093917,1,-1.7888840909027044,-0.3052099045837608,-0.6654391179665247,0.050631578816878915,True,0.1,-1.7964036464691162,-0.29923534393310547,-0.6593238711357117,0.050631578816878915,0.3350643844165653,-0.05
1759682229.2245772,1,-1.7920108532793684,-0.3027124209240727,-0.6592011600065764,0.050631578816878915,True,0.1,-1.7964036464691162,-0.29923534393310547,-0.6593238711357117,0.050631578816878915,0.49175913943164673,-0.05
1759682229.3439238,1,-1.7994815299592881,-0.2970078500211,-0.6455640569203389,0.05105054527714945,True,0.1,-1.8065927028656006,-0.29154977202415466,-0.6331376433372498,0.05105054527714945,0.49175913943164673,-0.05
1759682229.4952273,1,-1.802319696617903,-0.2948087823820458,-0.6356577830598749,0.05105054527714945,True,0.1,-1.8065927028656006,-0.29154977202415466,-0.6331376433372498,0.05105054527714945,0.6,-0.05
1759682229.6197543,1,-1.810338751345836,-0.28905425683442887,-0.6156123015099713,0.04835289794763753,True,0.1,-1.8177000284194946,-0.28372427821159363,-0.5964205265045166,0.04835289794763753,0.6,-0.05
1759682229.7522712,1,-1.8133806322348016,-0.28682697842754706,-0.6014595677964287,0.04835289794763753,True,0.1,-1.8177000284194946,-0.28372427821159363,-0.5964205265045166,0.04835289794763753,0.6,-0.05
1759682229.9004097,1,-1.8217282590345072,-0.281302564726042,-0.576487847736054,0.04964840882171545,True,0.1,-1.8294185400009155,-0.2761537730693817,-0.5545673966407776,0.04964840882171545,0.6,-0.05
1759682230.025759,1,-1.8248911767992373,-0.27915408749757553,-0.5591838471596553,0.04964840882171545,True,0.1,-1.8294185400009155,-0.2761537730693817,-0.5545673966407776,0.04964840882171545,0.6,-0.015915694500783385
1759682230.1592138,1,-1.8310100778268847,-0.27532977674056547,-0.5397333985346258,0.030593957510308384,True,0.1,-1.8363953828811646,-0.271964430809021,-0.5301554799079895,0.030593957510308384,0.6,0.02173999803809559
1759682230.2854495,1,-1.8333357831174228,-0.2738502055843189,-0.5267668708032893,0.030593957510308384,True,0.1,-1.8363953828811646,-0.271964430809021,-0.5301554799079895,0.030593957510308384,0.6,0.03689722878636401
1759682230.4206088,1,-1.82992418359461,-0.27586493681944735,-0.5286319239174357,0.03208636138109123,True,0.1,-1.82952880859375,-0.2761112451553345,-0.5542240142822266,0.03208636138109123,0.6,0.07756859794204474
1759682230.5496497,1,-1.828622314592507,-0.27663662950002743,-0.5322218675467134,0.03208636138109123,True,0.1,-1.82952880859375,-0.2761112451553345,-0.5542240142822266,0.03208636138109123,0.6,0.10745276121104937
1759682230.6770382,1,-1.8139436858456224,-0.2863573304792132,-0.5620433052843303,0.09038858753523916,True,0.1,-1.8096708059310913,-0.2895054519176483,-0.6261018514633179,0.09038858753523916,0.6,0.10745276121104937
1759682230.8076103,1,-1.8083893176068133,-0.29015536850474277,-0.5872333915717718,0.09038858753523916,True,0.1,-1.8096708059310913,-0.2895054519176483,-0.6261018514633179,0.09038858753523916,0.48956352189374996,0.10425749425616011
1759682230.9339745,1,-1.7926030346982664,-0.30245196948009334,-0.6327362267668057,0.10841357771839484,True,0.1,-1.788400650024414,-0.3063035011291504,-0.7001596093177795,0.10841357771839484,0.48956352189374996,0.10425749425616011
1759682231.0449002,1,-1.7866769281461596,-0.3072955065218638,-0.6672679743297323,0.10841357771839484,True,0.1,-1.788400650024414,-0.3063035011291504,-0.7001596093177795,0.10841357771839484,0.26955296761035896,0.11696430559553504
1759682231.1627562,1,-1.7721665597694134,-0.32028734601139836,-0.7078825594819147,0.11277337998961841,True,0.1,-1.7686538696289062,-0.3239785432815552,-0.7478193044662476,0.11277337998961841,0.21105957338319925,0.16365434185736596
1759682231.2955213,1,-1.7667314201643052,-0.3253794203464601,-0.7358426503578315,0.11277337998961841,True,0.1,-1.7686538696289062,-0.3239785432815552,-0.7478193044662476,0.11277337998961841,0.12158118507839077,0.1332508438759059
1759682231.4197335,1,-1.7468874159291208,-0.34457394527155755,-0.7649510729201712,0.15083526389187865,True,0.1,-1.7415144443511963,-0.35015881061553955,-0.7792139649391174,0.15083526389187865,0.07925704095636021,0.18093091957873605
1759682231.5532935,1,-1.7394166985286625,-0.3520219590821295,-0.7841753262783868,0.15083526389187865,True,0.1,-1.7415144443511963,-0.35015881061553955,-0.7792139649391174,0.15083526389187865,-0.012163067837047237,0.17499847157967155
1759682231.672764,1,-1.7160163232542323,-0.3756088551867258,-0.7979700113489905,0.17307040590868142,True,0.1,-1.7091184854507446,-0.3826238214969635,-0.7876608371734619,0.17307040590868142,-0.012163067837047237,0.17499847157967155
1759682231.7898517,1,-1.7071390248674132,-0.3846783199857199,-0.8056929286806724,0.17307040590868142,True,0.1,-1.7091184854507446,-0.3826238214969635,-0.7876608371734619,0.17307040590868142,-0.057140881268592736,0.1717220027197987
1759682231.914217,1,-1.6856286516446124,-0.406311600524196,-0.805859985212301,0.17592868340397236,True,0.1,-1.6798685789108276,-0.41184207797050476,-0.7803576588630676,0.17592868340397236,-0.057140881268592736,0.1717220027197987
1759682232.0282204,1,-1.6774119995507877,-0.4145743763595285,-0.8039147640070716,0.17592868340397236,True,0.1,-1.6798685789108276,-0.41184207797050476,-0.7803576588630676,0.17592868340397236,-0.06636916222930367,0.17638924609835308
1759682232.173604,1,-1.6542566552838074,-0.43722098221795686,-0.7955131225338086,0.17159326388064336,True,0.1,-1.6473149061203003,-0.44359079003334045,-0.7659177780151367,0.17159326388064336,-0.08241695716254327,0.22569713370693015
1759682232.2984436,1,-1.6453738329696457,-0.44583393665750304,-0.7878414604403812,0.17159326388064336,True,0.1,-1.6473149061203003,-0.44359079003334045,-0.7659177780151367,0.17159326388064336,-0.057606641236935374,0.178500750317279
1759682232.4229412,1,-1.617814792823317,-0.47184456153695375,-0.7748666769072585,0.20613233133067632,True,0.1,-1.6097846031188965,-0.478905588388443,-0.7473504543304443,0.20613233133067632,-0.07259944923071338,0.23393929704935673
1759682232.5465128,1,-1.6072186255176348,-0.48170939637975035,-0.7645547369341035,0.20613233133067632,True,0.1,-1.6097846031188965,-0.478905588388443,-0.7473504543304443,0.20613233133067632,-0.051570699278856935,0.21376364076514165
1759682232.6771226,1,-1.5762761047438438,-0.5097966531977559,-0.7505399849153722,0.22900776219734498,True,0.1,-1.567383885383606,-0.5173758864402771,-0.7295622825622559,0.22900776219734498,-0.051570699278856935,0.21376364076514165
1759682232.827603,1,-1.5643754180013234,-0.5204383820431101,-0.7403243687199179,0.22900776219734498,True,0.1,-1.567383885383606,-0.5173758864402771,-0.7295622825622559,0.22900776219734498,-0.04401748445011222,0.19807435176774904
1759682232.9594564,1,-1.533629672287029,-0.5474194797037448,-0.7282082011754625,0.20497283886882744,True,0.1,-1.5239923000335693,-0.5555633306503296,-0.7156448364257812,0.20497283886882744,-0.04401748445011222,0.19807435176774904
1759682233.1037574,1,-1.5218233857292858,-0.5576559557945765,-0.7200930676295698,0.20497283886882744,True,0.1,-1.5239923000335693,-0.5555633306503296,-0.7156448364257812,0.20497283886882744,-0.06207387079819782,0.19720341520709211
1759682233.2411919,1,-1.4911746119308,-0.5838540421165852,-0.7095487939448333,0.19908760728951708,True,0.1,-1.4814988374710083,-0.5919500589370728,-0.7001141905784607,0.19908760728951708,-0.1290000412563881,0.25847433099962436
1759682233.3770623,1,-1.4794176623447837,-0.5938028080839484,-0.701939259691887,0.19908760728951708,True,0.1,-1.4814988374710083,-0.5919500589370728,-0.7001141905784607,0.19908760728951708,-0.10587041714439493,0.20151473386495147
1759682233.511221,1,-1.4434987828036145,-0.6229090459350883,-0.6836548046332922,0.23669557658374857,True,0.1,-1.4325014352798462,-0.6314892172813416,-0.66212397813797,0.23669557658374857,-0.17003658304123626,0.25157797008711474
1759682233.6474466,1,-1.4296754179226356,-0.6339010484423925,-0.6703209837817354,0.23669557658374857,True,0.1,-1.4325014352798462,-0.6314892172813416,-0.66212397813797,0.23669557658374857,-0.18282122083054553,0.23201671142670446
1759682233.7779865,1,-1.3927257532315689,-0.6611357726886492,-0.6404380204366866,0.2386269717478404,True,0.1,-1.3814877271652222,-0.6688578128814697,-0.6063856482505798,0.2386269717478404,-0.18282122083054553,0.23201671142670446
1759682233.90698,1,-1.3784531030337988,-0.67132975062523,-0.6189003180919261,0.2386269717478404,True,0.1,-1.3814877271652222,-0.6688578128814697,-0.6063856482505798,0.2386269717478404,-0.14910202486622914,0.21896438187913284
1759682234.0450916,1,-1.3408790138717412,-0.6958761984712776,-0.5858974147377953,0.23343534034622984,True,0.1,-1.329450249671936,-0.7027361392974854,-0.5536711812019348,0.23343534034622984,-0.21099293036258793,0.2792783195547227
1759682234.188996,1,-1.32636778543194,-0.7050183167694917,-0.5624378690098126,0.23343534034622984,True,0.1,-1.329450249671936,-0.7027361392974854,-0.5536711812019348,0.23343534034622984,-0.16843886420697984,0.2723816040521134
1759682234.3273976,1,-1.2772766782132519,-0.7327723139515715,-0.5201351772372096,0.2773261099761415,True,0.1,-1.2614881992340088,-0.7408679127693176,-0.47964680194854736,0.2773261099761415,-0.16843886420697984,0.2723816040521134
1759682234.4459414,1,-1.2583076318043878,-0.743006892365148,-0.48966721373600386,0.2773261099761415,True,0.1,-1.2614881992340088,-0.7408679127693176,-0.47964680194854736,0.2773261099761415,-0.08282224742597499,0.23643035307657725
1759682234.5819528,1,-1.2166910996288862,-0.7633021086873735,-0.4567516025010647,0.24014708035839477,True,0.1,-1.2040982246398926,-0.7689202427864075,-0.4400169253349304,0.24014708035839477,-0.13106219549879938,0.2937623636574562
1759682234.7183528,1,-1.2006655404072222,-0.7707990589604923,-0.43462778302593286,0.24014708035839477,True,0.1,-1.2040982246398926,-0.7689202427864075,-0.4400169253349304,0.24014708035839477,-0.05814845068022301,0.23717023108086113
1759682234.8741436,1,-1.149013675169936,-0.7935806187125223,-0.4086523349015643,0.27783686348490916,True,0.1,-1.1326919794082642,-0.8004862070083618,-0.4020940363407135,0.27783686348490916,-0.11316764403058777,0.2999326754619401
1759682234.9941332,1,-1.1291765472740973,-0.8020397976392515,-0.3917282895108194,0.27783686348490916,True,0.1,-1.1326919794082642,-0.8004862070083618,-0.4020940363407135,0.27783686348490916,-0.09793317547743818,0.26194584714572583
1759682235.1401033,1,-1.0790678969801335,-0.8220650073642385,-0.3678328882604305,0.2780739472994888,True,0.1,-1.0640045404434204,-0.8279316425323486,-0.3633427023887634,0.2780739472994888,-0.09793317547743818,0.26194584714572583
1759682235.264082,1,-1.0598381461844204,-0.829486681104427,-0.35263397317899603,0.2780739472994888,True,0.1,-1.0640045404434204,-0.8279316425323486,-0.3633427023887634,0.2780739472994888,-0.08747237871527958,0.248378159498566
1759682235.3954163,1,-1.0160552534228144,-0.8452972379897352,-0.3332834068089099,0.24408114601524813,True,0.1,-1.0031691789627075,-0.8499033451080322,-0.33273401856422424,0.24408114601524813,-0.13689726342474273,0.31030975728762983
1759682235.5232553,1,-0.9992750972434585,-0.8511764852742725,-0.3206257189351387,0.24408114601524813,True,0.1,-1.0031691789627075,-0.8499033451080322,-0.33273401856422424,0.24408114601524813,-0.08388513359260585,0.2513060664271843
1759682235.6583102,1,-0.9470349201550523,-0.8678462907622695,-0.29857519857925396,0.2831663069764221,True,0.1,-0.9313766956329346,-0.8726910352706909,-0.28980839252471924,0.2831663069764221,-0.12801094496120768,0.31515494318566034
1759682235.7835352,1,-0.9270126252092667,-0.8739977350184431,-0.28332314019505844,0.2831663069764221,True,0.1,-0.9313766956329346,-0.8726910352706909,-0.28980839252471924,0.2831663069764221,-0.08437129291064238,0.28143705492563165
1759682235.9271483,1,-0.8709615969109857,-0.8892948761182131,-0.2589759300513741,0.3016039374180829,True,0.1,-0.8542339205741882,-0.8935956954956055,-0.24758672714233398,0.3016039374180829,-0.08437129291064238,0.28143705492563165
1759682236.0539842,1,-0.849481626326566,-0.8948820062053636,-0.24237456649743194,0.3016039374180829,True,0.1,-0.8542339205741882,-0.8935956954956055,-0.24758672714233398,0.3016039374180829,-0.03520808799440189,0.25442337449033564
1759682236.1887121,1,-0.8001380001517763,-0.9066075427620731,-0.2253433696542686,0.2653547272339183,True,0.1,-0.7855709195137024,-0.9099524617195129,-0.2261538803577423,0.2653547272339183,-0.05764904906649271,0.3135715777633376
1759682236.3268597,1,-0.7812530709436375,-0.9109282904972615,-0.21452246223635107,0.2653547272339183,True,0.1,-0.7855709195137024,-0.9099524617195129,-0.2261538803577423,0.2653547272339183,-0.01740604551609337,0.248252376923839
1759682236.4665205,1,-0.7255480326658245,-0.9230922464182588,-0.20358769355154038,0.29494253928574266,True,0.1,-0.7089368104934692,-0.9267559051513672,-0.21042181551456451,0.29494253928574266,-0.04218170531273735,0.3156163935525933
1759682236.604608,1,-0.704246222140262,-0.927622796251034,-0.19721855209905925,0.29494253928574266,True,0.1,-0.7089368104934692,-0.9267559051513672,-0.21042181551456451,0.29494253928574266,-0.03823733548342645,0.2832096982106656
1759682236.7399952,1,-0.6467306544226621,-0.9393533014549393,-0.1881986740731847,0.2909755821088151,True,0.1,-0.6288232207298279,-0.9431017637252808,-0.19398187100887299,0.2909755821088151,-0.03823733548342645,0.2832096982106656
1759682236.8747942,1,-0.6247433449778446,-0.9437395154209995,-0.18300328858006054,0.2909755821088151,True,0.1,-0.6288232207298279,-0.9431017637252808,-0.19398187100887299,0.2909755821088151,-0.03569038865323826,0.26029282593225267
1759682237.0098164,1,-0.5721351265744309,-0.9536934896926224,-0.17574275466610345,0.2768724548871861,True,0.1,-0.5564517378807068,-0.9567548632621765,-0.17997057735919952,0.2768724548871861,-0.06377463865679367,0.32350380338752294
1759682237.1321144,1,-0.5520279361967786,-0.9574253711763012,-0.1711323130428717,0.2768724548871861,True,0.1,-0.5564517378807068,-0.9567548632621765,-0.17997057735919952,0.2768724548871861,-0.04017074666417919,0.24744945976980057
1759682237.2580776,1,-0.5007252848327354,-0.9662236268895109,-0.16221014039583181,0.28445743899447923,True,0.1,-0.4863469898700714,-0.9686954021453857,-0.16077660024166107,0.28445743899447923,-0.06867818793189961,0.3127361797056416
1759682237.3957474,1,-0.4811141623949499,-0.9694927660604442,-0.1562120365591202,0.28445743899447923,True,0.1,-0.4863469898700714,-0.9686954021453857,-0.16077660024166107,0.28445743899447923,-0.05796699621314616,0.2946223363546905
1759682237.525686,1,-0.4231835897879911,-0.9781070509257939,-0.14329281486402579,0.3061716244771704,True,0.1,-0.40607813000679016,-0.9805223345756531,-0.1351088285446167,0.3061716244771704,-0.05796699621314616,0.2946223363546905
1759682237.6584177,1,-0.4010349728435716,-0.9812559731619391,-0.1342182270539638,0.3061716244771704,True,0.1,-0.40607813000679016,-0.9805223345756531,-0.1351088285446167,0.3061716244771704,-0.030847519925522704,0.26738779794468803
1759682237.8333933,1,-0.34245744422113017,-0.9885786208919505,-0.12223325555943454,0.2684444392932948,True,0.1,-0.32269954681396484,-0.9909095764160156,-0.11688356846570969,0.2684444392932948,-0.04283270734831035,0.32926953214463817
1759682237.9989917,1,-0.32006807388392416,-0.9912600588931453,-0.11416080866144185,0.2684444392932948,True,0.1,-0.32269954681396484,-0.9909095764160156,-0.11688356846570969,0.2684444392932948,-0.01914571798806186,0.3144878105453108
1759682238.1462364,1,-0.24533751091350992,-0.9992869023145486,-0.1035206841821541,0.33243762028049884,True,0.1,-0.21956631541252136,-1.0019316673278809,-0.10047396272420883,0.33243762028049884,-0.01914571798806186,0.3144878105453108
1759682238.2785892,1,-0.21677923883823808,-1.0022260496486086,-0.09643072786580298,0.33243762028049884,True,0.1,-0.21956631541252136,-1.0019316673278809,-0.10047396272420883,0.33243762028049884,0.0010805920490497556,0.24619489899357505
1759682238.4198875,1,-0.16035675281777612,-1.0077155845226624,-0.09142754371811179,0.2883651546136783,True,0.1,-0.14322589337825775,-1.0094027519226074,-0.0966644212603569,0.2883651546136783,-0.011833787728569689,0.31665398982798965
1759682238.5523763,1,-0.13880043466914926,-1.009760685705304,-0.08868927322118125,0.2883651546136783,True,0.1,-0.14322589337825775,-1.0094027519226074,-0.0966644212603569,0.2883651546136783,-0.004780789683511699,0.24688529061585607
1759682238.6937811,1,-0.08328835099706859,-1.0149953605155504,-0.0865004725049392,0.2761311673973031,True,0.1,-0.06597933918237686,-1.0167254209518433,-0.09311927109956741,0.2761311673973031,-0.01573205850513837,0.31369396690458157
1759682238.8197906,1,-0.062082784164524264,-1.0169738255295628,-0.08551859654230753,0.2761311673973031,True,0.1,-0.06597933918237686,-1.0167254209518433,-0.09311927109956741,0.2761311673973031,-0.008634078671422074,0.29386143868501624
1759682238.9606097,1,-0.003305207804192533,-1.0222923300562592,-0.08370574483581805,0.3032182664500585,True,0.1,0.014349466189742088,-1.0239837169647217,-0.08827974647283554,0.3032182664500585,-0.008634078671422074,0.29386143868501624
1759682239.097383,1,0.01914720199822795,-1.0243076064696925,-0.08254438974104517,0.3032182664500585,True,0.1,0.014349466189742088,-1.0239837169647217,-0.08827974647283554,0.3032182664500585,0.018195867033021784,0.2648811718986087
1759682239.2528768,1,0.07746862488863655,-1.0294708151820817,-0.08325623251090519,0.2774303470948677,True,0.1,0.09642641991376877,-1.0312368869781494,-0.09125645458698273,0.2774303470948677,0.049389414649759544,0.3300809151844316
1759682239.3899305,1,0.09974476813894949,-1.031450848744575,-0.08450273389300733,0.2774303470948677,True,0.1,0.09642641991376877,-1.0312368869781494,-0.09125645458698273,0.2774303470948677,0.04845342277921105,0.24807051438672817
1759682239.5548623,1,0.16115574253943782,-1.037676684607046,-0.09359219685332931,0.2884248905383349,True,0.1,0.181350439786911,-1.0399885177612305,-0.11266448348760605,0.2884248905383349,0.07832759184105953,0.3048491943235084
1759682239.6970074,1,0.1846037977755668,-1.0401520413446472,-0.10104963002319067,0.2884248905383349,True,0.1,0.181350439786911,-1.0399885177612305,-0.11266448348760605,0.2884248905383349,0.07193659910077699,0.2783665260191101
1759682239.8683655,1,0.25084912800371917,-1.0487873640067273,-0.1196124472247142,0.29708251935221636,True,0.1,0.27352896332740784,-1.052222490310669,-0.14790086448192596,0.29708251935221636,0.08561620994308328,0.3404865847395813
1759682240.033689,1,0.27613039880147117,-1.052282041763895,-0.13421333573203853,0.29708251935221636,True,0.1,0.27352896332740784,-1.052222490310669,-0.14790086448192596,0.29708251935221636,0.022799416636640757,0.29603071920466784
1759682240.1608868,1,0.3431943738567664,-1.063438556747964,-0.15424889347097803,0.3137847517364295,True,0.1,0.3654289245605469,-1.0676993131637573,-0.17611223459243774,0.3137847517364295,0.022799416636640757,0.29603071920466784
1759682240.3004982,1,0.36877801121086284,-1.0679215481343658,-0.16905710992805645,0.3137847517364295,True,0.1,0.3654289245605469,-1.0676993131637573,-0.17611223459243774,0.3137847517364295,-0.04309410916192924,0.2544987212648433
1759682240.4421215,1,0.4251103203924718,-1.078156218883086,-0.17628770311294417,0.27997339397070437,True,0.1,0.44286876916885376,-1.0815714597702026,-0.17184221744537354,0.27997339397070437,-0.0574721563920626,0.30996053093424897
1759682240.572321,1,0.44661457846408853,-1.0821388198434325,-0.1799540754547646,0.27997339397070437,True,0.1,0.44286876916885376,-1.0815714597702026,-0.17184221744537354,0.27997339397070437,-0.05441317101890242,0.23720719620093933
1759682240.710442,1,0.49982500171731953,-1.0909666457778042,-0.1736091101181394,0.27779915960710017,True,0.1,0.515814483165741,-1.093375325202942,-0.15060503780841827,0.27779915960710017,-0.08059935379920269,0.3013898748233626
1759682240.8476667,1,0.5201611495749159,-1.0942732469207208,-0.1674961726059827,0.27779915960710017,True,0.1,0.515814483165741,-1.093375325202942,-0.15060503780841827,0.27779915960710017,-0.0747479329965568,0.2802928321439694
1759682240.985813,1,0.5771868737860576,-1.102087405617963,-0.1507611987673112,0.2846170869158968,True,0.1,0.5950796008110046,-1.1040254831314087,-0.11958369612693787,0.2846170869158968,-0.0747479329965568,0.2802928321439694
1759682241.1035538,1,0.5989962627257427,-1.104898416259129,-0.13774180674241343,0.2846170869158968,True,0.1,0.5950796008110046,-1.1040254831314087,-0.11958369612693787,0.2846170869158968,-0.0559942653262091,0.2534189616326697
1759682241.23126,1,0.6474933672036318,-1.1101338907367468,-0.12091103573214923,0.2803217492631711,True,0.1,0.6602991819381714,-1.1110360622406006,-0.09760980308055878,0.2803217492631711,-0.09646886626365436,0.31167966917540035
1759682241.3524086,1,0.666039298613594,-1.1119637999781993,-0.10823874348107765,0.2803217492631711,True,0.1,0.6602991819381714,-1.1110360622406006,-0.09760980308055878,0.2803217492631711,-0.057715735735740736,0.24423433500423913
1759682241.4951742,1,0.717355441226418,-1.1160811847786447,-0.08972076073484203,0.27180734851928795,True,0.1,0.7323651909828186,-1.1168575286865234,-0.069008968770504,0.27180734851928795,-0.09864361531681531,0.29813633032461434
1759682241.6256163,1,0.7369744308144233,-1.1174680904223866,-0.07650285610583474,0.27180734851928795,True,0.1,0.7323651909828186,-1.1168575286865234,-0.069008968770504,0.27180734851928795,-0.09239231446993301,0.2807382170124906
1759682241.7446668,1,0.7904759653438023,-1.1201608813230897,-0.05487967333187882,0.29286321282790023,True,0.1,0.8054904937744141,-1.1204967498779297,-0.03397446870803833,0.29286321282790023,-0.09239231446993301,0.2807382170124906
1759682241.8618915,1,0.810926414969737,-1.1209564886201742,-0.03972886135540321,0.29286321282790023,True,0.1,0.8054904937744141,-1.1204967498779297,-0.03397446870803833,0.29286321282790023,-0.07667469958633966,0.2514602273045273
1759682241.983559,1,0.8570543838373273,-1.1217947541742779,-0.02019094161348889,0.27077194592165593,True,0.1,0.8688398599624634,-1.1216917037963867,-0.007149874698370695,0.27077194592165593,-0.07667469958633966,0.2514602273045273
1759682242.12763,1,0.8746791192048795,-1.121918251855443,-0.0073888442622198625,0.27077194592165593,True,0.1,0.8688398599624634,-1.1216917037963867,-0.007149874698370695,0.27077194592165593,-0.08338672183624318,0.2469339508125054
1759682242.2513344,1,0.9218009423547906,-1.121520145681247,0.010352479451315233,0.2387577998179235,True,0.1,0.93616783618927,-1.121209979057312,0.020800888538360596,0.2387577998179235,-0.14306314463891212,0.2986399846930263
1759682242.3867264,1,0.9397992349054989,-1.121215211584364,0.022755281396902305,0.2387577998179235,True,0.1,0.93616783618927,-1.121209979057312,0.020800888538360596,0.2387577998179235,-0.09528792979801004,0.24049681344015697
1759682242.5291648,1,0.9940557854078647,-1.1187523505942734,0.046185161655632356,0.28001467268362895,True,0.1,1.0102883577346802,-1.117693543434143,0.06643735617399216,0.28001467268362895,-0.16378498803600294,0.2935329596815105
1759682242.6805892,1,1.0147707084272788,-1.1175698082747265,0.06302278551564022,0.28001467268362895,True,0.1,1.0102883577346802,-1.117693543434143,0.06643735617399216,0.28001467268362895,-0.1437016014587762,0.24761825126655063
1759682242.8367505,1,1.0732903979830952,-1.111713084813771,0.0976576672282734,0.2658479569331851,True,0.1,1.0930646657943726,-1.1092050075531006,0.1303059458732605,0.2658479569331851,-0.1437016014587762,0.24761825126655063
1759682242.9710457,1,1.0956144062384103,-1.1091391852360333,0.12209071295432672,0.2658479569331851,True,0.1,1.0930646657943726,-1.1092050075531006,0.1303059458732605,0.2658479569331851,-0.10536218544788056,0.2199134689308231
1759682243.1022358,1,1.1411443029448463,-1.1021534219026992,0.15165841929105994,0.2358171693451675,True,0.1,1.1548254489898682,-1.0996761322021484,0.17087556421756744,0.2358171693451675,-0.18577350995673392,0.2702899098683006
1759682243.2462604,1,1.1584987852632571,-1.0992289031157285,0.1714243222660956,0.2358171693451675,True,0.1,1.1548254489898682,-1.0996761322021484,0.17087556421756744,0.2358171693451675,-0.18867685520255506,0.2627093582347462
1759682243.3935635,1,1.2130517522520645,-1.0877164586971424,0.21070210631190633,0.26172229652950807,True,0.1,1.2308443784713745,-1.0834492444992065,0.243667870759964,0.26172229652950807,-0.18867685520255506,0.2627093582347462
1759682243.5284455,1,1.2338156954278514,-1.0829492207853846,0.23829717859128863,0.26172229652950807,True,0.1,1.2308443784713745,-1.0834492444992065,0.243667870759964,0.26172229652950807,-0.14097368022767753,0.2243758263744481
1759682243.6529825,1,1.2794235858448384,-1.0702028425454426,0.27462907051010266,0.25537034926113433,True,0.1,1.2922954559326172,-1.0661391019821167,0.29844897985458374,0.25537034926113433,-0.23150087218977689,0.27075931340919657
1759682243.7810402,1,1.2967578339614565,-1.0650112816847812,0.3002351885683776,0.25537034926113433,True,0.1,1.2922954559326172,-1.0661391019821167,0.29844897985458374,0.25537034926113433,-0.13305547683441254,0.20949972814600681
1759682243.9247437,1,1.340776373691392,-1.0496705796542793,0.3373872035600014,0.23341589959695527,True,0.1,1.3542248010635376,-1.0445338487625122,0.36028778553009033,0.23341589959695527,-0.23428833678782546,0.25733459490143795
1759682244.0587451,1,1.357487612431991,-1.043506263818461,0.36248376712534913,0.23341589959695527,True,0.1,1.3542248010635376,-1.0445338487625122,0.36028778553009033,0.23341589959695527,-0.2309529548917162,0.24950794486186836
1759682244.1721616,1,1.4007159050768951,-1.0253567388476499,0.40468099127556556,0.2670870770205054,True,0.1,1.412035346031189,-1.02009117603302,0.4333379864692688,0.2670870770205054,-0.2309529548917162,0.24950794486186836
1759682244.2969916,1,1.4170697034103417,-1.018039326307219,0.43338145068260303,0.2670870770205054,True,0.1,1.412035346031189,-1.02009117603302,0.4333379864692688,0.2670870770205054,-0.20912531201559936,0.22858337885620325
1759682244.4291134,1,1.4561681144844982,-0.9981094082508614,0.47623928740351396,0.2338743119657304,True,0.1,1.4672564268112183,-0.9919532537460327,0.5035865902900696,0.2338743119657304,-0.30616021276974337,0.27817091533151767
1759682244.5376415,1,1.4709419816267784,-0.9901738522943185,0.5063444608978385,0.2338743119657304,True,0.1,1.4672564268112183,-0.9919532537460327,0.5035865902900696,0.2338743119657304,-0.18124499989292886,0.22724410585016044
1759682244.6610427,1,1.5078706071977201,-0.9677896861557175,0.5497552816446261,0.24916510075973028,True,0.1,1.5172785520553589,-0.9615175127983093,0.5763855576515198,0.24916510075973028,-0.2876432333749488,0.28617342110121763
1759682244.796889,1,1.521778307490363,-0.9589052709273955,0.5805899155615579,0.24916510075973028,True,0.1,1.5172785520553589,-0.9615175127983093,0.5763855576515198,0.24916510075973028,-0.15517380815612647,0.22191521109949403
1759682244.924533,1,1.5606545167273471,-0.9309871807879522,0.6263197848003452,0.25284477903230396,True,0.1,1.571673035621643,-0.9223926067352295,0.6538718342781067,0.25284477903230396,-0.24886516589458374,0.2785927422035349
1759682245.048859,1,1.5752618114922428,-0.9199766529628746,0.6578229027885261,0.25284477903230396,True,0.1,1.571673035621643,-0.9223926067352295,0.6538718342781067,0.25284477903230396,-0.18765399150946216,0.26142318840977596
1759682245.191127,1,1.6151036164471124,-0.8865857078280195,0.7053836610942321,0.2697439888944263,True,0.1,1.6265994310379028,-0.8762252330780029,0.7317240238189697,0.2697439888944263,-0.18765399150946216,0.26142318840977596
1759682245.3186264,1,1.6300241832521858,-0.873468766676568,0.7374562420596673,0.2697439888944263,True,0.1,1.6265994310379028,-0.8762252330780029,0.7317240238189697,0.2697439888944263,-0.1307250371007136,0.24022130988527848
1759682245.454643,1,1.6649018715075552,-0.8400674865994975,0.775546277931471,0.25173845536894174,True,0.1,1.6750015020370483,-0.8299520611763,0.786385715007782,0.25173845536894174,-0.21860361704600528,0.300948257618797
1759682245.5866287,1,1.677985826125359,-0.827059527794691,0.8011024403645015,0.25173845536894174,True,0.1,1.6750015020370483,-0.8299520611763,0.786385715007782,0.25173845536894174,-0.12124759249089045,0.23731964998199456
1759682245.726157,1,1.7139475671980378,-0.7882057028820592,0.8378104874577872,0.27482673949269154,True,0.1,1.724421501159668,-0.7764568328857422,0.8501346111297607,0.27482673949269154,-0.20379492943036048,0.2949165053641205
1759682245.8452291,1,1.7274119217297634,-0.7731135467476119,0.8623413867407788,0.27482673949269154,True,0.1,1.724421501159668,-0.7764568328857422,0.8501346111297607,0.27482673949269154,-0.1714612622081475,0.2714631899649849
1759682245.9820325,1,1.7608224960911472,-0.7321577156111221,0.9011972274805506,0.2886591390417752,True,0.1,1.769938349723816,-0.7204570770263672,0.9171119928359985,0.2886591390417752,-0.1714612622081475,0.2714631899649849
1759682246.1166816,1,1.773266699023432,-0.7162550452075022,0.9270525586111082,0.2886591390417752,True,0.1,1.769938349723816,-0.7204570770263672,0.9171119928359985,0.2886591390417752,-0.12654670689725123,0.25208864707317186
1759682246.2544076,1,1.8029725884980858,-0.6748808094210597,0.9615810759269454,0.2552886048535007,True,0.1,1.8119274377822876,-0.661979079246521,0.9718287587165833,0.2552886048535007,-0.19275310632174225,0.31057961226714126
1759682246.390133,1,1.81406229218746,-0.6588930364301978,0.98491969288684,0.2552886048535007,True,0.1,1.8119274377822876,-0.661979079246521,0.9718287587165833,0.2552886048535007,-0.09441651081544045,0.2452491040639179
1759682246.5317888,1,1.843742012114696,-0.6121418972015397,1.017944236964322,0.2723206704326319,True,0.1,1.852845549583435,-0.597315788269043,1.0283011198043823,0.2723206704326319,-0.1584399623158923,0.3052031547121897
1759682246.6794043,1,1.8548011138660445,-0.5941085456018547,1.0399895295455455,0.2723206704326319,True,0.1,1.852845549583435,-0.597315788269043,1.0283011198043823,0.2723206704326319,-0.11825261137508747,0.27845017614546963
1759682246.8417144,1,1.8866051787418678,-0.5370380200972648,1.07507194078961,0.305094278832397,True,0.1,1.8968034982681274,-0.5180793404579163,1.0913364887237549,0.305094278832397,-0.177362265459589,0.33674836384534895
1759682246.979165,1,1.8984206762566926,-0.5150535329925449,1.100000159167248,0.305094278832397,True,0.1,1.8968034982681274,-0.5180793404579163,1.0913364887237549,0.305094278832397,-0.062755710849693,0.22872166102191227
1759682247.166205,1,1.9259702863280137,-0.4573486617232272,1.1339788335285128,0.27422667006902157,True,0.1,1.9353784322738647,-0.4368246793746948,1.1472944021224976,0.27422667006902157,-0.13506481665649517,0.2973187902649383
1759682247.300874,1,1.9361867544401747,-0.4351593715639352,1.1567757107843786,0.27422667006902157,True,0.1,1.9353784322738647,-0.4368246793746948,1.1472944021224976,0.27422667006902157,-0.09429941853633039,0.2728509559074971
1759682247.437123,1,1.9581828600980566,-0.3830015126577208,1.1858815931655258,0.2859224739816917,True,0.1,1.9647279977798462,-0.3669704496860504,1.1909581422805786,0.2859224739816917,-0.09429941853633039,0.2728509559074971
1759682247.5673094,1,1.9663039331673322,-0.36296154879495784,1.204484075079752,0.2859224739816917,True,0.1,1.9647279977798462,-0.3669704496860504,1.1909581422805786,0.2859224739816917,-0.06725619633421864,0.24653048718134904
1759682247.7065263,1,1.984619257176264,-0.31464473506526613,1.225259355745397,0.2557092247334992,True,0.1,1.9903243780136108,-0.2995562255382538,1.2210955619812012,0.2557092247334992,-0.11787903668885491,0.3143621002406564
1759682247.8360715,1,1.9914328225457627,-0.29612218324629513,1.2380378933175384,0.2557092247334992,True,0.1,1.9903243780136108,-0.2995562255382538,1.2210955619812012,0.2557092247334992,-0.10169636042490104,0.3078161752603104
1759682247.9754589,1,2.011071020448102,-0.23793886051654212,1.261426565861548,0.31507847404283945,True,0.1,2.0169098377227783,-0.22040598094463348,1.2667450904846191,0.31507847404283945,-0.10169636042490104,0.3078161752603104
1759682248.122062,1,2.0183202346750386,-0.21563183529737578,1.2772508812499108,0.31507847404283945,True,0.1,2.0169098377227783,-0.22040598094463348,1.2667450904846191,0.31507847404283945,-0.049745938621814645,0.26678002585628835
1759682248.2650232,1,2.0350402099517737,-0.15862873341422287,1.29760732329519,0.2940550446746209,True,0.1,2.0401570796966553,-0.14080776274204254,1.2984564304351807,0.2940550446746209,-0.049745938621814645,0.26678002585628835
1759682248.41283,1,2.041218380036749,-0.13679528363677923,1.3105680590153082,0.2940550446746209,True,0.1,2.0401570796966553,-0.14080776274204254,1.2984564304351807,0.2940550446746209,-0.018044251840287018,0.2484608097466291
1759682248.5447247,1,2.0550156880588664,-0.08599404602732841,1.3219940792114233,0.2605765340624202,True,0.1,2.0594234466552734,-0.07016592472791672,1.3122351169586182,0.2605765340624202,-0.04977118016949689,0.3134754915232399
1759682248.677707,1,2.0601788206406435,-0.06656203805921268,1.3281933606573118,0.2605765340624202,True,0.1,2.0594234466552734,-0.07016592472791672,1.3122351169586182,0.2605765340624202,-0.06163184043108316,0.307088983809938
1759682248.8181283,1,2.075241023830357,-0.00674978286915091,1.3397102093362143,0.30186183259177957,True,0.1,2.0801007747650146,0.012098399922251701,1.3360501527786255,0.30186183259177957,-0.06163184043108316,0.307088983809938
1759682248.9467123,1,2.080869642885618,0.016126332503826182,1.3467283404512438,0.30186183259177957,True,0.1,2.0801007747650146,0.012098399922251701,1.3360501527786255,0.30186183259177957,-0.06016874366325453,0.27173923995474086
1759682249.0891461,1,2.093520718600806,0.07187405455440599,1.3590808241025538,0.2946689150799446,True,0.1,2.09733247756958,0.0885627418756485,1.360575556755066,0.2946689150799446,-0.09005740040954358,0.333926609192979
1759682249.241508,1,2.098224041827297,0.09319607024258801,1.3673203787096089,0.2946689150799446,True,0.1,2.09733247756958,0.0885627418756485,1.360575556755066,0.2946689150799446,-0.06952024325546624,0.30623870374962137
1759682249.4121854,1,2.1117943437685405,0.1639398438941493,1.3871928372525213,0.31111184695354427,True,0.1,2.1163458824157715,0.18882045149803162,1.4014713764190674,0.31111184695354427,-0.06952024325546624,0.30623870374962137
1759682249.558941,1,2.1167599854446317,0.1910037470008927,1.401481376395611,0.31111184695354427,True,0.1,2.1163458824157715,0.18882045149803162,1.4014713764190674,0.31111184695354427,-0.015813004961067634,0.2643901318461512
1759682249.7071674,1,2.1264694077447994,0.25198787555215024,1.4164676436682742,0.2846664606502167,True,0.1,2.129535436630249,0.27233123779296875,1.420108437538147,0.2846664606502167,-0.03381085469979794,0.3316105821470391
1759682249.8532841,1,2.13002683919514,0.27530621336758065,1.4263744158501908,0.2846664606502167,True,0.1,2.129535436630249,0.27233123779296875,1.420108437538147,0.2846664606502167,0.002585521068475316,0.24750368804786632
1759682250.0006695,1,2.138913034999514,0.3365989677208293,1.434197386410661,0.28769327905977243,True,0.1,2.1418609619140625,0.3568824827671051,1.4277034997940063,0.28769327905977243,-0.013626822353113965,0.3072484384586787
1759682250.1273844,1,2.142224524763402,0.36002235346857103,1.4384044647755,0.28769327905977243,True,0.1,2.1418609619140625,0.3568824827671051,1.4277034997940063,0.28769327905977243,-0.02113654815929422,0.2877934256116608
1759682250.2749395,1,2.1506640406952866,0.42048170311393224,1.4428110058604204,0.3119131134047655,True,0.1,2.153352975845337,0.4387366771697998,1.4355101585388184,0.3119131134047655,-0.04059230912526601,0.3522370703151796
1759682250.405422,1,2.153839517202223,0.4435813808089904,1.445268422109387,0.3119131134047655,True,0.1,2.153352975845337,0.4387366771697998,1.4355101585388184,0.3119131134047655,-0.028317564666242134,0.25349553215698845
1759682250.5457,1,2.1614358415645034,0.5027924236423952,1.4513333552612533,0.30950880700763317,True,0.1,2.1637582778930664,0.5204058289527893,1.450362205505371,0.30950880700763317,-0.0492656899188173,0.32288816274730947
1759682250.690756,1,2.1642697799344384,0.5254172778764143,1.4553540575897657,0.30950880700763317,True,0.1,2.1637582778930664,0.5204058289527893,1.450362205505371,0.30950880700763317,-0.03982095161176602,0.29989476207653837
1759682250.8320777,1,2.171247533079988,0.5883353908604784,1.4649038895105084,0.2995101315549827,True,0.1,2.173452615737915,0.6088305115699768,1.4701606035232544,0.2995101315549827,-0.03982095161176602,0.29989476207653837
1759682250.9570048,1,2.1738106018321335,0.6123792111189006,1.4715929046124012,0.2995101315549827,True,0.1,2.173452615737915,0.6088305115699768,1.4701606035232544,0.2995101315549827,-0.01574634926166496,0.27124021721612995
1759682251.1055052,1,2.179254680268094,0.6699462473093675,1.4793077961462897,0.297205587683209,True,0.1,2.1808180809020996,0.6872448325157166,1.4810007810592651,0.297205587683209,-0.024401095033457665,0.3376309680325356
1759682251.224546,1,2.181252477782869,0.6919426415361872,1.4844569570803792,0.297205587683209,True,0.1,2.1808180809020996,0.6872448325157166,1.4810007810592651,0.297205587683209,-0.003724519566036477,0.25181333976712017
1759682251.368167,1,2.186001241204829,0.7473376367743465,1.489088356168697,0.28882394466234745,True,0.1,2.187406301498413,0.7637889981269836,1.4864366054534912,0.28882394466234745,-0.010244887448120465,0.318352767151014
1759682251.4966059,1,2.1877664254514944,0.7685007197584223,1.491757951039573,0.28882394466234745,True,0.1,2.187406301498413,0.7637889981269836,1.4864366054534912,0.28882394466234745,-0.007656895171678002,0.30132870480180896
1759682251.6383243,1,2.1925999403301577,0.8274315028822472,1.494285895401739,0.3062741037549763,True,0.1,2.194098711013794,0.8449825644493103,1.4900693893432617,0.3062741037549763,-0.007656895171678002,0.30132870480180896
1759682251.7765875,1,2.1944172865989193,0.8499433018671387,1.495451792204408,0.3062741037549763,True,0.1,2.194098711013794,0.8449825644493103,1.4900693893432617,0.3062741037549763,-0.012672739834663105,0.2731008789994386
1759682251.9108715,1,2.1989431584907364,0.907257666654125,1.4972559039659412,0.28586598369653216,True,0.1,2.2004189491271973,0.9250618815422058,1.4943827390670776,0.28586598369653216,-0.02642045316444097,0.33995152053968314
1759682252.0377421,1,2.2006538142712717,0.9291511457292239,1.4983245152893474,0.28586598369653216,True,0.1,2.2004189491271973,0.9250618815422058,1.4943827390670776,0.28586598369653216,-0.01999315541712754,0.25838476094352847
1759682252.182226,1,2.204899916185754,0.988345499088762,1.5021997837035013,0.3063620935558328,True,0.1,2.2061679363250732,1.0060440301895142,1.5042022466659546,0.3063620935558328,-0.03374637900579458,0.32589186671032067
1759682252.3221262,1,2.2064787416094127,1.0109587403038915,1.5050016210272723,0.3063620935558328,True,0.1,2.2061679363250732,1.0060440301895142,1.5042022466659546,0.3063620935558328,-0.02648026299066686,0.2959845504136177
1759682252.4694438,1,2.2103261174798465,1.07534744653845,1.5117645864758549,0.3046061001538818,True,0.1,2.211484670639038,1.096355676651001,1.5179016590118408,0.3046061001538818,-0.030023762891817185,0.35140274604929106
1759682252.6081102,1,2.211722838113312,1.0999462382350087,1.5168172065636778,0.3046061001538818,True,0.1,2.211484670639038,1.096355676651001,1.5179016590118408,0.3046061001538818,-0.004215776394769222,0.25249855132338295
1759682252.7472112,1,2.21467996758161,1.161680916571649,1.522605685207579,0.3160476196389153,True,0.1,2.215465545654297,1.1803300380706787,1.5255879163742065,0.3160476196389153,-0.0076113979436094326,0.3267438620789064
1759682252.8812563,1,2.2157435257842506,1.185264806285172,1.5265348794859417,0.3160476196389153,True,0.1,2.215465545654297,1.1803300380706787,1.5255879163742065,0.3160476196389153,0.003773979097832836,0.29434240117635924
1759682253.0294359,1,2.2184646516202333,1.247645485689186,1.5289572287551039,0.3091342033032491,True,0.1,2.219304084777832,1.267111897468567,1.526304841041565,0.3091342033032491,0.003773979097832836,0.29434240117635924
1759682253.178785,1,2.2194760190603793,1.271473987534351,1.5301147960931498,0.3091342033032491,True,0.1,2.219304084777832,1.267111897468567,1.526304841041565,0.3091342033032491,-0.0008476363428968625,0.2708352251681141
1759682253.3226016,1,2.2221205142908294,1.3308698334958695,1.5302867485091571,0.2802795944794228,True,0.1,2.2230522632598877,1.3502705097198486,1.5258924961090088,0.2802795944794228,-0.0076299843570613035,0.3335440785220477
1759682253.4677155,1,2.223128135584149,1.3535571285476615,1.5299769341081344,0.2802795944794228,True,0.1,2.2230522632598877,1.3502705097198486,1.5258924961090088,0.2802795944794228,-0.016049590381335577,0.31130564752571077
1759682253.6265724,1,2.226116914588989,1.4238482540107156,1.5317604712086146,0.3124921316588957,True,0.1,2.2271831035614014,1.447993278503418,1.53173828125,0.3124921316588957,-0.016049590381335577,0.31130564752571077
1759682253.7585304,1,2.2272381439868223,1.4506978822290002,1.5329650131528822,0.3124921316588957,True,0.1,2.2271831035614014,1.447993278503418,1.53173828125,0.3124921316588957,-0.014156741643009951,0.26820688910625223
1759682253.9100041,1,2.22943629912679,1.5111909620805672,1.5359427125298017,0.29360650084591183,True,0.1,2.2301175594329834,1.5304445028305054,1.5380394458770752,0.29360650084591183,-0.018809703235028508,0.3284191127630138
1759682254.0577183,1,2.2302449518465677,1.5342983754283488,1.5381325918461535,0.29360650084591183,True,0.1,2.2301175594329834,1.5304445028305054,1.5380394458770752,0.29360650084591183,-0.007413855459805774,0.24390956941234168
1759682254.1905994,1,2.231981276460098,1.592893373434318,1.541426020282044,0.28793861311307395,True,0.1,2.232480764389038,1.6113207340240479,1.543575644493103,0.28793861311307395,-0.011070561363268894,0.31400778546588815
1759682254.32234,1,2.232610457396068,1.615275715253668,1.5437530360829061,0.28793861311307395,True,0.1,2.232480764389038,1.6113207340240479,1.543575644493103,0.28793861311307395,-0.002022521084505513,0.2926369033980786
1759682254.4601686,1,2.2341215262713403,1.6749494318602371,1.5460569460431284,0.3067145441405628,True,0.1,2.2345471382141113,1.692880630493164,1.5462071895599365,0.3067145441405628,-0.002022521084505513,0.2926369033980786
1759682254.5976844,1,2.2346732431197007,1.6977434182433093,1.5475198204678327,0.3067145441405628,True,0.1,2.2345471382141113,1.692880630493164,1.5462071895599365,0.3067145441405628,0.002287345075622227,0.26040565616018496
1759682254.7388835,1,2.236001286944393,1.7528221620017723,1.5482019755578724,0.274237673600897,True,0.1,2.236428737640381,1.769918441772461,1.5461902618408203,0.274237673600897,-0.0007092894365250402,0.32854968704134196
1759682254.9014323,1,2.2365013566961265,1.7738605346506497,1.548414717634249,0.274237673600897,True,0.1,2.236428737640381,1.769918441772461,1.5461902618408203,0.274237673600897,-0.004587076921541922,0.31269033829726045
1759682255.0665822,1,2.2382560883845692,1.8469208708318052,1.5488975340751248,0.31346809146383275,True,0.1,2.2389090061187744,1.8727060556411743,1.547528862953186,0.31346809146383275,-0.004587076921541922,0.31269033829726045
1759682255.2162683,1,2.2389201784963255,1.874827571706625,1.5490505432884527,0.31346809146383275,True,0.1,2.2389090061187744,1.8727060556411743,1.547528862953186,0.31346809146383275,-0.008977930109487886,0.2588800352417622
1759682255.3607445,1,2.24032525238943,1.9381342017923984,1.5501584512720878,0.2914653385561315,True,0.1,2.240807056427002,1.9592504501342773,1.5505715608596802,0.2914653385561315,-0.014798153944139969,0.32456137781688343
1759682255.4906626,1,2.2408500947712517,1.9623154307379602,1.550943298523194,0.2914653385561315,True,0.1,2.240807056427002,1.9592504501342773,1.5505715608596802,0.2914653385561315,-0.013629266928591122,0.30297572906810766
1759682255.6324043,1,2.2419491380372802,2.025270877847126,1.5536753723137684,0.32014582630757815,True,0.1,2.242244005203247,2.0443971157073975,1.5566139221191406,0.32014582630757815,-0.013629266928591122,0.30297572906810766
1759682255.7702105,1,2.242337864092546,2.0493182824527474,1.5557605464831408,0.32014582630757815,True,0.1,2.242244005203247,2.0443971157073975,1.5566139221191406,0.32014582630757815,-0.003857348411145267,0.2688248318175056
1759682255.915702,1,2.2430359481135613,2.1077950356658794,1.55836909897128,0.2903883875089817,True,0.1,2.243201971054077,2.125990629196167,1.5601357221603394,0.2903883875089817,-0.0015080024825628868,0.33640288728696427
1759682256.0545444,1,2.243275479779187,2.1301315352751713,1.5601708615810912,0.2903883875089817,True,0.1,2.243201971054077,2.125990629196167,1.5601357221603394,0.2903883875089817,0.005871476595892489,0.2564640238946258
1759682256.1899254,1,2.2438777362429345,2.1883406488932176,1.5609292365106215,0.2868431742930669,True,0.1,2.24406099319458,2.2065889835357666,1.5594309568405151,0.2868431742930669,0.0079881505019479,0.3214499603038064
1759682256.3248787,1,2.2440998360562197,2.21057463363617,1.5612210875915729,0.2868431742930669,True,0.1,2.24406099319458,2.2065889835357666,1.5594309568405151,0.2868431742930669,0.00742534873407763,0.3008821488567336
1759682256.4773293,1,2.244944621985623,2.2767236365265675,1.5599193969220249,0.3238765577300843,True,0.1,2.2452707290649414,2.2975902557373047,1.5559266805648804,0.3238765577300843,0.00742534873407763,0.3008821488567336
1759682256.6049943,1,2.245281897372148,2.301990155608665,1.5586596166467466,0.3238765577300843,True,0.1,2.2452707290649414,2.2975902557373047,1.5559266805648804,0.3238765577300843,-0.0010248947101825223,0.256227909164502
1759682256.7391634,1,2.2461253340393563,2.355151302077834,1.5573090710196844,0.27585743165535354,True,0.1,2.2464382648468018,2.3709590435028076,1.554779052734375,0.27585743165535354,-0.0028534759360461237,0.32123848836850516
1759682256.8724468,1,2.2464610762007187,2.3754568783906214,1.5562850977057678,0.27585743165535354,True,0.1,2.2464382648468018,2.3709590435028076,1.554779052734375,0.27585743165535354,-0.005592846359096626,0.25637226630778415
1759682257.0047622,1,2.247338956174186,2.431476437930678,1.556249804807205,0.2902664718506401,True,0.1,2.24761962890625,2.4481608867645264,1.556113600730896,0.2902664718506401,0.006724896591812524,0.3227907727428281
1759682257.1202178,1,2.2476800031018507,2.452873922286182,1.5566944037377208,0.2902664718506401,True,0.1,2.24761962890625,2.4481608867645264,1.556113600730896,0.2902664718506401,0.04824116520185129,0.2986369231349
1759682257.2586722,1,2.2487469933505513,2.509963958024607,1.5521880467916649,0.31142448220713986,True,0.1,2.249114990234375,2.5260026454925537,1.544325590133667,0.31142448220713986,0.04824116520185129,0.2986369231349
1759682257.3930361,1,2.249212257489646,2.5317694047910053,1.5491423010929593,0.31142448220713986,True,0.1,2.249114990234375,2.5260026454925537,1.544325590133667,0.31142448220713986,0.08295828042882647,0.2666460069690844
1759682257.520941,1,2.251203045213175,2.5857865962194055,1.5374739944755982,0.28527471012051847,True,0.1,2.2520010471343994,2.6015453338623047,1.5182403326034546,0.28527471012051847,0.14852399143545014,0.33801395740976303
1759682257.6495657,1,2.252082896002908,2.606415728269957,1.5278603971652025,0.28527471012051847,True,0.1,2.2520010471343994,2.6015453338623047,1.5182403326034546,0.28527471012051847,0.10759046967945096,0.2635846626377574
1759682257.794814,1,2.256859861027534,2.6661489853967577,1.5016080722070164,0.3106464508918869,True,0.1,2.258904218673706,2.6838884353637695,1.4639489650726318,0.3106464508918869,0.15505924568645924,0.3259104447767352
1759682257.9270093,1,2.2589780417457437,2.688947463970022,1.4810039573764922,0.3106464508918869,True,0.1,2.258904218673706,2.6838884353637695,1.4639489650726318,0.3106464508918869,0.08284483710115254,0.2875001964708972
1759682258.0623555,1,2.2668814449038566,2.7472794489450383,1.4495328146805608,0.30686525744363236,True,0.1,2.2699928283691406,2.7644481658935547,1.4156339168548584,0.30686525744363236,0.08284483710115254,0.2875001964708972
1759682258.194484,1,2.270244370675624,2.7695227644073976,1.4264534225711767,0.30686525744363236,True,0.1,2.2699928283691406,2.7644481658935547,1.4156339168548584,0.30686525744363236,-0.007661190243371863,0.25906724238595624
1759682258.3314412,1,2.2791928505928563,2.8217629734476417,1.4075402976272775,0.26412395685493784,True,0.1,2.2823524475097656,2.8378984928131104,1.4024649858474731,0.26412395685493784,-0.020700791518766692,0.3190615035712243
1759682258.4587264,1,2.2827898137634586,2.8416890263708576,1.395628403951715,0.26412395685493784,True,0.1,2.2823524475097656,2.8378984928131104,1.4024649858474731,0.26412395685493784,-0.05072054079814059,0.2540442475564529
1759682258.595828,1,2.2920146748139274,2.896468587819644,1.3944142640172146,0.28670124410621206,True,0.1,2.294642210006714,2.9128737449645996,1.4164009094238281,0.28670124410621206,-0.07405741241237251,0.3116025311915047
1759682258.7272375,1,2.295547756857104,2.917390847342055,1.3957427405778455,0.28670124410621206,True,0.1,2.294642210006714,2.9128737449645996,1.4164009094238281,0.28670124410621206,-0.08296620084084161,0.28104787375417495
1759682258.8580093,1,2.3035898800841195,2.973441586096104,1.409730113736173,0.30862397140543224,True,0.1,2.3052818775177,2.989292621612549,1.446706771850586,0.30862397140543224,-0.08296620084084161,0.28104787375417495
1759682258.9880505,1,2.3065041053689237,2.9948774570756473,1.4216222862369792,0.30862397140543224,True,0.1,2.3052818775177,2.989292621612549,1.446706771850586,0.30862397140543224,-0.0641092167070294,0.24683910552176117
1759682259.1206822,1,2.311929875698586,3.0443470953980047,1.4401988115539508,0.26302187957549245,True,0.1,2.3129124641418457,3.0588390827178955,1.4731806516647339,0.26302187957549245,-0.10340545135728796,0.29703791872808233
1759682259.2502844,1,2.313826558321461,3.0632671207200586,1.4547232853750565,0.26302187957549245,True,0.1,2.3129124641418457,3.0588390827178955,1.4731806516647339,0.26302187957549245,-0.05597069283865608,0.23969485172971614
1759682259.3873363,1,2.317946841448322,3.114792141373656,1.4750447366377495,0.26885404690170717,True,0.1,2.3186187744140625,3.1301262378692627,1.5025851726531982,0.26885404690170717,-0.10728622210338834,0.29360367576265173
1759682259.5204937,1,2.31931789483099,3.134493921628833,1.4898298878233023,0.26885404690170717,True,0.1,2.3186187744140625,3.1301262378692627,1.5025851726531982,0.26885404690170717,-0.10799382766757937,0.26459210803111416
1759682259.6497817,1,2.321816795039824,3.187332638107455,1.5144841578318538,0.27537628144204357,True,0.1,2.322042942047119,3.2030205726623535,1.541860580444336,0.27537628144204357,-0.10799382766757937,0.26459210803111416
1759682259.769982,1,2.3225195768162457,3.2075317374812347,1.531798405042471,0.27537628144204357,True,0.1,2.322042942047119,3.2030205726623535,1.541860580444336,0.27537628144204357,-0.10506059460914585,0.23856317295213406
1759682259.9182353,1,2.3229483352886726,3.256120602054063,1.5563452431647367,0.2536334571733102,True,0.1,2.322664499282837,3.270484209060669,1.579031229019165,0.2536334571733102,-0.1656264614626366,0.2787264313465803
1759682260.0498924,1,2.322887328537097,3.2746851142434035,1.5740841571940525,0.2536334571733102,True,0.1,2.322664499282837,3.270484209060669,1.579031229019165,0.2536334571733102,-0.09993555884822491,0.21819653527813812
1759682260.1957207,1,2.3211364300410913,3.3241108160072215,1.6019025751813665,0.24567640144532926,True,0.1,2.3201701641082764,3.3394742012023926,1.6264480352401733,0.24567640144532926,-0.1786541083060733,0.2656245403251218
1759682260.3139815,1,2.320221602548313,3.342984595258293,1.6222186988100313,0.24567640144532926,True,0.1,2.3201701641082764,3.3394742012023926,1.6264480352401733,0.24567640144532926,-0.0924629309890097,0.1993348426207501
1759682260.4537628,1,2.3167078050444845,3.386240300542588,1.6495611181058045,0.2248873138109755,True,0.1,2.315307378768921,3.3990962505340576,1.6688182353973389,0.2248873138109755,-0.17356085687246647,0.24293345917442605
1759682260.5750103,1,2.3151366585600837,3.4027466927421206,1.6679629244757743,0.2248873138109755,True,0.1,2.315307378768921,3.3990962505340576,1.6688182353973389,0.2248873138109755,-0.19031050344022127,0.2347839077908201
1759682260.711198,1,2.309490453965241,3.44717058822643,1.700071009889454,0.24407941369959008,True,0.1,2.3075366020202637,3.4596192836761475,1.7244853973388672,0.24407941369959008,-0.19031050344022127,0.2347839077908201
1759682260.8367243,1,2.3070464059882165,3.4641050501092407,1.7220693655218398,0.24407941369959008,True,0.1,2.3075366020202637,3.4596192836761475,1.7244853973388672,0.24407941369959008,-0.17197985981488983,0.20469870095546017
1759682260.9684846,1,2.2995951444794924,3.5045837600215193,1.7544043677043994,0.2280310020534466,True,0.1,2.297194242477417,3.515681028366089,1.7778775691986084,0.2280310020534466,-0.2905136220941813,0.25433041649901933
1759682261.0895557,1,2.2964869611476404,3.5199995622956135,1.7775358232419247,0.2280310020534466,True,0.1,2.297194242477417,3.515681028366089,1.7778775691986084,0.2280310020534466,-0.19708349036986483,0.2044933630227026
1759682261.2207456,1,2.286243883039,3.5604607719230508,1.8178787102951457,0.22001251924939516,True,0.1,2.2827916145324707,3.5721774101257324,1.851503610610962,0.22001251924939516,-0.3084785983310443,0.2503765549629223
1759682261.354192,1,2.2820119142414264,3.575839777264473,1.846135858008516,0.22001251924939516,True,0.1,2.2827916145324707,3.5721774101257324,1.851503610610962,0.22001251924939516,-0.2879625388371405,0.24358036209181239
1759682261.4819825,1,2.2668112532038576,3.6203330732955967,1.8991567681718706,0.2559677945770856,True,0.1,2.2618372440338135,3.632641315460205,1.9468822479248047,0.2559677945770856,-0.2879625388371405,0.24358036209181239
1759682261.614592,1,2.2605301478033395,3.6371764347805984,1.9365783704343844,0.2559677945770856,True,0.1,2.2618372440338135,3.632641315460205,1.9468822479248047,0.2559677945770856,-0.22880484006641666,0.22004530185162866
1759682261.7436543,1,2.2424604645338784,3.6774899404971517,1.9893449821571068,0.23236502669478,True,0.1,2.2365381717681885,3.689035654067993,2.028550863265991,0.23236502669478,-0.3345295589028563,0.2714777824733325
1759682261.8839319,1,2.235151178249321,3.6927165029905913,2.0266597459980353,0.23236502669478,True,0.1,2.2365381717681885,3.689035654067993,2.028550863265991,0.23236502669478,-0.18752443965718513,0.21810982984691904
1759682262.0146396,1,2.2114978394643363,3.7349219353239462,2.0815147886925622,0.2507256759943309,True,0.1,2.2038121223449707,3.74714732170105,2.119471311569214,0.2507256759943309,-0.28941823043629533,0.2720061680732999
1759682262.14154,1,2.202018767689368,3.7508057544057474,2.119621500075173,0.2507256759943309,True,0.1,2.2038121223449707,3.74714732170105,2.119471311569214,0.2507256759943309,-0.218628701618913,0.2545718972633694
1759682262.2818077,1,2.1737643863993785,3.7922630039848966,2.17525780903612,0.24860530736971287,True,0.1,2.164412498474121,3.8048346042633057,2.2073116302490234,0.24860530736971287,-0.218628701618913,0.2545718972633694
1759682262.404054,1,2.162549627117153,3.80781962535621,2.2126602235013664,0.24860530736971287,True,0.1,2.164412498474121,3.8048346042633057,2.2073116302490234,0.24860530736971287,-0.1520264640877329,0.24343830798685578
1759682262.5358357,1,2.1333196649934667,3.8445934970125735,2.255679270605107,0.25499372552191735,True,0.1,2.124770164489746,3.8547580242156982,2.2670204639434814,0.25499372552191735,-0.23535092973964922,0.29663274241604454
1759682262.6587071,1,2.1218449495767953,3.8583949359181213,2.2844214062369197,0.25499372552191735,True,0.1,2.124770164489746,3.8547580242156982,2.2670204639434814,0.25499372552191735,-0.1278425771084546,0.22905988162495636
1759682262.7994883,1,2.0883673992347487,3.895366809009687,2.3231537552273807,0.26120603363857375,True,0.1,2.0783162117004395,3.9060745239257812,2.331869602203369,0.26120603363857375,-0.22019221408216794,0.28779084354957757
