timestamp,vehicle_id,x,y,theta,velocity,gps_available,dt,gps_x,gps_y,gps_theta,gps_velocity,control_steering,control_acceleration
1759682225.4816427,0,-1.205,-0.83,-0.7801621756414647,0.0,False,0.01,nan,nan,nan,nan,0.0,0.0
1759682225.4920294,0,-1.205,-0.83,-0.7801621756414647,0.0,False,0.01038670539855957,nan,nan,nan,nan,0.0,0.0
1759682225.5022762,0,-1.205,-0.83,-0.7801621756414647,0.0,False,0.010246753692626953,nan,nan,nan,nan,0.0,0.0
1759682225.5125246,0,-1.205,-0.83,-0.7801621756414647,0.0,False,0.010248422622680664,nan,nan,nan,nan,0.0,0.0
1759682225.523397,0,-1.205,-0.83,-0.7801621756414647,0.0,False,0.010872364044189453,nan,nan,nan,nan,0.0,0.0
1759682225.5346644,0,-1.205,-0.83,-0.7801621756414647,0.0,False,0.011267423629760742,nan,nan,nan,nan,0.0,0.0
1759682225.5454152,0,-1.205,-0.83,-0.7801621756414647,0.0,False,0.010750770568847656,nan,nan,nan,nan,0.0,0.0
1759682225.5563045,0,-1.205,-0.83,-0.7801621756414647,0.0,False,0.010889291763305664,nan,nan,nan,nan,0.0,0.0
1759682225.56705,0,-1.205,-0.83,-0.7801621756414647,0.0,False,0.010745525360107422,nan,nan,nan,nan,0.0,0.0
1759682225.5774822,0,-1.205,-0.83,-0.7801621756414647,0.0,False,0.010432243347167969,nan,nan,nan,nan,0.0,0.0
1759682225.587731,0,-1.205,-0.83,-0.7801621756414647,0.0,False,0.010248661041259766,nan,nan,nan,nan,0.0,0.0
1759682225.5979931,0,-1.205,-0.83,-0.7801621756414647,0.0,False,0.010262250900268555,nan,nan,nan,nan,0.0,0.0
1759682225.6081922,0,-1.205,-0.83,-0.7801621756414647,0.0,False,0.01019906997680664,nan,nan,nan,nan,0.0,0.0
1759682225.6195498,0,-1.205,-0.83,-0.7801621756414647,0.0,False,0.011357545852661133,nan,nan,nan,nan,0.0,0.0
1759682225.6309695,0,-1.205,-0.83,-0.7801621756414647,0.0,False,0.01141977310180664,nan,nan,nan,nan,0.0,0.0
1759682225.642098,0,-1.205,-0.83,-0.7801621756414647,0.0,False,0.011128425598144531,nan,nan,nan,nan,0.0,0.0
1759682225.6529367,0,-1.205,-0.83,-0.7801621756414647,0.0,False,0.010838747024536133,nan,nan,nan,nan,0.0,0.0
1759682225.663927,0,-1.205,-0.83,-0.7801621756414647,0.0,False,0.010990381240844727,nan,nan,nan,nan,0.0,0.0
1759682225.6789567,0,-1.2049998061259588,-0.8299996288021405,-0.7230000858972119,0.0,True,0.015029668807983398,-1.2049998044967651,-0.8299996256828308,-0.7177038788795471,0.0,0.0,0.0
1759682225.689342,0,-1.2049998050413424,-0.829999626725497,-0.7181192895616064,0.0,True,0.010385274887084961,-1.2049998044967651,-0.8299996256828308,-0.7177038788795471,0.0,0.0,0.0
1759682225.6995018,0,-1.2049998047010528,-0.8299996260739668,-0.7176613561776399,0.0,True,0.010159730911254883,-1.2049998044967651,-0.8299996256828308,-0.7177038788795471,0.0,0.0,0.0
1759682225.7100768,0,-1.2049998045745929,-0.8299996258318424,-0.7175988700052542,0.0,True,0.010575056076049805,-1.2049998044967651,-0.8299996256828308,-0.7177038788795471,0.0,0.0,0.0
1759682225.7205803,0,-1.2049998045264814,-0.8299996257397265,-0.7175904701775195,0.0,True,0.010503530502319336,-1.2049998044967651,-0.8299996256828308,-0.7177038788795471,0.0,0.0,0.0
1759682225.7320862,0,-1.2049998045081152,-0.8299996257045619,-0.717594723419932,0.0,True,0.011505842208862305,-1.2049998044967651,-0.8299996256828308,-0.7177038788795471,0.0,0.0,0.0
1759682225.7426143,0,-1.2049998045011003,-0.8299996256911313,-0.7176075008176213,0.0,True,0.010528087615966797,-1.2049998044967651,-0.8299996256828308,-0.7177038788795471,0.0,0.0,0.0
1759682225.7532887,0,-1.204999804498421,-0.8299996256860013,-0.7176197230630432,0.0,True,0.010674476623535156,-1.2049998044967651,-0.8299996256828308,-0.7177038788795471,0.0,0.0,0.0
1759682225.7641087,0,-1.2049998044973975,-0.8299996256840418,-0.7176303090128062,0.0,True,0.01081991195678711,-1.2049998044967651,-0.8299996256828308,-0.7177038788795471,0.0,0.0,0.0
1759682225.7750032,0,-1.2049998044970067,-0.8299996256832933,-0.7176393150220761,0.0,True,0.010894536972045898,-1.2049998044967651,-0.8299996256828308,-0.7177038788795471,0.0,0.0,0.0
1759682225.7858872,0,-1.2049998044968575,-0.8299996256830074,-0.7176469579422431,0.0,True,0.01088404655456543,-1.2049998044967651,-0.8299996256828308,-0.7177038788795471,0.0,0.0,0.0
1759682225.7961345,0,-1.2049998044968004,-0.8299996256828983,-0.7176539450149608,0.0,True,0.010247230529785156,-1.2049998044967651,-0.8299996256828308,-0.7177038788795471,0.0,0.0,0.0
1759682225.8065605,0,-1.2049998044967787,-0.8299996256828566,-0.7176593930823287,0.0,True,0.010426044464111328,-1.2049998044967651,-0.8299996256828308,-0.7177038788795471,0.0,0.0,0.0
1759682225.8171258,0,-1.2049998044967702,-0.8299996256828407,-0.7176637582691541,0.0,True,0.01056528091430664,-1.2049998044967651,-0.8299996256828308,-0.7177038788795471,0.0,0.0,0.0
1759682225.827474,0,-1.2049998044967671,-0.8299996256828346,-0.7176676001414428,0.0,True,0.010348320007324219,-1.2049998044967651,-0.8299996256828308,-0.7177038788795471,0.0,0.0,0.0
1759682225.838848,0,-1.2049998044967658,-0.8299996256828323,-0.717670176848193,0.0,True,0.01137399673461914,-1.2049998044967651,-0.8299996256828308,-0.7177038788795471,0.0,0.0,0.0
1759682225.849288,0,-1.2049998044967654,-0.8299996256828314,-0.7176731494445061,0.0,True,0.010439872741699219,-1.2049998044967651,-0.8299996256828308,-0.7177038788795471,0.0,0.0,0.0
1759682225.8607938,0,-1.2049998044967651,-0.829999625682831,-0.7176751237979069,0.0,True,0.011505842208862305,-1.2049998044967651,-0.8299996256828308,-0.7177038788795471,0.0,0.0,0.0
1759682225.871058,0,-1.2049998044967651,-0.8299996256828309,-0.7176776284025159,0.0,True,0.010264158248901367,-1.2049998044967651,-0.8299996256828308,-0.7177038788795471,0.0,0.0,0.0
1759682225.8831296,0,-1.2049998044967651,-0.8299996256828308,-0.7176788965036351,0.0,True,0.012071609497070312,-1.2049998044967651,-0.8299996256828308,-0.7177038788795471,0.0,0.0,0.0
1759682225.8941793,0,-1.2049998044967651,-0.8299996256828308,-0.7176806601905703,0.0,True,0.011049747467041016,-1.2049998044967651,-0.8299996256828308,-0.7177038788795471,0.0,0.0,0.0
1759682225.9055943,0,-1.2049998044967651,-0.8299996256828308,-0.7176821151066282,0.0,True,0.01141500473022461,-1.2049998044967651,-0.8299996256828308,-0.7177038788795471,0.0,0.0,0.0
1759682225.9162095,0,-1.2049998044967651,-0.8299996256828308,-0.7176837663565578,0.0,True,0.010615110397338867,-1.2049998044967651,-0.8299996256828308,-0.7177038788795471,0.0,0.0,0.0
1759682225.9275088,0,-1.2049998044967651,-0.8299996256828308,-0.7176849360490607,0.0,True,0.011299371719360352,-1.2049998044967651,-0.8299996256828308,-0.7177038788795471,0.0,0.0,0.0
1759682225.938532,0,-1.2049998044967651,-0.8299996256828308,-0.7176861000197956,0.0,True,0.011023283004760742,-1.2049998044967651,-0.8299996256828308,-0.7177038788795471,0.0,0.0,0.0
1759682225.9490566,0,-1.2049998044967651,-0.8299996256828308,-0.7176873164476234,0.0,True,0.010524511337280273,-1.2049998044967651,-0.8299996256828308,-0.7177038788795471,0.0,0.0,0.0
1759682225.960305,0,-1.2049998044967651,-0.8299996256828308,-0.7176881414105871,0.0,True,0.011248350143432617,-1.2049998044967651,-0.8299996256828308,-0.7177038788795471,0.0,0.0,0.0
1759682225.9707947,0,-1.2049998044967651,-0.8299996256828308,-0.7176891363350624,0.0,True,0.010489702224731445,-1.2049998044967651,-0.8299996256828308,-0.7177038788795471,0.0,0.0,0.0
1759682225.980997,0,-1.2049998044967651,-0.8299996256828308,-0.7176900932936157,0.0,True,0.010202407836914062,-1.2049998044967651,-0.8299996256828308,-0.7177038788795471,0.0,0.0,0.0
1759682225.9915388,0,-1.2049998044967651,-0.8299996256828308,-0.7176908179089558,0.0,True,0.010541677474975586,-1.2049998044967651,-0.8299996256828308,-0.7177038788795471,0.0,0.0,0.0
1759682226.0020328,0,-1.2049998044967651,-0.8299996256828308,-0.7176914749406968,0.0,True,0.010493993759155273,-1.2049998044967651,-0.8299996256828308,-0.7177038788795471,0.0,0.0,0.0
1759682226.0124722,0,-1.2049998044967651,-0.8299996256828308,-0.7176920846961146,0.0,True,0.010439395904541016,-1.2049998044967651,-0.8299996256828308,-0.7177038788795471,0.0,0.0,0.0
1759682226.0231547,0,-1.2049998044967651,-0.8299996256828308,-0.7176925812488513,0.0,True,0.01068258285522461,-1.2049998044967651,-0.8299996256828308,-0.7177038788795471,0.0,0.0,0.0
1759682226.0332181,0,-1.2049998044967651,-0.8299996256828308,-0.7176931930090227,0.0,True,0.010063409805297852,-1.2049998044967651,-0.8299996256828308,-0.7177038788795471,0.0,0.0,0.0
1759682226.0434322,0,-1.2049998044967651,-0.8299996256828308,-0.7176937026929657,0.0,True,0.010214090347290039,-1.2049998044967651,-0.8299996256828308,-0.7177038788795471,0.0,0.0,0.0
1759682226.0539112,0,-1.2049998044967651,-0.8299996256828308,-0.7176941027930113,0.0,True,0.010478973388671875,-1.2049998044967651,-0.8299996256828308,-0.7177038788795471,0.0,0.0,0.0
1759682226.0649,0,-1.2049998044967651,-0.8299996256828308,-0.7176943779660121,0.0,True,0.010988712310791016,-1.2049998044967651,-0.8299996256828308,-0.7177038788795471,0.0,0.0,0.0
1759682226.082284,0,-1.2049998044967651,-0.8299996256828308,-0.7176934593427973,0.0,True,0.017384052276611328,-1.2049998044967651,-0.8299996256828308,-0.7177038788795471,0.0,0.0,0.0
1759682226.0925784,0,-1.2049998044967651,-0.8299996256828308,-0.7176942739342618,0.0,True,0.010294437408447266,-1.2049998044967651,-0.8299996256828308,-0.7177038788795471,0.0,0.0,0.0
1759682226.1031566,0,-1.2049998044967651,-0.8299996256828308,-0.7176949781925579,0.0,True,0.010578155517578125,-1.2049998044967651,-0.8299996256828308,-0.7177038788795471,0.0,0.0,0.0
1759682226.1143453,0,-1.2049998044967651,-0.8299996256828308,-0.7176954506546629,0.0,True,0.011188745498657227,-1.2049998044967651,-0.8299996256828308,-0.7177038788795471,0.0,0.0,0.0
1759682226.1245415,0,-1.2049998044967651,-0.8299996256828308,-0.7176960174844282,0.0,True,0.010196208953857422,-1.2049998044967651,-0.8299996256828308,-0.7177038788795471,0.0,0.0,0.0
1759682226.1353488,0,-1.2049998044967651,-0.8299996256828308,-0.7176963985698546,0.0,True,0.010807275772094727,-1.2049998044967651,-0.8299996256828308,-0.7177038788795471,0.0,0.0,0.0
1759682226.1457853,0,-1.2049998044967651,-0.8299996256828308,-0.717696786120726,0.0,True,0.010436534881591797,-1.2049998044967651,-0.8299996256828308,-0.7177038788795471,0.0,0.0,0.0
1759682226.1562047,0,-1.2049998044967651,-0.8299996256828308,-0.7176971286080978,0.0,True,0.010419368743896484,-1.2049998044967651,-0.8299996256828308,-0.7177038788795471,0.0,0.0,0.0
1759682226.1665456,0,-1.2049998044967651,-0.8299996256828308,-0.7176974413944759,0.0,True,0.01034092903137207,-1.2049998044967651,-0.8299996256828308,-0.7177038788795471,0.0,0.0,0.0
1759682226.1769853,0,-1.2049998044967651,-0.8299996256828308,-0.7176977064779209,0.0,True,0.010439634323120117,-1.2049998044967651,-0.8299996256828308,-0.7177038788795471,0.0,0.0,0.0
1759682226.187644,0,-1.2049998044967651,-0.8299996256828308,-0.7176979203356666,0.0,True,0.010658740997314453,-1.2049998044967651,-0.8299996256828308,-0.7177038788795471,0.0,0.0,0.0
1759682226.198557,0,-1.2049998044967651,-0.8299996256828308,-0.7176980944171092,0.0,True,0.010912895202636719,-1.2049998044967651,-0.8299996256828308,-0.7177038788795471,0.0,0.0,0.0
1759682226.2091994,0,-1.2049998044967651,-0.8299996256828308,-0.7176983049738475,0.0,True,0.010642528533935547,-1.2049998044967651,-0.8299996256828308,-0.7177038788795471,0.0,0.0,0.0
1759682226.219727,0,-1.2049998044967651,-0.8299996256828308,-0.7176985219247953,0.0,True,0.010527610778808594,-1.2049998044967651,-0.8299996256828308,-0.7177038788795471,0.0,0.0,0.0
1759682226.2300677,0,-1.2049998044967651,-0.8299996256828308,-0.7176987460435722,0.0,True,0.010340690612792969,-1.2049998044967651,-0.8299996256828308,-0.7177038788795471,0.0,0.0,0.0
1759682226.2405994,0,-1.2049998044967651,-0.8299996256828308,-0.7176989304666499,0.0,True,0.01053166389465332,-1.2049998044967651,-0.8299996256828308,-0.7177038788795471,0.0,0.0,0.0
1759682226.2511365,0,-1.2049998044967651,-0.8299996256828308,-0.7176991037550238,0.0,True,0.010537147521972656,-1.2049998044967651,-0.8299996256828308,-0.7177038788795471,0.0,0.0,0.0
1759682226.2622275,0,-1.2049998044967651,-0.8299996256828308,-0.7176992144654832,0.0,True,0.011090993881225586,-1.2049998044967651,-0.8299996256828308,-0.7177038788795471,0.0,0.0,0.0
1759682226.278409,0,-1.2049998044967651,-0.8299996256828308,-0.7176988553086048,0.0,True,0.016181468963623047,-1.2049998044967651,-0.8299996256828308,-0.7177038788795471,0.0,0.0,0.0
1759682226.2846365,0,-1.2049998044967651,-0.8299996256828308,-0.7176995704080849,0.0,True,0.0062274932861328125,-1.2049998044967651,-0.8299996256828308,-0.7177038788795471,0.0,0.0,0.0
1759682226.2949307,0,-1.2049998044967651,-0.8299996256828308,-0.7176997873344817,0.0,True,0.010294198989868164,-1.2049998044967651,-0.8299996256828308,-0.7177038788795471,0.0,0.0,0.0
1759682226.3052294,0,-1.2049998044967651,-0.8299996256828308,-0.717699947523105,0.0,True,0.010298728942871094,-1.2049998044967651,-0.8299996256828308,-0.7177038788795471,0.0,0.0,0.0
1759682226.316594,0,-1.2049998044967651,-0.8299996256828308,-0.7177000032168621,0.0,True,0.011364459991455078,-1.2049998044967651,-0.8299996256828308,-0.7177038788795471,0.0,0.0,0.0
1759682226.3272586,0,-1.2049998044967651,-0.8299996256828308,-0.717700132662781,0.0,True,0.010664701461791992,-1.2049998044967651,-0.8299996256828308,-0.7177038788795471,0.0,0.0,0.0
1759682226.3377657,0,-1.2049998044967651,-0.8299996256828308,-0.7177002751731116,0.0,True,0.01050710678100586,-1.2049998044967651,-0.8299996256828308,-0.7177038788795471,0.0,0.0,0.0
1759682226.3479679,0,-1.2049998044967651,-0.8299996256828308,-0.7177004319096767,0.0,True,0.010202169418334961,-1.2049998044967651,-0.8299996256828308,-0.7177038788795471,0.0,0.0,0.0
1759682226.357999,0,-1.2049998044967651,-0.8299996256828308,-0.7177005854571448,0.0,True,0.01003122329711914,-1.2049998044967651,-0.8299996256828308,-0.7177038788795471,0.0,0.0,0.0
1759682226.368366,0,-1.2049998044967651,-0.8299996256828308,-0.7177006976754754,0.0,True,0.01036691665649414,-1.2049998044967651,-0.8299996256828308,-0.7177038788795471,0.0,0.0,0.0
1759682226.3788764,0,-1.2049998044967651,-0.8299996256828308,-0.7177007928839316,0.0,True,0.010510444641113281,-1.2049998044967651,-0.8299996256828308,-0.7177038788795471,0.0,0.0,0.0
1759682226.389296,0,-1.2049998044967651,-0.8299996256828308,-0.7177008929724575,0.0,True,0.010419607162475586,-1.2049998044967651,-0.8299996256828308,-0.7177038788795471,0.0,0.0,0.0
1759682226.3997855,0,-1.2049998044967651,-0.8299996256828308,-0.717700986057384,0.0,True,0.010489463806152344,-1.2049998044967651,-0.8299996256828308,-0.7177038788795471,0.0,0.0,0.0
1759682226.4103477,0,-1.2049998044967651,-0.8299996256828308,-0.7177010729317832,0.0,True,0.01056218147277832,-1.2049998044967651,-0.8299996256828308,-0.7177038788795471,0.0,0.0,0.0
1759682226.4211202,0,-1.2049998044967651,-0.8299996256828308,-0.7177011469414136,0.0,True,0.010772466659545898,-1.2049998044967651,-0.8299996256828308,-0.7177038788795471,0.0,0.0,0.0
1759682226.4325666,0,-1.2049998044967651,-0.8299996256828308,-0.7177011855559705,0.0,True,0.011446475982666016,-1.2049998044967651,-0.8299996256828308,-0.7177038788795471,0.0,0.0,0.0
1759682226.4430044,0,-1.2049998044967651,-0.8299996256828308,-0.7177012943540859,0.0,True,0.010437726974487305,-1.2049998044967651,-0.8299996256828308,-0.7177038788795471,0.0,0.0,0.0
1759682226.4532301,0,-1.2049998044967651,-0.8299996256828308,-0.7177014094060237,0.0,True,0.010225772857666016,-1.2049998044967651,-0.8299996256828308,-0.7177038788795471,0.0,0.0,0.0
1759682226.4635165,0,-1.2049998044967651,-0.8299996256828308,-0.7177015090430423,0.0,True,0.010286331176757812,-1.2049998044967651,-0.8299996256828308,-0.7177038788795471,0.0,0.0,0.0
1759682226.4738195,0,-1.2049998044967651,-0.8299996256828308,-0.7177015982154682,0.0,True,0.010303020477294922,-1.2049998044967651,-0.8299996256828308,-0.7177038788795471,0.0,0.0,0.0
1759682226.4870431,0,-1.2049998044967651,-0.8299996256828308,-0.7177015398597106,0.0,True,0.013223648071289062,-1.2049998044967651,-0.8299996256828308,-0.7177038788795471,0.0,0.0,0.0
1759682226.4974203,0,-1.2049998044967651,-0.8299996256828308,-0.7177016522446813,0.0,True,0.010377168655395508,-1.2049998044967651,-0.8299996256828308,-0.7177038788795471,0.0,0.0,0.0
1759682226.5078871,0,-1.2049998044967651,-0.8299996256828308,-0.7177017566038337,0.0,True,0.010466814041137695,-1.2049998044967651,-0.8299996256828308,-0.7177038788795471,0.0,0.0,0.0
1759682226.518633,0,-1.2049998044967651,-0.8299996256828308,-0.7177018364843324,0.0,True,0.010745763778686523,-1.2049998044967651,-0.8299996256828308,-0.7177038788795471,0.0,0.0,0.0
1759682226.5297444,0,-1.2049998044967651,-0.8299996256828308,-0.717701895078994,0.0,True,0.01111149787902832,-1.2049998044967651,-0.8299996256828308,-0.7177038788795471,0.0,0.0,0.0
1759682226.5401218,0,-1.2049998044967651,-0.8299996256828308,-0.7177019840591079,0.0,True,0.01037740707397461,-1.2049998044967651,-0.8299996256828308,-0.7177038788795471,0.0,0.0,0.0
1759682226.551149,0,-1.2049998044967651,-0.8299996256828308,-0.7177020397967055,0.0,True,0.011027097702026367,-1.2049998044967651,-0.8299996256828308,-0.7177038788795471,0.0,0.0,0.0
1759682226.561525,0,-1.2049998044967651,-0.8299996256828308,-0.7177021193389201,0.0,True,0.010376214981079102,-1.2049998044967651,-0.8299996256828308,-0.7177038788795471,0.0,0.0,0.0
1759682226.5718317,0,-1.2049998044967651,-0.8299996256828308,-0.7177021946648345,0.0,True,0.010306596755981445,-1.2049998044967651,-0.8299996256828308,-0.7177038788795471,0.0,0.0,0.0
1759682226.5821085,0,-1.2049998044967651,-0.8299996256828308,-0.7177022631424048,0.0,True,0.01027679443359375,-1.2049998044967651,-0.8299996256828308,-0.7177038788795471,0.0,0.0,0.0
1759682226.592582,0,-1.2049998044967651,-0.8299996256828308,-0.7177023182362525,0.0,True,0.010473489761352539,-1.2049998044967651,-0.8299996256828308,-0.7177038788795471,0.0,0.0,0.0
1759682226.6030092,0,-1.2049998044967651,-0.8299996256828308,-0.717702371689267,0.0,True,0.010427236557006836,-1.2049998044967651,-0.8299996256828308,-0.7177038788795471,0.0,0.0,0.0
1759682226.613745,0,-1.2049998044967651,-0.8299996256828308,-0.7177024127219838,0.0,True,0.010735750198364258,-1.2049998044967651,-0.8299996256828308,-0.7177038788795471,0.0,0.0,0.0
1759682226.6243343,0,-1.2049998044967651,-0.8299996256828308,-0.7177024589912104,0.0,True,0.010589361190795898,-1.2049998044967651,-0.8299996256828308,-0.7177038788795471,0.0,0.0,0.0
1759682226.6348808,0,-1.2049998044967651,-0.8299996256828308,-0.7177025060219986,0.0,True,0.010546445846557617,-1.2049998044967651,-0.8299996256828308,-0.7177038788795471,0.0,0.0,0.0
1759682226.6453085,0,-1.2049998044967651,-0.8299996256828308,-0.7177025549771319,0.0,True,0.010427713394165039,-1.2049998044967651,-0.8299996256828308,-0.7177038788795471,0.0,0.0,0.0
1759682226.6566308,0,-1.2049998044967651,-0.8299996256828308,-0.7177025763553821,0.0,True,0.011322259902954102,-1.2049998044967651,-0.8299996256828308,-0.7177038788795471,0.0,0.0,0.0
1759682226.6669784,0,-1.2049998044967651,-0.8299996256828308,-0.7177026291475475,0.0,True,0.010347604751586914,-1.2049998044967651,-0.8299996256828308,-0.7177038788795471,0.0,0.0,0.0
1759682226.6772234,0,-1.2049998044967651,-0.8299996256828308,-0.7177026817118257,0.0,True,0.010245084762573242,-1.2049998044967651,-0.8299996256828308,-0.7177038788795471,0.0,0.0,0.0
1759682226.6888227,0,-1.2049998044967651,-0.8299996256828308,-0.7177026949556868,0.0,True,0.011599302291870117,-1.2049998044967651,-0.8299996256828308,-0.7177038788795471,0.0,0.0,0.0
1759682226.698941,0,-1.2049998044967651,-0.8299996256828308,-0.7177027503261275,0.0,True,0.010118246078491211,-1.2049998044967651,-0.8299996256828308,-0.7177038788795471,0.0,0.0,0.0
1759682226.7096024,0,-1.2049998044967651,-0.8299996256828308,-0.7177027884712821,0.0,True,0.01066136360168457,-1.2049998044967651,-0.8299996256828308,-0.7177038788795471,0.0,0.0,0.0
1759682226.720043,0,-1.2049998044967651,-0.8299996256828308,-0.7177028293411958,0.0,True,0.010440587997436523,-1.2049998044967651,-0.8299996256828308,-0.7177038788795471,0.0,0.0,0.0
1759682226.7306898,0,-1.2049998044967651,-0.8299996256828308,-0.717702863039646,0.0,True,0.010646820068359375,-1.2049998044967651,-0.8299996256828308,-0.7177038788795471,0.0,0.0,0.0
1759682226.741316,0,-1.2049998044967651,-0.8299996256828308,-0.7177028960701985,0.0,True,0.01062631607055664,-1.2049998044967651,-0.8299996256828308,-0.7177038788795471,0.0,0.0,0.0
1759682226.752304,0,-1.2049998044967651,-0.8299996256828308,-0.7177029208192991,0.0,True,0.010987997055053711,-1.2049998044967651,-0.8299996256828308,-0.7177038788795471,0.0,0.0,0.0
1759682226.7627683,0,-1.2049998044967651,-0.8299996256828308,-0.7177029573426985,0.0,True,0.010464191436767578,-1.2049998044967651,-0.8299996256828308,-0.7177038788795471,0.0,0.0,0.0
1759682226.7730827,0,-1.2049998044967651,-0.8299996256828308,-0.7177029947943261,0.0,True,0.010314464569091797,-1.2049998044967651,-0.8299996256828308,-0.7177038788795471,0.0,0.0,0.0
1759682226.7833161,0,-1.2049998044967651,-0.8299996256828308,-0.7177030304142313,0.0,True,0.010233402252197266,-1.2049998044967651,-0.8299996256828308,-0.7177038788795471,0.0,0.0,0.0
1759682226.7938466,0,-1.2049998044967651,-0.8299996256828308,-0.7177030573377756,0.0,True,0.010530471801757812,-1.2049998044967651,-0.8299996256828308,-0.7177038788795471,0.0,0.0,0.0
1759682226.80414,0,-1.2049998044967651,-0.8299996256828308,-0.7177030873021355,0.0,True,0.01029348373413086,-1.2049998044967651,-0.8299996256828308,-0.7177038788795471,0.0,0.0,0.0
1759682226.8155415,0,-1.2049998044967651,-0.8299996256828308,-0.7177030968049127,0.0,True,0.01140141487121582,-1.2049998044967651,-0.8299996256828308,-0.7177038788795471,0.0,0.0,0.0
1759682226.8259363,0,-1.2049998044967651,-0.8299996256828308,-0.7177031266100151,0.0,True,0.010394811630249023,-1.2049998044967651,-0.8299996256828308,-0.7177038788795471,0.0,0.0,0.0
1759682226.8361754,0,-1.2049998044967651,-0.8299996256828308,-0.7177031578288453,0.0,True,0.010239124298095703,-1.2049998044967651,-0.8299996256828308,-0.7177038788795471,0.0,0.0,0.0
1759682226.847803,0,-1.2049998044967651,-0.8299996256828308,-0.7177031650249983,0.0,True,0.011627674102783203,-1.2049998044967651,-0.8299996256828308,-0.7177038788795471,0.0,0.0,0.0
1759682226.8579352,0,-1.2049998044967651,-0.8299996256828308,-0.7177031980898008,0.0,True,0.010132074356079102,-1.2049998044967651,-0.8299996256828308,-0.7177038788795471,0.0,0.0,0.0
1759682226.868365,0,-1.2049998044967651,-0.8299996256828308,-0.717703224380891,0.0,True,0.010429859161376953,-1.2049998044967651,-0.8299996256828308,-0.7177038788795471,0.0,0.0,0.0
1759682226.8789923,0,-1.2049998044967651,-0.8299996256828308,-0.7177032455901422,0.0,True,0.010627269744873047,-1.2049998044967651,-0.8299996256828308,-0.7177038788795471,0.0,0.0,0.0
1759682226.8891,0,-1.2049998044967651,-0.8299996256828308,-0.7177032728983797,0.0,True,0.010107755661010742,-1.2049998044967651,-0.8299996256828308,-0.7177038788795471,0.0,0.0,0.0
1759682226.8996596,0,-1.2049998044967651,-0.8299996256828308,-0.7177032917798964,0.0,True,0.010559558868408203,-1.2049998044967651,-0.8299996256828308,-0.7177038788795471,0.0,0.0,0.0
1759682226.9105031,0,-1.2049998044967651,-0.8299996256828308,-0.7177033063630347,0.0,True,0.010843515396118164,-1.2049998044967651,-0.8299996256828308,-0.7177038788795471,0.0,0.0,0.0
1759682226.920749,0,-1.2049998044967651,-0.8299996256828308,-0.71770332894814,0.0,True,0.010245800018310547,-1.2049998044967651,-0.8299996256828308,-0.7177038788795471,0.0,0.0,0.0
1759682226.9312038,0,-1.2049998044967651,-0.8299996256828308,-0.7177033476177677,0.0,True,0.010454893112182617,-1.2049998044967651,-0.8299996256828308,-0.7177038788795471,0.0,0.0,0.0
1759682226.9417458,0,-1.2049998044967651,-0.8299996256828308,-0.7177033642861819,0.0,True,0.010541915893554688,-1.2049998044967651,-0.8299996256828308,-0.7177038788795471,0.0,0.0,0.0
1759682226.952096,0,-1.2049998044967651,-0.8299996256828308,-0.7177033826324539,0.0,True,0.010350227355957031,-1.2049998044967651,-0.8299996256828308,-0.7177038788795471,0.0,0.0,0.0
1759682226.9628868,0,-1.2049998044967651,-0.8299996256828308,-0.7177033953555654,0.0,True,0.010790824890136719,-1.2049998044967651,-0.8299996256828308,-0.7177038788795471,0.0,0.0,0.0
1759682226.973671,0,-1.2049998044967651,-0.8299996256828308,-0.7177034085817553,0.0,True,0.010784149169921875,-1.2049998044967651,-0.8299996256828308,-0.7177038788795471,0.0,0.0,0.0
1759682226.9837801,0,-1.2049998044967651,-0.8299996256828308,-0.7177034289542235,0.0,True,0.010109186172485352,-1.2049998044967651,-0.8299996256828308,-0.7177038788795471,0.0,0.0,0.0
1759682226.9940825,0,-1.2049998044967651,-0.8299996256828308,-0.7177034456735445,0.0,True,0.010302305221557617,-1.2049998044967651,-0.8299996256828308,-0.7177038788795471,0.0,0.0,0.0
1759682227.005537,0,-1.2049998044967651,-0.8299996256828308,-0.7177034504015207,0.0,True,0.011454582214355469,-1.2049998044967651,-0.8299996256828308,-0.7177038788795471,0.0,0.0,0.0
1759682227.016246,0,-1.2049998044967651,-0.8299996256828308,-0.7177034640626019,0.0,True,0.010709047317504883,-1.2049998044967651,-0.8299996256828308,-0.7177038788795471,0.0,0.0,0.0
1759682227.0263715,0,-1.2049998044967651,-0.8299996256828308,-0.7177034830331515,0.0,True,0.010125398635864258,-1.2049998044967651,-0.8299996256828308,-0.7177038788795471,0.0,0.0,0.0
1759682227.036924,0,-1.2049998044967651,-0.8299996256828308,-0.7177034964969007,0.0,True,0.010552406311035156,-1.2049998044967651,-0.8299996256828308,-0.7177038788795471,0.0,0.0,0.0
1759682227.047154,0,-1.2049998044967651,-0.8299996256828308,-0.7177035117080965,0.0,True,0.010230064392089844,-1.2049998044967651,-0.8299996256828308,-0.7177038788795471,0.0,0.0,0.0
1759682227.0576868,0,-1.2049998044967651,-0.8299996256828308,-0.7177035233221574,0.0,True,0.010532855987548828,-1.2049998044967651,-0.8299996256828308,-0.7177038788795471,0.0,0.0,0.0
1759682227.068068,0,-1.2049998044967651,-0.8299996256828308,-0.7177035356388384,0.0,True,0.010381221771240234,-1.2049998044967651,-0.8299996256828308,-0.7177038788795471,0.0,0.0,0.0
1759682227.0784297,0,-1.2049998044967651,-0.8299996256828308,-0.717703547518898,0.0,True,0.010361671447753906,-1.2049998044967651,-0.8299996256828308,-0.7177038788795471,0.0,0.0,0.0
1759682227.0893812,0,-1.2049998044967651,-0.8299996256828308,-0.7177035546124397,0.0,True,0.010951519012451172,-1.2049998044967651,-0.8299996256828308,-0.7177038788795471,0.0,0.0,0.0
1759682227.0998046,0,-1.2049998044967651,-0.8299996256828308,-0.7177035660342277,0.0,True,0.010423421859741211,-1.2049998044967651,-0.8299996256828308,-0.7177038788795471,0.0,0.0,0.0
1759682227.1104178,0,-1.2049998044967651,-0.8299996256828308,-0.717703575849189,0.0,True,0.010613203048706055,-1.2049998044967651,-0.8299996256828308,-0.7177038788795471,0.0,0.0,0.0
1759682227.120713,0,-1.2049998044967651,-0.8299996256828308,-0.7177035874596758,0.0,True,0.01029515266418457,-1.2049998044967651,-0.8299996256828308,-0.7177038788795471,0.0,0.0,0.0
1759682227.1311002,0,-1.2049998044967651,-0.8299996256828308,-0.7177035977073842,0.0,True,0.010387182235717773,-1.2049998044967651,-0.8299996256828308,-0.7177038788795471,0.0,0.0,0.0
1759682227.1416013,0,-1.2049998044967651,-0.8299996256828308,-0.7177036066470368,0.0,True,0.01050114631652832,-1.2049998044967651,-0.8299996256828308,-0.7177038788795471,0.0,0.0,0.0
1759682227.1524916,0,-1.2049998044967651,-0.8299996256828308,-0.7177036130665577,0.0,True,0.01089024543762207,-1.2049998044967651,-0.8299996256828308,-0.7177038788795471,0.0,0.0,0.0
1759682227.1630685,0,-1.2049998044967651,-0.8299996256828308,-0.7177036217137491,0.0,True,0.010576963424682617,-1.2049998044967651,-0.8299996256828308,-0.7177038788795471,0.0,0.0,0.0
1759682227.1738305,0,-1.2049998044967651,-0.8299996256828308,-0.7177036292686783,0.0,True,0.01076197624206543,-1.2049998044967651,-0.8299996256828308,-0.7177038788795471,0.0,0.0,0.0
1759682227.1841104,0,-1.2049998044967651,-0.8299996256828308,-0.7177036393632648,0.0,True,0.01027989387512207,-1.2049998044967651,-0.8299996256828308,-0.7177038788795471,0.0,0.0,0.0
1759682227.1947963,0,-1.2049998044967651,-0.8299996256828308,-0.7177036466504951,0.0,True,0.010685920715332031,-1.2049998044967651,-0.8299996256828308,-0.7177038788795471,0.0,0.0,0.0
1759682227.2055218,0,-1.2049998044967651,-0.8299996256828308,-0.717703653570247,0.0,True,0.01072549819946289,-1.2049998044967651,-0.8299996256828308,-0.7177038788795471,0.0,0.0,0.0
1759682227.216851,0,-1.2049998044967651,-0.8299996256828308,-0.7177036576790297,0.0,True,0.011329174041748047,-1.2049998044967651,-0.8299996256828308,-0.7177038788795471,0.0,0.0,0.0
1759682227.227686,0,-1.2049998044967651,-0.8299996256828308,-0.7177036648858817,0.0,True,0.010834932327270508,-1.2049998044967651,-0.8299996256828308,-0.7177038788795471,0.0,0.0,0.0
1759682227.2379265,0,-1.2049998044967651,-0.8299996256828308,-0.717703674749167,0.0,True,0.010240554809570312,-1.2049998044967651,-0.8299996256828308,-0.7177038788795471,0.0,0.0,0.0
1759682227.248377,0,-1.2049998044967651,-0.8299996256828308,-0.7177036827120364,0.0,True,0.010450601577758789,-1.2049998044967651,-0.8299996256828308,-0.7177038788795471,0.0,0.0,0.0
1759682227.2589653,0,-1.2049998044967651,-0.8299996256828308,-0.7177036893893387,0.0,True,0.01058816909790039,-1.2049998044967651,-0.8299996256828308,-0.7177038788795471,0.0,0.0,0.0
1759682227.2694006,0,-1.2049998044967651,-0.8299996256828308,-0.7177036963410295,0.0,True,0.010435342788696289,-1.2049998044967651,-0.8299996256828308,-0.7177038788795471,0.0,0.0,0.0
1759682227.2799392,0,-1.2049998044967651,-0.8299996256828308,-0.71770370247385,0.0,True,0.010538578033447266,-1.2049998044967651,-0.8299996256828308,-0.7177038788795471,0.0,0.0,0.0
1759682227.291269,0,-1.2049998044967651,-0.8299996256828308,-0.7177037054046096,0.0,True,0.011329889297485352,-1.2049998044967651,-0.8299996256828308,-0.7177038788795471,0.0,0.0,0.0
1759682227.3018537,0,-1.2049998044967651,-0.8299996256828308,-0.7177037116952825,0.0,True,0.010584592819213867,-1.2049998044967651,-0.8299996256828308,-0.7177038788795471,0.0,0.0,0.0
1759682227.3123195,0,-1.2049998044967651,-0.8299996256828308,-0.7177037182398571,0.0,True,0.010465860366821289,-1.2049998044967651,-0.8299996256828308,-0.7177038788795471,0.0,0.0,0.0
1759682227.323753,0,-1.2049998044967651,-0.8299996256828308,-0.7177037210650639,0.0,True,0.011433601379394531,-1.2049998044967651,-0.8299996256828308,-0.7177038788795471,0.0,0.0,0.0
1759682227.3342695,0,-1.2049998044967651,-0.8299996256828308,-0.7177037274030127,0.0,True,0.01051640510559082,-1.2049998044967651,-0.8299996256828308,-0.7177038788795471,0.0,0.0,0.0
1759682227.3448584,0,-1.2049998044967651,-0.8299996256828308,-0.7177037331948526,0.0,True,0.010588884353637695,-1.2049998044967651,-0.8299996256828308,-0.7177038788795471,0.0,0.0,0.0
1759682227.3554757,0,-1.2049998044967651,-0.8299996256828308,-0.7177037384733325,0.0,True,0.010617256164550781,-1.2049998044967651,-0.8299996256828308,-0.7177038788795471,0.0,0.0,0.0
1759682227.3657048,0,-1.2049998044967651,-0.8299996256828308,-0.7177037445643855,0.0,True,0.010229110717773438,-1.2049998044967651,-0.8299996256828308,-0.7177038788795471,0.0,0.0,0.0
1759682227.377064,0,-1.2049998044967651,-0.8299996256828308,-0.7177037468717966,0.0,True,0.011359214782714844,-1.2049998044967651,-0.8299996256828308,-0.7177038788795471,0.0,0.0,0.0
1759682227.387286,0,-1.2049998044967651,-0.8299996256828308,-0.7177037526976306,0.0,True,0.01022195816040039,-1.2049998044967651,-0.8299996256828308,-0.7177038788795471,0.0,0.0,0.0
1759682227.3979962,0,-1.2049998044967651,-0.8299996256828308,-0.7177037567964888,0.0,True,0.01071023941040039,-1.2049998044967651,-0.8299996256828308,-0.7177038788795471,0.0,0.0,0.0
1759682227.409233,0,-1.2049998044967651,-0.8299996256828308,-0.7177037593720978,0.0,True,0.011236906051635742,-1.2049998044967651,-0.8299996256828308,-0.7177038788795471,0.0,0.0,0.0
1759682227.4196863,0,-1.2049998044967651,-0.8299996256828308,-0.7177037642014472,0.0,True,0.010453224182128906,-1.2049998044967651,-0.8299996256828308,-0.7177038788795471,0.0,0.0,0.0
1759682227.430265,0,-1.2049998044967651,-0.8299996256828308,-0.7177037684478513,0.0,True,0.010578632354736328,-1.2049998044967651,-0.8299996256828308,-0.7177038788795471,0.0,0.0,0.0
1759682227.440801,0,-1.2049998044967651,-0.8299996256828308,-0.7177037724977264,0.0,True,0.010535955429077148,-1.2049998044967651,-0.8299996256828308,-0.7177038788795471,0.0,0.0,0.0
1759682227.4511518,0,-1.2049998044967651,-0.8299996256828308,-0.7177037767012635,0.0,True,0.010350942611694336,-1.2049998044967651,-0.8299996256828308,-0.7177038788795471,0.0,0.0,0.0
1759682227.4614468,0,-1.2049998044967651,-0.8299996256828308,-0.7177037806814521,0.0,True,0.010294914245605469,-1.2049998044967651,-0.8299996256828308,-0.7177038788795471,0.0,0.0,0.0
1759682227.4718385,0,-1.2049998044967651,-0.8299996256828308,-0.7177037841199194,0.0,True,0.010391712188720703,-1.2049998044967651,-0.8299996256828308,-0.7177038788795471,0.0,0.0,0.0
1759682227.4957397,0,-1.2049998044967651,-0.8299996256828308,-0.717703761188778,0.0,True,0.02390122413635254,-1.2049998044967651,-0.8299996256828308,-0.7177038788795471,0.0,0,0
1759682227.50103,0,-1.2049998044967651,-0.8299996256828308,-0.7177037812565263,0.0,True,0.00529026985168457,-1.2049998044967651,-0.8299996256828308,-0.7177038788795471,0.0,0,0
1759682227.511736,0,-1.2049998044967651,-0.8299996256828308,-0.7177037881667623,0.0,True,0.010705947875976562,-1.2049998044967651,-0.8299996256828308,-0.7177038788795471,0.0,0,0
1759682227.5224116,0,-1.2049998044967651,-0.8299996256828308,-0.7177037931378578,0.0,True,0.010675668716430664,-1.2049998044967651,-0.8299996256828308,-0.7177038788795471,0.0,0,0
1759682227.533392,0,-1.2049998044967651,-0.8299996256828308,-0.7177037967779789,0.0,True,0.010980367660522461,-1.2049998044967651,-0.8299996256828308,-0.7177038788795471,0.0,0,0
1759682227.5448072,0,-1.2049998044967651,-0.8299996256828308,-0.7177037993282376,0.0,True,0.011415243148803711,-1.2049998044967651,-0.8299996256828308,-0.7177038788795471,0.0,0,0
1759682227.5556228,0,-1.2049998044967651,-0.8299996256828308,-0.7177038027868328,0.0,True,0.010815620422363281,-1.2049998044967651,-0.8299996256828308,-0.7177038788795471,0.0,0,0
1759682227.565684,0,-1.2049998044967651,-0.8299996256828308,-0.7177038071062363,0.0,True,0.010061264038085938,-1.2049998044967651,-0.8299996256828308,-0.7177038788795471,0.0,0,0
1759682227.5763457,0,-1.2049998044967651,-0.8299996256828308,-0.7177038099035364,0.0,True,0.010661602020263672,-1.2049998044967651,-0.8299996256828308,-0.7177038788795471,0.0,0,0
1759682227.5870914,0,-1.2049998044967651,-0.8299996256828308,-0.7177038122836645,0.0,True,0.010745763778686523,-1.2049998044967651,-0.8299996256828308,-0.7177038788795471,0.0,0,0
1759682227.5977755,0,-1.2049998044967651,-0.8299996256828308,-0.7177038146233059,0.0,True,0.010684013366699219,-1.2049998044967651,-0.8299996256828308,-0.7177038788795471,0.0,0,0
1759682227.6085756,0,-1.2049998044967651,-0.8299996256828308,-0.7177038166918024,0.0,True,0.01080012321472168,-1.2049998044967651,-0.8299996256828308,-0.7177038788795471,0.0,0,0
1759682227.6193829,0,-1.2049998044967651,-0.8299996256828308,-0.7177038186920797,0.0,True,0.010807275772094727,-1.2049998044967651,-0.8299996256828308,-0.7177038788795471,0.0,0,0
1759682227.6303005,0,-1.2049998044967651,-0.8299996256828308,-0.7177038205112112,0.0,True,0.01091766357421875,-1.2049998044967651,-0.8299996256828308,-0.7177038788795471,0.0,0,0
1759682227.6412804,0,-1.2049998044967651,-0.8299996256828308,-0.7177038222507939,0.0,True,0.010979890823364258,-1.2049998044967651,-0.8299996256828308,-0.7177038788795471,0.0,0,0
1759682227.6520731,0,-1.2049998044967651,-0.8299996256828308,-0.7177038242191731,0.0,True,0.010792732238769531,-1.2049998044967651,-0.8299996256828308,-0.7177038788795471,0.0,0,0
1759682227.6627254,0,-1.2049998044967651,-0.8299996256828308,-0.7177038262749562,0.0,True,0.010652303695678711,-1.2049998044967651,-0.8299996256828308,-0.7177038788795471,0.0,0,0
1759682227.6735582,0,-1.2049998044967651,-0.8299996256828308,-0.7177038280044261,0.0,True,0.010832786560058594,-1.2049998044967651,-0.8299996256828308,-0.7177038788795471,0.0,0,0
1759682227.684381,0,-1.2049998044967651,-0.8299996256828308,-0.7177038296825202,0.0,True,0.010822772979736328,-1.2049998044967651,-0.8299996256828308,-0.7177038788795471,0.0,0,0
1759682227.6963418,0,-1.2049998044967651,-0.8299996256828308,-0.7177038301707519,0.0,True,0.011960744857788086,-1.2049998044967651,-0.8299996256828308,-0.7177038788795471,0.0,0,0
1759682227.707036,0,-1.2049998044967651,-0.8299996256828308,-0.7177038321975377,0.0,True,0.010694265365600586,-1.2049998044967651,-0.8299996256828308,-0.7177038788795471,0.0,0,0
1759682227.7179046,0,-1.2049998044967651,-0.8299996256828308,-0.7177038339696189,0.0,True,0.010868549346923828,-1.2049998044967651,-0.8299996256828308,-0.7177038788795471,0.0,0,0
1759682227.7287524,0,-1.2049998044967651,-0.8299996256828308,-0.7177038356367973,0.0,True,0.010847806930541992,-1.2049998044967651,-0.8299996256828308,-0.7177038788795471,0.0,0,0
1759682227.7394934,0,-1.2049998044967651,-0.8299996256828308,-0.7177038372966145,0.0,True,0.010740995407104492,-1.2049998044967651,-0.8299996256828308,-0.7177038788795471,0.0,0,0
1759682227.750407,0,-1.2049998044967651,-0.8299996256828308,-0.7177038386966395,0.0,True,0.010913610458374023,-1.2049998044967651,-0.8299996256828308,-0.7177038788795471,0.0,0,0
1759682227.761856,0,-1.2049998044967651,-0.8299996256828308,-0.7177038396058517,0.0,True,0.011449098587036133,-1.2049998044967651,-0.8299996256828308,-0.7177038788795471,0.0,0,0
1759682227.7731502,0,-1.2049998044967651,-0.8299996256828308,-0.7177038407348384,0.0,True,0.011294126510620117,-1.2049998044967651,-0.8299996256828308,-0.7177038788795471,0.0,0,0
1759682227.7838354,0,-1.2049998044967651,-0.8299996256828308,-0.7177038423780928,0.0,True,0.010685205459594727,-1.2049998044967651,-0.8299996256828308,-0.7177038788795471,0.0,0,0
1759682227.7945218,0,-1.2049998044967651,-0.8299996256828308,-0.7177038438915204,0.0,True,0.010686397552490234,-1.2049998044967651,-0.8299996256828308,-0.7177038788795471,0.0,0,0
1759682227.8052669,0,-1.2049998044967651,-0.8299996256828308,-0.7177038452228999,0.0,True,0.010745048522949219,-1.2049998044967651,-0.8299996256828308,-0.7177038788795471,0.0,0,0
1759682227.8163497,0,-1.2049998044967651,-0.8299996256828308,-0.7177038462242749,0.0,True,0.011082887649536133,-1.2049998044967651,-0.8299996256828308,-0.7177038788795471,0.0,0,0
1759682227.8272114,0,-1.2049998044967651,-0.8299996256828308,-0.7177038473680639,0.0,True,0.010861635208129883,-1.2049998044967651,-0.8299996256828308,-0.7177038788795471,0.0,0,0
1759682227.8384967,0,-1.2049998044967651,-0.8299996256828308,-0.71770384820244,0.0,True,0.01128530502319336,-1.2049998044967651,-0.8299996256828308,-0.7177038788795471,0.0,0,0
1759682227.8492637,0,-1.2049998044967651,-0.8299996256828308,-0.7177038493923291,0.0,True,0.010766983032226562,-1.2049998044967651,-0.8299996256828308,-0.7177038788795471,0.0,0,0
1759682227.860727,0,-1.2049998044967651,-0.8299996256828308,-0.7177038501051456,0.0,True,0.011463403701782227,-1.2049998044967651,-0.8299996256828308,-0.7177038788795471,0.0,0,0
1759682227.8710048,0,-1.2049998044967651,-0.8299996256828308,-0.7177038515490217,0.0,True,0.010277748107910156,-1.2049998044967651,-0.8299996256828308,-0.7177038788795471,0.0,0,0
1759682227.882394,0,-1.2049998044967651,-0.8299996256828308,-0.7177038522215593,0.0,True,0.01138925552368164,-1.2049998044967651,-0.8299996256828308,-0.7177038788795471,0.0,0,0
1759682227.8992414,0,-1.2049998044967651,-0.8299996256828308,-0.7177038500495367,0.0,True,0.01684737205505371,-1.2049998044967651,-0.8299996256828308,-0.7177038788795471,0.0,0,0
1759682227.9100678,0,-1.2049998044967651,-0.8299996256828308,-0.7177038519160739,0.0,True,0.010826349258422852,-1.2049998044967651,-0.8299996256828308,-0.7177038788795471,0.0,0,0
1759682227.9211407,0,-1.2049998044967651,-0.8299996256828308,-0.7177038535734308,0.0,True,0.011072874069213867,-1.2049998044967651,-0.8299996256828308,-0.7177038788795471,0.0,0,0
1759682227.9319923,0,-1.2049998044967651,-0.8299996256828308,-0.7177038550634265,0.0,True,0.010851621627807617,-1.2049998044967651,-0.8299996256828308,-0.7177038788795471,0.0,0,0
1759682227.9427927,0,-1.2049998044967651,-0.8299996256828308,-0.7177038563390283,0.0,True,0.010800361633300781,-1.2049998044967651,-0.8299996256828308,-0.7177038788795471,0.0,0,0
1759682227.9535441,0,-1.2049998044967651,-0.8299996256828308,-0.7177038574477166,0.0,True,0.010751485824584961,-1.2049998044967651,-0.8299996256828308,-0.7177038788795471,0.0,0,0
1759682227.9643958,0,-1.2049998044967651,-0.8299996256828308,-0.7177038583675976,0.0,True,0.010851621627807617,-1.2049998044967651,-0.8299996256828308,-0.7177038788795471,0.0,0,0
1759682227.9752142,0,-1.2049998044967651,-0.8299996256828308,-0.7177038592039899,0.0,True,0.0108184814453125,-1.2049998044967651,-0.8299996256828308,-0.7177038788795471,0.0,0,0
1759682227.9864666,0,-1.2049998044967651,-0.8299996256828308,-0.7177038597949981,0.0,True,0.011252403259277344,-1.2049998044967651,-0.8299996256828308,-0.7177038788795471,0.0,0,0
1759682227.9972684,0,-1.2049998044967651,-0.8299996256828308,-0.71770386055206,0.0,True,0.01080179214477539,-1.2049998044967651,-0.8299996256828308,-0.7177038788795471,0.0,0,0
1759682228.0085742,0,-1.2049998044967651,-0.8299996256828308,-0.7177038610747992,0.0,True,0.011305809020996094,-1.2049998044967651,-0.8299996256828308,-0.7177038788795471,0.0,0,0
1759682228.019459,0,-1.2049998044967651,-0.8299996256828308,-0.7177038617515699,0.0,True,0.010884761810302734,-1.2049998044967651,-0.8299996256828308,-0.7177038788795471,0.0,0,0
1759682228.0309741,0,-1.2049998044967651,-0.8299996256828308,-0.7177038621776575,0.0,True,0.011515140533447266,-1.2049998044967651,-0.8299996256828308,-0.7177038788795471,0.0,0,0
1759682228.0414147,0,-1.2049998044967651,-0.8299996256828308,-0.717703862985374,0.0,True,0.010440587997436523,-1.2049998044967651,-0.8299996256828308,-0.7177038788795471,0.0,0,0
1759682228.051889,0,-1.2049998044967651,-0.8299996256828308,-0.7177038637013791,0.0,True,0.010474205017089844,-1.2049998044967651,-0.8299996256828308,-0.7177038788795471,0.0,0,0
1759682228.0628562,0,-1.2049998044967651,-0.8299996256828308,-0.7177038641784357,0.0,True,0.010967254638671875,-1.2049998044967651,-0.8299996256828308,-0.7177038788795471,0.0,0,0
1759682228.0741465,0,-1.2049998044967651,-0.8299996256828308,-0.7177038645404146,0.0,True,0.011290311813354492,-1.2049998044967651,-0.8299996256828308,-0.7177038788795471,0.0,0,0
1759682228.0848596,0,-1.2049998044967651,-0.8299996256828308,-0.7177038650947623,0.0,True,0.01071310043334961,-1.2049998044967651,-0.8299996256828308,-0.7177038788795471,0.0,0,0
1759682228.095524,0,-1.2049998044967651,-0.8299996256828308,-0.7177038656331192,0.0,True,0.01066446304321289,-1.2049998044967651,-0.8299996256828308,-0.7177038788795471,0.0,0,0
1759682228.1067798,0,-1.2049998044967651,-0.8299996256828308,-0.7177038659694261,0.0,True,0.011255741119384766,-1.2049998044967651,-0.8299996256828308,-0.7177038788795471,0.0,0,0
1759682228.118064,0,-1.2049998044967651,-0.8299996256828308,-0.7177038663125028,0.0,True,0.011284112930297852,-1.2049998044967651,-0.8299996256828308,-0.7177038788795471,0.0,0,0
1759682228.1291642,0,-1.2049998044967651,-0.8299996256828308,-0.7177038667230295,0.0,True,0.011100292205810547,-1.2049998044967651,-0.8299996256828308,-0.7177038788795471,0.0,0,0
1759682228.1394715,0,-1.2049998044967651,-0.8299996256828308,-0.7177038673238609,0.0,True,0.01030731201171875,-1.2049998044967651,-0.8299996256828308,-0.7177038788795471,0.0,0,0
1759682228.150493,0,-1.2049998044967651,-0.8299996256828308,-0.7177038676873835,0.0,True,0.01102137565612793,-1.2049998044967651,-0.8299996256828308,-0.7177038788795471,0.0,0,0
1759682228.1616225,0,-1.2049998044967651,-0.8299996256828308,-0.7177038680103216,0.0,True,0.011129617691040039,-1.2049998044967651,-0.8299996256828308,-0.7177038788795471,0.0,0,0
1759682228.172703,0,-1.2049998044967651,-0.8299996256828308,-0.717703868349858,0.0,True,0.011080503463745117,-1.2049998044967651,-0.8299996256828308,-0.7177038788795471,0.0,0,0
1759682228.1840274,0,-1.2049998044967651,-0.8299996256828308,-0.7177038686381447,0.0,True,0.011324405670166016,-1.2049998044967651,-0.8299996256828308,-0.7177038788795471,0.0,0,0
1759682228.1951675,0,-1.2049998044967651,-0.8299996256828308,-0.7177038689762902,0.0,True,0.011140108108520508,-1.2049998044967651,-0.8299996256828308,-0.7177038788795471,0.0,0,0
1759682228.2055373,0,-1.2049998044967651,-0.8299996256828308,-0.7177038694635698,0.0,True,0.01036977767944336,-1.2049998044967651,-0.8299996256828308,-0.7177038788795471,0.0,0,0
1759682228.2156205,0,-1.2049998044967651,-0.8299996256828308,-0.7177038699504656,0.0,True,0.010083198547363281,-1.2049998044967651,-0.8299996256828308,-0.7177038788795471,0.0,0,0
1759682228.2263324,0,-1.2049998044967651,-0.8299996256828308,-0.7177038702500749,0.0,True,0.010711908340454102,-1.2049998044967651,-0.8299996256828308,-0.7177038788795471,0.0,0,0
1759682228.2372305,0,-1.2049998044967651,-0.8299996256828308,-0.7177038704946863,0.0,True,0.010898113250732422,-1.2049998044967651,-0.8299996256828308,-0.7177038788795471,0.0,0,0
1759682228.2475777,0,-1.2049998044967651,-0.8299996256828308,-0.7177038708368322,0.0,True,0.010347127914428711,-1.2049998044967651,-0.8299996256828308,-0.7177038788795471,0.0,0,0
1759682228.2591093,0,-1.2049998044967651,-0.8299996256828308,-0.717703870953784,0.0,True,0.011531591415405273,-1.2049998044967651,-0.8299996256828308,-0.7177038788795471,0.0,0,0
1759682228.2695293,0,-1.2049998044967651,-0.8299996256828308,-0.7177038712830885,0.0,True,0.010420083999633789,-1.2049998044967651,-0.8299996256828308,-0.7177038788795471,0.0,0,0
1759682228.2803638,0,-1.2049998044967651,-0.8299996256828308,-0.7177038715280535,0.0,True,0.010834455490112305,-1.2049998044967651,-0.8299996256828308,-0.7177038788795471,0.0,0,0
1759682228.2917469,0,-1.2049998044967651,-0.8299996256828308,-0.7177038716806425,0.0,True,0.011383056640625,-1.2049998044967651,-0.8299996256828308,-0.7177038788795471,0.0,0,0
1759682228.3255231,0,-1.2049998044967651,-0.8299996256828308,-0.7177038688273356,0.0,True,0.033776283264160156,-1.2049998044967651,-0.8299996256828308,-0.7177038788795471,0.0,0,0
1759682228.3362505,0,-1.2049998044967651,-0.8299996256828308,-0.7177038700672682,0.0,True,0.010727405548095703,-1.2049998044967651,-0.8299996256828308,-0.7177038788795471,0.0,0,0
1759682228.3465402,0,-1.2049998044967651,-0.8299996256828308,-0.7177038712507411,0.0,True,0.010289669036865234,-1.2049998044967651,-0.8299996256828308,-0.7177038788795471,0.0,0,0
1759682228.357899,0,-1.2049998044967651,-0.8299996256828308,-0.717703871997946,0.0,True,0.01135873794555664,-1.2049998044967651,-0.8299996256828308,-0.7177038788795471,0.0,0,0
1759682228.3691676,0,-1.2049998044967651,-0.8299996256828308,-0.7177038725655471,0.0,True,0.01126861572265625,-1.2049998044967651,-0.8299996256828308,-0.7177038788795471,0.0,0,0
1759682228.3798628,0,-1.2049998044967651,-0.8299996256828308,-0.7177038730705938,0.0,True,0.010695219039916992,-1.2049998044967651,-0.8299996256828308,-0.7177038788795471,0.0,0,0
1759682228.3906949,0,-1.2049998044967651,-0.8299996256828308,-0.7177038734557719,0.0,True,0.010832071304321289,-1.2049998044967651,-0.8299996256828308,-0.7177038788795471,0.0,0,0
1759682228.4019976,0,-1.2049998044967651,-0.8299996256828308,-0.7177038737190742,0.0,True,0.011302709579467773,-1.2049998044967651,-0.8299996256828308,-0.7177038788795471,0.0,0,0
1759682228.4132235,0,-1.2049998044967651,-0.8299996256828308,-0.7177038739524342,0.0,True,0.01122593879699707,-1.2049998044967651,-0.8299996256828308,-0.7177038788795471,0.0,0,0
1759682228.4236288,0,-1.2049998044967651,-0.8299996256828308,-0.717703874237241,0.0,True,0.010405302047729492,-1.2049998044967651,-0.8299996256828308,-0.7177038788795471,0.0,0,0
1759682228.434019,0,-1.2049998044967651,-0.8299996256828308,-0.7177038744801827,0.0,True,0.010390281677246094,-1.2049998044967651,-0.8299996256828308,-0.7177038788795471,0.0,0,0
1759682228.444626,0,-1.2049998044967651,-0.8299996256828308,-0.7177038746658191,0.0,True,0.010607004165649414,-1.2049998044967651,-0.8299996256828308,-0.7177038788795471,0.0,0,0
1759682228.4559608,0,-1.2049998044967651,-0.8299996256828308,-0.7177038747665492,0.0,True,0.011334657669067383,-1.2049998044967651,-0.8299996256828308,-0.7177038788795471,0.0,0,0
1759682228.4673023,0,-1.2049998044967651,-0.8299996256828308,-0.7177038748706153,0.0,True,0.011341571807861328,-1.2049998044967651,-0.8299996256828308,-0.7177038788795471,0.0,0,0
1759682228.4785924,0,-1.2049998044967651,-0.8299996256828308,-0.717703874985979,0.0,True,0.01129007339477539,-1.2049998044967651,-0.8299996256828308,-0.7177038788795471,0.0,0,0
1759682228.489408,0,-1.2049998044967651,-0.8299996256828308,-0.7177038751410727,0.0,True,0.010815620422363281,-1.2049998044967651,-0.8299996256828308,-0.7177038788795471,0.0,0.5235987755982988,0.029585355203519202
1759682228.5050275,0,-1.2049998044967651,-0.8299996256828308,-0.7177038749301214,0.0,True,0.015619516372680664,-1.2049998044967651,-0.8299996256828308,-0.7177038788795471,0.0,0.5235987755982988,0.029345014997280736
1759682228.516474,0,-1.2049998044967651,-0.8299996256828308,-0.7177038751181222,0.0,True,0.011446475982666016,-1.2049998044967651,-0.8299996256828308,-0.7177038788795471,0.0,0.5235987755982988,0.02928466717032483
1759682228.5273948,0,-1.2049998044967651,-0.8299996256828308,-0.7177038753444194,0.0,True,0.01092076301574707,-1.2049998044967651,-0.8299996256828308,-0.7177038788795471,0.0,0.5235987755982988,0.031064250152400233
1759682228.5379047,0,-1.2049998044967651,-0.8299996256828308,-0.7177038755640552,0.0,True,0.010509967803955078,-1.2049998044967651,-0.8299996256828308,-0.7177038788795471,0.0,0.5235987755982988,0.03291905857100824
1759682228.548782,0,-1.2049998044967651,-0.8299996256828308,-0.7177038757224921,0.0,True,0.010877370834350586,-1.2049998044967651,-0.8299996256828308,-0.7177038788795471,0.0,0.5235987755982988,0.031122282736350773
1759682228.5603068,0,-1.2049998044967651,-0.8299996256828308,-0.7177038758185379,0.0,True,0.011524677276611328,-1.2049998044967651,-0.8299996256828308,-0.7177038788795471,0.0,0.5235987755982988,0.031155700612490688
1759682228.5717876,0,-1.2049998044967651,-0.8299996256828308,-0.7177038759149692,0.0,True,0.01148080825805664,-1.2049998044967651,-0.8299996256828308,-0.7177038788795471,0.0,0.5235987755982988,0.03273388683678461
1759682228.582988,0,-1.2049998044967651,-0.8299996256828308,-0.7177038760276666,0.0,True,0.011200428009033203,-1.2049998044967651,-0.8299996256828308,-0.7177038788795471,0.0,0.5235987755982988,0.032233087594052655
1759682228.5942645,0,-1.2049998044967651,-0.8299996256828308,-0.7177038761302761,0.0,True,0.011276483535766602,-1.2049998044967651,-0.8299996256828308,-0.7177038788795471,0.0,0.5235987755982988,0.03341162142150219
1759682228.6053758,0,-1.2049998044967651,-0.8299996256828308,-0.7177038762367101,0.0,True,0.011111259460449219,-1.2049998044967651,-0.8299996256828308,-0.7177038788795471,0.0,0.5235987755982988,0.03135367673534274
1759682228.6162102,0,-1.2049998044967651,-0.8299996256828308,-0.7177038763505781,0.0,True,0.010834455490112305,-1.2049998044967651,-0.8299996256828308,-0.7177038788795471,0.0,0.5235987755982988,0.03237407628334274
1759682228.6274593,0,-1.2049998044967651,-0.8299996256828308,-0.7177038764328483,0.0,True,0.011249065399169922,-1.2049998044967651,-0.8299996256828308,-0.7177038788795471,0.0,0.5235987755982988,0.034207680167193874
1759682228.6389947,0,-1.2049998044967651,-0.8299996256828308,-0.7177038764982111,0.0,True,0.011535406112670898,-1.2049998044967651,-0.8299996256828308,-0.7177038788795471,0.0,0.5235987755982988,0.03534670379754754
1759682228.6494873,0,-1.2049998044967651,-0.8299996256828308,-0.7177038766153547,0.0,True,0.010492563247680664,-1.2049998044967651,-0.8299996256828308,-0.7177038788795471,0.0,0.5235987755982988,0.03213093665224238
1759682228.6605582,0,-1.2049998044967651,-0.8299996256828308,-0.7177038766938271,0.0,True,0.011070966720581055,-1.2049998044967651,-0.8299996256828308,-0.7177038788795471,0.0,0.5235987755982988,0.03173808364580481
1759682228.6717567,0,-1.2049998044967651,-0.8299996256828308,-0.7177038767614867,0.0,True,0.01119852066040039,-1.2049998044967651,-0.8299996256828308,-0.7177038788795471,0.0,0.5235987755982988,0.033226016458686176
1759682228.6820695,0,-1.2049998044967651,-0.8299996256828308,-0.7177038768658868,0.0,True,0.010312795639038086,-1.2049998044967651,-0.8299996256828308,-0.7177038788795471,0.0,0.5235987755982988,0.030295257932854563
1759682228.6934028,0,-1.2049998044967651,-0.8299996256828308,-0.717703876916449,0.0,True,0.011333227157592773,-1.2049998044967651,-0.8299996256828308,-0.7177038788795471,0.0,0.5235987755982988,0.02956305552743775
1759682228.7044382,0,-1.2015818923265584,-0.832957629745207,-0.7151985638219998,0.037734888219786614,True,0.011035442352294922,-1.1996634006500244,-0.8346165418624878,-0.7087523341178894,0.037734888219786614,0.5235987755982988,0.03139044192449592
1759682228.7144387,0,-1.2002873710003856,-0.8340774088440306,-0.71325737171151,0.037734888219786614,True,0.010000467300415039,-1.1996634006500244,-0.8346165418624878,-0.7087523341178894,0.037734888219786614,0.5235987755982988,0.031624823344947206
1759682228.724742,0,-1.1997894285586568,-0.8345077755759757,-0.7118265221137747,0.037734888219786614,True,0.010303258895874023,-1.1996634006500244,-0.8346165418624878,-0.7087523341178894,0.037734888219786614,0.5235987755982988,0.03014223708688178
1759682228.7361407,0,-1.1995871407858836,-0.834682319751729,-0.7107638106339529,0.037734888219786614,True,0.011398792266845703,-1.1996634006500244,-0.8346165418624878,-0.7087523341178894,0.037734888219786614,0.5235987755982988,0.030909677873973637
1759682228.7474074,0,-1.1995112051548242,-0.8347476183976309,-0.7099995925459002,0.037734888219786614,True,0.011266708374023438,-1.1996634006500244,-0.8346165418624878,-0.7087523341178894,0.037734888219786614,0.5235987755982988,0.032018473562425424
1759682228.758571,0,-1.19948324961271,-0.8347714983596353,-0.7094485460041113,0.037734888219786614,True,0.011163473129272461,-1.1996634006500244,-0.8346165418624878,-0.7087523341178894,0.037734888219786614,0.5235987755982988,0.030687336571093665
1759682228.7696216,0,-1.1994737482499611,-0.8347794950459015,-0.709053726195183,0.037734888219786614,True,0.011050701141357422,-1.1996634006500244,-0.8346165418624878,-0.7087523341178894,0.037734888219786614,0.5235987755982988,0.030251622520381237
1759682228.7807019,0,-1.1994697557243237,-0.8347827804601939,-0.7087698028623386,0.037734888219786614,True,0.011080265045166016,-1.1996634006500244,-0.8346165418624878,-0.7087523341178894,0.037734888219786614,0.5235987755982988,0.029443317915324133
1759682228.7919586,0,-1.1994662716927138,-0.8347856573651076,-0.7085642018404172,0.037734888219786614,True,0.011256694793701172,-1.1996634006500244,-0.8346165418624878,-0.7087523341178894,0.037734888219786614,0.5235987755982988,0.030493615664781197
1759682228.8033836,0,-1.1994630779027666,-0.8347883106982704,-0.7084168772182942,0.037734888219786614,True,0.011425018310546875,-1.1996634006500244,-0.8346165418624878,-0.7087523341178894,0.037734888219786614,0.5235987755982988,0.029907309244878028
1759682228.8137884,0,-1.1994730074507585,-0.8347797370977379,-0.7083384056199922,0.037734888219786614,True,0.010404825210571289,-1.1996634006500244,-0.8346165418624878,-0.7087523341178894,0.037734888219786614,0.5235987755982988,0.02935518321382547
1759682228.824579,0,-1.1994725706925686,-0.8347800715179875,-0.7082723557379254,0.037734888219786614,True,0.010790586471557617,-1.1996634006500244,-0.8346165418624878,-0.7087523341178894,0.037734888219786614,0.5235987755982988,0.028330519549623345
1759682228.8348184,0,-1.1994784306566488,-0.8347750222434688,-0.7082420489473833,0.037734888219786614,True,0.010239362716674805,-1.1996634006500244,-0.8346165418624878,-0.7087523341178894,0.037734888219786614,0.5235987755982988,0.028181906685118115
1759682228.8462248,0,-1.1994678921535673,-0.8347840348264498,-0.7081967623270202,0.037734888219786614,True,0.011406421661376953,-1.1996634006500244,-0.8346165418624878,-0.7087523341178894,0.037734888219786614,0.5235987755982988,0.02883538778949852
1759682228.8564758,0,-1.1994765087648647,-0.8347766375032374,-0.7081983178306679,0.037734888219786614,True,0.010251045227050781,-1.1996634006500244,-0.8346165418624878,-0.7087523341178894,0.037734888219786614,0.5235987755982988,0.028363543286075814
1759682228.867788,0,-1.1994681843973753,-0.8347837634411831,-0.7081763974579509,0.037734888219786614,True,0.011312246322631836,-1.1996634006500244,-0.8346165418624878,-0.7087523341178894,0.037734888219786614,0.5235987755982988,0.029993600205552022
1759682228.8791635,0,-1.1994643110479295,-0.8347870752645773,-0.7081688826721084,0.037734888219786614,True,0.01137542724609375,-1.1996634006500244,-0.8346165418624878,-0.7087523341178894,0.037734888219786614,0.5235987755982988,0.02736626269118974
1759682228.890173,0,-1.1994668367734636,-0.8347849076166353,-0.7081761635495525,0.037734888219786614,True,0.011009454727172852,-1.1996634006500244,-0.8346165418624878,-0.7087523341178894,0.037734888219786614,0.5235987755982988,0.029428596397238854
1759682228.9270191,0,-1.1885480530877908,-0.8437216055200032,-0.6932487653176942,0.08992130830761637,True,0.036846160888671875,-1.1833558082580566,-0.8479135632514954,-0.6628420352935791,0.08992130830761637,0.5235987755982988,0.027844095515499094
1759682228.937912,0,-1.1850511356523443,-0.8465512760593557,-0.6833358609692013,0.08992130830761637,True,0.010892868041992188,-1.1833558082580566,-0.8479135632514954,-0.6628420352935791,0.08992130830761637,0.5235987755982988,0.029943687760929358
1759682228.9481773,0,-1.1837298615790852,-0.8476157246761875,-0.6762140944787269,0.08992130830761637,True,0.010265350341796875,-1.1833558082580566,-0.8479135632514954,-0.6628420352935791,0.08992130830761637,0.5235987755982988,0.027077272075221044
1759682228.95912,0,-1.1832054965561252,-0.848034964039481,-0.6711182263898614,0.08992130830761637,True,0.010942697525024414,-1.1833558082580566,-0.8479135632514954,-0.6628420352935791,0.08992130830761637,0.5235987755982988,0.030749233083376504
1759682228.9707112,0,-1.1829866002084397,-0.8482074925973329,-0.6674320865696668,0.08992130830761637,True,0.011591196060180664,-1.1833558082580566,-0.8479135632514954,-0.6628420352935791,0.08992130830761637,0.5235987755982988,0.029939255858600383
1759682228.9821115,0,-1.182907252676401,-0.8482682095817706,-0.6648346164615972,0.08992130830761637,True,0.011400222778320312,-1.1833558082580566,-0.8479135632514954,-0.6628420352935791,0.08992130830761637,0.5235987755982988,0.029788099444876093
1759682228.993394,0,-1.1828795149910205,-0.8482881254222646,-0.6630019240738356,0.08992130830761637,True,0.01128244400024414,-1.1833558082580566,-0.8479135632514954,-0.6628420352935791,0.08992130830761637,0.5235987755982988,0.02898580760290442
1759682229.004709,0,-1.1828676095174206,-0.8482958782360874,-0.6617016969403657,0.08992130830761637,True,0.011315107345581055,-1.1833558082580566,-0.8479135632514954,-0.6628420352935791,0.08992130830761637,0.5235987755982988,0.028045704498391347
1759682229.0159888,0,-1.1828637152301482,-0.8482977064849981,-0.660795182493926,0.08992130830761637,True,0.011279821395874023,-1.1833558082580566,-0.8479135632514954,-0.6628420352935791,0.08992130830761637,0.5235987755982988,0.030243872856007187
1759682229.026666,0,-1.18287835763056,-0.8482854241914903,-0.660236673671335,0.08992130830761637,True,0.010677099227905273,-1.1833558082580566,-0.8479135632514954,-0.6628420352935791,0.08992130830761637,0.5235987755982988,0.029386220347674942
