timestamp,observer_vehicle_id,vehicle_0_x,vehicle_0_y,vehicle_0_theta,vehicle_0_velocity,vehicle_1_x,vehicle_1_y,vehicle_1_theta,vehicle_1_velocity
1759829784.9074347,1,0.0,0.0,0.0,0.0,8.0,6.0,-0.05483113549895436,0.0
1759829784.9182281,1,0.0,0.0,0.0,0.0,8.0,6.0,-0.05483113549895436,0.0
1759829784.9297585,1,0.0,0.0,0.0,0.0,8.0,6.0,-0.05483113549895436,0.0
1759829784.9398942,1,0.0,0.0,0.0,0.0,8.0,6.0,-0.05483113549895436,0.0
1759829784.9513915,1,0.0,0.0,0.0,0.0,8.0,6.0,-0.05483113549895436,0.0
1759829784.9629192,1,0.0,0.0,0.0,0.0,8.0,6.0,-0.05483113549895436,0.0
1759829784.9738638,1,0.0,0.0,0.0,0.0,8.0,6.0,-0.05483113549895436,0.0
1759829784.984005,1,0.0,0.0,0.0,0.0,8.0,6.0,-0.05483113549895436,0.0
1759829784.994981,1,0.0,0.0,0.0,0.0,8.0,6.0,-0.05483113549895436,0.0
1759829785.0057256,1,0.0,0.0,0.0,0.0,8.0,6.0,-0.05483113549895436,0.0
1759829785.0165641,1,0.0,0.0,0.0,0.0,8.0,6.0,-0.05483113549895436,0.0
1759829785.0273988,1,0.0,0.0,0.0,0.0,8.0,6.0,-0.05483113549895436,0.0
1759829785.0382564,1,0.0,0.0,0.0,0.0,8.0,6.0,-0.05483113549895436,0.0
1759829785.0490415,1,0.0,0.0,0.0,0.0,8.0,6.0,-0.05483113549895436,0.0
1759829785.0599306,1,0.0,0.0,0.0,0.0,8.0,6.0,-0.05483113549895436,0.0
1759829785.0708265,1,0.0,0.0,0.0,0.0,8.0,6.0,-0.05483113549895436,0.0
1759829785.0809715,1,0.0,0.0,0.0,0.0,8.0,6.0,-0.05483113549895436,0.0
1759829785.0919127,1,0.0,0.0,0.0,0.0,8.0,6.0,-0.05483113549895436,0.0
1759829785.1030006,1,0.0,0.0,0.0,0.0,8.0,6.0,-2.8798472822825723,0.0
1759829785.1145353,1,0.0,0.0,0.0,0.0,8.0,6.0,-3.121314377746039,0.0
1759829785.1253102,1,0.0,0.0,0.0,0.0,8.0,6.0,3.1392699268974074,0.0
1759829785.1361377,1,0.0,0.0,0.0,0.0,8.0,6.0,3.1363601836745563,0.0
1759829785.147414,1,0.0,0.0,0.0,0.0,8.0,6.0,3.1359893074820278,0.0
1759829785.158041,1,0.0,0.0,0.0,0.0,8.0,6.0,3.136419020049253,0.0
1759829785.169526,1,0.0,0.0,0.0,0.0,8.0,6.0,3.136931028016292,0.0
1759829785.18029,1,0.0,0.0,0.0,0.0,8.0,6.0,3.137544127418634,0.0
1759829785.191487,1,0.0,0.0,0.0,0.0,8.0,6.0,3.138048480372774,0.0
1759829785.2021928,1,0.0,0.0,0.0,0.0,8.0,6.0,3.1385097111808413,0.0
1759829785.2132006,1,0.0,0.0,0.0,0.0,8.0,6.0,3.1388712331163866,0.0
1759829785.224205,1,0.0,0.0,0.0,0.0,8.0,6.0,3.139173387539591,0.0
1759829785.2351856,1,0.0,0.0,0.0,0.0,8.0,6.0,3.1394283615601744,0.0
1759829785.246335,1,0.0,0.0,0.0,0.0,8.0,6.0,3.1396374128285114,0.0
1759829785.2577467,1,0.0,0.0,0.0,0.0,8.0,6.0,3.1398088563341595,0.0
1759829785.2692888,1,0.0,0.0,0.0,0.0,8.0,6.0,3.139956795629695,0.0
1759829785.279921,1,0.0,1.1872412681579592,-0.621638073636954,0.0,8.0,6.0,3.140113949577513,0.0
1759829785.2905364,1,0.0,2.1293410756386266,-1.1149203787615674,0.0,8.0,6.0,3.1402451516180445,0.0
1759829785.301653,1,0.0,2.8784187587725705,-1.5071365360303386,0.0,8.0,6.0,3.140342391307282,0.0
1759829785.312622,1,0.0,3.475681328727841,-1.8198624860122703,0.0,8.0,6.0,3.140431601415731,0.0
1759829785.3234706,1,0.0,3.953190629939749,-2.0698857711779315,0.0,8.0,6.0,3.1405132796771795,0.0
1759829785.3341515,1,0.0,4.35818014501123,-2.2819377851572025,0.0,8.0,6.0,3.1405884931240227,0.0
1759829785.3450806,1,0.0,4.679448163505954,-2.450153326087718,0.0,8.0,6.0,3.140649502904399,0.0
1759829785.3560123,1,0.0,4.934963916768057,-2.583941061488957,0.0,8.0,6.0,3.140704421859841,0.0
1759829785.3671727,1,0.0,5.138662265289654,-2.6905972672443883,0.0,8.0,6.0,3.140750735117587,0.0
1759829785.378149,1,0.0,5.301510491486113,-2.7758643989917764,0.0,8.0,6.0,3.140797221881936,0.0
1759829785.388694,1,0.0,5.439875663887739,-2.8483122337639317,0.0,8.0,6.0,3.1408465718898615,0.0
1759829785.4007177,1,0.0,5.54948485281984,-2.905703470817523,0.0,8.0,6.0,3.1408689548837607,0.0
1759829785.411196,1,0.0,5.63670079859717,-2.951369633187,0.0,8.0,6.0,3.1409149130169514,0.0
1759829785.422591,1,0.0,5.706204513098338,-2.987761692957761,0.0,8.0,6.0,3.140944051063391,0.0
1759829785.4331806,1,0.0,5.761789056010808,-3.0168656915356653,0.0,8.0,6.0,3.1409818209796114,0.0
1759829785.4443822,1,0.0,5.808969726098261,-3.041569432597135,0.0,8.0,6.0,3.141008276023056,0.0
1759829785.455421,1,0.0,5.8463839235053445,-3.0611594605270924,0.0,8.0,6.0,3.141035109860386,0.0
1759829785.466322,1,0.0,5.876135457524366,-3.0767373272938228,0.0,8.0,6.0,3.1410618944164224,0.0
1759829785.477437,1,0.0,5.899849522019475,-3.0891539824137335,0.0,8.0,6.0,3.141084408465918,0.0
1759829785.48886,1,0.0,5.918794689761542,-3.099073649035649,0.0,8.0,6.0,3.1411027673858403,0.0
1759829785.5069256,1,1.2013950349451214e-07,5.934778394950018,-1.870682536141492,0.0,8.0,6.0,3.1410604932750594,0.0
1759829785.5105624,1,2.1627459530764965e-07,5.9475684841472685,-0.8877294775256285,0.0,8.0,6.0,3.1411667828766063,0.0
1759829785.5212445,1,2.9271479685973427e-07,5.957738308481627,-0.10615088328157907,0.0,8.0,6.0,3.141188281213564,0.0
1759829785.5324085,1,3.536184639800357e-07,5.965841107576285,0.5165712127578781,0.0,8.0,6.0,3.1411986926735693,0.0
1759829785.543033,1,4.0229893523238153e-07,5.97231769752631,1.0143147235807994,0.0,8.0,6.0,3.1412140096601604,0.0
1759829785.553856,1,4.4355056592906524e-07,5.977805933155898,1.4361005231409982,0.0,8.0,6.0,3.141227299769305,0.0
1759829785.5640755,1,4.762821028043289e-07,5.982160630991018,1.7707708675275793,0.0,8.0,6.0,3.1412447399343115,0.0
1759829785.5753095,1,5.022894664391204e-07,5.985620725472654,2.0366885168396873,0.0,8.0,6.0,3.1412531878327883,0.0
1759829785.5864797,1,5.230103967129802e-07,5.988377497650787,2.2485539387778717,0.0,8.0,6.0,3.1412627174088126,0.0
1759829785.5966215,1,5.395809234626978e-07,5.990582088203281,2.4179827045314926,0.0,8.0,6.0,3.1412797677880153,0.0
1759829785.6073787,1,5.536137348165689e-07,5.992449053798457,2.5614640762253815,0.0,8.0,6.0,3.141291046663259,0.0
1759829785.6180058,1,5.647434477854552e-07,5.993929782832227,2.675262120185728,0.0,8.0,6.0,3.1413024174740034,0.0
1759829785.6294544,1,5.735855216951814e-07,5.995106157783987,2.7656697271287456,0.0,8.0,6.0,3.1413083367689705,0.0
1759829785.6400993,1,5.806351024271992e-07,5.996044054286347,2.837749618163389,0.0,8.0,6.0,3.141319843500547,0.0
1759829785.6514032,1,5.86265802172842e-07,5.996793178780135,2.8953218681372612,0.0,8.0,6.0,3.1413272309448104,0.0
1759829785.6628027,1,5.910328953773057e-07,5.997427406575072,2.9440639950511516,0.0,8.0,6.0,3.141334473511373,0.0
1759829785.6740284,1,5.948131040552259e-07,5.9979303364133125,2.9827155177374816,0.0,8.0,6.0,3.141343170154858,0.0
1759829785.6843922,1,5.978214067828221e-07,5.998330569663135,3.0134745289534983,0.0,8.0,6.0,3.1413561303889335,0.0
1759829785.6950881,1,6.002204862068926e-07,5.998649750091909,3.038004410948475,0.0,8.0,6.0,3.141366026418236,0.0
1759829785.706384,1,6.021373390163386e-07,5.998904773704498,3.057603667540685,0.0,8.0,6.0,3.1413722089229204,0.0
1759829785.7176845,1,6.037674845461787e-07,5.999121652955747,3.0742714264653856,0.0,8.0,6.0,3.14137858564,0.0
1759829785.7278142,1,6.050607817269512e-07,5.999293716933517,3.087495010024348,0.0,8.0,6.0,3.1413902116991252,0.0
1759829785.7390418,1,6.060881580875454e-07,5.999430402040311,3.097999631354077,0.0,8.0,6.0,3.1413959235421913,0.0
1759829785.750509,1,6.069062577084051e-07,5.999539244367557,3.1063644595287836,0.0,8.0,6.0,3.1414006429334638,0.0
1759829785.7613893,1,6.075598755467736e-07,5.999626203565244,3.1130475098205435,0.0,8.0,6.0,3.1414081180072237,0.0
1759829785.7723646,1,6.081138008296076e-07,5.999699899378525,3.118711233032716,0.0,8.0,6.0,3.141414934176707,0.0
1759829785.7833905,1,6.085528813275274e-07,5.999758315911211,3.1232007020733006,0.0,8.0,6.0,3.141421218077724,0.0
1759829785.7943025,1,6.089018821037511e-07,5.999804747978561,3.1267691324349762,0.0,8.0,6.0,3.141427647718899,0.0
1759829785.8054059,1,6.091799459844625e-07,5.999841742397246,3.129612253889181,0.0,8.0,6.0,3.1414331127850446,0.0
1759829785.8168948,1,6.094019817100625e-07,5.999871282668981,3.1318825039246705,0.0,8.0,6.0,3.141437237022064,0.0
1759829785.827977,1,6.095902740194667e-07,5.999896333619545,3.133807737447123,0.0,8.0,6.0,3.141442889299629,0.0
1759829785.8390367,1,6.097395454198409e-07,5.999916193116108,3.1353339936434237,0.0,8.0,6.0,3.1414484592197596,0.0
1759829785.8503776,1,6.098581594318366e-07,5.999931973865518,3.1365467870541,0.0,8.0,6.0,3.141452959920926,0.0
1759829785.8604538,1,6.099527902406452e-07,5.999944563820577,3.13751435926112,0.0,8.0,6.0,3.1414609009465426,0.0
1759829785.8707683,1,6.100284485100845e-07,5.999954629614414,3.1382879428293298,0.0,8.0,6.0,3.1414671389751607,0.0
1759829785.8818505,1,6.100926124664459e-07,5.999963166171769,3.1389440004246243,0.0,8.0,6.0,3.141470540653078,0.0
1759829785.8925009,1,6.101434826552396e-07,5.99996993408804,3.1394641331537243,0.0,8.0,6.0,3.1414750049135662,0.0
1759829785.9050984,1,6.10183834750724e-07,5.999975302646917,3.1398767214701233,0.0,8.0,6.0,3.141474637829498,0.0
1759829785.9162374,1,6.102159873813006e-07,5.999979580325393,3.140205472667753,0.0,8.0,6.0,3.1414788179091957,0.0
1759829785.9266894,1,6.102416926219783e-07,5.999983000224567,3.140468301198626,0.0,8.0,6.0,3.1414846198884057,0.0
1759829785.9380107,1,6.102634938321433e-07,5.99998590072029,3.1406912121649446,0.0,8.0,6.0,3.141487876791791,0.0
1759829785.949323,1,6.102807693244533e-07,5.999988199101488,3.140867848996355,0.0,8.0,6.0,3.141491071007593,0.0
1759829785.9599726,1,6.102945047865739e-07,5.999990026506886,3.141008290059532,0.0,8.0,6.0,3.1414956185926606,0.0
1759829785.970968,1,6.103054493033082e-07,5.99999148259688,3.141120194526425,0.0,8.0,6.0,3.1414990945575276,0.0
1759829785.9812942,1,6.103141987909879e-07,5.999992646653894,3.1412096554663793,0.0,8.0,6.0,3.1415035885708793,0.0
1759829785.9925478,1,6.103216215867003e-07,5.9999936342039915,3.1412855513708973,0.0,8.0,6.0,3.1415059027954424,0.0
1759829786.0026534,1,6.103275087204345e-07,5.9999944174452,3.1413457455830347,0.0,8.0,6.0,3.141510227257932,0.0
1759829786.0140636,1,6.103321829077673e-07,5.99999503931253,3.141393537774718,0.0,8.0,6.0,3.1415118770589086,0.0
1759829786.0254154,1,6.103359043127468e-07,5.9999955344189555,3.141431588046871,0.0,8.0,6.0,3.1415137773548345,0.0
1759829786.036864,1,6.103388747823829e-07,5.999995929618781,3.141461960225845,0.0,8.0,6.0,3.1415157518189947,0.0
1759829786.046923,1,6.103413916332076e-07,5.999996264467857,3.1414876942857974,0.0,8.0,6.0,3.1415199872618267,0.0
1759829786.05695,1,6.103433883116045e-07,5.999996530111695,3.1415081097355584,0.0,8.0,6.0,3.1415237306081423,0.0
1759829786.068348,1,6.103449738861005e-07,5.9999967410610875,3.1415243217687614,0.0,8.0,6.0,3.141524962734218,0.0
1759829786.0795786,1,6.103462366189617e-07,5.999996909058701,3.141537232841136,0.0,8.0,6.0,3.141526577046669,0.0
1759829786.0897908,1,6.103472459922248e-07,5.999997043348623,3.1415475533860855,0.0,8.0,6.0,3.1415297013539902,0.0
1759829786.1015797,1,6.103481008457926e-07,5.999997157080801,3.1415562940125654,0.0,8.0,6.0,3.1415305099520303,0.0
1759829786.1125727,1,6.103487782841436e-07,5.999997247209149,3.1415632206205975,0.0,8.0,6.0,3.1415325590765093,0.0
1759829786.1227798,1,6.103493169687668e-07,5.9999973188773,3.1415687285125444,0.0,8.0,6.0,3.1415355526512485,0.0
1759829786.132858,1,6.103497464178634e-07,5.999997376012444,3.1415731195033367,0.0,8.0,6.0,3.1415383311694427,0.0
1759829786.143105,1,6.103500895405544e-07,5.999997421662474,3.1415766278320043,0.0,8.0,6.0,3.141540526803251,0.0
1759829786.1539059,1,6.10350364192086e-07,5.999997458202904,3.141579436063192,0.0,8.0,6.0,3.1415418759922975,0.0
1759829786.165307,1,6.103505968235846e-07,5.999997489152867,3.1415818146518926,0.0,8.0,6.0,3.1415426109390374,0.0
1759829786.1768067,1,6.103507815838739e-07,5.999997513733907,3.141583703771547,0.0,8.0,6.0,3.1415434847599197,0.0
1759829786.1882143,1,6.103509287373654e-07,5.999997533311631,3.1415852083727476,0.0,8.0,6.0,3.1415446843218184,0.0
1759829786.1992254,1,6.103510463030152e-07,5.999997548952904,3.141586410446964,0.0,8.0,6.0,3.1415463828159105,0.0
1759829786.2093918,1,6.103511460453893e-07,5.999997562222917,3.1415874302834235,0.0,8.0,6.0,3.1415487881752817,0.0
1759829786.2204032,1,6.103512251047187e-07,5.999997572741197,3.1415882386418312,0.0,8.0,6.0,3.1415501448317116,0.0
1759829786.2317984,1,6.103512879093484e-07,5.999997581096906,3.1415888808007106,0.0,8.0,6.0,3.1415511100219327,0.0
1759829786.2426455,1,6.103513379644386e-07,5.999997587756379,3.141589392599295,0.0,8.0,6.0,3.1415526109988274,0.0
1759829786.2530682,1,6.103513779783457e-07,5.999997593079945,3.1415898017297357,0.0,8.0,6.0,3.1415543865761038,0.0
1759829786.2639217,1,6.103514118874625e-07,5.999997597591311,3.141590148440489,0.0,8.0,6.0,3.1415556482666283,0.0
1759829786.2740002,1,6.103514387915969e-07,5.999997601170715,3.1415904235273557,0.0,8.0,6.0,3.1415574028795774,0.0
1759829786.2844715,1,6.103514601806223e-07,5.999997604016372,3.141590642223854,0.0,8.0,6.0,3.1415586691126727,0.0
1759829786.2946281,1,6.103514772330054e-07,5.99999760628507,3.1415908165794595,0.0,8.0,6.0,3.141560035014008,0.0
1759829786.310109,1,6.103514907844924e-07,5.999997608087999,3.1415909551394305,0.0,8.0,6.0,3.1415577725438943,0.0
1759829786.321396,1,6.103515023100736e-07,5.999997609621396,3.1415910729851113,0.0,8.0,6.0,3.141559146988712,0.0
1759829786.3322542,1,6.103515114471262e-07,5.999997610837015,3.141591166408789,0.0,8.0,6.0,3.141560891561017,0.0
1759829786.342259,1,6.103515187157626e-07,5.999997611804055,3.14159124072846,0.0,8.0,6.0,3.1415629146791524,0.0
1759829786.3530145,1,6.103515245073064e-07,5.999997612574578,3.1415912999452926,0.0,8.0,6.0,3.14156415897299,0.0
1759829786.363112,1,6.103515291368692e-07,5.999997613190509,3.1415913472812123,0.0,8.0,6.0,3.1415655963832005,0.0
1759829786.3746908,1,6.103515330561886e-07,5.999997613711946,3.141591387355102,0.0,8.0,6.0,3.1415660475983316,0.0
1759829786.3858013,1,6.103515361614651e-07,5.999997614125081,3.1415914191056404,0.0,8.0,6.0,3.141566805236682,0.0
1759829786.3961675,1,6.10351538630173e-07,5.999997614453525,3.1415914443474535,0.0,8.0,6.0,3.1415679566177452,0.0
1759829786.406954,1,6.10351540596787e-07,5.999997614715169,3.1415914644555043,0.0,8.0,6.0,3.1415687896828466,0.0
1759829786.4177737,1,6.103515421673678e-07,5.999997614924124,3.14159148051423,0.0,8.0,6.0,3.141569548413477,0.0
1759829786.4291549,1,6.10351543495143e-07,5.999997615100775,3.141591494090341,0.0,8.0,6.0,3.1415700285477897,0.0
1759829786.4396834,1,6.10351544548109e-07,5.999997615240865,3.1415915048566094,0.0,8.0,6.0,3.1415709280317703,0.0
1759829786.4504452,1,6.103515453850396e-07,5.999997615352212,3.1415915134139785,0.0,8.0,6.0,3.1415716676958887,0.0
1759829786.4606092,1,6.103515460523731e-07,5.999997615440996,3.141591520237268,0.0,8.0,6.0,3.1415725985901073,0.0
1759829786.4707322,1,6.103515465857828e-07,5.999997615511963,3.141591525691225,0.0,8.0,6.0,3.1415734375223288,0.0
1759829786.4809885,1,6.103515470131046e-07,5.999997615568815,3.141591530060465,0.0,8.0,6.0,3.141574121416859,0.0
1759829786.4924028,1,6.103515473764332e-07,5.999997615617153,3.141591533775393,0.0,8.0,6.0,3.1415743164061176,0.0
1759829786.506539,1,6.10351547664005e-07,5.999997615655413,3.1415915367157297,0.0,8.0,6.0,3.141573646793658,0.0
1759829786.5133007,1,6.103515478941293e-07,5.99999761568603,3.141591539068682,0.0,8.0,6.0,3.1415758589428115,0.0
1759829786.5234306,1,6.10351548077933e-07,5.999997615710484,3.1415915409480215,0.0,8.0,6.0,3.1415765364304313,0.0
1759829786.534598,1,6.103515482336111e-07,5.999997615731195,3.1415915425397847,0.0,8.0,6.0,3.1415767164600137,0.0
1759829786.5459251,1,6.103515483567903e-07,5.999997615747584,3.141591543799255,0.0,8.0,6.0,3.141576906702209,0.0
1759829786.5573714,1,6.103515484545059e-07,5.999997615760583,3.1415915447983687,0.0,8.0,6.0,3.1415771491423534,0.0
1759829786.5679145,1,6.10351548532305e-07,5.999997615770934,3.1415915455938412,0.0,8.0,6.0,3.1415777251651296,0.0
1759829786.579344,1,6.103515485943441e-07,5.999997615779188,3.141591546228174,0.0,8.0,6.0,3.1415780247492435,0.0
1759829786.5906887,1,6.10351548646747e-07,5.999997615786159,3.141591546763978,0.0,8.0,6.0,3.141578376884498,0.0
1759829786.601049,1,6.103515486882812e-07,5.999997615791685,3.1415915471886517,0.0,8.0,6.0,3.141579010110867,0.0
1759829786.6123734,1,6.103515487212496e-07,5.999997615796071,3.141591547525744,0.0,8.0,6.0,3.1415793376747594,0.0
1759829786.6238525,1,6.103515487474849e-07,5.999997615799561,3.141591547793992,0.0,8.0,6.0,3.141579632796219,0.0
1759829786.6353023,1,6.103515487684193e-07,5.9999976158023465,3.1415915480080407,0.0,8.0,6.0,3.1415799640733653,0.0
1759829786.64566,1,6.10351548786196e-07,5.999997615804712,3.141591548189803,0.0,8.0,6.0,3.1415805569119613,0.0
1759829786.6570225,1,6.103515488002663e-07,5.999997615806583,3.1415915483336665,0.0,8.0,6.0,3.141580864701554,0.0
1759829786.6674175,1,6.10351548811444e-07,5.999997615808071,3.1415915484479555,0.0,8.0,6.0,3.141581370088531,0.0
1759829786.6786919,1,6.103515488203378e-07,5.999997615809254,3.1415915485388908,0.0,8.0,6.0,3.1415816460334707,0.0
1759829786.6894085,1,6.103515488274372e-07,5.999997615810199,3.1415915486114807,0.0,8.0,6.0,3.141582030251868,0.0
1759829786.7000175,1,6.103515488334482e-07,5.999997615810999,3.1415915486729418,0.0,8.0,6.0,3.1415824111739035,0.0
1759829786.7103798,1,6.103515488382105e-07,5.999997615811632,3.141591548721635,0.0,8.0,6.0,3.1415828033600715,0.0
1759829786.7214768,1,6.103515488419899e-07,5.999997615812135,3.1415915487602786,0.0,8.0,6.0,3.1415830242123146,0.0
1759829786.7329948,1,6.103515488449961e-07,5.999997615812536,3.141591548791015,0.0,8.0,6.0,3.141583178066373,0.0
1759829786.7443926,1,6.103515488473938e-07,5.9999976158128545,3.141591548815531,0.0,8.0,6.0,3.1415833850010983,0.0
1759829786.7557585,1,6.103515488494247e-07,5.999997615813125,3.141591548836296,0.0,8.0,6.0,3.141583618053085,0.0
1759829786.766757,1,6.103515488510326e-07,5.9999976158133395,3.1415915488527375,0.0,8.0,6.0,3.1415839157054446,0.0
1759829786.7779732,1,6.103515488523088e-07,5.999997615813509,3.141591548865787,0.0,8.0,6.0,3.1415841666924944,0.0
1759829786.7889075,1,6.103515488533247e-07,5.999997615813644,3.1415915488761748,0.0,8.0,6.0,3.1415844497982945,0.0
1759829786.7991216,1,6.103515488541362e-07,5.9999976158137525,3.1415915488844712,0.0,8.0,6.0,3.14158481308432,0.0
1759829786.8104448,1,6.103515488548227e-07,5.999997615813843,3.1415915488914905,0.0,8.0,6.0,3.1415849813139367,0.0
1759829786.8218508,1,6.103515488553661e-07,5.999997615813915,3.1415915488970456,0.0,8.0,6.0,3.1415851405387603,0.0
1759829786.8319588,1,6.103515488557978e-07,5.999997615813972,3.1415915489014603,0.0,8.0,6.0,3.141585473040628,0.0
1759829786.8426683,1,6.103515488561416e-07,5.999997615814018,3.141591548904975,0.0,8.0,6.0,3.141585693477971,0.0
1759829786.8531709,1,6.10351548856416e-07,5.999997615814055,3.1415915489077806,0.0,8.0,6.0,3.1415859168563482,0.0
1759829786.8636813,1,6.103515488566356e-07,5.999997615814084,3.141591548910026,0.0,8.0,6.0,3.1415861207310645,0.0
1759829786.874267,1,6.10351548856822e-07,5.999997615814109,3.1415915489119324,0.0,8.0,6.0,3.1415863006372433,0.0
1759829786.8854332,1,6.103515488569699e-07,5.999997615814128,3.141591548913445,0.0,8.0,6.0,3.1415864099113175,0.0
1759829786.8965912,1,6.103515488570877e-07,5.999997615814143,3.1415915489146484,0.0,8.0,6.0,3.141586531032111,0.0
1759829786.9136994,1,6.103515488571809e-07,5.999997615814156,3.1415915489156023,0.0,8.0,6.0,3.1415860957713626,0.0
1759829786.9237118,1,6.1035154885726e-07,5.999997615814166,3.141591548916412,0.0,8.0,6.0,3.1415865028394325,0.0
1759829786.9345,1,6.103515488573228e-07,5.999997615814175,3.141591548917053,0.0,8.0,6.0,3.141586805288025,0.0
1759829786.9451401,1,6.103515488573727e-07,5.999997615814182,3.141591548917563,0.0,8.0,6.0,3.1415870648758055,0.0
1759829786.9562678,1,6.103515488574124e-07,5.999997615814188,3.141591548917969,0.0,8.0,6.0,3.141587242291134,0.0
1759829786.96693,1,6.103515488574442e-07,5.999997615814191,3.1415915489182935,0.0,8.0,6.0,3.141587437976053,0.0
1759829786.977358,1,6.103515488574711e-07,5.999997615814195,3.141591548918568,0.0,8.0,6.0,3.1415876290685016,0.0
1759829786.9878497,1,6.103515488574923e-07,5.999997615814198,3.1415915489187856,0.0,8.0,6.0,3.141587790217155,0.0
1759829786.9989038,1,6.103515488575092e-07,5.9999976158142,3.1415915489189588,0.0,8.0,6.0,3.141587891957439,0.0
1759829787.0101573,1,6.103515488575226e-07,5.999997615814202,3.141591548919097,0.0,8.0,6.0,3.141587978501523,0.0
1759829787.0216146,1,6.103515488575334e-07,5.999997615814204,3.141591548919207,0.0,8.0,6.0,3.141588057236085,0.0
1759829787.0325713,1,6.103515488575426e-07,5.999997615814205,3.1415915489193003,0.0,8.0,6.0,3.1415881770389795,0.0
1759829787.0436778,1,6.103515488575498e-07,5.999997615814205,3.141591548919374,0.0,8.0,6.0,3.141588283476498,0.0
1759829787.053718,1,6.103515488575555e-07,5.999997615814205,3.1415915489194326,0.0,8.0,6.0,3.1415884507899,0.0
1759829787.0651042,1,6.103515488575602e-07,5.999997615814205,3.1415915489194797,0.0,8.0,6.0,3.1415885164952826,0.0
1759829787.0757916,1,6.103515488575638e-07,5.999997615814205,3.1415915489195174,0.0,8.0,6.0,3.1415886239912254,0.0
1759829787.0873146,1,6.103515488575669e-07,5.999997615814205,3.141591548919549,0.0,8.0,6.0,3.141588680545409,0.0
1759829787.097481,1,6.103515488575693e-07,5.999997615814205,3.1415915489195743,0.0,8.0,6.0,3.1415888153535825,0.0
1759829787.112118,1,6.103515488575713e-07,5.999997615814205,3.1415915489195942,0.0,8.0,6.0,3.141588709363175,0.0
1759829787.123281,1,6.103515488575729e-07,5.999997615814205,3.1415915489196102,0.0,8.0,6.0,3.1415888274739725,0.0
1759829787.1336837,1,6.103515488575742e-07,5.999997615814205,3.1415915489196236,0.0,8.0,6.0,3.1415889822072955,0.0
1759829787.1449845,1,6.103515488575752e-07,5.999997615814205,3.141591548919634,0.0,8.0,6.0,3.141589072349557,0.0
1759829787.1562684,1,6.103515488575761e-07,5.999997615814205,3.1415915489196427,0.0,8.0,6.0,3.141589154572914,0.0
1759829787.1676562,1,6.103515488575767e-07,5.999997615814205,3.1415915489196493,0.0,8.0,6.0,3.1415892285088614,0.0
1759829787.1786675,1,6.103515488575772e-07,5.999997615814205,3.1415915489196546,0.0,8.0,6.0,3.141589315728144,0.0
1759829787.1903176,1,6.103515488575777e-07,5.999997615814205,3.141591548919659,0.0,8.0,6.0,3.1415893715230787,0.0
1759829787.201569,1,6.103515488575781e-07,5.999997615814205,3.1415915489196626,0.0,8.0,6.0,3.1415894437258487,0.0
1759829787.2124057,1,6.103515488575783e-07,5.999997615814205,3.1415915489196653,0.0,8.0,6.0,3.1415895284630846,0.0
1759829787.2236822,1,6.103515488575785e-07,5.999997615814205,3.141591548919668,0.0,8.0,6.0,3.141589589539901,0.0
1759829787.234936,1,6.103515488575787e-07,5.999997615814205,3.1415915489196697,0.0,8.0,6.0,3.1415896485653345,0.0
1759829787.246483,1,6.103515488575789e-07,5.999997615814205,3.1415915489196715,0.0,8.0,6.0,3.141589696444335,0.0
1759829787.2571766,1,6.10351548857579e-07,5.999997615814205,3.1415915489196724,0.0,8.0,6.0,3.1415897725078104,0.0
1759829787.2690492,1,6.10351548857579e-07,5.999997615814205,3.1415915489196733,0.0,8.0,6.0,-3.131595507779396,0.0
1759829787.2790806,1,6.10351548857579e-07,5.999997615814205,3.141591548919674,0.0,8.0,6.0,-3.1315954173555784,0.0
1759829787.2898233,1,6.10351548857579e-07,5.999997615814205,3.141591548919675,0.0,8.0,6.0,-3.1315953592773482,0.0
1759829787.3017397,1,6.10351548857579e-07,5.999997615814205,3.141591548919676,0.0,8.0,6.0,-3.131595340260972,0.0
1759829787.3182285,1,6.10351548857579e-07,5.999997615814205,3.141591548919676,0.0,7.96537418461869,5.992326718723671,-3.131595433493903,0.24425807258778448
1759829787.328956,1,6.10351548857579e-07,5.999997615814205,3.141591548919676,0.0,7.953618819034981,5.992326831030631,-3.133312471407298,0.24425807258778448
1759829787.3393066,1,6.10351548857579e-07,5.999997615814205,3.141591548919676,0.0,7.953886484665314,5.992951761791963,2.8717796337868577,0.22227484605488387
1759829787.3516796,1,6.10351548857579e-07,5.999997615814205,3.141591548919676,0.0,7.951415524794235,5.992994022231119,2.80322298356116,0.22664146447147057
1759829787.3627014,1,6.10351548857579e-07,5.999997615814205,3.141591548919676,0.0,7.950182148373381,5.992820979099044,2.8089567405745455,0.22988081201488936
1759829787.3727076,1,6.10351548857579e-07,5.999997615814205,3.141591548919676,0.0,7.949511589956124,5.992677481788064,2.8134749666804377,0.2324978553836168
1759829787.3848019,1,6.10351548857579e-07,5.999997615814205,3.141591548919676,0.0,7.948536931163986,5.992466045245168,2.821994154504179,0.2363275795191442
1759829787.3961964,1,6.10351548857579e-07,5.999997615814205,3.141591548919676,0.0,7.9482429437398965,5.992399599863668,2.822798769919459,0.2377846764669668
1759829787.4076605,1,6.10351548857579e-07,5.999997615814205,3.141591548919676,0.0,7.948227296090488,5.992399599773966,2.8227988013717256,0.2377846764669668
1759829787.4192204,1,6.10351548857579e-07,5.999997615814205,3.141591548919676,0.0,7.947846145433056,5.992297728173015,2.825963660017005,0.2399494847890543
1759829787.430689,1,6.10351548857579e-07,5.999997615814205,3.141591548919676,0.0,7.947848456166568,5.992297727974881,2.8259636901365566,0.2399494847890543
1759829787.442237,1,6.10351548857579e-07,5.999997615814205,3.141591548919676,0.0,7.94764198961987,5.9922451675801485,2.830471598927928,0.24135981355041541
1759829787.4534962,1,6.10351548857579e-07,5.999997615814205,3.141591548919676,0.0,7.947605152014333,5.992237278688739,2.8330433696019153,0.24186092930658537
1759829787.4638574,1,6.10351548857579e-07,5.999997615814205,3.141591548919676,0.0,7.94768897802338,5.992237278234125,2.8330434123123824,0.24186092930658537
1759829787.4754763,1,6.10351548857579e-07,5.999997615814205,3.141591548919676,0.0,7.94755680403121,5.992241903237937,2.832250193957036,0.24230464145402392
1759829787.4867857,1,6.10351548857579e-07,5.999997615814205,3.141591548919676,0.0,7.9474876339268,5.992241166873276,2.833284776712154,0.2429486221426766
1759829787.498033,1,6.10351548857579e-07,5.999997615814205,3.141591548919676,0.0,7.947474882612065,5.992244325612757,2.8347334750094704,0.24318421490281578
1759829787.5082629,1,6.10351548857579e-07,5.999997615814205,3.141591548919676,0.0,7.947562005359351,5.992244325208031,2.834733510742004,0.24318421490281578
1759829787.5251877,1,6.10351548857579e-07,5.999997615814205,3.141591548919676,0.0,7.842967712747349,5.976903006123517,2.832533094149059,0.73279046214522
1759829787.5363708,1,6.10351548857579e-07,5.999997615814205,3.141591548919676,0.0,7.806446936884136,5.976900194459736,2.8282465255069282,0.732918358575639
1759829787.5475776,1,6.10351548857579e-07,5.999997615814205,3.141591548919676,0.0,7.791445328843952,5.976739945211634,2.8289819095118127,0.7379162414532774
1759829787.558249,1,6.10351548857579e-07,5.999997615814205,3.141591548919676,0.0,7.785090059345408,5.976608008282863,2.8302296377352434,0.7419629183074752
1759829787.5691524,1,6.10351548857579e-07,5.999997615814205,3.141591548919676,0.0,7.78197996690587,5.976501832541327,2.8319452480304315,0.7453083367339878
1759829787.5805655,1,6.10351548857579e-07,5.999997615814205,3.141591548919676,0.0,7.781061474651923,5.976501840964918,2.8319452671034337,0.7453083367339878
1759829787.5909686,1,6.10351548857579e-07,5.999997615814205,3.141591548919676,0.0,7.776314223533528,5.97608117680826,2.828759299944084,0.7596138621156452
1759829787.6021924,1,6.10351548857579e-07,5.999997615814205,3.141591548919676,0.0,7.774483539235095,5.975908705833457,2.8285874113377294,0.7646567233344868
1759829787.6125047,1,6.10351548857579e-07,5.999997615814205,3.141591548919676,0.0,7.773373996938963,5.975760924747125,2.829047258549549,0.768819448370079
1759829787.6243544,1,6.10351548857579e-07,5.999997615814205,3.141591548919676,0.0,7.772031561206834,5.975642628627328,2.8301291585428014,0.7721917231377825
1759829787.635679,1,6.10351548857579e-07,5.999997615814205,3.141591548919676,0.0,7.771189169119079,5.975557683665889,2.828293809354849,0.7751035778325538
1759829787.6467888,1,6.10351548857579e-07,5.999997615814205,3.141591548919676,0.0,7.77059272125017,5.975464622920839,2.82747395097739,0.777446408625478
1759829787.6572492,1,6.10351548857579e-07,5.999997615814205,3.141591548919676,0.0,7.77028602149795,5.975376882116484,2.8274207693849616,0.7793384336491742
1759829787.6687474,1,6.10351548857579e-07,5.999997615814205,3.141591548919676,0.0,7.769695842733174,5.975302774716587,2.8280823511210946,0.7808674641093541
1759829787.6804013,1,6.10351548857579e-07,5.999997615814205,3.141591548919676,0.0,7.7692850703559255,5.97524922307508,2.829266576474039,0.7821078475517983
1759829787.6918871,1,6.10351548857579e-07,5.999997615814205,3.141591548919676,0.0,7.769011954378843,5.9752218404508195,2.8276609647222455,0.7831759702015266
1759829787.7030733,1,6.10351548857579e-07,5.999997615814205,3.141591548919676,0.0,7.768887335365622,5.9751767644525495,2.8270090376892427,0.7840358559392289
1759829787.7148688,1,6.10351548857579e-07,5.999997615814205,3.141591548919676,0.0,7.768491863726083,5.975092495670776,2.8277916404617227,0.7852925540336267
1759829787.7317953,1,6.10351548857579e-07,5.999997615814205,3.141591548919676,0.0,7.7264310819810955,5.98577947319468,2.829065382626892,0.44460066040898594
1759829787.7431011,1,6.10351548857579e-07,5.999997615814205,3.141591548919676,0.0,7.709881513154581,5.985779673779059,2.830130826485959,0.44460066040898594
1759829787.7540586,1,6.10351548857579e-07,5.999997615814205,3.141591548919676,0.0,7.701413906720442,5.986065058567002,2.826933206239399,0.4351761519821452
1759829787.7648814,1,6.10351548857579e-07,5.999997615814205,3.141591548919676,0.0,7.69788023056664,5.986199241680486,2.8267934790833213,0.43029413916734616
1759829787.775697,1,6.10351548857579e-07,5.999997615814205,3.141591548919676,0.0,7.69598745754933,5.986311341328482,2.827370114970333,0.42636404160018826
1759829787.7861335,1,6.10351548857579e-07,5.999997615814205,3.141591548919676,0.0,7.69486550721745,5.986411975316099,2.828513425918548,0.4231909114896536
1759829787.7977707,1,6.10351548857579e-07,5.999997615814205,3.141591548919676,0.0,7.694584805435207,5.986411977081585,2.8285134329407677,0.4231909114896536
1759829787.807884,1,6.10351548857579e-07,5.999997615814205,3.141591548919676,0.0,7.693373450042324,5.986602334865778,2.828796694080727,0.41845946119165245
1759829787.8186057,1,6.10351548857579e-07,5.999997615814205,3.141591548919676,0.0,7.692795529880246,5.98667053125944,2.828397159222651,0.41667111690628367
1759829787.8288572,1,6.10351548857579e-07,5.999997615814205,3.141591548919676,0.0,7.692411965189238,5.986722663181784,2.828772651413264,0.41524960539881317
1759829787.8390749,1,6.10351548857579e-07,5.999997615814205,3.141591548919676,0.0,7.69243544601501,5.986722663065366,2.8287726607868047,0.41524960539881317
1759829787.8504345,1,6.10351548857579e-07,5.999997615814205,3.141591548919676,0.0,7.691923100079548,5.986769620849147,2.8297059328397594,0.41408341467433435
1759829787.8606803,1,6.10351548857579e-07,5.999997615814205,3.141591548919676,0.0,7.691412410066855,5.986842438411555,2.8270746723090405,0.41230271622348885
1759829787.8719873,1,6.10351548857579e-07,5.999997615814205,3.141591548919676,0.0,7.691077259250404,5.986856897647316,2.8271370137805656,0.41165637578465814
1759829787.8820717,1,6.10351548857579e-07,5.999997615814205,3.141591548919676,0.0,7.691206508354157,5.98685689735647,2.8271370226120323,0.41165637578465814
1759829787.8934798,1,6.10351548857579e-07,5.999997615814205,3.141591548919676,0.0,7.690748493227623,5.986885745910883,2.829336908814036,0.4107221625841974
1759829787.904966,1,6.10351548857579e-07,5.999997615814205,3.141591548919676,0.0,7.690685305056203,5.986885745967693,2.829336912051683,0.4107221625841974
1759829787.915746,1,6.10351548857579e-07,5.999997615814205,3.141591548919676,0.0,7.690613747625237,5.986912008237883,2.827810057454994,0.4103606179906787
1759829787.930061,1,6.10351548857579e-07,5.999997615814205,3.141591548919676,0.0,7.635498733163229,5.985060276447136,2.8272904417127633,0.4694751517981737
1759829787.941462,1,6.10351548857579e-07,5.999997615814205,3.141591548919676,0.0,7.614482587681631,5.985049078703469,2.827052248924637,0.4696514004422308
1759829787.9525392,1,6.10351548857579e-07,5.999997615814205,3.141591548919676,0.0,7.606286432469859,5.985042266022914,2.8284246898557557,0.4699837133863421
1759829787.9633124,1,6.10351548857579e-07,5.999997615814205,3.141591548919676,0.0,7.603393721099198,5.985042369238877,2.8284246981795134,0.4699837133863421
1759829787.9747508,1,6.10351548857579e-07,5.999997615814205,3.141591548919676,0.0,7.600596983855777,5.9850308477698055,2.826440266700115,0.4708927742099853
1759829787.985418,1,6.10351548857579e-07,5.999997615814205,3.141591548919676,0.0,7.597815867141219,5.984974960847705,2.825403169483409,0.4721987413208579
1759829787.9961374,1,6.10351548857579e-07,5.999997615814205,3.141591548919676,0.0,7.596793630950796,5.984948572522717,2.826018512241207,0.4726749411679554
1759829788.0072787,1,6.10351548857579e-07,5.999997615814205,3.141591548919676,0.0,7.596672246192423,5.984948574747794,2.826018516568456,0.4726749411679554
1759829788.0185797,1,6.10351548857579e-07,5.999997615814205,3.141591548919676,0.0,7.5958941185326845,5.984931043253028,2.827234954638473,0.4730592203136901
1759829788.0289042,1,6.10351548857579e-07,5.999997615814205,3.141591548919676,0.0,7.594917063164878,5.984910871460992,2.824705331745214,0.47364830262303864
1759829788.039018,1,6.10351548857579e-07,5.999997615814205,3.141591548919676,0.0,7.595001780589978,5.984910871377321,2.8247053376715967,0.47364830262303864
1759829788.0503778,1,6.10351548857579e-07,5.999997615814205,3.141591548919676,0.0,7.5941342244288945,5.984872143548002,2.825519239692911,0.4740323120275037
1759829788.0623255,1,6.10351548857579e-07,5.999997615814205,3.141591548919676,0.0,7.593736883689772,5.984863528966509,2.826726344120883,0.4741681359230183
1759829788.0735767,1,6.10351548857579e-07,5.999997615814205,3.141591548919676,0.0,7.593788959027649,5.984863528856798,2.8267263474462965,0.4741681359230183
1759829788.0836012,1,6.10351548857579e-07,5.999997615814205,3.141591548919676,0.0,7.593779446607762,5.98486864331419,2.824962259677553,0.4742875615663629
1759829788.095191,1,6.10351548857579e-07,5.999997615814205,3.141591548919676,0.0,7.593296040040469,5.98484475052339,2.8248197700826223,0.4744597271585583
1759829788.1065361,1,6.10351548857579e-07,5.999997615814205,3.141591548919676,0.0,7.5931627591887,5.9848349012107525,2.8255762240615674,0.47452282452723754
1759829788.1180193,1,6.10351548857579e-07,5.999997615814205,3.141591548919676,0.0,7.59304925294328,5.984832617720063,2.8268257242859804,0.47457382334049
1759829788.1347992,1,6.10351548857579e-07,5.999997615814205,3.141591548919676,0.0,7.551503496640282,5.987725570399544,2.825098873641169,0.38274871930915055
1759829788.14466,1,6.10351548857579e-07,5.999997615814205,3.141591548919676,0.0,7.5361366208829335,5.987719166895085,2.824168986062666,0.3827835002742986
1759829788.1559138,1,6.10351548857579e-07,5.999997615814205,3.141591548919676,0.0,7.52964985582688,5.987737486527526,2.8242391753157117,0.38189285546802126
1759829788.1661036,1,6.10351548857579e-07,5.999997615814205,3.141591548919676,0.0,7.526956333917168,5.987753761689457,2.8249780634050676,0.3811739519046086
1759829788.177997,1,6.10351548857579e-07,5.999997615814205,3.141591548919676,0.0,7.525417591659434,5.9877739371420216,2.8262339270570593,0.38058099378160776
1759829788.189394,1,6.10351548857579e-07,5.999997615814205,3.141591548919676,0.0,7.525082124272043,5.9877739500403395,2.8262339298778705,0.38058099378160776
1759829788.2006865,1,6.10351548857579e-07,5.999997615814205,3.141591548919676,0.0,7.523446898876601,5.987869081835063,2.826219125425359,0.37871275225647416
1759829788.2112145,1,6.10351548857579e-07,5.999997615814205,3.141591548919676,0.0,7.5226090012448825,5.98791081489133,2.8254641382257635,0.37761610870138285
1759829788.2226026,1,6.10351548857579e-07,5.999997615814205,3.141591548919676,0.0,7.521791501547089,5.987940067547335,2.825574834292234,0.37672753152501537
1759829788.2336705,1,6.10351548857579e-07,5.999997615814205,3.141591548919676,0.0,7.521208644725955,5.987965161092518,2.8263587973628352,0.3760095376188366
1759829788.2443364,1,6.10351548857579e-07,5.999997615814205,3.141591548919676,0.0,7.5207827944167835,5.987991545481541,2.8276401267918447,0.37542722449839727
1759829788.2556696,1,6.10351548857579e-07,5.999997615814205,3.141591548919676,0.0,7.519932683533432,5.988039353735829,2.8251540089156206,0.3745252766685526
1759829788.2663906,1,6.10351548857579e-07,5.999997615814205,3.141591548919676,0.0,7.519986368565031,5.9880393536509215,2.8251540113060716,0.3745252766685526
1759829788.2770584,1,6.10351548857579e-07,5.999997615814205,3.141591548919676,0.0,7.519499040146268,5.988052375791729,2.8259513843317245,0.3739305905046685
1759829788.2872548,1,6.10351548857579e-07,5.999997615814205,3.141591548919676,0.0,7.519569870757319,5.98805237566884,2.825951386883715,0.3739305905046685
1759829788.298273,1,-1.670990723679493e-05,5.999996290157379,2.529334527202639,8.534488409507645e-05,7.519491622315339,5.988052375762421,2.8259513882612226,0.3739305905046685
1759829788.3101637,1,-3.103011423072834e-05,5.999993786672266,1.4235477015471591,0.0001529857111828244,7.518992836825527,5.988080748954126,2.8255992471207483,0.3735307680520481
1759829788.3215187,1,-4.2057936055526656e-05,5.999994193754441,1.1664142854799568,0.00020331449872045958,7.518871695497395,5.988084293864338,2.8250041489348465,0.3733854736932338
1759829788.3351192,1,-5.0830662736673306e-05,5.999995326701595,0.9570298436170801,0.00024448148339435005,7.481403333442995,5.988558084109969,2.8261041973617353,0.3580605477225049
1759829788.3466814,1,-5.730064335087249e-05,5.999996470792419,0.751010623152302,0.0002794812027871398,7.467357705854788,5.988558489093429,2.8255189702777375,0.3580605477225049
1759829788.3575153,1,-6.155501067420802e-05,5.9999973996675315,0.59240694187734,0.0003075853973573436,7.460610169767208,5.988594851464224,2.825134508989181,0.357476099080947
1759829788.368272,1,-6.411525813533488e-05,5.999997912959115,0.4731087496577588,0.0003298808550426779,7.458604423851775,5.988594910470088,2.8251345112470836,0.357476099080947
1759829788.3792248,1,-6.566591403596512e-05,5.9999980573164375,0.3801547231657261,0.00034845901161764794,7.455959487324313,5.988604863398294,2.824349294556472,0.35696217349294024
1759829788.3905876,1,-6.644177173380091e-05,5.9999978652193136,0.3121945961504253,0.00036345130000847167,7.454921954434746,5.988606067159056,2.8250120440608857,0.35677599739778715
1759829788.4009337,1,-6.68732867079428e-05,5.999997174681143,0.22758101544391007,0.0003761694288438025,7.454911907999018,5.988606070289041,2.8250120460410746,0.35677599739778715
1759829788.4122534,1,-6.69009735342152e-05,5.999996192255845,0.16675983310913556,0.0003863793196671576,7.453746024525081,5.988624871599276,2.8244891821983877,0.3564977600694941
1759829788.4233289,1,-6.668915378250334e-05,5.99999506328356,0.12377787649537525,0.0003947083019775253,7.453332393230966,5.988624739406294,2.8237569170765195,0.35639379564910395
1759829788.4340253,1,-6.635723574033177e-05,5.999993922713936,0.09614472277818195,0.0004013371263047545,7.453372250986878,5.988624739512422,2.8237569184814726,0.35639379564910395
1759829788.444257,1,-6.597367036392455e-05,5.999992839090852,0.07974422684729289,0.000406777522520684,7.4528801599974726,5.988615308063278,2.8245334322608215,0.3562437056533948
1759829788.4553006,1,-6.576058372862248e-05,5.999991655641812,0.03766496242051437,0.00041140132027527146,7.452808358199758,5.988615308177664,2.8245334331332566,0.3562437056533948
1759829788.4674888,1,-6.547198215274724e-05,5.999990439781795,0.011548349052379454,0.0004151086287181137,7.452260303722133,5.9886270307476455,2.8240088891023465,0.35614395715773417
1759829788.4783604,1,-6.515571150761668e-05,5.99998928711809,-0.00325526209091625,0.0004181334808805934,7.452205392872291,5.988623933323128,2.823195919409607,0.3561059682904903
1759829788.4888637,1,-0.004843977360314898,5.998837151150183,-0.008736099930641667,0.0369759719468862,7.452170821933538,5.988615637139484,2.823361376575848,0.35607554013512527
1759829788.5004315,1,-0.010251926956477501,5.99788489158432,-0.00597617212316281,0.06693996469639975,7.451982544268211,5.988609466789865,2.824154056917107,0.35605101852206633
1759829788.5104587,1,-0.022496702316822662,5.995841477763217,-0.03172862867930869,0.13092655760297833,7.452133296098262,5.988609466570169,2.8241540583745603,0.35605101852206633
1759829788.5214286,1,-0.03266337148056953,5.994124874867139,-0.04550478848849376,0.18185767838726438,7.45193216187365,5.9886190652296145,2.8246403858308318,0.35601437960827387
1759829788.533154,1,-0.04062461395279985,5.992651158001665,-0.04970936533901536,0.22337388445148892,7.421044766212908,5.990740376587185,2.824027840296108,0.28829605886666554
1759829788.5444903,1,-0.04670453881160018,5.991422821281366,-0.04613206564188148,0.2568055440928553,7.408696784535827,5.990756432188515,2.823950109738555,0.2876080108812801
1759829788.5559435,1,-0.051342678930798295,5.990434495599605,-0.036123206556135205,0.28379417925816086,7.403695667042228,5.990770711424869,2.8247372010959215,0.2870457190058387
1759829788.5663636,1,-0.055179582191035075,5.989561346634568,-0.05530286975944025,0.3067268181263017,7.402040648566038,5.9907708442916725,2.824737202240136,0.2870457190058387
1759829788.576434,1,-0.058077764804291145,5.988746745493072,-0.06435806943373255,0.3251661353959052,7.400184490149356,5.990833832086482,2.8244219768150467,0.2854762641996712
1759829788.587922,1,-0.060267067889924524,5.98802768365023,-0.06484589167943804,0.3402010154637464,7.399084250134462,5.990862377683602,2.823790634779495,0.28458503963648085
1759829788.5993881,1,-0.061873846756851744,5.987446395160746,-0.05819400005683405,0.352307868623424,7.398349617213012,5.990882569587903,2.8239813524183317,0.2838694776519209
1759829788.610674,1,-0.06301664083790565,5.987025350640838,-0.045800159112194254,0.3620847543670152,7.397829716836845,5.990900507234344,2.8247773085254515,0.28329276516441765
1759829788.6219637,1,-0.06380366087992781,5.986782009393259,-0.02877588897526993,0.3699028214690438,7.397815918780921,5.990900508310558,2.8247773091175397,0.28329276516441765
1759829788.632818,1,-0.06459081901911563,5.98658877143123,-0.043220423203526474,0.3766843986758979,7.397460043742158,5.990919707477854,2.8260827198162404,0.2828269374140954
1759829788.6439762,1,-0.06512066578891398,5.9863524121330824,-0.04773880863419782,0.38214199186271525,7.396813884707346,5.990955757853236,2.8236035197890823,0.28211740960324266
1759829788.6541193,1,-0.06546772744083752,5.986146492379373,-0.04525249163149312,0.38655527438868575,7.396680908453054,5.990960694334181,2.823622377395613,0.28186400236190656
1759829788.6654942,1,-0.06566772173951145,5.986016349411439,-0.03624682064613023,0.39012728321971807,7.396412824797979,5.990965012105817,2.8242324083697192,0.2816553896326267
1759829788.6769013,1,-0.06598264148619372,5.985881982432313,-0.05394627597634197,0.39319600892865825,7.396231520474326,5.9909714952158755,2.825392246468034,0.2814866712976809
1759829788.6870134,1,-0.0661843777792881,5.985666731735708,-0.0618010298060288,0.39566441339404834,7.396226167196043,5.990982505650584,2.8270091817253773,0.2813498463136939
1759829788.6984763,1,-0.07625410900809923,5.984144831209518,-0.06123635642633349,0.4386758385648733,7.396024043445508,5.991001704577362,2.825751312794037,0.28123192912907496
1759829788.7097232,1,-0.08783500801138354,5.982880025139199,-0.0539247391113461,0.47386503730761415,7.395920125022974,5.991010657856589,2.8253837092941416,0.28113582922513497
1759829788.719933,1,-0.09835915556870298,5.981906141274814,-0.04171607674361408,0.502439980255837,7.395945250388299,5.9910156459574635,2.8257832988265106,0.28105946612239563
1759829788.7381165,1,-0.12458496270119779,5.979691473995682,-0.054746707656892483,0.5698574638559998,7.354795695109631,5.989129833576505,2.8283034541901757,0.3415209793381621
1759829788.7480328,1,-0.1448317697674442,5.97776131867256,-0.05908792167327401,0.6233940251038346,7.340334152547947,5.98912983282484,2.829011137965956,0.3415209793381621
1759829788.7595255,1,-0.1605146403656839,5.976157198186433,-0.055500898394548574,0.6659252139114917,7.333868342600515,5.989127224166732,2.8271274066908467,0.342142697005593
1759829788.770218,1,-0.17310316114634694,5.974871776940084,-0.04618153796294263,0.7010369536277807,7.330645318993161,5.989095327556683,2.8263627886232414,0.3432319370371395
1759829788.781575,1,-0.182945516399978,5.973957370468868,-0.03157873106206715,0.7295057405900183,7.328814611379271,5.989064156424149,2.826414416198795,0.3441028009369883
1759829788.7930293,1,-0.19157826275167883,5.973161247042635,-0.047948253680337616,0.7541674730561327,7.327687668793831,5.989037814169474,2.827147657568343,0.3448065458294415
1759829788.803718,1,-0.19823897016803474,5.972319878069566,-0.054327629158293256,0.7740066580507738,7.327014872372639,5.989019474221072,2.8283889558917163,0.34537718131559775
1759829788.8145854,1,-0.20344275080777177,5.971568861534688,-0.05297684871326114,0.7902187440782797,7.325976836551493,5.988996158964475,2.826126916532869,0.34626538045319927
1759829788.825734,1,-0.20743691141909235,5.971010473289156,-0.044992309829718635,0.803296614317328,7.3255740621563215,5.988978339521519,2.8262780409218116,0.34658838696148275
1759829788.8371649,1,-0.21104086858335175,5.970474860407465,-0.06391083241410236,0.8143591559900248,7.325522029779152,5.9889783395798055,2.826278041195207,0.34658838696148275
1759829788.8475275,1,-0.21376664034236204,5.9697979959900085,-0.07260268454352238,0.823247370507915,7.325349291379768,5.988964044970872,2.8270356367579637,0.346848933699984
1759829788.8589125,1,-0.21580812006912356,5.969159714176223,-0.07278406708715938,0.830403433933406,7.324851562214238,5.988959785766692,2.826701968224731,0.34723347816508154
1759829788.8693705,1,-0.2172858725714187,5.968679171389786,-0.06651497816038275,0.8360969899375211,7.324931493170573,5.988959785654505,2.826701968613572,0.34723347816508154
1759829788.880726,1,-0.21840534861861788,5.9684093974217,-0.05449874978266871,0.8408497287066362,7.324574097142132,5.98894053264428,2.8262539387554972,0.3474959754974518
1759829788.8909714,1,-0.2191563017326268,5.968412475797786,-0.03845138691285736,0.8446521567168839,7.324677574546687,5.98894053250089,2.826253939138421,0.3474959754974518
1759829788.9012678,1,-0.25021787792401073,5.967843425786535,-0.05296756118585583,0.867242675056269,7.32461622492136,5.988932088529205,2.829064434094154,0.3475909994171587
1759829788.9114053,1,-0.27871559517055067,5.967188603190652,-0.05819841516665125,0.8852098429935752,7.324578357679295,5.9889300737222735,2.830417420073769,0.3476668668813125
1759829788.9220603,1,-0.3030237769082004,5.966606482907648,-0.05598599316067576,0.8997194084438552,7.324454513000269,5.988937537284454,2.829114918221563,0.3477322760809987
1759829788.9381723,1,-0.32334263942445424,5.96622503452985,-0.044290860131964926,0.9115364888750526,7.272745432791198,5.986354977105095,2.8291337129212715,0.43005348153658135
1759829788.9482248,1,-0.339405492834613,5.966148886257646,-0.028596137351013073,0.9209983256181024,7.254260459254536,5.986356394802094,2.827784958152996,0.43005348153658135
1759829788.959518,1,-0.3537644684225687,5.9661158785105215,-0.04335681938216822,0.9291913440627017,7.246467077660445,5.986328042770797,2.828761535024909,0.4309104632439058
1759829788.9711618,1,-0.36519229148771837,5.965894001769623,-0.0478394021179626,0.9357806505225529,7.241639454122102,5.986280135197528,2.828361562644868,0.43305777674298984
1759829788.9814024,1,-0.37426431260632625,5.965685312552969,-0.0452630907950826,0.9411085035750039,7.239609258895685,5.986242262673126,2.8274872154794277,0.43421781235606727
1759829788.9923658,1,-0.3815580606307245,5.965607005319692,-0.0364167528765577,0.9454760672876794,7.238189873404805,5.986203485810234,2.8274243065766167,0.4351716635806308
1759829789.0046425,1,-0.38810754595454905,5.965480301195569,-0.05512752662144744,0.9491772905715613,7.237823502436421,5.986203497627124,2.8274243066429574,0.4351716635806308
1759829789.0156298,1,-0.39329944904703473,5.96511046033521,-0.06324927749531245,0.9521509465356797,7.236486011629793,5.986147003274767,2.829305104791041,0.43655213034491464
1759829789.0260184,1,-0.3973725267743706,5.9647211790162356,-0.06356954793453806,0.954549653957104,7.236058454886869,5.986138633305126,2.8274429606863745,0.4370740608402595
1759829789.0377603,1,-0.4005664185354742,5.9644491213135735,-0.056688346105907235,0.956510213149821,7.235460540106042,5.986116491138899,2.8266396752257172,0.4375058125332573
1759829789.0480268,1,-0.40298724301224115,5.964395758900241,-0.04480056727111265,0.9580759347095306,7.235283360770528,5.98609177911178,2.8266805172305793,0.4378482628397937
1759829789.0587935,1,-0.4054722689219329,5.964337726792483,-0.06289131865124106,0.9594088889701978,7.235269309586764,5.986091779220482,2.826680517411086,0.4378482628397937
1759829789.0707145,1,-0.4073804196294561,5.964032169399811,-0.07003515822935064,0.960510985242403,7.234611746077515,5.986058510934992,2.8284994033536393,0.4383522197850911
1759829789.0819426,1,-0.4088224455830919,5.963715767641989,-0.06888026246099319,0.9613855129497463,7.234489012148619,5.98605682008844,2.830150929100586,0.4385308363874337
1759829789.093245,1,-0.4216814265981207,5.96331836530811,-0.06107868286323015,0.9686778869773175,7.23433318511958,5.986069552106649,2.8289344001456564,0.43868783480797324
1759829789.1037438,1,-0.43651453555993835,5.963167010714391,-0.04822340967559905,0.9746574118074486,7.234332940587256,5.98606988687307,2.828671631371529,0.4388157045782417
1759829789.1147003,1,-0.4695918920303212,5.9628213963991215,-0.06538336853570645,0.986663378756883,7.234310534368149,5.986069886902185,2.8286716315128895,0.4388157045782417
1759829789.1248467,1,-0.49838140768065176,5.962273787348662,-0.0729291369403796,0.9963544743073868,7.234263966655777,5.986068705673361,2.832182696433942,0.4390011346461203
1759829789.1429238,1,-0.5210778902364481,5.961778543388518,-0.06789859789765669,1.00398407864214,7.174035958593174,5.984010051458168,2.830488856307776,0.5049873653678513
1759829789.1530674,1,-0.5393890859753723,5.961506156549173,-0.057685432829453556,1.0101651354332444,7.152653660002296,5.984004179774806,2.8284604826758506,0.5050445429296556
1759829789.163197,1,-0.5540763813686675,5.961511517092999,-0.04313160220321484,1.015182316711915,7.143867868159751,5.9839728069631075,2.828571192690337,0.5057498131363823
1759829789.1742277,1,-0.5672212732590479,5.961548585040348,-0.05868177454547823,1.0195179451054974,7.139877339016898,5.9839468606362125,2.8293287644414185,0.5063192351220167
1759829789.1861117,1,-0.577611970146787,5.961349878419774,-0.0636783145103691,1.0229993606663097,7.137815225075738,5.983930498381533,2.830562839191117,0.5067880701260075
1759829789.1975405,1,-0.5859728895868898,5.961150812818543,-0.06087124046078617,1.0258418216578935,7.135278079931377,5.983918308349908,2.830350357695272,0.5081990345296145
1759829789.2088077,1,-0.5925966598847682,5.961094165771639,-0.051640026744472475,1.0281341043283116,7.133923881688298,5.9838949407982245,2.8295121340834277,0.5090225370039357
1759829789.2190588,1,-0.5977488620601077,5.961269644528395,-0.03784330267279428,1.029966696360531,7.134047562240297,5.983894940851675,2.8295121342505696,0.5090225370039357
1759829789.2290885,1,-0.6026031664383152,5.961444885727929,-0.05310246790510039,1.0315483999050186,7.133170341001639,5.983867870928513,2.8294684839797073,0.5096852763796158
1759829789.2404943,1,-0.6063848080229313,5.961361969968367,-0.058162738313590534,1.0328197521862976,7.132204988322009,5.983844903093507,2.830080923785268,0.5102132038565073
1759829789.2526243,1,-0.609337981950474,5.961264406980083,-0.05491208149363055,1.0338446088650632,7.131396058781553,5.98383081171859,2.831287589365204,0.5106408360646644
1759829789.263898,1,-0.6116341220763087,5.961301640674569,-0.04534834457191866,1.0346840754937683,7.130500707503997,5.983815131466177,2.8288752930029335,0.5113062383760081
1759829789.2751968,1,-0.6140249664210751,5.961287142448193,-0.06403947791779646,1.035395881264318,7.130523599970798,5.983815131436046,2.828875293084572,0.5113062383760081
1759829789.285413,1,-0.6158638345071679,5.960980490741564,-0.07280842952600614,1.0359749596156413,7.130117875348485,5.9837797154863654,2.8296874983485374,0.5117411765286549
1759829789.296882,1,-0.6302531758424329,5.960310981152595,-0.07290091618084366,1.0462252415950113,7.129766819237032,5.983772822763816,2.8310152088362472,0.5118992495662691
1759829789.3080587,1,-0.6416492747104381,5.95981261494324,-0.06612001171996218,1.0544935094940249,7.129763081497295,5.983772822767948,2.8310152089041623,0.5118992495662691
1759829789.3184826,1,-0.6577770284844665,5.959568294231525,-0.05417052316352278,1.0613860944517985,7.129541684009364,5.983771051366845,2.828554889636617,0.5121420614784152
1759829789.329949,1,-0.6941399640964571,5.959020153584736,-0.07210248814910292,1.077597769895921,7.12940812981554,5.983771051545722,2.828554889683055,0.5121420614784152
1759829789.3435185,1,-0.724085063833708,5.958282336052463,-0.07818920746572079,1.0906142676309325,7.06668739576311,5.982806395954306,2.8316937763369596,0.5422209036571219
1759829789.3547485,1,-0.7480180704504412,5.957607284159236,-0.07626036768554441,1.1010698863302895,7.042670856058577,5.98279323740028,2.831683400555694,0.5425778186829134
1759829789.3649013,1,-0.766936113298974,5.957142942744868,-0.06848473864901479,1.1093957971043698,7.032280415576807,5.982785750991787,2.829938105927404,0.5431969246401965
1759829789.3762867,1,-0.782047105357299,5.956968055404378,-0.05519768655627251,1.1161357608357216,7.027164826866652,5.982762362789243,2.82921004394948,0.5436903913584562
1759829789.3876486,1,-0.7952588725975448,5.956860438787263,-0.06982675219147748,1.1218481416882973,7.025810580657652,5.982762385428134,2.8292100440050305,0.5436903913584562
1759829789.3988135,1,-0.8060664077967863,5.956526203677668,-0.07463007317744817,1.126576879394402,7.022846368570542,5.9827132464487605,2.8299569700163065,0.5444133618865105
1759829789.4092684,1,-0.8145059562128378,5.956210888006289,-0.07208013476742124,1.1303336443603471,7.021926847550752,5.982701446065157,2.8312258842709124,0.5446685489045471
1759829789.41929,1,-0.8210758590261054,5.956057695880148,-0.06387732348183871,1.1333265250683338,7.021988952912486,5.982701447140637,2.831225884351542,0.5446685489045471
1759829789.4308069,1,-0.8263591345807991,5.956151888456254,-0.050103604074539385,1.1358265953127138,7.020313202754411,5.982691832913552,2.8288497310989507,0.5450728136948926
1759829789.4423058,1,-0.8313269104641131,5.956269999396843,-0.0658126618439063,1.1379507083159965,7.020218453849405,5.982691833209723,2.828849731127918,0.5450728136948926
1759829789.453593,1,-0.8351808356897792,5.956103999751808,-0.0713253928071576,1.1396567956593755,7.019328247721723,5.982658391962077,2.8295679185012657,0.5453334635339743
1759829789.4648466,1,-0.8381521924053701,5.955917967602065,-0.06900554432452158,1.1410319235922688,7.019022007538369,5.982652079650181,2.8307331769295967,0.5454273356125725
1759829789.4759269,1,-0.840446206022737,5.955872117560744,-0.060387608924407477,1.1421433390692262,7.018805713948602,5.982657399978015,2.832381231822295,0.5455048754981644
1759829789.486656,1,-0.8421205530892195,5.956067438252179,-0.04679195194221544,1.1430442320156937,7.018642681617293,5.982679969765485,2.830890398727737,0.5455719846320249
1759829789.497013,1,-0.8674647968954587,5.956218442371966,-0.06423787971570946,1.1448000283043747,7.018742820050164,5.982679969631429,2.830890398782717,0.5455719846320249
1759829789.5089343,1,-0.9052340592180887,5.956016876941907,-0.07065452977611078,1.1470939899873829,7.0181548715134525,5.982682510491829,2.833172755229114,0.5456698342277322
1759829789.5197115,1,-0.9373058327146853,5.955780865705718,-0.06936926751259723,1.1489325732387798,7.018164091277919,5.982683498654862,2.8340434452642573,0.5457044200428717
1759829789.5311074,1,-0.9637597706555882,5.955675480117611,-0.06140050403016675,1.1504176319483852,7.01800739674473,5.9826924174172875,2.835441171292211,0.5457330138349877
1759829789.548337,1,-0.9869447966596662,5.955568565187776,-0.07540477925755482,1.1516804848570499,6.933743152563343,5.977983157256052,2.834155703268435,0.6964856714702242
1759829789.5584671,1,-1.0055469843474552,5.955246429293033,-0.08033519652176621,1.1526958705038906,6.903837879806543,5.977988458787086,2.831482523788804,0.6965055234616553
1759829789.5692468,1,-1.0206857861452396,5.9549381565893,-0.07788458712707522,1.1535244717983641,6.890386233085199,5.9779017405706165,2.8327693219392143,0.6992603680360846
1759829789.5807648,1,-1.0325765150398902,5.95480077632226,-0.06886017598400476,1.1541833106290118,6.883525989385449,5.977834997201726,2.830826532868369,0.7018995612612393
1759829789.591451,1,-1.0422007967441902,5.954928744639473,-0.05489409618051425,1.1547238501975723,6.880009122134146,5.977757023173036,2.8299726324273364,0.7040403699223186
1759829789.602617,1,-1.0508759433391246,5.955087414766631,-0.07042036931253917,1.1551829666348192,6.879299028874604,5.9777570318723185,2.829972632462935,0.7040403699223186
1759829789.6138718,1,-1.0577361992370742,5.954954323017448,-0.07581082609616006,1.155551631245031,6.87620700887583,5.977619791039555,2.8306646767843158,0.7071271680879564
1759829789.624474,1,-1.0630663945296752,5.954791962230752,-0.07364433197798159,1.1558443097630846,6.876255122061869,5.977619792104237,2.830664676822247,0.7071271680879564
1759829789.6359437,1,-1.0672851822825153,5.954767136265489,-0.06507108638927007,1.1560852383494105,6.874193595424795,5.9775553903881535,2.8301678790561517,0.709201015505724
1759829789.6473646,1,-1.0706093858819299,5.954984288355116,-0.05101459874700681,1.156282662583156,6.873437445652064,5.977516403439752,2.8294457507913036,0.7099755750962141
1759829789.6586008,1,-1.0739576053093367,5.955210233435299,-0.06726781708013523,1.1564506190996706,6.873458961438727,5.9775164034733335,2.8294457508155912,0.7099755750962141
1759829789.6687503,1,-1.0765705395641878,5.955113466442678,-0.07407326961779963,1.1565873235264679,6.872768644817472,5.977441423723095,2.830315166215744,0.7110925407066078
1759829789.6803155,1,-1.0785684603672212,5.954955847530996,-0.072515817394449,1.1566970946130852,6.872196979849776,5.977422206641837,2.8316374805318265,0.7114982003743329
1759829789.6907282,1,-1.0799828815340722,5.954916977124725,-0.06487429027607743,1.1567844896450106,6.872134637782792,5.977422522220187,2.833333316027407,0.7118229228371817
1759829789.7019114,1,-1.0948192019181187,5.954622171471996,-0.0518128104902473,1.1718545767245403,6.871767683669529,5.977446166941229,2.8319286550106564,0.7121040930281052
1759829789.7130692,1,-1.131582287180407,5.9538870703767275,-0.06733543497789073,1.2003951443934342,6.8717294969705325,5.977446166992698,2.831928655027692,0.7121040930281052
1759829789.7236953,1,-1.1677481355125625,5.9529935294831455,-0.07303546476074703,1.223151611125231,6.871505585286686,5.977440921964091,2.8341899954742766,0.712515620465462
1759829789.7349422,1,-1.1976566586929553,5.952176272272156,-0.07092722849644774,1.2417193650896752,6.871289124215707,5.9774388872085344,2.835150707777806,0.712664927157404
1759829789.748298,1,-1.2213695066650563,5.9516261824988685,-0.06103438918762307,1.2564580674526262,6.794248425866166,5.97846991677114,2.833501230727524,0.6803274267218492
1759829789.759264,1,-1.2404274492474252,5.951450787534024,-0.04626122456325376,1.2684087314657717,6.765209858951994,5.978457231223827,2.831692264178619,0.680429072958342
1759829789.7696092,1,-1.2571482428250418,5.9513445088104175,-0.06215348886680261,1.2785939495662286,6.754297274521338,5.978457462999811,2.8316922642242752,0.680429072958342
1759829789.781496,1,-1.2708215417112185,5.950951417709986,-0.06748603177338836,1.2870179987438275,6.747870372926053,5.9784444968296615,2.832689582469805,0.6799903544181549
1759829789.7925725,1,-1.2816300197439436,5.950569077335727,-0.06502293391477543,1.2937920883023966,6.745408919503527,5.978450886879922,2.834073964873544,0.6798257494004065
