timestamp,vehicle_id,x,y,theta,velocity,gps_available,dt,gps_x,gps_y,gps_theta,gps_velocity,control_steering,control_acceleration
1759829784.9074347,1,8.0,6.0,-0.05483113549895435,0.0,False,0.01,nan,nan,nan,nan,0.0,0.0
1759829784.9182281,1,8.0,6.0,-0.05483113549895435,0.0,False,0.010793447494506836,nan,nan,nan,nan,0.0,0.0
1759829784.9297585,1,8.0,6.0,-0.05483113549895435,0.0,False,0.011530399322509766,nan,nan,nan,nan,0.0,0.0
1759829784.9398942,1,8.0,6.0,-0.05483113549895435,0.0,False,0.010135650634765625,nan,nan,nan,nan,0.0,0.0
1759829784.9513915,1,8.0,6.0,-0.05483113549895435,0.0,False,0.011497259140014648,nan,nan,nan,nan,0.0,0.0
1759829784.9629192,1,8.0,6.0,-0.05483113549895435,0.0,False,0.011527776718139648,nan,nan,nan,nan,0.0,0.0
1759829784.9738638,1,8.0,6.0,-0.05483113549895435,0.0,False,0.010944604873657227,nan,nan,nan,nan,0.0,0.0
1759829784.984005,1,8.0,6.0,-0.05483113549895435,0.0,False,0.010141134262084961,nan,nan,nan,nan,0.0,0.0
1759829784.994981,1,8.0,6.0,-0.05483113549895435,0.0,False,0.010976076126098633,nan,nan,nan,nan,0.0,0.0
1759829785.0057256,1,8.0,6.0,-0.05483113549895435,0.0,False,0.010744571685791016,nan,nan,nan,nan,0.0,0.0
1759829785.0165641,1,8.0,6.0,-0.05483113549895435,0.0,False,0.010838508605957031,nan,nan,nan,nan,0.0,0.0
1759829785.0273988,1,8.0,6.0,-0.05483113549895435,0.0,False,0.010834693908691406,nan,nan,nan,nan,0.0,0.0
1759829785.0382564,1,8.0,6.0,-0.05483113549895435,0.0,False,0.010857582092285156,nan,nan,nan,nan,0.0,0.0
1759829785.0490415,1,8.0,6.0,-0.05483113549895435,0.0,False,0.010785102844238281,nan,nan,nan,nan,0.0,0.0
1759829785.0599306,1,8.0,6.0,-0.05483113549895435,0.0,False,0.010889053344726562,nan,nan,nan,nan,0.0,0.0
1759829785.0708265,1,8.0,6.0,-0.05483113549895435,0.0,False,0.010895967483520508,nan,nan,nan,nan,0.0,0.0
1759829785.0809715,1,8.0,6.0,-0.05483113549895435,0.0,False,0.010144948959350586,nan,nan,nan,nan,0.0,0.0
1759829785.0919127,1,8.0,6.0,-0.05483113549895435,0.0,False,0.010941267013549805,nan,nan,nan,nan,0.0,0.0
1759829785.1030006,1,8.0,6.0,-2.8798472822825723,0.0,True,0.011087894439697266,8.0,6.0,3.1415913105010986,0.0,0.0,0.0
1759829785.1145353,1,8.0,6.0,-3.121314377746039,0.0,True,0.011534690856933594,8.0,6.0,3.1415913105010986,0.0,0.0,0.0
1759829785.1253102,1,8.0,6.0,3.1392699268974074,0.0,True,0.010774850845336914,8.0,6.0,3.1415913105010986,0.0,0.0,0.0
1759829785.1361377,1,8.0,6.0,3.1363601836745563,0.0,True,0.01082754135131836,8.0,6.0,3.1415913105010986,0.0,0.0,0.0
1759829785.147414,1,8.0,6.0,3.1359893074820278,0.0,True,0.0112762451171875,8.0,6.0,3.1415913105010986,0.0,0.0,0.0
1759829785.158041,1,8.0,6.0,3.136419020049253,0.0,True,0.010627031326293945,8.0,6.0,3.1415913105010986,0.0,0.0,0.0
1759829785.169526,1,8.0,6.0,3.136931028016292,0.0,True,0.011485099792480469,8.0,6.0,3.1415913105010986,0.0,0.0,0.0
1759829785.18029,1,8.0,6.0,3.137544127418634,0.0,True,0.010763883590698242,8.0,6.0,3.1415913105010986,0.0,0.0,0.0
1759829785.191487,1,8.0,6.0,3.138048480372774,0.0,True,0.011197090148925781,8.0,6.0,3.1415913105010986,0.0,0.0,0.0
1759829785.2021928,1,8.0,6.0,3.1385097111808413,0.0,True,0.010705709457397461,8.0,6.0,3.1415913105010986,0.0,0.0,0.0
1759829785.2132006,1,8.0,6.0,3.1388712331163866,0.0,True,0.01100778579711914,8.0,6.0,3.1415913105010986,0.0,0.0,0.0
1759829785.224205,1,8.0,6.0,3.139173387539591,0.0,True,0.011004447937011719,8.0,6.0,3.1415913105010986,0.0,0.0,0.0
1759829785.2351856,1,8.0,6.0,3.1394283615601744,0.0,True,0.010980606079101562,8.0,6.0,3.1415913105010986,0.0,0.0,0.0
1759829785.246335,1,8.0,6.0,3.1396374128285114,0.0,True,0.011149406433105469,8.0,6.0,3.1415913105010986,0.0,0.0,0.0
1759829785.2577467,1,8.0,6.0,3.1398088563341595,0.0,True,0.011411666870117188,8.0,6.0,3.1415913105010986,0.0,0.0,0.0
1759829785.2692888,1,8.0,6.0,3.139956795629695,0.0,True,0.011542081832885742,8.0,6.0,3.1415913105010986,0.0,0.0,0.0
1759829785.279921,1,8.0,6.0,3.140113949577513,0.0,True,0.01063227653503418,8.0,6.0,3.1415913105010986,0.0,0.0,0.0
1759829785.2905364,1,8.0,6.0,3.1402451516180445,0.0,True,0.010615348815917969,8.0,6.0,3.1415913105010986,0.0,0.0,0.0
1759829785.301653,1,8.0,6.0,3.140342391307282,0.0,True,0.011116504669189453,8.0,6.0,3.1415913105010986,0.0,0.0,0.0
1759829785.312622,1,8.0,6.0,3.140431601415731,0.0,True,0.010969161987304688,8.0,6.0,3.1415913105010986,0.0,0.0,0.0
1759829785.3234706,1,8.0,6.0,3.1405132796771795,0.0,True,0.010848522186279297,8.0,6.0,3.1415913105010986,0.0,0.0,0.0
1759829785.3341515,1,8.0,6.0,3.1405884931240227,0.0,True,0.010680913925170898,8.0,6.0,3.1415913105010986,0.0,0.0,0.0
1759829785.3450806,1,8.0,6.0,3.140649502904399,0.0,True,0.010929107666015625,8.0,6.0,3.1415913105010986,0.0,0.0,0.0
1759829785.3560123,1,8.0,6.0,3.140704421859841,0.0,True,0.010931730270385742,8.0,6.0,3.1415913105010986,0.0,0.0,0.0
1759829785.3671727,1,8.0,6.0,3.140750735117587,0.0,True,0.01116037368774414,8.0,6.0,3.1415913105010986,0.0,0.0,0.0
1759829785.378149,1,8.0,6.0,3.140797221881936,0.0,True,0.010976314544677734,8.0,6.0,3.1415913105010986,0.0,0.0,0.0
1759829785.388694,1,8.0,6.0,3.1408465718898615,0.0,True,0.010545015335083008,8.0,6.0,3.1415913105010986,0.0,0.0,0.0
1759829785.4007177,1,8.0,6.0,3.1408689548837607,0.0,True,0.012023687362670898,8.0,6.0,3.1415913105010986,0.0,0.0,0.0
1759829785.411196,1,8.0,6.0,3.1409149130169514,0.0,True,0.01047825813293457,8.0,6.0,3.1415913105010986,0.0,0.0,0.0
1759829785.422591,1,8.0,6.0,3.140944051063391,0.0,True,0.011394977569580078,8.0,6.0,3.1415913105010986,0.0,0.0,0.0
1759829785.4331806,1,8.0,6.0,3.1409818209796114,0.0,True,0.010589599609375,8.0,6.0,3.1415913105010986,0.0,0.0,0.0
1759829785.4443822,1,8.0,6.0,3.141008276023056,0.0,True,0.011201620101928711,8.0,6.0,3.1415913105010986,0.0,0.0,0.0
1759829785.455421,1,8.0,6.0,3.141035109860386,0.0,True,0.011038780212402344,8.0,6.0,3.1415913105010986,0.0,0.0,0.0
1759829785.466322,1,8.0,6.0,3.1410618944164224,0.0,True,0.01090097427368164,8.0,6.0,3.1415913105010986,0.0,0.0,0.0
1759829785.477437,1,8.0,6.0,3.141084408465918,0.0,True,0.011115074157714844,8.0,6.0,3.1415913105010986,0.0,0.0,0.0
1759829785.48886,1,8.0,6.0,3.1411027673858403,0.0,True,0.011422872543334961,8.0,6.0,3.1415913105010986,0.0,0.0,0.0
1759829785.5069256,1,8.0,6.0,3.1410604932750594,0.0,True,0.018065690994262695,8.0,6.0,3.1415913105010986,0.0,0.0,0.0
1759829785.5105624,1,8.0,6.0,3.1411667828766063,0.0,True,0.0036368370056152344,8.0,6.0,3.1415913105010986,0.0,0.0,0.0
1759829785.5212445,1,8.0,6.0,3.141188281213564,0.0,True,0.010682106018066406,8.0,6.0,3.1415913105010986,0.0,0.0,0.0
1759829785.5324085,1,8.0,6.0,3.1411986926735693,0.0,True,0.011163949966430664,8.0,6.0,3.1415913105010986,0.0,0.0,0.0
1759829785.543033,1,8.0,6.0,3.1412140096601604,0.0,True,0.010624408721923828,8.0,6.0,3.1415913105010986,0.0,0.0,0.0
1759829785.553856,1,8.0,6.0,3.141227299769305,0.0,True,0.01082301139831543,8.0,6.0,3.1415913105010986,0.0,0.0,0.0
1759829785.5640755,1,8.0,6.0,3.1412447399343115,0.0,True,0.010219573974609375,8.0,6.0,3.1415913105010986,0.0,0.0,0.0
1759829785.5753095,1,8.0,6.0,3.1412531878327883,0.0,True,0.011234045028686523,8.0,6.0,3.1415913105010986,0.0,0.0,0.0
1759829785.5864797,1,8.0,6.0,3.1412627174088126,0.0,True,0.011170148849487305,8.0,6.0,3.1415913105010986,0.0,0.0,0.0
1759829785.5966215,1,8.0,6.0,3.1412797677880153,0.0,True,0.010141849517822266,8.0,6.0,3.1415913105010986,0.0,0.0,0.0
1759829785.6073787,1,8.0,6.0,3.141291046663259,0.0,True,0.010757207870483398,8.0,6.0,3.1415913105010986,0.0,0.0,0.0
1759829785.6180058,1,8.0,6.0,3.1413024174740034,0.0,True,0.010627031326293945,8.0,6.0,3.1415913105010986,0.0,0.0,0.0
1759829785.6294544,1,8.0,6.0,3.1413083367689705,0.0,True,0.01144862174987793,8.0,6.0,3.1415913105010986,0.0,0.0,0.0
1759829785.6400993,1,8.0,6.0,3.141319843500547,0.0,True,0.010644912719726562,8.0,6.0,3.1415913105010986,0.0,0.0,0.0
1759829785.6514032,1,8.0,6.0,3.1413272309448104,0.0,True,0.011303901672363281,8.0,6.0,3.1415913105010986,0.0,0.0,0.0
1759829785.6628027,1,8.0,6.0,3.141334473511373,0.0,True,0.011399507522583008,8.0,6.0,3.1415913105010986,0.0,0.0,0.0
1759829785.6740284,1,8.0,6.0,3.141343170154858,0.0,True,0.011225700378417969,8.0,6.0,3.1415913105010986,0.0,0.0,0.0
1759829785.6843922,1,8.0,6.0,3.1413561303889335,0.0,True,0.01036381721496582,8.0,6.0,3.1415913105010986,0.0,0.0,0.0
1759829785.6950881,1,8.0,6.0,3.141366026418236,0.0,True,0.010695934295654297,8.0,6.0,3.1415913105010986,0.0,0.0,0.0
1759829785.706384,1,8.0,6.0,3.1413722089229204,0.0,True,0.011295795440673828,8.0,6.0,3.1415913105010986,0.0,0.0,0.0
1759829785.7176845,1,8.0,6.0,3.14137858564,0.0,True,0.01130056381225586,8.0,6.0,3.1415913105010986,0.0,0.0,0.0
1759829785.7278142,1,8.0,6.0,3.1413902116991252,0.0,True,0.010129690170288086,8.0,6.0,3.1415913105010986,0.0,0.0,0.0
1759829785.7390418,1,8.0,6.0,3.1413959235421913,0.0,True,0.011227607727050781,8.0,6.0,3.1415913105010986,0.0,0.0,0.0
1759829785.750509,1,8.0,6.0,3.1414006429334638,0.0,True,0.011467218399047852,8.0,6.0,3.1415913105010986,0.0,0.0,0.0
1759829785.7613893,1,8.0,6.0,3.1414081180072237,0.0,True,0.010880231857299805,8.0,6.0,3.1415913105010986,0.0,0.0,0.0
1759829785.7723646,1,8.0,6.0,3.141414934176707,0.0,True,0.010975360870361328,8.0,6.0,3.1415913105010986,0.0,0.0,0.0
1759829785.7833905,1,8.0,6.0,3.141421218077724,0.0,True,0.01102590560913086,8.0,6.0,3.1415913105010986,0.0,0.0,0.0
1759829785.7943025,1,8.0,6.0,3.141427647718899,0.0,True,0.010911941528320312,8.0,6.0,3.1415913105010986,0.0,0.0,0.0
1759829785.8054059,1,8.0,6.0,3.1414331127850446,0.0,True,0.011103391647338867,8.0,6.0,3.1415913105010986,0.0,0.0,0.0
1759829785.8168948,1,8.0,6.0,3.141437237022064,0.0,True,0.011488914489746094,8.0,6.0,3.1415913105010986,0.0,0.0,0.0
1759829785.827977,1,8.0,6.0,3.141442889299629,0.0,True,0.011082172393798828,8.0,6.0,3.1415913105010986,0.0,0.0,0.0
1759829785.8390367,1,8.0,6.0,3.1414484592197596,0.0,True,0.011059761047363281,8.0,6.0,3.1415913105010986,0.0,0.0,0.0
1759829785.8503776,1,8.0,6.0,3.141452959920926,0.0,True,0.011340856552124023,8.0,6.0,3.1415913105010986,0.0,0.0,0.0
1759829785.8604538,1,8.0,6.0,3.1414609009465426,0.0,True,0.010076284408569336,8.0,6.0,3.1415913105010986,0.0,0.0,0.0
1759829785.8707683,1,8.0,6.0,3.1414671389751607,0.0,True,0.010314464569091797,8.0,6.0,3.1415913105010986,0.0,0.0,0.0
1759829785.8818505,1,8.0,6.0,3.141470540653078,0.0,True,0.011082172393798828,8.0,6.0,3.1415913105010986,0.0,0.0,0.0
1759829785.8925009,1,8.0,6.0,3.1414750049135662,0.0,True,0.010650396347045898,8.0,6.0,3.1415913105010986,0.0,0.0,0.0
1759829785.9050984,1,8.0,6.0,3.141474637829498,0.0,True,0.01259756088256836,8.0,6.0,3.1415913105010986,0.0,0.0,0.0
1759829785.9162374,1,8.0,6.0,3.1414788179091957,0.0,True,0.011138916015625,8.0,6.0,3.1415913105010986,0.0,0.0,0.0
1759829785.9266894,1,8.0,6.0,3.1414846198884057,0.0,True,0.010452032089233398,8.0,6.0,3.1415913105010986,0.0,0.0,0.0
1759829785.9380107,1,8.0,6.0,3.141487876791791,0.0,True,0.011321306228637695,8.0,6.0,3.1415913105010986,0.0,0.0,0.0
1759829785.949323,1,8.0,6.0,3.141491071007593,0.0,True,0.011312246322631836,8.0,6.0,3.1415913105010986,0.0,0.0,0.0
1759829785.9599726,1,8.0,6.0,3.1414956185926606,0.0,True,0.010649681091308594,8.0,6.0,3.1415913105010986,0.0,0.0,0.0
1759829785.970968,1,8.0,6.0,3.1414990945575276,0.0,True,0.01099538803100586,8.0,6.0,3.1415913105010986,0.0,0.0,0.0
1759829785.9812942,1,8.0,6.0,3.1415035885708793,0.0,True,0.010326147079467773,8.0,6.0,3.1415913105010986,0.0,0.0,0.0
1759829785.9925478,1,8.0,6.0,3.1415059027954424,0.0,True,0.011253595352172852,8.0,6.0,3.1415913105010986,0.0,0.0,0.0
1759829786.0026534,1,8.0,6.0,3.141510227257932,0.0,True,0.010105609893798828,8.0,6.0,3.1415913105010986,0.0,0.0,0.0
1759829786.0140636,1,8.0,6.0,3.1415118770589086,0.0,True,0.011410236358642578,8.0,6.0,3.1415913105010986,0.0,0.0,0.0
1759829786.0254154,1,8.0,6.0,3.1415137773548345,0.0,True,0.011351823806762695,8.0,6.0,3.1415913105010986,0.0,0.0,0.0
1759829786.036864,1,8.0,6.0,3.1415157518189947,0.0,True,0.01144862174987793,8.0,6.0,3.1415913105010986,0.0,0.0,0.0
1759829786.046923,1,8.0,6.0,3.1415199872618267,0.0,True,0.010058879852294922,8.0,6.0,3.1415913105010986,0.0,0.0,0.0
1759829786.05695,1,8.0,6.0,3.1415237306081423,0.0,True,0.010027170181274414,8.0,6.0,3.1415913105010986,0.0,0.0,0.0
1759829786.068348,1,8.0,6.0,3.141524962734218,0.0,True,0.011397838592529297,8.0,6.0,3.1415913105010986,0.0,0.0,0.0
1759829786.0795786,1,8.0,6.0,3.141526577046669,0.0,True,0.011230707168579102,8.0,6.0,3.1415913105010986,0.0,0.0,0.0
1759829786.0897908,1,8.0,6.0,3.1415297013539902,0.0,True,0.010212182998657227,8.0,6.0,3.1415913105010986,0.0,0.0,0.0
1759829786.1015797,1,8.0,6.0,3.1415305099520303,0.0,True,0.01178884506225586,8.0,6.0,3.1415913105010986,0.0,0.0,0.0
1759829786.1125727,1,8.0,6.0,3.1415325590765093,0.0,True,0.010993003845214844,8.0,6.0,3.1415913105010986,0.0,0.0,0.0
1759829786.1227798,1,8.0,6.0,3.1415355526512485,0.0,True,0.010207176208496094,8.0,6.0,3.1415913105010986,0.0,0.0,0.0
1759829786.132858,1,8.0,6.0,3.1415383311694427,0.0,True,0.010078191757202148,8.0,6.0,3.1415913105010986,0.0,0.0,0.0
1759829786.143105,1,8.0,6.0,3.141540526803251,0.0,True,0.010246992111206055,8.0,6.0,3.1415913105010986,0.0,0.0,0.0
1759829786.1539059,1,8.0,6.0,3.1415418759922975,0.0,True,0.010800838470458984,8.0,6.0,3.1415913105010986,0.0,0.0,0.0
1759829786.165307,1,8.0,6.0,3.1415426109390374,0.0,True,0.011401176452636719,8.0,6.0,3.1415913105010986,0.0,0.0,0.0
1759829786.1768067,1,8.0,6.0,3.1415434847599197,0.0,True,0.011499643325805664,8.0,6.0,3.1415913105010986,0.0,0.0,0.0
1759829786.1882143,1,8.0,6.0,3.1415446843218184,0.0,True,0.011407613754272461,8.0,6.0,3.1415913105010986,0.0,0.0,0.0
1759829786.1992254,1,8.0,6.0,3.1415463828159105,0.0,True,0.011011123657226562,8.0,6.0,3.1415913105010986,0.0,0.0,0.0
1759829786.2093918,1,8.0,6.0,3.1415487881752817,0.0,True,0.010166406631469727,8.0,6.0,3.1415913105010986,0.0,0.0,0.0
1759829786.2204032,1,8.0,6.0,3.1415501448317116,0.0,True,0.011011362075805664,8.0,6.0,3.1415913105010986,0.0,0.0,0.0
1759829786.2317984,1,8.0,6.0,3.1415511100219327,0.0,True,0.01139521598815918,8.0,6.0,3.1415913105010986,0.0,0.0,0.0
1759829786.2426455,1,8.0,6.0,3.1415526109988274,0.0,True,0.010847091674804688,8.0,6.0,3.1415913105010986,0.0,0.0,0.0
1759829786.2530682,1,8.0,6.0,3.1415543865761038,0.0,True,0.010422706604003906,8.0,6.0,3.1415913105010986,0.0,0.0,0.0
1759829786.2639217,1,8.0,6.0,3.1415556482666283,0.0,True,0.01085352897644043,8.0,6.0,3.1415913105010986,0.0,0.0,0.0
1759829786.2740002,1,8.0,6.0,3.1415574028795774,0.0,True,0.01007843017578125,8.0,6.0,3.1415913105010986,0.0,0.0,0.0
1759829786.2844715,1,8.0,6.0,3.1415586691126727,0.0,True,0.010471343994140625,8.0,6.0,3.1415913105010986,0.0,0.0,0.0
1759829786.2946281,1,8.0,6.0,3.141560035014008,0.0,True,0.010156631469726562,8.0,6.0,3.1415913105010986,0.0,0.0,0.0
1759829786.310109,1,8.0,6.0,3.1415577725438943,0.0,True,0.015480756759643555,8.0,6.0,3.1415913105010986,0.0,0.0,0.0
1759829786.321396,1,8.0,6.0,3.141559146988712,0.0,True,0.011287212371826172,8.0,6.0,3.1415913105010986,0.0,0.0,0.0
1759829786.3322542,1,8.0,6.0,3.141560891561017,0.0,True,0.01085805892944336,8.0,6.0,3.1415913105010986,0.0,0.0,0.0
1759829786.342259,1,8.0,6.0,3.1415629146791524,0.0,True,0.010004758834838867,8.0,6.0,3.1415913105010986,0.0,0.0,0.0
1759829786.3530145,1,8.0,6.0,3.14156415897299,0.0,True,0.010755538940429688,8.0,6.0,3.1415913105010986,0.0,0.0,0.0
1759829786.363112,1,8.0,6.0,3.1415655963832005,0.0,True,0.010097503662109375,8.0,6.0,3.1415913105010986,0.0,0.0,0.0
1759829786.3746908,1,8.0,6.0,3.1415660475983316,0.0,True,0.011578798294067383,8.0,6.0,3.1415913105010986,0.0,0.0,0.0
1759829786.3858013,1,8.0,6.0,3.141566805236682,0.0,True,0.011110544204711914,8.0,6.0,3.1415913105010986,0.0,0.0,0.0
1759829786.3961675,1,8.0,6.0,3.1415679566177452,0.0,True,0.010366201400756836,8.0,6.0,3.1415913105010986,0.0,0.0,0.0
1759829786.406954,1,8.0,6.0,3.1415687896828466,0.0,True,0.01078653335571289,8.0,6.0,3.1415913105010986,0.0,0.0,0.0
1759829786.4177737,1,8.0,6.0,3.141569548413477,0.0,True,0.010819673538208008,8.0,6.0,3.1415913105010986,0.0,0.0,0.0
1759829786.4291549,1,8.0,6.0,3.1415700285477897,0.0,True,0.011381149291992188,8.0,6.0,3.1415913105010986,0.0,0.0,0.0
1759829786.4396834,1,8.0,6.0,3.1415709280317703,0.0,True,0.010528564453125,8.0,6.0,3.1415913105010986,0.0,0.0,0.0
1759829786.4504452,1,8.0,6.0,3.1415716676958887,0.0,True,0.010761737823486328,8.0,6.0,3.1415913105010986,0.0,0.0,0.0
1759829786.4606092,1,8.0,6.0,3.1415725985901073,0.0,True,0.010164022445678711,8.0,6.0,3.1415913105010986,0.0,0.0,0.0
1759829786.4707322,1,8.0,6.0,3.1415734375223288,0.0,True,0.010123014450073242,8.0,6.0,3.1415913105010986,0.0,0.0,0.0
1759829786.4809885,1,8.0,6.0,3.141574121416859,0.0,True,0.010256290435791016,8.0,6.0,3.1415913105010986,0.0,0.0,0.0
1759829786.4924028,1,8.0,6.0,3.1415743164061176,0.0,True,0.011414289474487305,8.0,6.0,3.1415913105010986,0.0,0.0,0.0
1759829786.506539,1,8.0,6.0,3.141573646793658,0.0,True,0.014136314392089844,8.0,6.0,3.1415913105010986,0.0,0.0,0.0
1759829786.5133007,1,8.0,6.0,3.1415758589428115,0.0,True,0.0067615509033203125,8.0,6.0,3.1415913105010986,0.0,0.0,0.0
1759829786.5234306,1,8.0,6.0,3.1415765364304313,0.0,True,0.010129928588867188,8.0,6.0,3.1415913105010986,0.0,0.0,0.0
1759829786.534598,1,8.0,6.0,3.1415767164600137,0.0,True,0.011167526245117188,8.0,6.0,3.1415913105010986,0.0,0.0,0.0
1759829786.5459251,1,8.0,6.0,3.141576906702209,0.0,True,0.011327028274536133,8.0,6.0,3.1415913105010986,0.0,0.0,0.0
1759829786.5573714,1,8.0,6.0,3.1415771491423534,0.0,True,0.011446237564086914,8.0,6.0,3.1415913105010986,0.0,0.0,0.0
1759829786.5679145,1,8.0,6.0,3.1415777251651296,0.0,True,0.010543107986450195,8.0,6.0,3.1415913105010986,0.0,0.0,0.0
1759829786.579344,1,8.0,6.0,3.1415780247492435,0.0,True,0.011429548263549805,8.0,6.0,3.1415913105010986,0.0,0.0,0.0
1759829786.5906887,1,8.0,6.0,3.141578376884498,0.0,True,0.011344671249389648,8.0,6.0,3.1415913105010986,0.0,0.0,0.0
1759829786.601049,1,8.0,6.0,3.141579010110867,0.0,True,0.010360240936279297,8.0,6.0,3.1415913105010986,0.0,0.0,0.0
1759829786.6123734,1,8.0,6.0,3.1415793376747594,0.0,True,0.011324405670166016,8.0,6.0,3.1415913105010986,0.0,0.0,0.0
1759829786.6238525,1,8.0,6.0,3.141579632796219,0.0,True,0.01147913932800293,8.0,6.0,3.1415913105010986,0.0,0.0,0.0
1759829786.6353023,1,8.0,6.0,3.1415799640733653,0.0,True,0.011449813842773438,8.0,6.0,3.1415913105010986,0.0,0.0,0.0
1759829786.64566,1,8.0,6.0,3.1415805569119613,0.0,True,0.01035761833190918,8.0,6.0,3.1415913105010986,0.0,0.0,0.0
1759829786.6570225,1,8.0,6.0,3.141580864701554,0.0,True,0.011362552642822266,8.0,6.0,3.1415913105010986,0.0,0.0,0.0
1759829786.6674175,1,8.0,6.0,3.141581370088531,0.0,True,0.010395050048828125,8.0,6.0,3.1415913105010986,0.0,0.0,0.0
1759829786.6786919,1,8.0,6.0,3.1415816460334707,0.0,True,0.011274337768554688,8.0,6.0,3.1415913105010986,0.0,0.0,0.0
1759829786.6894085,1,8.0,6.0,3.141582030251868,0.0,True,0.010716676712036133,8.0,6.0,3.1415913105010986,0.0,0.0,0.0
1759829786.7000175,1,8.0,6.0,3.1415824111739035,0.0,True,0.010608911514282227,8.0,6.0,3.1415913105010986,0.0,0.0,0.0
1759829786.7103798,1,8.0,6.0,3.1415828033600715,0.0,True,0.010362386703491211,8.0,6.0,3.1415913105010986,0.0,0.0,0.0
1759829786.7214768,1,8.0,6.0,3.1415830242123146,0.0,True,0.011096954345703125,8.0,6.0,3.1415913105010986,0.0,0.0,0.0
1759829786.7329948,1,8.0,6.0,3.141583178066373,0.0,True,0.011518001556396484,8.0,6.0,3.1415913105010986,0.0,0.0,0.0
1759829786.7443926,1,8.0,6.0,3.1415833850010983,0.0,True,0.011397838592529297,8.0,6.0,3.1415913105010986,0.0,0.0,0.0
1759829786.7557585,1,8.0,6.0,3.141583618053085,0.0,True,0.011365890502929688,8.0,6.0,3.1415913105010986,0.0,0.0,0.0
1759829786.766757,1,8.0,6.0,3.1415839157054446,0.0,True,0.01099848747253418,8.0,6.0,3.1415913105010986,0.0,0.0,0.0
1759829786.7779732,1,8.0,6.0,3.1415841666924944,0.0,True,0.011216163635253906,8.0,6.0,3.1415913105010986,0.0,0.0,0.0
1759829786.7889075,1,8.0,6.0,3.1415844497982945,0.0,True,0.01093435287475586,8.0,6.0,3.1415913105010986,0.0,0.0,0.0
1759829786.7991216,1,8.0,6.0,3.14158481308432,0.0,True,0.010214090347290039,8.0,6.0,3.1415913105010986,0.0,0.0,0.0
1759829786.8104448,1,8.0,6.0,3.1415849813139367,0.0,True,0.011323213577270508,8.0,6.0,3.1415913105010986,0.0,0.0,0.0
1759829786.8218508,1,8.0,6.0,3.1415851405387603,0.0,True,0.01140594482421875,8.0,6.0,3.1415913105010986,0.0,0.0,0.0
1759829786.8319588,1,8.0,6.0,3.141585473040628,0.0,True,0.010107994079589844,8.0,6.0,3.1415913105010986,0.0,0.0,0.0
1759829786.8426683,1,8.0,6.0,3.141585693477971,0.0,True,0.010709524154663086,8.0,6.0,3.1415913105010986,0.0,0.0,0.0
1759829786.8531709,1,8.0,6.0,3.1415859168563482,0.0,True,0.01050257682800293,8.0,6.0,3.1415913105010986,0.0,0.0,0.0
1759829786.8636813,1,8.0,6.0,3.1415861207310645,0.0,True,0.010510444641113281,8.0,6.0,3.1415913105010986,0.0,0.0,0.0
1759829786.874267,1,8.0,6.0,3.1415863006372433,0.0,True,0.010585784912109375,8.0,6.0,3.1415913105010986,0.0,0.0,0.0
1759829786.8854332,1,8.0,6.0,3.1415864099113175,0.0,True,0.011166095733642578,8.0,6.0,3.1415913105010986,0.0,0.0,0.0
1759829786.8965912,1,8.0,6.0,3.141586531032111,0.0,True,0.011157989501953125,8.0,6.0,3.1415913105010986,0.0,0.0,0.0
1759829786.9136994,1,8.0,6.0,3.1415860957713626,0.0,True,0.01710820198059082,8.0,6.0,3.1415913105010986,0.0,0.0,0.0
1759829786.9237118,1,8.0,6.0,3.1415865028394325,0.0,True,0.010012388229370117,8.0,6.0,3.1415913105010986,0.0,0.0,0.0
1759829786.9345,1,8.0,6.0,3.141586805288025,0.0,True,0.010788202285766602,8.0,6.0,3.1415913105010986,0.0,0.0,0.0
1759829786.9451401,1,8.0,6.0,3.1415870648758055,0.0,True,0.010640144348144531,8.0,6.0,3.1415913105010986,0.0,0.0,0.0
1759829786.9562678,1,8.0,6.0,3.141587242291134,0.0,True,0.011127710342407227,8.0,6.0,3.1415913105010986,0.0,0.0,0.0
1759829786.96693,1,8.0,6.0,3.141587437976053,0.0,True,0.010662078857421875,8.0,6.0,3.1415913105010986,0.0,0.0,0.0
1759829786.977358,1,8.0,6.0,3.1415876290685016,0.0,True,0.010428190231323242,8.0,6.0,3.1415913105010986,0.0,0.0,0.0
1759829786.9878497,1,8.0,6.0,3.141587790217155,0.0,True,0.010491609573364258,8.0,6.0,3.1415913105010986,0.0,0.0,0.0
1759829786.9989038,1,8.0,6.0,3.141587891957439,0.0,True,0.011054039001464844,8.0,6.0,3.1415913105010986,0.0,0.0,0.0
1759829787.0101573,1,8.0,6.0,3.141587978501523,0.0,True,0.011253595352172852,8.0,6.0,3.1415913105010986,0.0,0.0,0.0
1759829787.0216146,1,8.0,6.0,3.141588057236085,0.0,True,0.011457204818725586,8.0,6.0,3.1415913105010986,0.0,0.0,0.0
1759829787.0325713,1,8.0,6.0,3.1415881770389795,0.0,True,0.010956764221191406,8.0,6.0,3.1415913105010986,0.0,0.0,0.0
1759829787.0436778,1,8.0,6.0,3.141588283476498,0.0,True,0.011106491088867188,8.0,6.0,3.1415913105010986,0.0,0.0,0.0
1759829787.053718,1,8.0,6.0,3.1415884507899,0.0,True,0.010040283203125,8.0,6.0,3.1415913105010986,0.0,0.0,0.0
1759829787.0651042,1,8.0,6.0,3.1415885164952826,0.0,True,0.01138615608215332,8.0,6.0,3.1415913105010986,0.0,0.0,0.0
1759829787.0757916,1,8.0,6.0,3.1415886239912254,0.0,True,0.01068735122680664,8.0,6.0,3.1415913105010986,0.0,0.0,0.0
1759829787.0873146,1,8.0,6.0,3.141588680545409,0.0,True,0.011523008346557617,8.0,6.0,3.1415913105010986,0.0,0.0,0.0
1759829787.097481,1,8.0,6.0,3.1415888153535825,0.0,True,0.010166406631469727,8.0,6.0,3.1415913105010986,0.0,0.0,0.0
1759829787.112118,1,8.0,6.0,3.141588709363175,0.0,True,0.014636993408203125,8.0,6.0,3.1415913105010986,0.0,0.0,0.0
1759829787.123281,1,8.0,6.0,3.1415888274739725,0.0,True,0.011162996292114258,8.0,6.0,3.1415913105010986,0.0,0.0,0.0
1759829787.1336837,1,8.0,6.0,3.1415889822072955,0.0,True,0.010402679443359375,8.0,6.0,3.1415913105010986,0.0,0.0,0.0
1759829787.1449845,1,8.0,6.0,3.141589072349557,0.0,True,0.011300802230834961,8.0,6.0,3.1415913105010986,0.0,0.0,0.0
1759829787.1562684,1,8.0,6.0,3.141589154572914,0.0,True,0.01128387451171875,8.0,6.0,3.1415913105010986,0.0,0.0,0.0
1759829787.1676562,1,8.0,6.0,3.1415892285088614,0.0,True,0.011387825012207031,8.0,6.0,3.1415913105010986,0.0,0.0,0.0
1759829787.1786675,1,8.0,6.0,3.141589315728144,0.0,True,0.011011362075805664,8.0,6.0,3.1415913105010986,0.0,0.0,0.0
1759829787.1903176,1,8.0,6.0,3.1415893715230787,0.0,True,0.01165008544921875,8.0,6.0,3.1415913105010986,0.0,0.0,0.0
1759829787.201569,1,8.0,6.0,3.1415894437258487,0.0,True,0.011251449584960938,8.0,6.0,3.1415913105010986,0.0,0.0,0.0
1759829787.2124057,1,8.0,6.0,3.1415895284630846,0.0,True,0.010836601257324219,8.0,6.0,3.1415913105010986,0.0,0.0,0.0
1759829787.2236822,1,8.0,6.0,3.141589589539901,0.0,True,0.011276483535766602,8.0,6.0,3.1415913105010986,0.0,0.0,0.0
1759829787.234936,1,8.0,6.0,3.1415896485653345,0.0,True,0.011253833770751953,8.0,6.0,3.1415913105010986,0.0,0.0,0.0
1759829787.246483,1,8.0,6.0,3.141589696444335,0.0,True,0.011547088623046875,8.0,6.0,3.1415913105010986,0.0,0.0,0.0
1759829787.2571766,1,8.0,6.0,3.1415897725078104,0.0,True,0.010693550109863281,8.0,6.0,3.1415913105010986,0.0,0.0,0.0
1759829787.2690492,1,8.0,6.0,3.1415898055037026,0.0,True,0.011872529983520508,8.0,6.0,3.1415913105010986,0.0,0.0,0.9999993896488064
1759829787.2790806,1,8.0,6.0,3.1415898959275204,0.0,True,0.010031461715698242,8.0,6.0,3.1415913105010986,0.0,0.0,0.9999993896488064
1759829787.2898233,1,8.0,6.0,3.1415899540057506,0.0,True,0.010742664337158203,8.0,6.0,3.1415913105010986,0.0,0.0,0.9999993896488064
1759829787.3017397,1,8.0,6.0,3.1415899730221266,0.0,True,0.011916399002075195,8.0,6.0,3.1415913105010986,0.0,0.0,0.9999993896488064
1759829787.3182285,1,7.967816786629558,6.000000298837396,3.141589879789196,0.24425807258778448,True,0.01648879051208496,7.95041561126709,6.000000476837158,3.1415913105010986,0.24425807258778448,0.0,0.9999993896488064
1759829787.328956,1,7.956061420306601,6.0000004116149785,3.141589976126067,0.24425807258778448,True,0.010727405548095703,7.95041561126709,6.000000476837158,3.1415913105010986,0.24425807258778448,0.0,0.8282859646221628
1759829787.3393066,1,7.951606415510572,6.0000004545018495,3.141590075002611,0.24425807258778448,True,0.010350704193115234,7.95041561126709,6.000000476837158,3.1415913105010986,0.24425807258778448,0.0,0.8282859646221628
1759829787.3516796,1,7.949716081119394,6.000000471279207,3.141590108015759,0.24425807258778448,True,0.012372970581054688,7.95041561126709,6.000000476837158,3.1415913105010986,0.24425807258778448,0.0,0.8282859646221628
1759829787.3627014,1,7.949120094628032,6.000000477326252,3.1415901708440472,0.24425807258778448,True,0.011021852493286133,7.95041561126709,6.000000476837158,3.1415913105010986,0.24425807258778448,0.0,0.8282859646221628
1759829787.3727076,1,7.948987207671568,6.0000004793354185,3.141590249039112,0.24425807258778448,True,0.010006189346313477,7.95041561126709,6.000000476837158,3.1415913105010986,0.24425807258778448,0.0,0.8282859646221628
1759829787.3848019,1,7.9487416360356455,6.000000480502624,3.1415902697569074,0.24425807258778448,True,0.012094259262084961,7.95041561126709,6.000000476837158,3.1415913105010986,0.24425807258778448,0.0,0.8282859646221628
1759829787.3961964,1,7.948713122285819,6.000000480768098,3.141590306207764,0.24425807258778448,True,0.011394500732421875,7.95041561126709,6.000000476837158,3.1415913105010986,0.24425807258778448,0.0,0.8282859646221628
1759829787.4076605,1,7.948695735741756,6.000000480846122,3.1415903411547266,0.24425807258778448,True,0.011464118957519531,7.95041561126709,6.000000476837158,3.1415913105010986,0.24425807258778448,0.0,0.8282859646221628
1759829787.4192204,1,7.948680152567281,6.000000480859452,3.141590373378037,0.24425807258778448,True,0.01155996322631836,7.95041561126709,6.000000476837158,3.1415913105010986,0.24425807258778448,0.0,0.8282859646221628
1759829787.430689,1,7.948682719793042,6.000000480810271,3.1415904068442053,0.24425807258778448,True,0.011468648910522461,7.95041561126709,6.000000476837158,3.1415913105010986,0.24425807258778448,0.0,0.8282859646221628
1759829787.442237,1,7.948676315363499,6.000000480772469,3.1415904379508035,0.24425807258778448,True,0.01154780387878418,7.95041561126709,6.000000476837158,3.1415913105010986,0.24425807258778448,0.0,0.8282859646221628
1759829787.4534962,1,7.948700784382036,6.0000004806645775,3.141590473157839,0.24425807258778448,True,0.011259317398071289,7.95041561126709,6.000000476837158,3.1415913105010986,0.24425807258778448,0.0,0.8282859646221628
1759829787.4638574,1,7.9487939240282754,6.000000480402897,3.1415905206139136,0.24425807258778448,True,0.010361194610595703,7.95041561126709,6.000000476837158,3.1415913105010986,0.24425807258778448,0.0,0.8282859646221628
1759829787.4754763,1,7.9487121628766255,6.000000480509364,3.141590541661799,0.24425807258778448,True,0.011618852615356445,7.95041561126709,6.000000476837158,3.1415913105010986,0.24425807258778448,0.0,0.8282859646221628
1759829787.4867857,1,7.94870980566445,6.000000480465859,3.141590567326542,0.24425807258778448,True,0.011309385299682617,7.95041561126709,6.000000476837158,3.1415913105010986,0.24425807258778448,0.0,0.8282859646221628
1759829787.498033,1,7.948714688740894,6.000000480410047,3.141590593685539,0.24425807258778448,True,0.011247396469116211,7.95041561126709,6.000000476837158,3.1415913105010986,0.24425807258778448,0.0,0.8282859646221628
1759829787.5082629,1,7.948811491488876,6.000000480164609,3.141590633388354,0.24425807258778448,True,0.010229825973510742,7.95041561126709,6.000000476837158,3.1415913105010986,0.24425807258778448,0.0,0.8282859646221628
1759829787.5251877,1,7.838072695704845,6.000001667231315,3.141590577783372,0.7878634483782115,True,0.01692485809326172,7.777873516082764,6.000002384185791,3.1415913105010986,0.7878634483782115,0.0,0.8282859646221628
1759829787.5363708,1,7.797502170417329,6.000002117307745,3.141590620005669,0.7878634483782115,True,0.011183023452758789,7.777873516082764,6.000002384185791,3.1415913105010986,0.7878634483782115,0.0,0.3839411815435714
1759829787.5475776,1,7.781998433800339,6.0000022890940565,3.141590661217366,0.7878634483782115,True,0.011206865310668945,7.777873516082764,6.000002384185791,3.1415913105010986,0.7878634483782115,0.0,0.3839411815435714
1759829787.558249,1,7.776237681587729,6.0000023542508965,3.141590702493401,0.7878634483782115,True,0.010671377182006836,7.777873516082764,6.000002384185791,3.1415913105010986,0.7878634483782115,0.0,0.3839411815435714
1759829787.5691524,1,7.7739674582799445,6.000002379144717,3.141590734095768,0.7878634483782115,True,0.010903358459472656,7.777873516082764,6.000002384185791,3.1415913105010986,0.7878634483782115,0.0,0.3839411815435714
1759829787.5805655,1,7.772946910806452,6.000002388846726,3.141590755287993,0.7878634483782115,True,0.011413097381591797,7.777873516082764,6.000002384185791,3.1415913105010986,0.7878634483782115,0.0,0.3839411815435714
1759829787.5909686,1,7.772861025063214,6.000002391900812,3.141590785800684,0.7878634483782115,True,0.010403156280517578,7.777873516082764,6.000002384185791,3.1415913105010986,0.7878634483782115,0.0,0.3839411815435714
1759829787.6021924,1,7.77258125961879,6.000002393436195,3.1415908036711997,0.7878634483782115,True,0.011223793029785156,7.777873516082764,6.000002384185791,3.1415913105010986,0.7878634483782115,0.0,0.3839411815435714
1759829787.6125047,1,7.772748695101203,6.000002393453133,3.1415908294684307,0.7878634483782115,True,0.010312318801879883,7.777873516082764,6.000002384185791,3.1415913105010986,0.7878634483782115,0.0,0.3839411815435714
1759829787.6243544,1,7.772350012303125,6.000002394228054,3.141590837123779,0.7878634483782115,True,0.011849641799926758,7.777873516082764,6.000002384185791,3.1415913105010986,0.7878634483782115,0.0,0.3839411815435714
1759829787.635679,1,7.772355720292062,6.000002394207934,3.1415908512695445,0.7878634483782115,True,0.011324644088745117,7.777873516082764,6.000002384185791,3.1415913105010986,0.7878634483782115,0.0,0.3839411815435714
1759829787.6467888,1,7.772422546386173,6.000002394034875,3.1415908679493967,0.7878634483782115,True,0.01110982894897461,7.777873516082764,6.000002384185791,3.1415913105010986,0.7878634483782115,0.0,0.3839411815435714
1759829787.6572492,1,7.77264351592053,6.000002393562919,3.1415908896387563,0.7878634483782115,True,0.010460376739501953,7.777873516082764,6.000002384185791,3.1415913105010986,0.7878634483782115,0.0,0.3839411815435714
1759829787.6687474,1,7.772415595436314,6.000002393868129,3.141590899995368,0.7878634483782115,True,0.011498212814331055,7.777873516082764,6.000002384185791,3.1415913105010986,0.7878634483782115,0.0,0.3839411815435714
1759829787.6804013,1,7.772281685470247,6.000002394031263,3.1415909094268706,0.7878634483782115,True,0.011653900146484375,7.777873516082764,6.000002384185791,3.1415913105010986,0.7878634483782115,0.0,0.3839411815435714
1759829787.6918871,1,7.77228111944974,6.000002393971554,3.1415909213831092,0.7878634483782115,True,0.011485815048217773,7.777873516082764,6.000002384185791,3.1415913105010986,0.7878634483782115,0.0,0.3839411815435714
1759829787.7030733,1,7.77237109172449,6.0000023937504965,3.141590936046928,0.7878634483782115,True,0.01118612289428711,7.777873516082764,6.000002384185791,3.1415913105010986,0.7878634483782115,0.0,0.3839411815435714
1759829787.7148688,1,7.772222067667299,6.00000239393302,3.1415909456193383,0.7878634483782115,True,0.011795520782470703,7.777873516082764,6.000002384185791,3.1415913105010986,0.7878634483782115,0.0,0.3839411815435714
1759829787.7317953,1,7.721782810294325,6.000002981832837,3.1415909204091292,0.40880447540641135,True,0.01692652702331543,7.694886207580566,6.000003337860107,3.1415913105010986,0.40880447540641135,0.0,0.3839411815435714
1759829787.7431011,1,7.703394400172264,6.00000320492585,3.1415909449415995,0.40880447540641135,True,0.011305809020996094,7.694886207580566,6.000003337860107,3.1415913105010986,0.40880447540641135,0.0,0.4904833595279401
1759829787.7540586,1,7.69642504395919,6.000003290003478,3.1415909705407508,0.40880447540641135,True,0.010957479476928711,7.694886207580566,6.000003337860107,3.1415913105010986,0.40880447540641135,0.0,0.4904833595279401
1759829787.7648814,1,7.6937840211062145,6.000003322421611,3.1415909924163667,0.40880447540641135,True,0.010822772979736328,7.694886207580566,6.000003337860107,3.1415913105010986,0.40880447540641135,0.0,0.4904833595279401
1759829787.775697,1,7.692776357009091,6.000003334765974,3.141591010415439,0.40880447540641135,True,0.010815620422363281,7.694886207580566,6.000003337860107,3.1415913105010986,0.40880447540641135,0.0,0.4904833595279401
1759829787.7861335,1,7.692450657558603,6.0000033393536265,3.141591027683347,0.40880447540641135,True,0.010436534881591797,7.694886207580566,6.000003337860107,3.1415913105010986,0.40880447540641135,0.0,0.4904833595279401
1759829787.7977707,1,7.692138766589373,6.000003341383862,3.1415910354858134,0.40880447540641135,True,0.011637210845947266,7.694886207580566,6.000003337860107,3.1415913105010986,0.40880447540641135,0.0,0.4904833595279401
1759829787.807884,1,7.692257602106884,6.00000334175915,3.141591051357727,0.40880447540641135,True,0.010113239288330078,7.694886207580566,6.000003337860107,3.1415913105010986,0.40880447540641135,0.0,0.4904833595279401
1759829787.8186057,1,7.6922079850275376,6.000003342030314,3.1415910619014475,0.40880447540641135,True,0.010721683502197266,7.694886207580566,6.000003337860107,3.1415913105010986,0.40880447540641135,0.0,0.4904833595279401
1759829787.8288572,1,7.692262448423078,6.000003341999286,3.141591073584552,0.40880447540641135,True,0.010251522064208984,7.694886207580566,6.000003337860107,3.1415913105010986,0.40880447540641135,0.0,0.4904833595279401
1759829787.8390749,1,7.692288538095901,6.000003341960563,3.1415910839995966,0.40880447540641135,True,0.010217666625976562,7.694886207580566,6.000003337860107,3.1415913105010986,0.40880447540641135,0.0,0.4904833595279401
1759829787.8504345,1,7.69212017692962,6.000003342209929,3.1415910876962023,0.40880447540641135,True,0.011359691619873047,7.694886207580566,6.000003337860107,3.1415913105010986,0.40880447540641135,0.0,0.4904833595279401
1759829787.8606803,1,7.69222980220828,6.000003342025508,3.1415910971750183,0.40880447540641135,True,0.010245800018310547,7.694886207580566,6.000003337860107,3.1415913105010986,0.40880447540641135,0.0,0.4904833595279401
1759829787.8719873,1,7.692105969408585,6.000003342198507,3.141591101227757,0.40880447540641135,True,0.011307001113891602,7.694886207580566,6.000003337860107,3.1415913105010986,0.40880447540641135,0.0,0.4904833595279401
1759829787.8820717,1,7.692249579398074,6.000003341960345,3.1415911110404977,0.40880447540641135,True,0.010084390640258789,7.694886207580566,6.000003337860107,3.1415913105010986,0.40880447540641135,0.0,0.4904833595279401
1759829787.8934798,1,7.69209773856012,6.00000334217359,3.1415911143852604,0.40880447540641135,True,0.011408090591430664,7.694886207580566,6.000003337860107,3.1415913105010986,0.40880447540641135,0.0,0.4904833595279401
1759829787.904966,1,7.692027529434611,6.000003342267835,3.141591117982646,0.40880447540641135,True,0.011486291885375977,7.694886207580566,6.000003337860107,3.1415913105010986,0.40880447540641135,0.0,0.4904833595279401
1759829787.915746,1,7.692111021229738,6.0000033421274965,3.1415911251779303,0.40880447540641135,True,0.010779857635498047,7.694886207580566,6.000003337860107,3.1415913105010986,0.40880447540641135,0.0,0.4904833595279401
1759829787.930061,1,7.63166049428449,6.000005406372553,3.1415911189382033,0.47480531542567617,True,0.014315128326416016,7.598500728607178,6.000006675720215,3.1415913105010986,0.47480531542567617,0.0,0.4904833595279401
1759829787.941462,1,7.609098963701581,6.000006194044842,3.1415911269466434,0.47480531542567617,True,0.011400938034057617,7.598500728607178,6.000006675720215,3.1415913105010986,0.47480531542567617,0.0,0.3610974605481916
1759829787.9525392,1,7.600539945060781,6.000006494802119,3.1415911362654363,0.47480531542567617,True,0.011077165603637695,7.598500728607178,6.000006675720215,3.1415913105010986,0.47480531542567617,0.0,0.3610974605481916
1759829787.9633124,1,7.597325821177773,6.000006609578732,3.141591145514056,0.47480531542567617,True,0.010773181915283203,7.598500728607178,6.000006675720215,3.1415913105010986,0.47480531542567617,0.0,0.3610974605481916
1759829787.9747508,1,7.59597749697025,6.000006653583835,3.141591151361819,0.47480531542567617,True,0.011438369750976562,7.598500728607178,6.000006675720215,3.1415913105010986,0.47480531542567617,0.0,0.3610974605481916
1759829787.985418,1,7.595602319404886,6.0000066701698005,3.141591159220832,0.47480531542567617,True,0.01066732406616211,7.598500728607178,6.000006675720215,3.1415913105010986,0.47480531542567617,0.0,0.3610974605481916
1759829787.9961374,1,7.595449588121729,6.000006676504123,3.141591166041959,0.47480531542567617,True,0.01071929931640625,7.598500728607178,6.000006675720215,3.1415913105010986,0.47480531542567617,0.0,0.3610974605481916
1759829788.0072787,1,7.5953147160963885,6.000006679024511,3.1415911708500133,0.47480531542567617,True,0.011141300201416016,7.598500728607178,6.000006675720215,3.1415913105010986,0.47480531542567617,0.0,0.3610974605481916
1759829788.0185797,1,7.595234229120266,6.000006680020559,3.1415911749945504,0.47480531542567617,True,0.011301040649414062,7.598500728607178,6.000006675720215,3.1415913105010986,0.47480531542567617,0.0,0.3610974605481916
1759829788.0289042,1,7.595380594710389,6.000006680130275,3.141591181809904,0.47480531542567617,True,0.010324478149414062,7.598500728607178,6.000006675720215,3.1415913105010986,0.47480531542567617,0.0,0.3610974605481916
1759829788.039018,1,7.59547472508472,6.000006680103226,3.1415911883947736,0.47480531542567617,True,0.010113716125488281,7.598500728607178,6.000006675720215,3.1415913105010986,0.47480531542567617,0.0,0.3610974605481916
1759829788.0503778,1,7.595284666965597,6.000006680412577,3.14159119086486,0.47480531542567617,True,0.011359930038452148,7.598500728607178,6.000006675720215,3.1415913105010986,0.47480531542567617,0.0,0.3610974605481916
1759829788.0623255,1,7.595105485924224,6.000006680681761,3.1415911921106137,0.47480531542567617,True,0.0119476318359375,7.598500728607178,6.000006675720215,3.1415913105010986,0.47480531542567617,0.0,0.3610974605481916
1759829788.0735767,1,7.595163347355724,6.00000668059687,3.1415911958055176,0.47480531542567617,True,0.011251211166381836,7.598500728607178,6.000006675720215,3.1415913105010986,0.47480531542567617,0.0,0.3610974605481916
1759829788.0836012,1,7.595407915541918,6.000006680232204,3.141591202429204,0.47480531542567617,True,0.010024547576904297,7.598500728607178,6.000006675720215,3.1415913105010986,0.47480531542567617,0.0,0.3610974605481916
1759829788.095191,1,7.595217465139532,6.000006680493445,3.141591204696004,0.47480531542567617,True,0.011589765548706055,7.598500728607178,6.000006675720215,3.1415913105010986,0.47480531542567617,0.0,0.3610974605481916
1759829788.1065361,1,7.595189083257774,6.000006680524074,3.1415912076308317,0.47480531542567617,True,0.011345148086547852,7.598500728607178,6.000006675720215,3.1415913105010986,0.47480531542567617,0.0,0.3610974605481916
1759829788.1180193,1,7.595153206689031,6.000006680565949,3.141591210461357,0.47480531542567617,True,0.011483192443847656,7.598500728607178,6.000006675720215,3.1415913105010986,0.47480531542567617,0.0,0.3610974605481916
1759829788.1347992,1,7.548070185557912,6.00000844923119,3.141591203182484,0.3727292782287903,True,0.01677989959716797,7.522836685180664,6.000009536743164,3.1415913105010986,0.3727292782287903,0.0,0.3610974605481916
1759829788.14466,1,7.531071149952249,6.000009123385895,3.1415912122640446,0.3727292782287903,True,0.009860754013061523,7.522836685180664,6.000009536743164,3.1415913105010986,0.3727292782287903,0.0,0.3364714357241647
1759829788.1559138,1,7.5243797634792156,6.000009381163382,3.141591217789964,0.3727292782287903,True,0.011253833770751953,7.522836685180664,6.000009536743164,3.1415913105010986,0.3727292782287903,0.0,0.3364714357241647
1759829788.1661036,1,7.521975371712473,6.000009479399143,3.1415912241825783,0.3727292782287903,True,0.01018977165222168,7.522836685180664,6.000009536743164,3.1415913105010986,0.3727292782287903,0.0,0.3364714357241647
1759829788.177997,1,7.520814414578404,6.0000095172597465,3.14159122658436,0.3727292782287903,True,0.011893510818481445,7.522836685180664,6.000009536743164,3.1415913105010986,0.3727292782287903,0.0,0.3364714357241647
1759829788.189394,1,7.520441673000218,6.000009531616147,3.1415912297185944,0.3727292782287903,True,0.01139688491821289,7.522836685180664,6.000009536743164,3.1415913105010986,0.3727292782287903,0.0,0.3364714357241647
1759829788.2006865,1,7.520314165697627,6.000009537073542,3.1415912329123064,0.3727292782287903,True,0.011292457580566406,7.522836685180664,6.000009536743164,3.1415913105010986,0.3727292782287903,0.0,0.3364714357241647
1759829788.2112145,1,7.52037428552926,6.000009538998248,3.1415912370488925,0.3727292782287903,True,0.010528087615966797,7.522836685180664,6.000009536743164,3.1415913105010986,0.3727292782287903,0.0,0.3364714357241647
1759829788.2226026,1,7.520274814577302,6.000009539900863,3.1415912393996557,0.3727292782287903,True,0.011388063430786133,7.522836685180664,6.000009536743164,3.1415913105010986,0.3727292782287903,0.0,0.3364714357241647
1759829788.2336705,1,7.5202824063536715,6.000009540177314,3.1415912420907386,0.3727292782287903,True,0.011067867279052734,7.522836685180664,6.000009536743164,3.1415913105010986,0.3727292782287903,0.0,0.3364714357241647
1759829788.2443364,1,7.520342535119453,6.0000095401978495,3.141591245183019,0.3727292782287903,True,0.0106658935546875,7.522836685180664,6.000009536743164,3.1415913105010986,0.3727292782287903,0.0,0.3364714357241647
1759829788.2556696,1,7.520270494035503,6.00000954033495,3.1415912470856995,0.3727292782287903,True,0.011333227157592773,7.522836685180664,6.000009536743164,3.1415913105010986,0.3727292782287903,0.0,0.3364714357241647
1759829788.2663906,1,7.520330144039574,6.00000954026156,3.141591249741756,0.3727292782287903,True,0.010720968246459961,7.522836685180664,6.000009536743164,3.1415913105010986,0.3727292782287903,0.0,0.3364714357241647
1759829788.2770584,1,7.52036049774386,6.000009540218868,3.14159125225874,0.3727292782287903,True,0.010667800903320312,7.522836685180664,6.000009536743164,3.1415913105010986,0.3727292782287903,0.0,0.3364714357241647
1759829788.2872548,1,7.52043919838966,6.000009540104674,3.1415912550942853,0.3727292782287903,True,0.010196447372436523,7.522836685180664,6.000009536743164,3.1415913105010986,0.3727292782287903,0.0,0.3364714357241647
1759829788.298273,1,7.520352255658456,6.000009540220718,3.1415912566248494,0.3727292782287903,True,0.01101827621459961,7.522836685180664,6.000009536743164,3.1415913105010986,0.3727292782287903,0.0,0.3364714357241647
1759829788.3101637,1,7.520194846737051,6.000009540436273,3.1415912571660805,0.3727292782287903,True,0.011890649795532227,7.522836685180664,6.000009536743164,3.1415913105010986,0.3727292782287903,0.0,0.33655255369542747
1759829788.3215187,1,7.520210993222566,6.00000954041106,3.141591258620469,0.3727292782287903,True,0.011354923248291016,7.522836685180664,6.000009536743164,3.1415913105010986,0.3727292782287903,0.0,0.33655255369542747
1759829788.3351192,1,7.478627714119714,6.000010719530639,3.1415912578934417,0.3559411841679898,True,0.013600587844848633,7.4559197425842285,6.000011444091797,3.1415913105010986,0.3559411841679898,0.0,0.33655255369542747
1759829788.3466814,1,7.463021461220712,6.000011169527938,3.14159125997303,0.3559411841679898,True,0.011562108993530273,7.4559197425842285,6.000011444091797,3.1415913105010986,0.3559411841679898,0.0,0.2780296581327715
1759829788.3575153,1,7.457159397783301,6.00001134127018,3.141591262776309,0.3559411841679898,True,0.010833978652954102,7.4559197425842285,6.000011444091797,3.1415913105010986,0.3559411841679898,0.0,0.2780296581327715
1759829788.368272,1,7.454930791182594,6.0000114068511445,3.14159126528509,0.3559411841679898,True,0.010756731033325195,7.4559197425842285,6.000011444091797,3.1415913105010986,0.3559411841679898,0.0,0.2780296581327715
1759829788.3792248,1,7.454052894260899,6.000011431934215,3.141591267262431,0.3559411841679898,True,0.01095271110534668,7.4559197425842285,6.000011444091797,3.1415913105010986,0.3559411841679898,0.0,0.2780296581327715
1759829788.3905876,1,7.453661814056725,6.000011441589505,3.14159126867159,0.3559411841679898,True,0.011362791061401367,7.4559197425842285,6.000011444091797,3.1415913105010986,0.3559411841679898,0.0,0.2780296581327715
1759829788.4009337,1,7.453650651325803,6.000011445083819,3.1415912708717997,0.3559411841679898,True,0.010346174240112305,7.4559197425842285,6.000011444091797,3.1415913105010986,0.3559411841679898,0.0,0.2780296581327715
1759829788.4122534,1,7.453514038002128,6.00001144659855,3.1415912720249786,0.3559411841679898,True,0.011319637298583984,7.4559197425842285,6.000011444091797,3.1415913105010986,0.3559411841679898,0.0,0.2780296581327715
1759829788.4233289,1,7.453495049088797,6.000011447129475,3.141591273336628,0.3559411841679898,True,0.011075496673583984,7.4559197425842285,6.000011444091797,3.1415913105010986,0.3559411841679898,0.0,0.2780296581327715
1759829788.4340253,1,7.4535393354668384,6.000011447259132,3.141591274897687,0.3559411841679898,True,0.0106964111328125,7.4559197425842285,6.000011444091797,3.1415913105010986,0.3559411841679898,0.0,0.2780296581327715
1759829788.444257,1,7.453619427760953,6.000011447219269,3.14159127666068,0.3559411841679898,True,0.010231733322143555,7.4559197425842285,6.000011444091797,3.1415913105010986,0.3559411841679898,0.0,0.2780296581327715
1759829788.4553006,1,7.453539647974896,6.0000114473536525,3.1415912776300523,0.3559411841679898,True,0.011043548583984375,7.4559197425842285,6.000011444091797,3.1415913105010986,0.3559411841679898,0.0,0.2780296581327715
1759829788.4674888,1,7.4533535514575355,6.000011447617759,3.141591277808569,0.3559411841679898,True,0.012188196182250977,7.4559197425842285,6.000011444091797,3.1415913105010986,0.3559411841679898,0.0,0.2780296581327715
1759829788.4783604,1,7.453461463318961,6.0000114474719455,3.141591279095186,0.3559411841679898,True,0.010871648788452148,7.4559197425842285,6.000011444091797,3.1415913105010986,0.3559411841679898,0.0,0.2780296581327715
1759829788.4888637,1,7.453552762814737,6.000011447345494,3.1415912805802986,0.3559411841679898,True,0.010503292083740234,7.4559197425842285,6.000011444091797,3.1415913105010986,0.3559411841679898,0.0,0.2780296581327715
1759829788.5004315,1,7.45344290413378,6.0000114474938835,3.1415912812542928,0.3559411841679898,True,0.011567831039428711,7.4559197425842285,6.000011444091797,3.1415913105010986,0.3559411841679898,0.0,0.2780296581327715
1759829788.5104587,1,7.453610406149101,6.000011447261947,3.1415912828736854,0.3559411841679898,True,0.010027170181274414,7.4559197425842285,6.000011444091797,3.1415913105010986,0.3559411841679898,0.0,0.2780296581327715
1759829788.5214286,1,7.453546218192303,6.000011447346909,3.141591283758494,0.3559411841679898,True,0.010969877243041992,7.4559197425842285,6.000011444091797,3.1415913105010986,0.3559411841679898,0.0,0.36056997996891305
1759829788.533154,1,7.41853729415521,6.000014099372182,3.14159128413446,0.2807138009357401,True,0.011725425720214844,7.398934841156006,6.000015735626221,3.1415913105010986,0.2807138009357401,0.0,0.36056997996891305
1759829788.5444903,1,7.405206795508577,6.000015112297562,3.141591284901466,0.2807138009357401,True,0.011336326599121094,7.398934841156006,6.000015735626221,3.1415913105010986,0.2807138009357401,0.0,0.34119877018388767
1759829788.5559435,1,7.400102471759161,6.000015499216684,3.141591285646724,0.2807138009357401,True,0.01145315170288086,7.398934841156006,6.000015735626221,3.1415913105010986,0.2807138009357401,0.0,0.34119877018388767
1759829788.5663636,1,7.398263562329985,6.000015646854089,3.1415912869180733,0.2807138009357401,True,0.010420083999633789,7.398934841156006,6.000015735626221,3.1415913105010986,0.2807138009357401,0.0,0.34119877018388767
1759829788.576434,1,7.397598663798473,6.000015703193867,3.141591288209277,0.2807138009357401,True,0.010070323944091797,7.398934841156006,6.000015735626221,3.1415913105010986,0.2807138009357401,0.0,0.34119877018388767
1759829788.587922,1,7.397192666130771,6.000015724919999,3.141591288651199,0.2807138009357401,True,0.011488199234008789,7.398934841156006,6.000015735626221,3.1415913105010986,0.2807138009357401,0.0,0.34119877018388767
1759829788.5993881,1,7.397039966271807,6.000015733214845,3.1415912891422675,0.2807138009357401,True,0.011466026306152344,7.398934841156006,6.000015735626221,3.1415913105010986,0.2807138009357401,0.0,0.34119877018388767
1759829788.610674,1,7.397000966489556,6.000015736356205,3.141591289780658,0.2807138009357401,True,0.011285781860351562,7.398934841156006,6.000015735626221,3.1415913105010986,0.2807138009357401,0.0,0.34119877018388767
1759829788.6219637,1,7.39698563531052,6.000015737555915,3.1415912904385337,0.2807138009357401,True,0.011289834976196289,7.398934841156006,6.000015735626221,3.1415913105010986,0.2807138009357401,0.0,0.34119877018388767
1759829788.632818,1,7.397026484724557,6.000015737949686,3.1415912912701565,0.2807138009357401,True,0.010854244232177734,7.398934841156006,6.000015735626221,3.1415913105010986,0.2807138009357401,0.0,0.34119877018388767
1759829788.6439762,1,7.397009493729507,6.000015738143544,3.1415912919250317,0.2807138009357401,True,0.011158227920532227,7.398934841156006,6.000015735626221,3.1415913105010986,0.2807138009357401,0.0,0.34119877018388767
1759829788.6541193,1,7.397111855201431,6.000015738068561,3.141591292928249,0.2807138009357401,True,0.010143041610717773,7.398934841156006,6.000015735626221,3.1415913105010986,0.2807138009357401,0.0,0.34119877018388767
1759829788.6654942,1,7.397018864686306,6.000015738218608,3.1415912933583723,0.2807138009357401,True,0.011374950408935547,7.398934841156006,6.000015735626221,3.1415913105010986,0.2807138009357401,0.0,0.34119877018388767
1759829788.6769013,1,7.396979894331982,6.000015738280091,3.141591293786508,0.2807138009357401,True,0.011407136917114258,7.398934841156006,6.000015735626221,3.1415913105010986,0.2807138009357401,0.0,0.34119877018388767
1759829788.6870134,1,7.397103872555869,6.000015738114184,3.1415912946843,0.2807138009357401,True,0.01011204719543457,7.398934841156006,6.000015735626221,3.1415913105010986,0.2807138009357401,0.0,0.34119877018388767
1759829788.6984763,1,7.397006382476001,6.000015738246719,3.1415912950373954,0.2807138009357401,True,0.011462926864624023,7.398934841156006,6.000015735626221,3.1415913105010986,0.2807138009357401,0.0,0.34119877018388767
1759829788.7097232,1,7.39699230555083,6.000015738265435,3.141591295476527,0.2807138009357401,True,0.011246919631958008,7.398934841156006,6.000015735626221,3.1415913105010986,0.2807138009357401,0.0,0.34119877018388767
1759829788.719933,1,7.39709813198516,6.000015738121,3.141591296247375,0.2807138009357401,True,0.010209798812866211,7.398934841156006,6.000015735626221,3.1415913105010986,0.2807138009357401,0.0,0.34119877018388767
1759829788.7381165,1,7.352153440822315,6.000015739860319,3.141591294654642,0.3480183079904798,True,0.018183469772338867,7.328287124633789,6.000015735626221,3.1415913105010986,0.3480183079904798,0.0,0.34119877018388767
1759829788.7480328,1,7.3360850601839065,6.000015739034669,3.141591295965082,0.3480183079904798,True,0.009916305541992188,7.328287124633789,6.000015735626221,3.1415913105010986,0.3480183079904798,0.0,0.4119670298222946
1759829788.7595255,1,7.329737929092626,6.000015739002126,3.1415912967458404,0.3480183079904798,True,0.011492729187011719,7.328287124633789,6.000015735626221,3.1415913105010986,0.3480183079904798,0.0,0.4119670298222946
1759829788.770218,1,7.32741993501883,6.000015738844142,3.1415912976013587,0.3480183079904798,True,0.010692358016967773,7.328287124633789,6.000015735626221,3.1415913105010986,0.3480183079904798,0.0,0.4119670298222946
1759829788.781575,1,7.326446179260974,6.000015738902431,3.1415912981577865,0.3480183079904798,True,0.01135706901550293,7.328287124633789,6.000015735626221,3.1415913105010986,0.3480183079904798,0.0,0.4119670298222946
1759829788.7930293,1,7.326061306808352,6.000015738941393,3.141591298628848,0.3480183079904798,True,0.011454343795776367,7.328287124633789,6.000015735626221,3.1415913105010986,0.3480183079904798,0.0,0.4119670298222946
1759829788.803718,1,7.326016065668925,6.000015738817654,3.141591299245597,0.3480183079904798,True,0.01068878173828125,7.328287124633789,6.000015735626221,3.1415913105010986,0.3480183079904798,0.0,0.4119670298222946
1759829788.8145854,1,7.325975046840014,6.000015738801676,3.1415912997476347,0.3480183079904798,True,0.01086735725402832,7.328287124633789,6.000015735626221,3.1415913105010986,0.3480183079904798,0.0,0.4119670298222946
1759829788.825734,1,7.325922012688641,6.00001573884545,3.14159130013204,0.3480183079904798,True,0.011148452758789062,7.328287124633789,6.000015735626221,3.1415913105010986,0.3480183079904798,0.0,0.4119670298222946
1759829788.8371649,1,7.325864198932915,6.000015738912441,3.141591300435813,0.3480183079904798,True,0.011430978775024414,7.328287124633789,6.000015735626221,3.1415913105010986,0.3480183079904798,0.0,0.4119670298222946
1759829788.8475275,1,7.325984133538905,6.000015738745374,3.1415913009551097,0.3480183079904798,True,0.010362625122070312,7.328287124633789,6.000015735626221,3.1415913105010986,0.3480183079904798,0.0,0.4119670298222946
1759829788.8589125,1,7.325894043785382,6.000015738864697,3.141591301217476,0.3480183079904798,True,0.011384963989257812,7.328287124633789,6.000015735626221,3.1415913105010986,0.3480183079904798,0.0,0.4119670298222946
1759829788.8693705,1,7.325982855954373,6.000015738743215,3.1415913016495214,0.3480183079904798,True,0.010457992553710938,7.328287124633789,6.000015735626221,3.1415913105010986,0.3480183079904798,0.0,0.4119670298222946
1759829788.880726,1,7.325897454062429,6.000015738857555,3.1415913018784423,0.3480183079904798,True,0.01135563850402832,7.328287124633789,6.000015735626221,3.1415913105010986,0.3480183079904798,0.0,0.4119670298222946
1759829788.8909714,1,7.326012428951736,6.000015738701356,3.1415913023039135,0.3480183079904798,True,0.010245323181152344,7.328287124633789,6.000015735626221,3.1415913105010986,0.3480183079904798,0.0,0.4119670298222946
1759829788.9012678,1,7.326049563094073,6.000015738650286,3.141591302674424,0.3480183079904798,True,0.010296344757080078,7.328287124633789,6.000015735626221,3.1415913105010986,0.3480183079904798,0.0,0.6079253166183429
1759829788.9114053,1,7.3260848547851065,6.0000157386017605,3.1415913030238904,0.3480183079904798,True,0.010137557983398438,7.328287124633789,6.000015735626221,3.1415913105010986,0.3480183079904798,0.0,0.6079253166183429
1759829788.9220603,1,7.326029560638522,6.000015738675652,3.1415913032486102,0.3480183079904798,True,0.010654926300048828,7.328287124633789,6.000015735626221,3.1415913105010986,0.3480183079904798,0.0,0.6079253166183429
1759829788.9381723,1,7.269595636150137,6.000019866268939,3.1415913025036577,0.43938077852492347,True,0.016112089157104492,7.239092826843262,6.0000224113464355,3.1415913105010986,0.43938077852492347,0.0,0.6079253166183429
1759829788.9482248,1,7.249056776656362,6.000021441493548,3.1415913031273295,0.43938077852492347,True,0.01005244255065918,7.239092826843262,6.0000224113464355,3.1415913105010986,0.43938077852492347,0.0,0.4730497836602865
1759829788.959518,1,7.241003400488129,6.000022043455449,3.1415913034781315,0.43938077852492347,True,0.011293172836303711,7.239092826843262,6.0000224113464355,3.1415913105010986,0.43938077852492347,0.0,0.4730497836602865
1759829788.9711618,1,7.237868424748637,6.000022273463042,3.1415913037254093,0.43938077852492347,True,0.01164388656616211,7.239092826843262,6.0000224113464355,3.1415913105010986,0.43938077852492347,0.0,0.4730497836602865
1759829788.9814024,1,7.236906489666596,6.000022360999603,3.141591304141315,0.43938077852492347,True,0.010240554809570312,7.239092826843262,6.0000224113464355,3.1415913105010986,0.43938077852492347,0.0,0.4730497836602865
1759829788.9923658,1,7.236417742415969,6.000022394598589,3.1415913044040664,0.43938077852492347,True,0.01096343994140625,7.239092826843262,6.0000224113464355,3.1415913105010986,0.43938077852492347,0.0,0.4730497836602865
1759829789.0046425,1,7.236010663561193,6.000022407729147,3.141591304477778,0.43938077852492347,True,0.012276649475097656,7.239092826843262,6.0000224113464355,3.1415913105010986,0.43938077852492347,0.0,0.4730497836602865
1759829789.0156298,1,7.236071565947906,6.00002241245245,3.141591304735032,0.43938077852492347,True,0.010987281799316406,7.239092826843262,6.0000224113464355,3.1415913105010986,0.43938077852492347,0.0,0.4730497836602865
1759829789.0260184,1,7.236195302332654,6.000022414120585,3.141591305046923,0.43938077852492347,True,0.010388612747192383,7.239092826843262,6.0000224113464355,3.1415913105010986,0.43938077852492347,0.0,0.4730497836602865
1759829789.0377603,1,7.236015449151441,6.000022415063514,3.141591305168731,0.43938077852492347,True,0.011741876602172852,7.239092826843262,6.0000224113464355,3.1415913105010986,0.43938077852492347,0.0,0.4730497836602865
1759829789.0480268,1,7.2361943545040415,6.000022415089545,3.1415913054529323,0.43938077852492347,True,0.010266542434692383,7.239092826843262,6.0000224113464355,3.1415913105010986,0.43938077852492347,0.0,0.4730497836602865
1759829789.0587935,1,7.236178742074873,6.000022415212183,3.1415913056534954,0.43938077852492347,True,0.010766744613647461,7.239092826843262,6.0000224113464355,3.1415913105010986,0.43938077852492347,0.0,0.4730497836602865
1759829789.0707145,1,7.235979073603833,6.000022415519787,3.141591305720395,0.43938077852492347,True,0.011920928955078125,7.239092826843262,6.0000224113464355,3.1415913105010986,0.43938077852492347,0.0,0.4730497836602865
1759829789.0819426,1,7.236019086085437,6.000022415480404,3.1415913058756875,0.43938077852492347,True,0.011228084564208984,7.239092826843262,6.0000224113464355,3.1415913105010986,0.43938077852492347,0.0,0.4730497836602865
