timestamp,observer_vehicle_id,vehicle_0_x,vehicle_0_y,vehicle_0_theta,vehicle_0_velocity,vehicle_1_x,vehicle_1_y,vehicle_1_theta,vehicle_1_velocity,vehicle_2_x,vehicle_2_y,vehicle_2_theta,vehicle_2_velocity
1759838346.4704697,1,0.0,0.0,0.0,0.0,-1.735,-0.35,-0.7801621756414646,0.0,0.0,0.0,0.0,0.0
1759838346.48108,1,-0.23868595862388614,-0.16440609598159792,1.7427932745621926,0.0,-1.735,-0.35,-0.7801621756414646,0.0,0.0,0.0,0.0,0.0
1759838346.4923449,1,-0.42791602291034325,-0.29474713611251857,-3.1372672116647498,0.0,-1.735,-0.35,-0.7801621756414646,0.0,0.0,0.0,0.0,0.0
1759838346.5027945,1,-0.5784657423895383,-0.39844528313968197,-0.78355309831032,0.0,-1.735,-0.35,-0.7801621756414646,0.0,0.0,0.0,0.0,0.0
1759838346.5129008,1,-0.6985820576327637,-0.48118100235285793,1.1140270057831512,0.0,-1.735,-0.35,-0.7801621756414646,0.0,0.0,0.0,0.0,0.0
1759838346.5241287,1,-0.7945330194273226,-0.5472717063275333,2.6519249076743843,0.0,-1.735,-0.35,-0.7801621756414646,0.0,0.0,0.0,0.0,0.0
1759838346.5349207,1,-0.8714182078330488,-0.6002299688808551,-2.3774748581669507,0.0,-1.735,-0.35,-0.7801621756414646,0.0,0.0,0.0,0.0,0.0
1759838346.545715,1,-0.9372113025242059,-0.645547966202177,-2.050114334830939,0.0,-1.735,-0.35,-0.7801621756414646,0.0,0.0,0.0,0.0,0.0
1759838346.5571318,1,-0.9894164260201004,-0.6815066280929393,-1.7903622038716083,0.0,-1.735,-0.35,-0.7801621756414646,0.0,0.0,0.0,0.0,0.0
1759838346.5687294,1,-1.0309441655575224,-0.7101107543762769,-1.5837365296766648,0.0,-1.735,-0.35,-0.7801621756414646,0.0,0.0,0.0,0.0,0.0
1759838346.5796762,1,-1.0640913729102361,-0.7329424065590929,-1.41880908254793,0.0,-1.735,-0.35,-0.7801621756414646,0.0,0.0,0.0,0.0,0.0
1759838346.5908067,1,-1.0921382959125805,-0.7522610050755173,-1.2792586413487226,0.0,-1.735,-0.35,-0.7801621756414646,0.0,0.0,0.0,0.0,0.0
1759838346.602148,1,-1.1143466669970628,-0.7675580344376695,-1.168758534691882,0.0,-1.735,-0.35,-0.7801621756414646,0.0,0.0,0.0,0.0,0.0
1759838346.6130037,1,-1.1319881649877548,-0.779709421485796,-1.080981389662096,0.0,-1.735,-0.35,-0.7801621756414646,0.0,0.0,0.0,0.0,0.0
1759838346.6234806,1,-1.1460435725844265,-0.7893907250755733,-1.0110472178748278,0.0,-1.735,-0.35,-0.7801621756414646,0.0,0.0,0.0,0.0,0.0
1759838346.6347165,1,-1.1572607082339557,-0.7971170392990413,-0.955235169303499,0.0,-1.735,-0.35,-0.7801621756414646,0.0,0.0,0.0,0.0,0.0
1759838346.645702,1,-1.1667639329081352,-0.803662819100858,-0.9079508666373526,0.0,-1.735,-0.35,-0.7801621756414646,0.0,0.0,0.0,0.0,0.0
1759838346.6558907,1,-1.174297483200778,-0.8088518957598091,-0.8704668878405745,0.0,-1.735,-0.35,-0.7801621756414646,0.0,0.0,0.0,0.0,0.0
1759838346.667765,1,-1.1802738061830442,-0.8129683610237253,-0.8407310587496434,0.0,-1.7350000141859054,-0.34999975765744845,-0.722999650207889,0.0,0.0,0.0,0.0,0.0
1759838346.677956,1,-1.1850364263075075,-0.8162488330406754,-0.8170341370025584,0.0,-1.7350000142652677,-0.349999756301678,-0.7181197856981871,0.0,0.0,0.0,0.0,0.0
1759838346.6884131,1,-1.1888399469094393,-0.8188686814800756,-0.7981093166910577,0.0,-1.735000014290167,-0.34999975587631593,-0.7176598821605733,0.0,0.0,0.0,0.0,0.0
1759838346.6989942,1,-1.1920561932431724,-0.8210840179590938,-0.782106541811252,0.0,-1.73500001429942,-0.3499997557182411,-0.717598011969665,0.0,0.0,0.0,0.0,0.0
1759838346.70931,1,-1.1946056240096992,-0.8228400547771019,-0.7694215785357467,0.0,-1.7350000143029403,-0.34999975565810176,-0.7175905920561583,0.0,0.0,0.0,0.0,0.0
1759838346.7207851,1,-1.196629061525621,-0.8242337897329791,-0.759353750486933,0.0,-1.7350000143042843,-0.3499997556351439,-0.7175946293200681,0.0,0.0,0.0,0.0,0.0
1759838346.7313068,1,-1.1982409897202395,-0.8253440788590461,-0.7513334307277328,0.0,-1.7350000143047974,-0.34999975562637553,-0.7176071698547108,0.0,0.0,0.0,0.0,0.0
1759838346.7416182,1,-1.1995285836943756,-0.8262309679854014,-0.7449268702946644,0.0,-1.7350000143049935,-0.3499997556230263,-0.7176197996928712,0.0,0.0,0.0,0.0,0.0
1759838346.7520752,1,-1.200618085423628,-0.826981412035489,-0.7395059388437618,0.0,-1.7350000143050683,-0.34999975562174707,-0.7176304053746936,0.0,0.0,0.0,0.0,0.0
1759838346.7628047,1,-1.201481237348848,-0.8275759473255316,-0.7352112348587181,0.0,-1.735000014305097,-0.3499997556212584,-0.7176390389847604,0.0,0.0,0.0,0.0,0.0
1759838346.7733138,1,-1.20216697096634,-0.828048277657256,-0.7317992944879989,0.0,-1.7350000143051079,-0.3499997556210718,-0.7176466587708905,0.0,0.0,0.0,0.0,0.0
1759838346.7846262,1,-1.2027126611846404,-0.8284241467050228,-0.729084154908676,0.0,-1.735000014305112,-0.3499997556210005,-0.7176522790905189,0.0,0.0,0.0,0.0,0.0
1759838346.7951539,1,-1.2031484275213689,-0.8287243006615024,-0.7269159532651247,0.0,-1.7350000143051136,-0.34999975562097324,-0.7176579584153515,0.0,0.0,0.0,0.0,0.0
1759838346.8054163,1,-1.2035164395596223,-0.8289777857520286,-0.7250848703224213,0.0,-1.7350000143051143,-0.34999975562096286,-0.7176628822159027,0.0,0.0,0.0,0.0,0.0
1759838346.8163722,1,-1.2038080576984163,-0.829178651057039,-0.7236338933319336,0.0,-1.7350000143051145,-0.34999975562095886,-0.717666411671539,0.0,0.0,0.0,0.0,0.0
1759838346.8278236,1,-1.2040396251672314,-0.8293381537218815,-0.7224817048213495,0.0,-1.7350000143051147,-0.34999975562095736,-0.7176691881099408,0.0,0.0,0.0,0.0,0.0
1759838346.837975,1,-1.2042242560122975,-0.8294653266445328,-0.7215630544622417,0.0,-1.7350000143051147,-0.34999975562095675,-0.7176725413497812,0.0,0.0,0.0,0.0,0.0
1759838346.848612,1,-1.2043717429813137,-0.8295669150269942,-0.7208292173994159,0.0,-1.7350000143051147,-0.34999975562095653,-0.71767505514039,0.0,0.0,0.0,0.0,0.0
1759838346.8592174,1,-1.204496808088803,-0.8296530593288057,-0.7202069426875948,0.0,-1.7350000143051147,-0.3499997556209565,-0.7176772208110265,0.0,0.0,0.0,0.0,0.0
1759838346.8701124,1,-1.2045958820373446,-0.8297213010334359,-0.7197139897448013,0.0,-1.7350000143051147,-0.3499997556209564,-0.7176789696468154,0.0,0.0,0.0,0.0,0.0
1759838346.881357,1,-1.2046745419623148,-0.8297754816474628,-0.7193226089422304,0.0,-1.7350000143051147,-0.3499997556209564,-0.717680396741363,0.0,0.0,0.0,0.0,0.0
1759838346.8923485,1,-1.204737177123664,-0.82981862447404,-0.7190109610512968,0.0,-1.7350000143051147,-0.3499997556209564,-0.7176818592823562,0.0,0.0,0.0,0.0,0.0
1759838346.903282,1,-1.204787184787521,-0.8298530695352938,-0.7187621426139231,0.0,-1.7350000143051147,-0.3499997556209564,-0.7176832259270807,0.0,0.0,0.0,0.0,0.0
1759838346.913529,1,-1.2048296243734726,-0.8298823017374194,-0.7185509799511466,0.0,-1.7350000143051147,-0.3499997556209564,-0.7176847193573614,0.0,0.0,0.0,0.0,0.0
1759838346.924038,1,-1.2048632441820772,-0.829905458915288,-0.718383701026346,0.0,-1.7350000143051147,-0.3499997556209564,-0.717685900394196,0.0,0.0,0.0,0.0,0.0
1759838346.934904,1,-1.204889934250598,-0.8299238429183419,-0.7182509017585835,0.0,-1.7350000143051147,-0.3499997556209564,-0.7176868095959108,0.0,0.0,0.0,0.0,0.0
1759838346.945265,1,-1.2049111887965198,-0.8299384829570825,-0.7181451475102258,0.0,-1.7350000143051147,-0.3499997556209564,-0.7176878145578733,0.0,0.0,0.0,0.0,0.0
1759838346.9558349,1,-1.2049281526910067,-0.8299501676137858,-0.7180607418533234,0.0,-1.7350000143051147,-0.3499997556209564,-0.7176886433886515,0.0,0.0,0.0,0.0,0.0
1759838346.9673345,1,-1.204942464520761,-0.8299600255398419,-0.7179895318258845,0.0,-1.7350000143051147,-0.3499997556209564,-0.7176891230858438,0.0,0.0,0.0,0.0,0.0
1759838346.9776475,1,-1.20495380840501,-0.8299678391579492,-0.7179330891262077,0.0,-1.7350000143051147,-0.3499997556209564,-0.7176899693610483,0.0,0.0,0.0,0.0,0.0
1759838346.9886422,1,-1.2049628156921026,-0.829974043338103,-0.7178882724135978,0.0,-1.7350000143051147,-0.3499997556209564,-0.7176905503965649,0.0,-0.38653256177902223,0.039049699831008915,1.1705062004795466,0.0
1759838346.998714,1,-1.2049699932142526,-0.8299789871841265,-0.7178525598905992,0.0,-1.7350000143051147,-0.3499997556209564,-0.7176913351404401,0.0,-0.693296561112456,0.0700407295072584,2.112225604915079,0.0
1759838347.0091188,1,-1.2049757243558696,-0.8299829347695331,-0.7178240439874043,0.0,-1.7350000143051147,-0.3499997556209564,-0.7176919395873238,0.0,-0.9372560145879966,0.09468688967888994,2.8744723056853214,0.0
1759838347.0193589,1,-1.2049803126374246,-0.829986095157902,-0.7178012145057073,0.0,-1.7350000143051147,-0.3499997556209564,-0.7176925163992819,0.0,-1.1317823551521977,0.1143390379307605,-2.7876617301650493,0.0
1759838347.030879,1,-1.2049839897700898,-0.8299886279508805,-0.7177829185419855,0.0,-1.7350000143051147,-0.3499997556209564,-0.7176927478390667,0.0,-1.2870591714156985,0.13002597783020134,-1.0844579881392435,0.0
1759838347.0424473,1,-1.204987119589622,-0.8299907837569547,-0.7177673457928269,0.0,-1.7350000143051147,-0.3499997556209564,-0.717693018071131,0.0,-1.4113345921369886,0.14258098187230092,0.29401743176709366,0.0
1759838347.053215,1,-1.204989611369472,-0.8299925000840722,-0.7177549476778032,0.0,-1.7350000143051147,-0.3499997556209564,-0.7176935038925087,0.0,-1.511153205256211,0.15266522124896084,1.4156516701425705,0.0
1759838347.063246,1,-1.20499160177507,-0.8299938710667868,-0.7177450442035664,0.0,-1.7350000143051147,-0.3499997556209564,-0.7176941080939034,0.0,-1.5960817341500164,0.16124518032182222,2.314231771104482,0.0
1759838347.0746942,1,-1.204993193071484,-0.8299949671448322,-0.7177371265394201,0.0,-1.7350000143051147,-0.3499997556209564,-0.7176943611252451,0.0,-1.6637639919329208,0.16808282380040282,3.0452063347841998,0.0
1759838347.0857978,1,-1.2049944691702277,-0.8299958461160939,-0.7177307771747257,0.0,-1.7350000143051147,-0.3499997556209564,-0.7176946890706439,0.0,-1.7178672478755308,0.1735486399135793,-2.6390662581409177,0.0
1759838347.09593,1,-1.2049954962418508,-0.8299965535585586,-0.7177256668708916,0.0,-1.7350000143051147,-0.3499997556209564,-0.7176951879578262,0.0,-1.7612737011104904,0.1779338046762906,-0.9702011080309816,0.0
1759838347.1068337,1,-1.2049963241404074,-0.8299971238114817,-0.717721547573783,0.0,-1.7350000143051147,-0.3499997556209564,-0.7176954970320892,0.0,-1.7961520319237143,0.18145741040460092,0.3854351322026244,0.0
1759838347.1171968,1,-1.2049970327486916,-0.8299976118977843,-0.7177180218180808,0.0,-1.7350000143051147,-0.3499997556209564,-0.7176958737401761,0.0,-1.8242656625994114,0.18429760796517136,1.49223695721547,0.0
1759838347.1280675,1,-1.2049975997879623,-0.8299980024719663,-0.7177152004540273,0.0,-1.7350000143051147,-0.3499997556209564,-0.7176961370244612,0.0,-1.8469685444347452,0.18659118115571532,2.4009747841343216,0.0
1759838347.1388803,1,-1.2049980547279848,-0.8299983158326741,-0.7177129368516755,0.0,-1.7350000143051147,-0.3499997556209564,-0.7176964000667247,0.0,-1.8653493307176023,0.18844811187249627,-3.1314245939434104,0.0
1759838347.1497724,1,-1.2049984206215159,-0.8299985678585461,-0.7177111163095903,0.0,-1.7350000143051147,-0.3499997556209564,-0.7176966455703138,0.0,-1.8811877963111823,0.19004820301195025,-1.370185857122405,0.0
1759838347.1610157,1,-1.204998715530295,-0.82999877099043,-0.7177096489596689,0.0,-1.7350000143051147,-0.3499997556209564,-0.7176968390247236,0.0,-1.8939080882674741,0.19133327866086794,0.05941433436042078,0.0
1759838347.1712313,1,-1.2049989541170785,-0.8299989353279682,-0.7177084618458134,0.0,-1.7350000143051147,-0.3499997556209564,-0.7176971780441868,0.0,-1.9041623668090395,0.19236922372378504,1.2257546865187836,0.0
1759838347.1826725,1,-1.2049991473283685,-0.8299990684110642,-0.7177075005025391,0.0,-1.7350000143051147,-0.3499997556209564,-0.7176973261473147,0.0,-1.9124371516674903,0.19320518916845927,2.1826730551312665,0.0
1759838347.1934211,1,-1.2049993138144612,-0.8299991830859603,-0.7177066721333206,0.0,-1.7350000143051147,-0.3499997556209564,-0.7176975706203965,0.0,-1.9191373909221507,0.1938820851341865,2.972471099877809,0.0
1759838347.2042253,1,-1.204999447775978,-0.8299992753580699,-0.7177060055935812,0.0,-1.7350000143051147,-0.3499997556209564,-0.717697798801165,0.0,-1.9245757920176758,0.1944315030910165,-2.6544337365467197,0.0
1759838347.2155037,1,-1.204999555781602,-0.8299993497518738,-0.7177054682001396,0.0,-1.7350000143051147,-0.3499997556209564,-0.717697960186559,0.0,-1.9289985258715767,0.19487831261369262,-1.011625412242801,0.0
1759838347.2256222,1,-1.204999643200603,-0.8299994099657013,-0.717705033237625,0.0,-1.7350000143051147,-0.3499997556209564,-0.7176982533962182,0.0,-1.9328344790415135,0.19526584224162982,0.35042133370170725,0.0
1759838347.2369134,1,-1.2049997140290956,-0.8299994587520588,-0.7177046808229451,0.0,-1.7350000143051147,-0.3499997556209564,-0.7176983890738633,0.0,-1.9359310250784738,0.19557867278997915,1.4654606322481263,0.0
1759838347.2475517,1,-1.2049997716071954,-0.8299994984116034,-0.7177043943370006,0.0,-1.7350000143051147,-0.3499997556209564,-0.7176985941364631,0.0,-1.9384390409471877,0.19583204670081844,2.383396726540647,0.0
1759838347.2586977,1,-1.2049998185002961,-0.8299995307113671,-0.7177041610154025,0.0,-1.7350000143051147,-0.3499997556209564,-0.717698738361424,0.0,-1.940474191726249,0.19603764911285693,-3.1392072870590164,0.0
1759838347.2714865,1,-1.2049998567143603,-0.8299995570330481,-0.7177039708772726,0.0,-1.7350000143051147,-0.3499997556209564,-0.7176987308827005,0.0,-1.9421267170041612,0.19620459653836908,-1.4133640393086837,0.0
1759838347.2821589,1,-1.2049998900751182,-0.829999580011793,-0.7177038048872812,0.0,-1.7350000143051147,-0.3499997556209564,-0.7176989659256421,0.0,-1.943475759012232,0.19634088437200495,0.010992770580372091,0.0
1759838347.2930994,1,-1.2049999171243544,-0.8299995986431891,-0.7177036703009373,0.0,-1.7350000143051147,-0.3499997556209564,-0.71769916307624,0.0,-1.944579374629171,0.19645237784715214,1.1922690137978036,0.0
1759838347.3037536,1,-1.2049999391184516,-0.8299996137926274,-0.7177035608669736,0.0,-1.7350000143051147,-0.3499997556209564,-0.717699364531974,0.0,-1.9455472077444091,0.1965501981327643,0.9018213340616783,0.0
1759838347.314513,1,-1.2049999570436034,-0.8299996261393939,-0.7177034716784794,0.0,-1.7350000143051147,-0.3499997556209564,-0.7176995354442006,0.0,-1.946332660874306,0.19662958501082395,0.6661060691795656,0.0
1759838347.3259177,1,-1.204999971677311,-0.8299996362190281,-0.7177033988669148,0.0,-1.7350000143051147,-0.3499997556209564,-0.7176996403204292,0.0,-1.9469712032912905,0.19669412341173367,0.4744788552453666,0.0
1759838347.3370266,1,-1.2049999836589615,-0.8299996444719369,-0.7177033392509404,0.0,-1.7350000143051147,-0.3499997556209564,-0.7176997713249165,0.0,-1.947491840640776,0.1967467449778128,0.3182350692442556,0.0
1759838347.347338,1,-1.2049999935031943,-0.8299996512526017,-0.7177032902699153,0.0,-1.7350000143051147,-0.3499997556209564,-0.7176999582182333,0.0,-1.9479178147085057,0.19678979878978994,0.19039982817645895,0.0
1759838347.3579626,1,-1.2050000016070124,-0.8299996568344763,-0.7177032499485084,0.0,-1.7350000143051147,-0.3499997556209564,-0.7177001011143407,0.0,-1.948267023292787,0.19682509380389393,0.08560198498269082,0.0
1759838347.3695197,1,-1.2050000087346238,-0.8299996617439439,-0.7177032144843222,0.0,-1.7350000143051147,-0.3499997556209564,-0.7177001667144154,0.0,-1.9485536638887213,0.19685406498138402,-0.00041914272674048453,0.0
1759838347.3800604,1,-1.2050000145603321,-0.8299996657566665,-0.7177031854978917,0.0,-1.7350000143051147,-0.3499997556209564,-0.7177003081660374,0.0,-1.9487898482243025,0.19687793647203664,-0.07129829655970923,0.0
1759838347.3913922,1,-1.2050000193288533,-0.8299996690412031,-0.7177031617716085,0.0,-1.7350000143051147,-0.3499997556209564,-0.7177003904030901,0.0,-1.9489978123593321,0.19689895570641228,-0.13370854016127778,0.0
1759838347.4021266,1,-1.2050000232448053,-0.8299996717384939,-0.7177031422873733,0.0,-1.7350000143051147,-0.3499997556209564,-0.7177005113609081,0.0,-1.9491678909439338,0.19691614579369107,-0.18474929242801824,0.0
1759838347.4122038,1,-1.2050000264709657,-0.8299996739606592,-0.71770312623527,0.0,-1.7350000143051147,-0.3499997556209564,-0.7177006637586878,0.0,-1.9493074333439775,0.1969302495448568,-0.22662610536131694,0.0
1759838347.4232252,1,-1.2050000291317564,-0.8299996757934002,-0.7177031129962237,0.0,-1.7350000143051147,-0.3499997556209564,-0.717700742394646,0.0,-1.949422052584486,0.19694183427642536,-0.2610234533490065,0.0
1759838347.4340303,1,-1.2050000313322298,-0.8299996773090768,-0.7177031020475346,0.0,-1.7350000143051147,-0.3499997556209564,-0.7177008309425279,0.0,-1.9495164576802806,0.1969513759353007,-0.28935451641870985,0.0
1759838347.4454052,1,-1.2050000332759725,-0.8299996786479182,-0.7177030923762369,0.0,-1.7350000143051147,-0.3499997556209564,-0.7177008878841491,0.0,-1.9495943461487981,0.19695924823489072,-0.3127289232280684,0.0
1759838347.4562418,1,-1.2050000348726473,-0.8299996797477011,-0.7177030844318114,0.0,-1.7350000143051147,-0.3499997556209564,-0.717700978883931,0.0,-1.9496588132131754,0.19696576401385166,-0.3320755533164404,0.0
1759838347.4664063,1,-1.2050000361884976,-0.8299996806540528,-0.7177030778846594,0.0,-1.7350000143051147,-0.3499997556209564,-0.7177011004714906,0.0,-1.9497123453590544,0.19697117458486527,-0.34814060349610876,0.0
1759838347.4776564,1,-1.2050000372739285,-0.829999681401693,-0.7177030724839824,0.0,-1.7350000143051147,-0.3499997556209564,-0.7177011557778776,0.0,-1.9497599865127448,0.19697598974482158,-0.3624377610654204,0.0
1759838347.4880185,1,-1.205000038172525,-0.8299996820206423,-0.71770306801292,0.0,-1.7350000143051147,-0.3499997556209564,-0.717701253808233,0.0,-1.9497992441912355,0.19697995757487613,-0.37421902939558743,0.0
1759838347.4982884,1,-1.2050000389182465,-0.829999682534292,-0.7177030643025045,0.0,-1.7350000143051147,-0.3499997556209564,-0.7177013480610412,0.0,-1.9498316724798297,0.19698323514866675,-0.3839507910306369,0.0
1759838347.5086439,1,-1.2050000395384386,-0.8299996829614775,-0.7177030612166735,0.0,-1.7350000143051147,-0.3499997556209564,-0.7177014281897804,0.0,-1.9498585179773533,0.19698594846173056,-0.39200715151709564,0.0
1759838347.518817,1,-1.2050000400555305,-0.8299996833176482,-0.7177030586438278,0.0,-1.7350000143051147,-0.3499997556209564,-0.7177015085896451,0.0,-1.9498807980948285,0.19698820034526357,-0.39869343691383746,0.0
1759838347.5300267,1,-1.2050000405221217,-0.8299996836390341,-0.7177030563222542,0.0,-1.7350000143051147,-0.3499997556209564,-0.7177015395458888,0.0,-1.949899306129221,0.1969900709789316,-0.40424771642867263,0.0
1759838347.5404758,1,-1.2050000409075852,-0.8299996839045395,-0.7177030544043407,0.0,-1.7350000143051147,-0.3499997556209564,-0.7177016063894701,0.0,-1.9499147337257643,0.19699163026831362,-0.40887755348358684,0.0
1759838347.5515852,1,-1.205000041226503,-0.8299996841242088,-0.7177030528175311,0.0,-1.7350000143051147,-0.3499997556209564,-0.7177016465890241,0.0,-1.9499276117057907,0.19699293186428554,-0.4127422480879183,0.0
1759838347.5620122,1,-1.2050000414912412,-0.8299996843065593,-0.7177030515002982,0.0,-1.7350000143051147,-0.3499997556209564,-0.7177017151749645,0.0,-1.9499391541226339,0.19699409847296478,-0.4162061388537127,0.0
1759838347.5731761,1,-1.2050000417113,-0.8299996844581349,-0.7177030504053722,0.0,-1.7350000143051147,-0.3499997556209564,-0.7177017541206894,0.0,-1.949948724089386,0.19699506572327502,-0.4190780953868398,0.0
1759838347.5833807,1,-1.205000041894897,-0.8299996845845957,-0.7177030494918657,0.0,-1.7350000143051147,-0.3499997556209564,-0.717701828455759,0.0,-1.9499566879988466,0.1969958706470638,-0.42146807253063484,0.0
1759838347.5945935,1,-1.20500004204821,-0.8299996846901971,-0.7177030487290403,0.0,-1.7350000143051147,-0.3499997556209564,-0.7177018631993626,0.0,-1.9499633215036398,0.19699654110493847,-0.42345879391158253,0.0
1759838347.6046758,1,-1.2050000421767408,-0.8299996847787285,-0.7177030480895226,0.0,-1.7350000143051147,-0.3499997556209564,-0.7177019363106893,0.0,-1.9499688686484524,0.19699710176284668,-0.4251234975827072,0.0
1759838347.6160882,1,-1.2050000422921006,-0.829999684858188,-0.7177030475155372,0.0,-1.7350000143051147,-0.3499997556209564,-0.717701961535866,0.0,-1.9499735092223522,0.19699757079232824,-0.426516138421917,0.0
1759838347.6266456,1,-1.2050000423881269,-0.8299996849243304,-0.7177030470377481,0.0,-1.7350000143051147,-0.3499997556209564,-0.7177020163766469,0.0,-1.9499774054536454,0.1969979645900315,-0.42768540130517824,0.0
1759838347.6381218,1,-1.2050000424681477,-0.8299996849794484,-0.7177030466395954,0.0,-1.7350000143051147,-0.3499997556209564,-0.7177020429510517,0.0,-1.9499806799763209,0.19699829555075013,-0.42866808881435786,0.0
1759838347.6492443,1,-1.2050000425350282,-0.8299996850255155,-0.7177030463068238,0.0,-1.7350000143051147,-0.3499997556209564,-0.7177020836748066,0.0,-1.9499836493850493,0.19699859567316313,-0.42955921132484975,0.0
1759838347.6597345,1,-1.2050000425911085,-0.8299996850641433,-0.7177030460277899,0.0,-1.7350000143051147,-0.3499997556209564,-0.7177021426958312,0.0,-1.9499861316621163,0.1969988465604781,-0.430304145139536,0.0
1759838347.670571,1,-1.2050000426382168,-0.8299996850965913,-0.7177030457933982,0.0,-1.7350000143051147,-0.3499997556209564,-0.7177021875613949,0.0,-1.9499882104798423,0.19699905666957698,-0.4309280004051036,0.0
1759838347.6858397,1,-1.2050000426776344,-0.8299996851237419,-0.7177030455972718,0.0,-1.7350000143051147,-0.3499997556209564,-0.7177021214786414,0.0,-1.9499899448835833,0.19699923196825878,-0.4314484966914314,0.0
1759838347.6962736,1,-1.2050000427135206,-0.8299996851484601,-0.717703045418716,0.0,-1.7350000143051147,-0.3499997556209564,-0.7177022021585238,0.0,-1.9499914063626722,0.1969993796820533,-0.4318870880185024,0.0
1759838347.7076688,1,-1.2050000427435292,-0.8299996851691299,-0.7177030452694048,0.0,-1.7350000143051147,-0.3499997556209564,-0.7177022557666355,0.0,-1.9499926389229782,0.19699950425869703,-0.43225698059132245,0.0
1759838347.7183528,1,-1.2050000427687089,-0.8299996851864735,-0.7177030451441208,0.0,-1.7350000143051147,-0.3499997556209564,-0.7177023187508187,0.0,-1.9499936819827788,0.19699960968225197,-0.43257000387404093,0.0
1759838347.7286088,1,-1.2050000427898977,-0.8299996852010683,-0.7177030450386939,0.0,-1.7350000143051147,-0.3499997556209564,-0.717702382272428,0.0,-1.9499946388928877,0.1969997063985336,-0.43285717354872144,0.0
1759838347.7398815,1,-1.2050000428077419,-0.8299996852133593,-0.7177030449499082,0.0,-1.7350000143051147,-0.3499997556209564,-0.7177024148985485,0.0,-1.9499954421387566,0.1969997875837494,-0.43309822843229306,0.0
1759838347.751218,1,-1.2050000428228038,-0.8299996852237339,-0.7177030448749658,0.0,-1.7350000143051147,-0.3499997556209564,-0.7177024445149449,0.0,-1.949996117956515,0.1969998558896227,-0.43330104201328973,0.0
1759838347.7617204,1,-1.2050000428355632,-0.8299996852325224,-0.7177030448114808,0.0,-1.7350000143051147,-0.3499997556209564,-0.7177024904125773,0.0,-1.9499966886022275,0.19699991356560598,-0.43347229335867915,0.0
1759838347.7721398,1,-1.205000042846397,-0.8299996852399847,-0.7177030447575762,0.0,-1.7350000143051147,-0.3499997556209564,-0.7177025331377713,0.0,-1.9499971715744204,0.1969999623803005,-0.43361723379378453,0.0
1759838347.7837138,1,-1.2050000428555998,-0.8299996852463237,-0.7177030447117857,0.0,-1.7350000143051147,-0.3499997556209564,-0.7177025500960461,0.0,-1.9499975805507437,0.19700000371612597,-0.43373996799483505,0.0
1759838347.7950363,1,-1.2050000428640961,-0.8299996852521758,-0.7177030446695118,0.0,-1.7350000143051147,-0.3499997556209564,-0.7177025735517795,0.0,-1.9499979278292798,0.19700003881606734,-0.4338441866286411,0.0
1759838347.8058496,1,-1.2050000428712733,-0.8299996852571194,-0.7177030446338012,0.0,-1.7350000143051147,-0.3499997556209564,-0.717702606967002,0.0,-1.9499982236350306,0.19700006871358025,-0.433932958228454,0.0
1759838347.8172228,1,-1.205000042877345,-0.8299996852613016,-0.7177030446035906,0.0,-1.7350000143051147,-0.3499997556209564,-0.7177026294340826,0.0,-1.9499984965202104,0.19700009629447804,-0.4340148513420991,0.0
1759838347.8283215,1,-1.2050000428824958,-0.8299996852648496,-0.7177030445779617,0.0,-1.7350000143051147,-0.3499997556209564,-0.717702656489145,0.0,-1.9499987273772748,0.19700011962753372,-0.4340841317765401,0.0
1759838347.8397346,1,-1.2050000428868737,-0.8299996852678649,-0.71770304455618,0.0,-1.7350000143051147,-0.3499997556209564,-0.7177026782546108,0.0,-1.9499989230424308,0.1970001394036926,-0.43414285108429307,0.0
1759838347.8503487,1,-1.2050000428906076,-0.8299996852704369,-0.7177030445376017,0.0,-1.7350000143051147,-0.3499997556209564,-0.717702711856326,0.0,-1.949999089471454,0.19700015622491346,-0.4341927965995669,0.0
1759838347.8606489,1,-1.2050000428938006,-0.8299996852726363,-0.7177030445217134,0.0,-1.7350000143051147,-0.3499997556209564,-0.7177027466344743,0.0,-1.9499992314125083,0.19700017057110003,-0.4342353932509785,0.0
1759838347.8713665,1,-1.2050000428967698,-0.8299996852746815,-0.7177030445069399,0.0,-1.7350000143051147,-0.3499997556209564,-0.717702771156663,0.0,-1.9499993526488184,0.19700018282462836,-0.4342717763881214,0.0
1759838347.8841918,1,-1.205000042899282,-0.829999685276412,-0.7177030444944396,0.0,-1.7350000143051147,-0.3499997556209564,-0.717702766422713,0.0,-1.94999945608458,0.1970001932790296,-0.434302817562932,0.0
1759838347.8956769,1,-1.2050000429014176,-0.829999685277883,-0.7177030444838135,0.0,-1.7350000143051147,-0.3499997556209564,-0.7177027856213787,0.0,-1.9499995528308645,0.19700020305731578,-0.434331851219102,0.0
1759838347.9058867,1,-1.2050000429032408,-0.8299996852791388,-0.7177030444747418,0.0,-1.7350000143051147,-0.3499997556209564,-0.7177028218613106,0.0,-1.949999635155374,0.1970002113779724,-0.43435655688621266,0.0
1759838347.917183,1,-1.205000042904798,-0.8299996852802114,-0.7177030444669938,0.0,-1.7350000143051147,-0.3499997556209564,-0.7177028406217758,0.0,-1.9499997052416813,0.19700021846169635,-0.434377589856747,0.0
1759838347.9274158,1,-1.2050000429061334,-0.8299996852811311,-0.71770304446035,0.0,-1.7350000143051147,-0.3499997556209564,-0.7177028701522623,0.0,-1.9499997651453713,0.19700022451624852,-0.4343955670136871,0.0
1759838347.9381201,1,-1.2050000429072798,-0.8299996852819208,-0.7177030444546455,0.0,-1.7350000143051147,-0.3499997556209564,-0.7177028909163603,0.0,-1.9499998164158991,0.19700022969823452,-0.434410953349986,0.0
1759838347.949572,1,-1.2050000429082652,-0.8299996852825995,-0.717703044449743,0.0,-1.7350000143051147,-0.3499997556209564,-0.7177029018332206,0.0,-1.9499998603406168,0.19700023413776893,-0.4344241352013518,0.0
1759838347.9598293,1,-1.2050000429091943,-0.8299996852832395,-0.7177030444451199,0.0,-1.7350000143051147,-0.3499997556209564,-0.7177029259719063,0.0,-1.9499998981314453,0.19700023795734237,-0.4344354762665615,0.0
1759838347.970097,1,-1.205000042909989,-0.8299996852837869,-0.7177030444411664,0.0,-1.7350000143051147,-0.3499997556209564,-0.7177029476315226,0.0,-1.9499999307116231,0.19700024125026783,-0.4344452536103141,0.0
1759838347.9814856,1,-1.2050000429106686,-0.829999685284255,-0.7177030444377844,0.0,-1.7350000143051147,-0.3499997556209564,-0.7177029559936408,0.0,-1.9499999611865775,0.1970002443304153,-0.4344543991743672,0.0
1759838347.9923072,1,-1.205000042911252,-0.8299996852846568,-0.717703044434882,0.0,-1.7350000143051147,-0.3499997556209564,-0.7177029707066449,0.0,-1.9499999872840739,0.19700024696812682,-0.4344622310589839,0.0
1759838348.0023654,1,-1.2050000429117542,-0.8299996852850028,-0.7177030444323828,0.0,-1.7350000143051147,-0.3499997556209564,-0.7177029921141287,0.0,-1.9500000097093344,0.19700024923468018,-0.4344689609019407,0.0
1759838348.0129375,1,-1.2050000429121874,-0.829999685285301,-0.717703044430228,0.0,-1.7350000143051147,-0.3499997556209564,-0.7177030065400452,0.0,-1.9500000290023103,0.197000251184649,-0.4344747507431851,0.0
1759838348.0245605,1,-1.205000042912561,-0.8299996852855583,-0.7177030444283697,0.0,-1.7350000143051147,-0.3499997556209564,-0.7177030111292098,0.0,-1.9500000456066973,0.19700025286287828,-0.4344797337362235,0.0
1759838348.035124,1,-1.2050000429128844,-0.8299996852857812,-0.7177030444267605,0.0,-1.7350000143051147,-0.3499997556209564,-0.717703026242889,0.0,-1.950000059955389,0.1970002543131212,-0.43448403979290695,0.0
1759838348.0459678,1,-1.2050000429131902,-0.8299996852859918,-0.717703044425239,0.0,-1.7350000143051147,-0.3499997556209564,-0.7177030386549674,0.0,-1.950000072374648,0.19700025556835357,-0.4344877668248336,0.0
1759838348.0568247,1,-1.2050000429134533,-0.8299996852861731,-0.7177030444239298,0.0,-1.7350000143051147,-0.3499997556209564,-0.7177030504957251,0.0,-1.9500000831463549,0.19700025665706547,-0.43449099942473846,0.0
1759838348.0680761,1,-1.20500004291368,-0.8299996852863292,-0.717703044422802,0.0,-1.7350000143051147,-0.3499997556209564,-0.7177030592188611,0.0,-1.9500000933753965,0.19700025769092944,-0.4344940691703341,0.0
1759838348.0802763,1,-1.2050000429138756,-0.8299996852864638,-0.7177030444218294,0.0,-1.7350000143051147,-0.3499997556209564,-0.7177030619999805,0.0,-1.9500001021756508,0.1970002585803838,-0.43449671013540236,0.0
1759838348.0910654,1,-1.2050000429140448,-0.8299996852865804,-0.7177030444209868,0.0,-1.7350000143051147,-0.3499997556209564,-0.7177030767844599,0.0,-1.9500001097828419,0.19700025934925358,-0.434498993061051,0.0
1759838348.1018531,1,-1.2050000429141918,-0.8299996852866817,-0.7177030444202551,0.0,-1.7350000143051147,-0.3499997556209564,-0.7177030908480777,0.0,-1.9500001163726293,0.19700026001529286,-0.43450097066279525,0.0
1759838348.1133194,1,-1.2050000429143195,-0.8299996852867696,-0.7177030444196195,0.0,-1.7350000143051147,-0.3499997556209564,-0.7177030993395377,0.0,-1.950000122086183,0.19700026059276995,-0.43450268530591923,0.0
1759838348.1240156,1,-1.2050000429144323,-0.8299996852868473,-0.7177030444190586,0.0,-1.7350000143051147,-0.3499997556209564,-0.7177031126456299,0.0,-1.9500001270577154,0.19700026109524987,-0.4345041772677475,0.0
1759838348.1352696,1,-1.2050000429145393,-0.829999685286921,-0.7177030444185262,0.0,-1.7350000143051147,-0.3499997556209564,-0.7177031216648917,0.0,-1.9500001314395974,0.197000261538133,-0.4345054922748641,0.0
1759838348.1455464,1,-1.2050000429146321,-0.829999685286985,-0.7177030444180644,0.0,-1.7350000143051147,-0.3499997556209564,-0.7177031359547641,0.0,-1.9500001353394725,0.19700026193229897,-0.434506662631198,0.0
1759838348.1568851,1,-1.2050000429147127,-0.8299996852870404,-0.717703044417664,0.0,-1.7350000143051147,-0.3499997556209564,-0.7177031428283716,0.0,-1.9500001389634873,0.19700026229858336,-0.4345077502016924,0.0
1759838348.1677103,1,-1.2050000429147827,-0.8299996852870886,-0.7177030444173155,0.0,-1.7350000143051147,-0.3499997556209564,-0.7177031524761741,0.0,-1.9500001421108053,0.19700026261668732,-0.4345086947149634,0.0
1759838348.1789637,1,-1.2050000429148444,-0.8299996852871312,-0.7177030444170079,0.0,-1.7350000143051147,-0.3499997556209564,-0.717703159561971,0.0,-1.9500001448476822,0.1970002628933074,-0.4345095160544323,0.0
1759838348.1894882,1,-1.2050000429148995,-0.829999685287169,-0.7177030444167344,0.0,-1.7350000143051147,-0.3499997556209564,-0.717703170306736,0.0,-1.9500001472726678,0.1970002631384042,-0.43451024379501363,0.0
1759838348.1994908,1,-1.2050000429149483,-0.8299996852872028,-0.7177030444164909,0.0,-1.7350000143051147,-0.3499997556209564,-0.7177031825729063,0.0,-1.950000149430905,0.19700026335654033,-0.4345108914841311,0.0
1759838348.2095606,1,-1.2050000429149919,-0.8299996852872329,-0.7177030444162741,0.0,-1.7350000143051147,-0.3499997556209564,-0.7177031927795846,0.0,-1.950000151351736,0.19700026355068148,-0.4345114679274456,0.0
1759838348.2206006,1,-1.205000042915031,-0.8299996852872599,-0.7177030444160795,0.0,-1.7350000143051147,-0.3499997556209564,-0.7177031972772596,0.0,-1.9500001530612758,0.19700026372346713,-0.43451198096199556,0.0
1759838348.2311227,1,-1.2050000429150654,-0.8299996852872835,-0.7177030444159079,0.0,-1.7350000143051147,-0.3499997556209564,-0.7177032042703164,0.0,-1.950000154582766,0.19700026387724634,-0.434512437562745,0.0
1759838348.242142,1,-1.2050000429150962,-0.8299996852873046,-0.7177030444157553,0.0,-1.7350000143051147,-0.3499997556209564,-0.7177032090244388,0.0,-1.9500001559368925,0.19700026401410983,-0.43451284393741196,0.0
1759838348.252891,1,-1.2050000429151235,-0.8299996852873234,-0.7177030444156195,0.0,-1.7350000143051147,-0.3499997556209564,-0.7177032151514027,0.0,-1.9500001571420649,0.19700026413591834,-0.43451320561086554,0.0
1759838348.263801,1,-1.2050000429151477,-0.8299996852873401,-0.7177030444154986,0.0,-1.7350000143051147,-0.3499997556209564,-0.7177032206283229,0.0,-1.9500001582146682,0.19700026424432793,-0.43451352750023925,0.0
1759838348.2747283,1,-1.2050000429151695,-0.829999685287355,-0.717703044415391,0.0,-1.7350000143051147,-0.3499997556209564,-0.7177032260789211,0.0,-1.9500001591692855,0.19700026434081244,-0.43451381398178185,0.0
1759838348.2849615,1,-1.2050000429151695,-0.829999685287355,-0.717703044415391,0.0,-1.7350000143051147,-0.3499997556209564,-0.717703234065187,0.0,-1.9500001600188945,0.19700026442668367,-0.43451406895035477,0.0
1759838348.2953267,1,-1.2050000429151888,-0.8299996852873683,-0.7177030444152953,0.0,-1.7350000143051147,-0.3499997556209564,-0.7177032407953517,0.0,-1.9500001600188945,0.19700026442668367,-0.43451406895035477,0.0
1759838348.3061602,1,-1.205000042915206,-0.8299996852873802,-0.7177030444152099,0.0,-1.7350000143051147,-0.3499997556209564,-0.7177032452733378,0.0,-1.9500001600188945,0.19700026442668367,-0.43451406895035477,0.0
1759838348.317575,1,-1.205000042915221,-0.8299996852873908,-0.7177030444151341,0.0,-1.7350000143051147,-0.3499997556209564,-0.7177032478543452,0.0,-1.9500001607750466,0.19700026450310906,-0.43451429587238466,0.0
1759838348.3283062,1,-1.2050000429152348,-0.8299996852874001,-0.7177030444150666,0.0,-1.7350000143051147,-0.3499997556209564,-0.7177032532643502,0.0,-1.950000161448022,0.19700026457112765,-0.4345144978329912,0.0
1759838348.3388648,1,-1.2050000429152348,-0.8299996852874001,-0.7177030444150666,0.0,-1.7350000143051147,-0.3499997556209564,-0.7177032591180676,0.0,-1.9500001620469702,0.1970002646316642,-0.43451467757793105,0.0
1759838348.3503816,1,-1.2050000429152348,-0.8299996852874001,-0.7177030444150666,0.0,-1.7350000143051147,-0.3499997556209564,-0.7177032617231465,0.0,-1.9500001620469702,0.1970002646316642,-0.43451467757793105,0.0
1759838348.3618379,1,-1.2050000429152348,-0.8299996852874001,-0.7177030444150666,0.0,-1.7350000143051147,-0.3499997556209564,-0.7177032649796047,0.0,-1.9500001620469702,0.1970002646316642,-0.43451467757793105,0.0
1759838348.372128,1,-1.2050000429152468,-0.8299996852874084,-0.7177030444150065,0.0,-1.7350000143051147,-0.3499997556209564,-0.7177032718764131,0.0,-1.9500001620469702,0.1970002646316642,-0.43451467757793105,0.0
1759838348.3832245,1,-1.2050000429152574,-0.8299996852874159,-0.717703044414953,0.0,-1.7350000143051147,-0.3499997556209564,-0.7177032759193231,0.0,-1.9500001620469702,0.1970002646316642,-0.43451467757793105,0.0
1759838348.393657,1,-1.2050000429152574,-0.8299996852874159,-0.717703044414953,0.0,-1.7350000143051147,-0.3499997556209564,-0.7177032815071733,0.0,-1.950000162580034,0.19700026468554174,-0.4345148375509276,0.0
1759838348.4049034,1,-1.2050000429152574,-0.8299996852874159,-0.717703044414953,0.0,-1.7350000143051147,-0.3499997556209564,-0.7177032845733482,0.0,-1.950000162580034,0.19700026468554174,-0.4345148375509276,0.0
1759838348.415497,1,-1.2050000429152574,-0.8299996852874159,-0.717703044414953,0.0,-1.7350000143051147,-0.3499997556209564,-0.7177032892935565,0.0,-1.950000162580034,0.19700026468554174,-0.4345148375509276,0.0
1759838348.4261386,1,-1.2050000429152574,-0.8299996852874159,-0.717703044414953,0.0,-1.7350000143051147,-0.3499997556209564,-0.7177032936076113,0.0,-1.950000162580034,0.19700026468554174,-0.4345148375509276,0.0
1759838348.436703,1,-1.2050000429152574,-0.8299996852874159,-0.717703044414953,0.0,-1.7350000143051147,-0.3499997556209564,-0.7177032977694751,0.0,-1.950000162580034,0.19700026468554174,-0.4345148375509276,0.0
1759838348.447777,1,-1.2050000429152574,-0.8299996852874159,-0.717703044414953,0.0,-1.7350000143051147,-0.3499997556209564,-0.7177033005220023,0.0,-1.950000162580034,0.19700026468554174,-0.4345148375509276,0.0
1759838348.458119,1,-1.2050000429152574,-0.8299996852874159,-0.717703044414953,0.0,-1.7350000143051147,-0.3499997556209564,-0.7177033048743571,0.0,-1.950000162580034,0.19700026468554174,-0.4345148375509276,0.0
1759838348.4682903,1,-1.2050000429152574,-0.8299996852874159,-0.717703044414953,0.0,-1.7350000143051147,-0.3499997556209564,-0.7177033092120446,0.0,-1.950000162580034,0.19700026468554174,-0.4345148375509276,0.0
1759838348.4788125,1,-1.2050000429152574,-0.8299996852874159,-0.717703044414953,0.0,-1.7350000143051147,-0.3499997556209564,-0.7177033123618557,0.0,-1.950000162580034,0.19700026468554174,-0.4345148375509276,0.0
1759838348.4901505,1,-1.2050000429152574,-0.8299996852874159,-0.717703044414953,0.0,-1.7350000143051147,-0.3499997556209564,-0.7177033137674353,0.0,-1.950000162580034,0.19700026468554174,-0.4345148375509276,0.0
1759838348.5006332,1,-1.2050000429152574,-0.8299996852874159,-0.717703044414953,0.0,-1.7350000143051147,-0.3499997556209564,-0.7177033170931537,0.0,-1.950000162580034,0.19700026468554174,-0.4345148375509276,0.0
1759838348.511461,1,-1.2050000429152574,-0.8299996852874159,-0.717703044414953,0.0,-1.7350000143051147,-0.3499997556209564,-0.717703319686148,0.0,-1.950000162580034,0.19700026468554174,-0.4345148375509276,0.0
1759838348.5225859,1,-1.2050000429152574,-0.8299996852874159,-0.717703044414953,0.0,-1.7350000143051147,-0.3499997556209564,-0.717703321729589,0.0,-1.950000162580034,0.19700026468554174,-0.4345148375509276,0.0
1759838348.532959,1,-1.2050000429152574,-0.8299996852874159,-0.717703044414953,0.0,-1.7350000143051147,-0.3499997556209564,-0.7177033251489124,0.0,-1.950000162580034,0.19700026468554174,-0.4345148375509276,0.0
1759838348.5442395,1,-1.2050000429152574,-0.8299996852874159,-0.717703044414953,0.0,-1.7350000143051147,-0.3499997556209564,-0.7177033268614199,0.0,-1.950000162580034,0.19700026468554174,-0.4345148375509276,0.0
1759838348.5546188,1,-1.2050000429152574,-0.8299996852874159,-0.717703044414953,0.0,-1.7350000143051147,-0.3499997556209564,-0.7177033300946576,0.0,-1.950000162580034,0.19700026468554174,-0.4345148375509276,0.0
1759838348.5660393,1,-1.2050000429152574,-0.8299996852874159,-0.717703044414953,0.0,-1.7350000143051147,-0.3499997556209564,-0.717703331540406,0.0,-1.950000162580034,0.19700026468554174,-0.4345148375509276,0.0
1759838348.5770717,1,-1.2050000429152574,-0.8299996852874159,-0.717703044414953,0.0,-1.7350000143051147,-0.3499997556209564,-0.7177033337225911,0.0,-1.950000162580034,0.19700026468554174,-0.4345148375509276,0.0
1759838348.5875669,1,-1.2050000429152574,-0.8299996852874159,-0.717703044414953,0.0,-1.7350000143051147,-0.3499997556209564,-0.7177033366937025,0.0,-1.950000162580034,0.19700026468554174,-0.4345148375509276,0.0
1759838348.5989037,1,-1.2050000429152574,-0.8299996852874159,-0.717703044414953,0.0,-1.7350000143051147,-0.3499997556209564,-0.7177033382858582,0.0,-1.950000162580034,0.19700026468554174,-0.4345148375509276,0.0
1759838348.6102355,1,-1.2050000429152574,-0.8299996852874159,-0.717703044414953,0.0,-1.7350000143051147,-0.3499997556209564,-0.7177033399710986,0.0,-1.950000162580034,0.19700026468554174,-0.4345148375509276,0.0
1759838348.6215703,1,-1.2050000429152574,-0.8299996852874159,-0.717703044414953,0.0,-1.7350000143051147,-0.3499997556209564,-0.7177033417777245,0.0,-1.950000162580034,0.19700026468554174,-0.4345148375509276,0.0
1759838348.632144,1,-1.2050000429152574,-0.8299996852874159,-0.717703044414953,0.0,-1.7350000143051147,-0.3499997556209564,-0.717703344563251,0.0,-1.950000162580034,0.19700026468554174,-0.4345148375509276,0.0
1759838348.6432054,1,-1.2050000429152574,-0.8299996852874159,-0.717703044414953,0.0,-1.7350000143051147,-0.3499997556209564,-0.7177033465280935,0.0,-1.950000162580034,0.19700026468554174,-0.4345148375509276,0.0
1759838348.6545603,1,-1.2050000429152574,-0.8299996852874159,-0.717703044414953,0.0,-1.7350000143051147,-0.3499997556209564,-0.7177033480689126,0.0,-1.950000162580034,0.19700026468554174,-0.4345148375509276,0.0
1759838348.6645637,1,-1.2050000429152574,-0.8299996852874159,-0.717703044414953,0.0,-1.7350000143051147,-0.3499997556209564,-0.717703351117402,0.0,-1.950000162580034,0.19700026468554174,-0.4345148375509276,0.0
1759838348.6749227,1,-1.2050000429152574,-0.8299996852874159,-0.717703044414953,0.0,-1.7350000143051147,-0.3499997556209564,-0.7177033533942971,0.0,-1.950000162580034,0.19700026468554174,-0.4345148375509276,0.0
1759838348.691547,1,-1.2050000429152574,-0.8299996852874159,-0.717703044414953,0.0,-1.7350000143051147,-0.3499997556209564,-0.7177033491503231,0.0,-1.950000162580034,0.19700026468554174,-0.4345148375509276,0.0
1759838348.7028408,1,-1.2050000429152574,-0.8299996852874159,-0.717703044414953,0.0,-1.7350000143051147,-0.3499997556209564,-0.7177033518035482,0.0,-1.950000162580034,0.19700026468554174,-0.4345148375509276,0.0
1759838348.7142015,1,-1.2050000429152574,-0.8299996852874159,-0.717703044414953,0.0,-1.7350000143051147,-0.3499997556209564,-0.7177033544804612,0.0,-1.950000162580034,0.19700026468554174,-0.4345148375509276,0.0
1759838348.7255476,1,-1.2050000429152574,-0.8299996852874159,-0.717703044414953,0.0,-1.7350000143051147,-0.3499997556209564,-0.7177033568386815,0.0,-1.950000162580034,0.19700026468554174,-0.4345148375509276,0.0
1759838348.7360127,1,-1.2050000429152574,-0.8299996852874159,-0.717703044414953,0.0,-1.7350000143051147,-0.3499997556209564,-0.7177033596611172,0.0,-1.950000162580034,0.19700026468554174,-0.4345148375509276,0.0
1759838348.7464073,1,-1.2050000429152574,-0.8299996852874159,-0.717703044414953,0.0,-1.7350000143051147,-0.3499997556209564,-0.7177033620927737,0.0,-1.950000162580034,0.19700026468554174,-0.4345148375509276,0.0
1759838348.7577467,1,-1.2050000429152574,-0.8299996852874159,-0.717703044414953,0.0,-1.7350000143051147,-0.3499997556209564,-0.717703363373495,0.0,-1.950000162580034,0.19700026468554174,-0.4345148375509276,0.0
1759838348.7690008,1,-1.2050000429152574,-0.8299996852874159,-0.717703044414953,0.0,-1.7350000143051147,-0.3499997556209564,-0.7177033646522784,0.0,-1.950000162580034,0.19700026468554174,-0.4345148375509276,0.0
1759838348.7802,1,-1.2050000429152574,-0.8299996852874159,-0.717703044414953,0.0,-1.7350000143051147,-0.3499997556209564,-0.7177033659535557,0.0,-1.950000162580034,0.19700026468554174,-0.4345148375509276,0.0
1759838348.7916522,1,-1.2050000429152574,-0.8299996852874159,-0.717703044414953,0.0,-1.7350000143051147,-0.3499997556209564,-0.7177033670370463,0.0,-1.950000162580034,0.19700026468554174,-0.4345148375509276,0.0
1759838348.8020725,1,-1.2050000429152574,-0.8299996852874159,-0.717703044414953,0.0,-1.7350000143051147,-0.3499997556209564,-0.7177033688413168,0.0,-1.950000162580034,0.19700026468554174,-0.4345148375509276,0.0
1759838348.8128927,1,-1.2050000429152574,-0.8299996852874159,-0.717703044414953,0.0,-1.7350000143051147,-0.3499997556209564,-0.717703370170721,0.0,-1.950000162580034,0.19700026468554174,-0.4345148375509276,0.0
1759838348.8230982,1,-1.2050000429152574,-0.8299996852874159,-0.717703044414953,0.0,-1.7350000143051147,-0.3499997556209564,-0.7177033717638324,0.0,-1.950000162580034,0.19700026468554174,-0.4345148375509276,0.0
1759838348.8333604,1,-1.2050000429152574,-0.8299996852874159,-0.717703044414953,0.0,-1.7350000143051147,-0.3499997556209564,-0.717703373117228,0.0,-1.950000162580034,0.19700026468554174,-0.4345148375509276,0.0
1759838348.8445432,1,-1.2050000429152574,-0.8299996852874159,-0.717703044414953,0.0,-1.7350000143051147,-0.3499997556209564,-0.717703373743726,0.0,-1.950000162580034,0.19700026468554174,-0.4345148375509276,0.0
1759838348.8558614,1,-1.2050000429152574,-0.8299996852874159,-0.717703044414953,0.0,-1.7350000143051147,-0.3499997556209564,-0.7177033743356809,0.0,-1.950000162580034,0.19700026468554174,-0.4345148375509276,0.0
1759838348.8671348,1,-1.2050000429152574,-0.8299996852874159,-0.717703044414953,0.0,-1.7350000143051147,-0.3499997556209564,-0.7177033750468738,0.0,-1.950000162580034,0.19700026468554174,-0.4345148375509276,0.0
1759838348.8775835,1,-1.2050000429152574,-0.8299996852874159,-0.717703044414953,0.0,-1.7350000143051147,-0.3499997556209564,-0.7177033762638523,0.0,-1.950000162580034,0.19700026468554174,-0.4345148375509276,0.0
1759838348.8895824,1,-1.2050000429152574,-0.8299996852874159,-0.717703044414953,0.0,-1.7350000143051147,-0.3499997556209564,-0.7177033765609053,0.0,-1.950000162580034,0.19700026468554174,-0.4345148375509276,0.0
1759838348.9007745,1,-1.2050000429152574,-0.8299996852874159,-0.717703044414953,0.0,-1.7350000143051147,-0.3499997556209564,-0.717703377398081,0.0,-1.950000162580034,0.19700026468554174,-0.4345148375509276,0.0
1759838348.9122272,1,-1.2050000429152574,-0.8299996852874159,-0.717703044414953,0.0,-1.7350000143051147,-0.3499997556209564,-0.7177033781288582,0.0,-1.950000162580034,0.19700026468554174,-0.4345148375509276,0.0
1759838348.9222631,1,-1.2050000429152574,-0.8299996852874159,-0.717703044414953,0.0,-1.7350000143051147,-0.3499997556209564,-0.7177033795396071,0.0,-1.950000162580034,0.19700026468554174,-0.4345148375509276,0.0
1759838348.9337358,1,-1.2050000429152574,-0.8299996852874159,-0.717703044414953,0.0,-1.7350000143051147,-0.3499997556209564,-0.7177033801008559,0.0,-1.950000162580034,0.19700026468554174,-0.4345148375509276,0.0
1759838348.943959,1,-1.2050000429152574,-0.8299996852874159,-0.717703044414953,0.0,-1.7350000143051147,-0.3499997556209564,-0.7177033812143634,0.0,-1.950000162580034,0.19700026468554174,-0.4345148375509276,0.0
1759838348.9542873,1,-1.2050000429152574,-0.8299996852874159,-0.717703044414953,0.0,-1.7350000143051147,-0.3499997556209564,-0.7177033821592662,0.0,-1.950000162580034,0.19700026468554174,-0.4345148375509276,0.0
1759838348.964634,1,-1.2050000429152574,-0.8299996852874159,-0.717703044414953,0.0,-1.7350000143051147,-0.3499997556209564,-0.7177033829766266,0.0,-1.950000162580034,0.19700026468554174,-0.4345148375509276,0.0
1759838348.978103,1,-1.2050000429152574,-0.8299996852874159,-0.717703044414953,0.0,-1.7350000143051147,-0.3499997556209564,-0.7177033824694448,0.0012114460670943927,-1.950000162580034,0.19700026468554174,-0.4345148375509276,0.0
1759838348.989361,1,-1.2050000429152574,-0.8299996852874159,-0.717703044414953,0.0,-1.7350000143051147,-0.3499997556209564,-0.717703383130992,0.0012114460670943927,-1.950000162580034,0.19700026468554174,-0.4345148375509276,0.0
1759838349.000208,1,-1.2050000429152574,-0.8299996852874159,-0.717703044414953,0.0,-1.7350000143051147,-0.3499997556209564,-0.7177033839973035,0.0012114460670943927,-1.950000162580034,0.19700026468554174,-0.4345148375509276,0.0
1759838349.0107179,1,-1.2050000429152574,-0.8299996852874159,-0.717703044414953,0.0,-1.7350000143051147,-0.3499997556209564,-0.7177033849028689,0.0012114460670943927,-1.950000162580034,0.19700026468554174,-0.4345148375509276,0.0
1759838349.020973,1,-1.2050000429152574,-0.8299996852874159,-0.717703044414953,0.0,-1.7350000143051147,-0.3499997556209564,-0.7177033857793376,0.0012114460670943927,-1.950000162580034,0.19700026468554174,-0.4345148375509276,0.0
1759838349.0315113,1,-1.2050000429152574,-0.8299996852874159,-0.717703044414953,0.0,-1.7350000143051147,-0.3499997556209564,-0.7177033864371475,0.0012114460670943927,-1.950000162580034,0.19700026468554174,-0.4345148375509276,0.0
1759838349.041911,1,-1.2050000429152574,-0.8299996852874159,-0.717703044414953,0.0,-1.7350000143051147,-0.3499997556209564,-0.7177033870694647,0.0012114460670943927,-1.950000162580034,0.19700026468554174,-0.4345148375509276,0.0
1759838349.0527518,1,-1.2050000429152574,-0.8299996852874159,-0.717703044414953,0.0,-1.7350000143051147,-0.3499997556209564,-0.7177033875043968,0.0012114460670943927,-1.950000162580034,0.19700026468554174,-0.4345148375509276,0.0
1759838349.062853,1,-1.2050000429152574,-0.8299996852874159,-0.717703044414953,0.0,-1.7350000143051147,-0.3499997556209564,-0.7177033881561208,0.0012114460670943927,-1.950000162580034,0.19700026468554174,-0.4345148375509276,0.0
1759838349.0741637,1,-1.2050000429152574,-0.8299996852874159,-0.717703044414953,0.0,-1.7350000143051147,-0.3499997556209564,-0.7177033883885038,0.0012114460670943927,-1.950000162580034,0.19700026468554174,-0.4345148375509276,0.0
1759838349.08417,1,-1.2050000429152574,-0.8299996852874159,-0.717703044414953,0.0,-1.7350000143051147,-0.3499997556209564,-0.7177033890304685,0.0012114460670943927,-1.950000162580034,0.19700026468554174,-0.4345148375509276,0.0
1759838349.099627,1,-1.2050000429152574,-0.8299996852874159,-0.717703044414953,0.0,-1.7350000143051147,-0.3499997556209564,-0.7177033881361154,0.0012114460670943927,-1.950000162580034,0.19700026468554174,-0.4345148375509276,0.0
1759838349.1099617,1,-1.2050000429152574,-0.8299996852874159,-0.717703044414953,0.0,-1.7350000143051147,-0.3499997556209564,-0.7177033889676245,0.0012114460670943927,-1.950000162580034,0.19700026468554174,-0.4345148375509276,0.0
1759838349.1208415,1,-1.2050000429152574,-0.8299996852874159,-0.717703044414953,0.0,-1.7350000143051147,-0.3499997556209564,-0.7177033896238676,0.0012114460670943927,-1.950000162580034,0.19700026468554174,-0.4345148375509276,0.0
1759838349.1320999,1,-1.2050000429152574,-0.8299996852874159,-0.717703044414953,0.0,-1.7350000143051147,-0.3499997556209564,-0.717703390098329,0.0012114460670943927,-1.950000162580034,0.19700026468554174,-0.4345148375509276,0.0
1759838349.142266,1,-1.2050000429152574,-0.8299996852874159,-0.717703044414953,0.0,-1.7350000143051147,-0.3499997556209564,-0.7177033907921597,0.0012114460670943927,-1.950000162580034,0.19700026468554174,-0.4345148375509276,0.0
1759838349.1534238,1,-1.2050000429152574,-0.8299996852874159,-0.717703044414953,0.0,-1.7350000143051147,-0.3499997556209564,-0.717703391162118,0.0012114460670943927,-1.950000162580034,0.19700026468554174,-0.4345148375509276,0.0
1759838349.164092,1,-1.2050000429152574,-0.8299996852874159,-0.717703044414953,0.0,-1.7350000143051147,-0.3499997556209564,-0.7177033916148972,0.0012114460670943927,-1.950000162580034,0.19700026468554174,-0.4345148375509276,0.0
1759838349.1744525,1,-1.2050000429152574,-0.8299996852874159,-0.717703044414953,0.0,-1.7350000143051147,-0.3499997556209564,-0.7177033920964533,0.0012114460670943927,-1.950000162580034,0.19700026468554174,-0.4345148375509276,0.0
1759838349.1853404,1,-1.2050000429152574,-0.8299996852874159,-0.717703044414953,0.0,-1.7350000143051147,-0.3499997556209564,-0.7177033924144283,0.0012114460670943927,-1.950000162580034,0.19700026468554174,-0.4345148375509276,0.0
1759838349.1966794,1,-1.2050000429152574,-0.8299996852874159,-0.717703044414953,0.0,-1.7350000143051147,-0.3499997556209564,-0.7177033926289909,0.0012114460670943927,-1.950000162580034,0.19700026468554174,-0.4345148375509276,0.0
1759838349.2080204,1,-1.2050000429152574,-0.8299996852874159,-0.717703044414953,0.0,-1.7350000143051147,-0.3499997556209564,-0.7177033928665644,0.0012114460670943927,-1.950000162580034,0.19700026468554174,-0.4345148375509276,0.0
1759838349.2193072,1,-1.2050000429152574,-0.8299996852874159,-0.717703044414953,0.0,-1.7350000143051147,-0.3499997556209564,-0.7177033931356255,0.0012114460670943927,-1.950000162580034,0.19700026468554174,-0.4345148375509276,0.0
1759838349.2297783,1,-1.2050000429152574,-0.8299996852874159,-0.717703044414953,0.0,-1.7350000143051147,-0.3499997556209564,-0.7177033935581001,0.0012114460670943927,-1.950000162580034,0.19700026468554174,-0.4345148375509276,0.0
1759838349.2409058,1,-1.2050000429152574,-0.8299996852874159,-0.717703044414953,0.0,-1.7350000143051147,-0.3499997556209564,-0.7177033938256088,0.0012114460670943927,-1.950000162580034,0.19700026468554174,-0.4345148375509276,0.0
1759838349.2522175,1,-1.2050000429152574,-0.8299996852874159,-0.717703044414953,0.0,-1.7350000143051147,-0.3499997556209564,-0.7177033940532951,0.0012114460670943927,-1.950000162580034,0.19700026468554174,-0.4345148375509276,0.0
1759838349.2629774,1,-1.2050000429152574,-0.8299996852874159,-0.717703044414953,0.0,-1.7350000143051147,-0.3499997556209564,-0.7177033943775353,0.0012114460670943927,-1.950000162580034,0.19700026468554174,-0.4345148375509276,0.0
1759838349.2737277,1,-1.2050000429152574,-0.8299996852874159,-0.717703044414953,0.0,-1.7350000143051147,-0.3499997556209564,-0.7177033946822071,0.0012114460670943927,-1.950000162580034,0.19700026468554174,-0.4345148375509276,0.0
1759838349.2845912,1,-1.2050000429152574,-0.8299996852874159,-0.717703044414953,0.0,-1.7350000143051147,-0.3499997556209564,-0.7177033949453531,0.0012114460670943927,-1.950000162580034,0.19700026468554174,-0.4345148375509276,0.0
1759838349.2978923,1,-1.2050000429152574,-0.8299996852874159,-0.717703044414953,0.0,-1.7350000143051147,-0.3499997556209564,-0.7177033948453567,0.0012114460670943927,-1.950000162580034,0.19700026468554174,-0.4345148375509276,0.0
1759838349.3082294,1,-1.2050000429152574,-0.8299996852874159,-0.717703044414953,0.0,-1.7350000143051147,-0.3499997556209564,-0.7177033952525527,0.0012114460670943927,-1.950000162580034,0.19700026468554174,-0.4345148375509276,0.0
1759838349.318888,1,-1.2050000429152574,-0.8299996852874159,-0.717703044414953,0.0,-1.7350000143051147,-0.3499997556209564,-0.717703395582511,0.0012114460670943927,-1.950000162580034,0.19700026468554174,-0.4345148375509276,0.0
1759838349.3296616,1,-1.2050000429152574,-0.8299996852874159,-0.717703044414953,0.0,-1.7350000143051147,-0.3499997556209564,-0.7177033958530217,0.0012114460670943927,-1.950000162580034,0.19700026468554174,-0.4345148375509276,0.0
1759838349.3409557,1,-1.2050000429152574,-0.8299996852874159,-0.717703044414953,0.0,-1.7350000143051147,-0.3499997556209564,-0.7177033960314851,0.0012114460670943927,-1.950000162580034,0.19700026468554174,-0.4345148375509276,0.0
1759838349.3522315,1,-1.2050000429152574,-0.8299996852874159,-0.717703044414953,0.0,-1.7350000143051147,-0.3499997556209564,-0.7177033962127926,0.0012114460670943927,-1.950000162580034,0.19700026468554174,-0.4345148375509276,0.0
1759838349.3628974,1,-1.2050000429152574,-0.8299996852874159,-0.717703044414953,0.0,-1.7350000143051147,-0.3499997556209564,-0.7177033964678259,0.0012114460670943927,-1.950000162580034,0.19700026468554174,-0.4345148375509276,0.0
1759838349.3737018,1,-1.2050000429152574,-0.8299996852874159,-0.717703044414953,0.0,-1.7350000143051147,-0.3499997556209564,-0.7177033966857618,0.0012114460670943927,-1.950000162580034,0.19700026468554174,-0.4345148375509276,0.0
1759838349.3849206,1,-1.2050000429152574,-0.8299996852874159,-0.717703044414953,0.0,-1.7350000143051147,-0.3499997556209564,-0.7177033968410882,0.0012114460670943927,-1.950000162580034,0.19700026468554174,-0.4345148375509276,0.0
1759838349.3956673,1,-1.2050000429152574,-0.8299996852874159,-0.717703044414953,0.0,-1.7350000143051147,-0.3499997556209564,-0.7177033970463409,0.0012114460670943927,-1.950000162580034,0.19700026468554174,-0.4345148375509276,0.0
1759838349.4070442,1,-1.2050000429152574,-0.8299996852874159,-0.717703044414953,0.0,-1.7350000143051147,-0.3499997556209564,-0.717703397175347,0.0012114460670943927,-1.950000162580034,0.19700026468554174,-0.4345148375509276,0.0
1759838349.4177327,1,-1.2050000429152574,-0.8299996852874159,-0.717703044414953,0.0,-1.7350000143051147,-0.3499997556209564,-0.7177033973768054,0.0012114460670943927,-1.950000162580034,0.19700026468554174,-0.4345148375509276,0.0
1759838349.4291482,1,-1.2050000429152574,-0.8299996852874159,-0.717703044414953,0.0,-1.7350000143051147,-0.3499997556209564,-0.7177033974962921,0.0012114460670943927,-1.950000162580034,0.19700026468554174,-0.4345148375509276,0.0
1759838349.439982,1,-1.2050000429152574,-0.8299996852874159,-0.717703044414953,0.0,-1.7350000143051147,-0.3499997556209564,-0.717703397673592,0.0012114460670943927,-1.950000162580034,0.19700026468554174,-0.4345148375509276,0.0
1759838349.4499838,1,-1.2050000429152574,-0.8299996852874159,-0.717703044414953,0.0,-1.7350000143051147,-0.3499997556209564,-0.7177033979146382,0.0012114460670943927,-1.950000162580034,0.19700026468554174,-0.4345148375509276,0.0
1759838349.4607117,1,-1.2050000429152574,-0.8299996852874159,-0.717703044414953,0.0,-1.7350000143051147,-0.3499997556209564,-0.7177033980596761,0.0012114460670943927,-1.950000162580034,0.19700026468554174,-0.4345148375509276,0.0
1759838349.471662,1,-1.2050000429152574,-0.8299996852874159,-0.717703044414953,0.0,-1.7350000143051147,-0.3499997556209564,-0.7177033981739704,0.0012114460670943927,-1.950000162580034,0.19700026468554174,-0.4345148375509276,0.0
1759838349.482471,1,-1.2050000429152574,-0.8299996852874159,-0.717703044414953,0.0,-1.7350000143051147,-0.3499997556209564,-0.7177033982999781,0.0012114460670943927,-1.950000162580034,0.19700026468554174,-0.4345148375509276,0.0
1759838349.4927046,1,-1.2050000429152574,-0.8299996852874159,-0.717703044414953,0.0,-1.7350000143051147,-0.3499997556209564,-0.7177033984678189,0.0012114460670943927,-1.950000162580034,0.19700026468554174,-0.4345148375509276,0.0
1759838349.5056174,1,-1.2050000429152574,-0.8299996852874159,-0.717703044414953,0.0,-1.7350000143051147,-0.3499997556209564,-0.7177033984199674,0.0012114460670943927,-1.950000162580034,0.19700026468554174,-0.4345148375509276,0.0
1759838349.5160117,1,-1.2050000429152574,-0.8299996852874159,-0.717703044414953,0.0,-1.7350000143051147,-0.3499997556209564,-0.7177033985971093,0.0012114460670943927,-1.950000162580034,0.19700026468554174,-0.4345148375509276,0.0
1759838349.526298,1,-1.2050000429152574,-0.8299996852874159,-0.717703044414953,0.0,-1.7350000143051147,-0.3499997556209564,-0.7177033987716719,0.0012114460670943927,-1.950000162580034,0.19700026468554174,-0.4345148375509276,0.0
1759838349.5369225,1,-1.2050000429152574,-0.8299996852874159,-0.717703044414953,0.0,-1.7350000143051147,-0.3499997556209564,-0.7177033988995447,0.0012114460670943927,-1.950000162580034,0.19700026468554174,-0.4345148375509276,0.0
1759838349.5472577,1,-1.2050000429152574,-0.8299996852874159,-0.717703044414953,0.0,-1.7350000143051147,-0.3499997556209564,-0.717703399033649,0.0012114460670943927,-1.950000162580034,0.19700026468554174,-0.4345148375509276,0.0
1759838349.5574312,1,-1.2050000429152574,-0.8299996852874159,-0.717703044414953,0.0,-1.7350000143051147,-0.3499997556209564,-0.7177033991643391,0.0012114460670943927,-1.950000162580034,0.19700026468554174,-0.4345148375509276,0.0
1759838349.568566,1,-1.2050000429152574,-0.8299996852874159,-0.717703044414953,0.0,-1.7350000143051147,-0.3499997556209564,-0.717703399221886,0.0012114460670943927,-1.950000162580034,0.19700026468554174,-0.4345148375509276,0.0
1759838349.578676,1,-1.2050000429152574,-0.8299996852874159,-0.717703044414953,0.0,-1.7350000143051147,-0.3499997556209564,-0.7177033993454316,0.0012114460670943927,-1.950000162580034,0.19700026468554174,-0.4345148375509276,0.0
1759838349.5895283,1,-1.2050000429152574,-0.8299996852874159,-0.717703044414953,0.0,-1.7350000143051147,-0.3499997556209564,-0.7177033994163882,0.0012114460670943927,-1.950000162580034,0.19700026468554174,-0.4345148375509276,0.0
1759838349.6001852,1,-1.2050000429152574,-0.8299996852874159,-0.717703044414953,0.0,-1.7350000143051147,-0.3499997556209564,-0.7177033994983884,0.0012114460670943927,-1.950000162580034,0.19700026468554174,-0.4345148375509276,0.0
1759838349.6104298,1,-1.2050000429152574,-0.8299996852874159,-0.717703044414953,0.0,-1.7350000143051147,-0.3499997556209564,-0.7177033996016107,0.0012114460670943927,-1.950000162580034,0.19700026468554174,-0.4345148375509276,0.0
1759838349.6214688,1,-1.2050000429152574,-0.8299996852874159,-0.717703044414953,0.0,-1.7350000143051147,-0.3499997556209564,-0.7177033996553597,0.0012114460670943927,-1.950000162580034,0.19700026468554174,-0.4345148375509276,0.0
1759838349.6326632,1,-1.2050000429152574,-0.8299996852874159,-0.717703044414953,0.0,-1.7350000143051147,-0.3499997556209564,-0.7177033997054387,0.0012114460670943927,-1.950000162580034,0.19700026468554174,-0.4345148375509276,0.0
