timestamp,vehicle_id,x,y,theta,velocity,gps_available,dt,gps_x,gps_y,gps_theta,gps_velocity,control_steering,control_acceleration
1759838346.9760487,2,-1.95,0.197,-0.8848819307611251,0.0,False,0.01,nan,nan,nan,nan,0.0,0.0
1759838346.9870222,2,-1.95,0.197,-0.8848819307611251,0.0,False,0.010973453521728516,nan,nan,nan,nan,0.0,0.0
1759838346.9970644,2,-1.95,0.197,-0.8848819307611251,0.0,False,0.010042190551757812,nan,nan,nan,nan,0.0,0.0
1759838347.0070732,2,-1.95,0.197,-0.8848819307611251,0.0,False,0.010008811950683594,nan,nan,nan,nan,0.0,0.0
1759838347.017278,2,-1.95,0.197,-0.8848819307611251,0.0,False,0.010204792022705078,nan,nan,nan,nan,0.0,0.0
1759838347.0275502,2,-1.95,0.197,-0.8848819307611251,0.0,False,0.01027226448059082,nan,nan,nan,nan,0.0,0.0
1759838347.0386693,2,-1.95,0.197,-0.8848819307611251,0.0,False,0.01111912727355957,nan,nan,nan,nan,0.0,0.0
1759838347.049131,2,-1.95,0.197,-0.8848819307611251,0.0,False,0.010461568832397461,nan,nan,nan,nan,0.0,0.0
1759838347.0599475,2,-1.95,0.197,-0.8848819307611251,0.0,False,0.010816574096679688,nan,nan,nan,nan,0.0,0.0
1759838347.0716298,2,-1.95,0.197,-0.8848819307611251,0.0,False,0.011682271957397461,nan,nan,nan,nan,0.0,0.0
1759838347.0826795,2,-1.95,0.197,-0.8848819307611251,0.0,False,0.011049747467041016,nan,nan,nan,nan,0.0,0.0
1759838347.0928266,2,-1.95,0.197,-0.8848819307611251,0.0,False,0.0101470947265625,nan,nan,nan,nan,0.0,0.0
1759838347.103653,2,-1.95,0.197,-0.8848819307611251,0.0,False,0.010826349258422852,nan,nan,nan,nan,0.0,0.0
1759838347.1151311,2,-1.95,0.197,-0.8848819307611251,0.0,False,0.011478185653686523,nan,nan,nan,nan,0.0,0.0
1759838347.1265504,2,-1.95,0.197,-0.8848819307611251,0.0,False,0.011419296264648438,nan,nan,nan,nan,0.0,0.0
1759838347.13684,2,-1.95,0.197,-0.8848819307611251,0.0,False,0.010289669036865234,nan,nan,nan,nan,0.0,0.0
1759838347.1471891,2,-1.95,0.197,-0.8848819307611251,0.0,False,0.010349035263061523,nan,nan,nan,nan,0.0,0.0
1759838347.1576083,2,-1.95,0.197,-0.8848819307611251,0.0,False,0.010419130325317383,nan,nan,nan,nan,0.0,0.0
1759838347.1732605,2,-1.9500001655022303,0.19700026291211445,-0.4727053175991003,0.0,True,0.015652179718017578,-1.9500001668930054,0.19700026512145996,-0.43451613187789917,0.0,0.0,0.0
1759838347.1841903,2,-1.9500001664281224,0.19700026438296006,-0.43749256105439827,0.0,True,0.01092982292175293,-1.9500001668930054,0.19700026512145996,-0.43451613187789917,0.0,0.0,0.0
1759838347.1944315,2,-1.9500001667186135,0.19700026484442604,-0.4341986711582049,0.0,True,0.010241270065307617,-1.9500001668930054,0.19700026512145996,-0.43451613187789917,0.0,0.0,0.0
1759838347.2057436,2,-1.9500001668265672,0.19700026501591797,-0.4337390309612932,0.0,True,0.011312007904052734,-1.9500001668930054,0.19700026512145996,-0.43451613187789917,0.0,0.0,0.0
1759838347.2165165,2,-1.9500001668676379,0.1970002650811618,-0.43369362488004626,0.0,True,0.010772943496704102,-1.9500001668930054,0.19700026512145996,-0.43451613187789917,0.0,0.0,0.0
1759838347.227162,2,-1.9500001668833165,0.1970002651060683,-0.4337508225031428,0.0,True,0.010645389556884766,-1.9500001668930054,0.19700026512145996,-0.43451613187789917,0.0,0.0,0.0
1759838347.2379212,2,-1.9500001668893046,0.1970002651155809,-0.4338329273242394,0.0,True,0.010759353637695312,-1.9500001668930054,0.19700026512145996,-0.43451613187789917,0.0,0.0,0.0
1759838347.2485611,2,-1.9500001668915918,0.19700026511921437,-0.43391780265729274,0.0,True,0.01063990592956543,-1.9500001668930054,0.19700026512145996,-0.43451613187789917,0.0,0.0,0.0
1759838347.259207,2,-1.9500001668924654,0.19700026512060223,-0.4339931833006485,0.0,True,0.010645866394042969,-1.9500001668930054,0.19700026512145996,-0.43451613187789917,0.0,0.0,0.0
1759838347.2699716,2,-1.950000166892799,0.19700026512113233,-0.4340563677001157,0.0,True,0.010764598846435547,-1.9500001668930054,0.19700026512145996,-0.43451613187789917,0.0,0.0,0.0
1759838347.2806408,2,-1.9500001668929265,0.1970002651213348,-0.43411054814496275,0.0,True,0.010669231414794922,-1.9500001668930054,0.19700026512145996,-0.43451613187789917,0.0,0.0,0.0
1759838347.2915864,2,-1.9500001668929752,0.19700026512141217,-0.4341540042702494,0.0,True,0.010945558547973633,-1.9500001668930054,0.19700026512145996,-0.43451613187789917,0.0,0.0,0.0
1759838347.3017116,2,-1.9500001668929938,0.1970002651214417,-0.4341960219868888,0.0,True,0.010125160217285156,-1.9500001668930054,0.19700026512145996,-0.43451613187789917,0.0,0.0,0.0
1759838347.3119924,2,-1.950000166893001,0.197000265121453,-0.4342290540765319,0.0,True,0.010280847549438477,-1.9500001668930054,0.19700026512145996,-0.43451613187789917,0.0,0.0,0.0
1759838347.3223424,2,-1.9500001668930036,0.1970002651214573,-0.43425586549014916,0.0,True,0.01034998893737793,-1.9500001668930054,0.19700026512145996,-0.43451613187789917,0.0,0.0,0.0
1759838347.3326426,2,-1.9500001668930047,0.19700026512145893,-0.4342787213528787,0.0,True,0.010300159454345703,-1.9500001668930054,0.19700026512145996,-0.43451613187789917,0.0,0.0,0.0
1759838347.3432722,2,-1.9500001668930051,0.19700026512145957,-0.4342967849891295,0.0,True,0.010629653930664062,-1.9500001668930054,0.19700026512145996,-0.43451613187789917,0.0,0.0,0.0
1759838347.3546765,2,-1.9500001668930054,0.19700026512145982,-0.4343097482086673,0.0,True,0.011404275894165039,-1.9500001668930054,0.19700026512145996,-0.43451613187789917,0.0,0.0,0.0
1759838347.3648722,2,-1.9500001668930054,0.1970002651214599,-0.4343270124363787,0.0,True,0.010195732116699219,-1.9500001668930054,0.19700026512145996,-0.43451613187789917,0.0,0.0,0.0
1759838347.3759737,2,-1.9500001668930054,0.19700026512145993,-0.4343386919482768,0.0,True,0.011101484298706055,-1.9500001668930054,0.19700026512145996,-0.43451613187789917,0.0,0.0,0.0
1759838347.3861682,2,-1.9500001668930054,0.19700026512145996,-0.43435246838156516,0.0,True,0.010194540023803711,-1.9500001668930054,0.19700026512145996,-0.43451613187789917,0.0,0.0,0.0
1759838347.3970203,2,-1.9500001668930054,0.19700026512145996,-0.43436229093326695,0.0,True,0.01085209846496582,-1.9500001668930054,0.19700026512145996,-0.43451613187789917,0.0,0.0,0.0
1759838347.408402,2,-1.9500001668930054,0.19700026512145996,-0.43436970263845254,0.0,True,0.01138162612915039,-1.9500001668930054,0.19700026512145996,-0.43451613187789917,0.0,0.0,0.0
1759838347.4201112,2,-1.9500001668930054,0.19700026512145996,-0.4343762231240049,0.0,True,0.011709213256835938,-1.9500001668930054,0.19700026512145996,-0.43451613187789917,0.0,0.0,0.0
1759838347.4304612,2,-1.9500001668930054,0.19700026512145996,-0.4343864935958095,0.0,True,0.01034998893737793,-1.9500001668930054,0.19700026512145996,-0.43451613187789917,0.0,0.0,0.0
1759838347.4411838,2,-1.9500001668930054,0.19700026512145996,-0.43439450387305456,0.0,True,0.010722637176513672,-1.9500001668930054,0.19700026512145996,-0.43451613187789917,0.0,0.0,0.0
1759838347.452655,2,-1.9500001668930054,0.19700026512145996,-0.434399807802766,0.0,True,0.011471271514892578,-1.9500001668930054,0.19700026512145996,-0.43451613187789917,0.0,0.0,0.0
1759838347.4628875,2,-1.9500001668930054,0.19700026512145996,-0.4344077622852591,0.0,True,0.01023244857788086,-1.9500001668930054,0.19700026512145996,-0.43451613187789917,0.0,0.0,0.0
1759838347.473025,2,-1.9500001668930054,0.19700026512145996,-0.43441487122027667,0.0,True,0.010137557983398438,-1.9500001668930054,0.19700026512145996,-0.43451613187789917,0.0,0.0,0.0
1759838347.483388,2,-1.9500001668930054,0.19700026512145996,-0.43442044458607754,0.0,True,0.010362863540649414,-1.9500001668930054,0.19700026512145996,-0.43451613187789917,0.0,0.0,0.0
1759838347.4950109,2,-1.9500001668930054,0.19700026512145996,-0.4344229298191351,0.0,True,0.011622905731201172,-1.9500001668930054,0.19700026512145996,-0.43451613187789917,0.0,0.0,0.0
1759838347.5050497,2,-1.9500001668930054,0.19700026512145996,-0.43442867964222387,0.0,True,0.01003885269165039,-1.9500001668930054,0.19700026512145996,-0.43451613187789917,0.0,0.0,0.0
1759838347.515567,2,-1.9500001668930054,0.19700026512145996,-0.4344329433310108,0.0,True,0.010517358779907227,-1.9500001668930054,0.19700026512145996,-0.43451613187789917,0.0,0.0,0.0
1759838347.5259728,2,-1.9500001668930054,0.19700026512145996,-0.43443695854768904,0.0,True,0.010405778884887695,-1.9500001668930054,0.19700026512145996,-0.43451613187789917,0.0,0.0,0.0
1759838347.5362747,2,-1.9500001668930054,0.19700026512145996,-0.4344407788603917,0.0,True,0.010301828384399414,-1.9500001668930054,0.19700026512145996,-0.43451613187789917,0.0,0.0,0.0
1759838347.5475428,2,-1.9500001668930054,0.19700026512145996,-0.434442741543247,0.0,True,0.011268138885498047,-1.9500001668930054,0.19700026512145996,-0.43451613187789917,0.0,0.0,0.0
1759838347.5583436,2,-1.9500001668930054,0.19700026512145996,-0.43444559790220794,0.0,True,0.010800838470458984,-1.9500001668930054,0.19700026512145996,-0.43451613187789917,0.0,0.0,0.0
1759838347.5716505,2,-1.9500001668930054,0.19700026512145996,-0.43444491699971977,0.0,True,0.013306856155395508,-1.9500001668930054,0.19700026512145996,-0.43451613187789917,0.0,0.0,0.0
1759838347.5807953,2,-1.9500001668930054,0.19700026512145996,-0.4344509408611472,0.0,True,0.009144783020019531,-1.9500001668930054,0.19700026512145996,-0.43451613187789917,0.0,0.0,0.0
1759838347.5914588,2,-1.9500001668930054,0.19700026512145996,-0.4344540741423195,0.0,True,0.010663509368896484,-1.9500001668930054,0.19700026512145996,-0.43451613187789917,0.0,0.0,0.0
1759838347.6016116,2,-1.9500001668930054,0.19700026512145996,-0.43445739294352315,0.0,True,0.010152816772460938,-1.9500001668930054,0.19700026512145996,-0.43451613187789917,0.0,0.0,0.0
1759838347.6118941,2,-1.9500001668930054,0.19700026512145996,-0.4344601347921806,0.0,True,0.010282516479492188,-1.9500001668930054,0.19700026512145996,-0.43451613187789917,0.0,0.0,0.0
1759838347.6219854,2,-1.9500001668930054,0.19700026512145996,-0.43446279188430914,0.0,True,0.010091304779052734,-1.9500001668930054,0.19700026512145996,-0.43451613187789917,0.0,0.0,0.0
1759838347.6327975,2,-1.9500001668930054,0.19700026512145996,-0.4344643433242137,0.0,True,0.010812044143676758,-1.9500001668930054,0.19700026512145996,-0.43451613187789917,0.0,0.0,0.0
1759838347.642958,2,-1.9500001668930054,0.19700026512145996,-0.4344666134815398,0.0,True,0.010160446166992188,-1.9500001668930054,0.19700026512145996,-0.43451613187789917,0.0,0.0,0.0
1759838347.6534076,2,-1.9500001668930054,0.19700026512145996,-0.43446841027964744,0.0,True,0.010449647903442383,-1.9500001668930054,0.19700026512145996,-0.43451613187789917,0.0,0.0,0.0
1759838347.664294,2,-1.9500001668930054,0.19700026512145996,-0.43446967236400624,0.0,True,0.010886430740356445,-1.9500001668930054,0.19700026512145996,-0.43451613187789917,0.0,0.0,0.0
1759838347.6752288,2,-1.9500001668930054,0.19700026512145996,-0.4344709639949489,0.0,True,0.010934829711914062,-1.9500001668930054,0.19700026512145996,-0.43451613187789917,0.0,0.0,0.0
1759838347.6853309,2,-1.9500001668930054,0.19700026512145996,-0.4344731160050035,0.0,True,0.010102033615112305,-1.9500001668930054,0.19700026512145996,-0.43451613187789917,0.0,0.0,0.0
1759838347.6962736,2,-1.9500001668930054,0.19700026512145996,-0.434474311425161,0.0,True,0.010942697525024414,-1.9500001668930054,0.19700026512145996,-0.43451613187789917,0.0,0.0,0.0
1759838347.7076688,2,-1.9500001668930054,0.19700026512145996,-0.4344751377082243,0.0,True,0.01139521598815918,-1.9500001668930054,0.19700026512145996,-0.43451613187789917,0.0,0.0,0.0
1759838347.7183528,2,-1.9500001668930054,0.19700026512145996,-0.43447673543714593,0.0,True,0.010684013366699219,-1.9500001668930054,0.19700026512145996,-0.43451613187789917,0.0,0.0,0.0
1759838347.7286088,2,-1.9500001668930054,0.19700026512145996,-0.4344786287128457,0.0,True,0.010256052017211914,-1.9500001668930054,0.19700026512145996,-0.43451613187789917,0.0,0.0,0.0
1759838347.7398815,2,-1.9500001668930054,0.19700026512145996,-0.4344795320868471,0.0,True,0.011272668838500977,-1.9500001668930054,0.19700026512145996,-0.43451613187789917,0.0,0.0,0.0
1759838347.750159,2,-1.9500001668930054,0.19700026512145996,-0.43448123737539746,0.0,True,0.010277509689331055,-1.9500001668930054,0.19700026512145996,-0.43451613187789917,0.0,0.0,0.0
1759838347.7617204,2,-1.9500001668930054,0.19700026512145996,-0.43448187699983265,0.0,True,0.011561393737792969,-1.9500001668930054,0.19700026512145996,-0.43451613187789917,0.0,0.0,0.0
1759838347.7743857,2,-1.9500001668930054,0.19700026512145996,-0.4344818878601995,0.0,True,0.012665271759033203,-1.9500001668930054,0.19700026512145996,-0.43451613187789917,0.0,0.0,0.0
1759838347.7852428,2,-1.9500001668930054,0.19700026512145996,-0.4344834817545138,0.0,True,0.010857105255126953,-1.9500001668930054,0.19700026512145996,-0.43451613187789917,0.0,0.0,0.0
1759838347.7967007,2,-1.9500001668930054,0.19700026512145996,-0.4344846274416163,0.0,True,0.01145792007446289,-1.9500001668930054,0.19700026512145996,-0.43451613187789917,0.0,0.0,0.0
1759838347.8068612,2,-1.9500001668930054,0.19700026512145996,-0.43448652984051606,0.0,True,0.010160446166992188,-1.9500001668930054,0.19700026512145996,-0.43451613187789917,0.0,0.0,0.0
1759838347.8172228,2,-1.9500001668930054,0.19700026512145996,-0.4344880464204923,0.0,True,0.010361671447753906,-1.9500001668930054,0.19700026512145996,-0.43451613187789917,0.0,0.0,0.0
1759838347.8273065,2,-1.9500001668930054,0.19700026512145996,-0.43448950057180014,0.0,True,0.010083675384521484,-1.9500001668930054,0.19700026512145996,-0.43451613187789917,0.0,0.0,0.0
1759838347.8387225,2,-1.9500001668930054,0.19700026512145996,-0.43449001192616343,0.0,True,0.011415958404541016,-1.9500001668930054,0.19700026512145996,-0.43451613187789917,0.0,0.0,0.0
1759838347.8488133,2,-1.9500001668930054,0.19700026512145996,-0.43449129452375246,0.0,True,0.010090827941894531,-1.9500001668930054,0.19700026512145996,-0.43451613187789917,0.0,0.0,0.0
1759838347.8596373,2,-1.9500001668930054,0.19700026512145996,-0.4344920749560046,0.0,True,0.010823965072631836,-1.9500001668930054,0.19700026512145996,-0.43451613187789917,0.0,0.0,0.0
1759838347.8703556,2,-1.9500001668930054,0.19700026512145996,-0.43449287703385764,0.0,True,0.010718345642089844,-1.9500001668930054,0.19700026512145996,-0.43451613187789917,0.0,0.0,0.0
1759838347.8816648,2,-1.9500001668930054,0.19700026512145996,-0.4344933771543982,0.0,True,0.011309146881103516,-1.9500001668930054,0.19700026512145996,-0.43451613187789917,0.0,0.0,0.0
1759838347.8928974,2,-1.9500001668930054,0.19700026512145996,-0.43449397930245404,0.0,True,0.011232614517211914,-1.9500001668930054,0.19700026512145996,-0.43451613187789917,0.0,0.0,0.0
1759838347.9038622,2,-1.9500001668930054,0.19700026512145996,-0.4344947506992689,0.0,True,0.01096487045288086,-1.9500001668930054,0.19700026512145996,-0.43451613187789917,0.0,0.0,0.0
1759838347.9141424,2,-1.9500001668930054,0.19700026512145996,-0.43449580342130645,0.0,True,0.010280132293701172,-1.9500001668930054,0.19700026512145996,-0.43451613187789917,0.0,0.0,0.0
1759838347.924847,2,-1.9500001668930054,0.19700026512145996,-0.43449656029514294,0.0,True,0.010704517364501953,-1.9500001668930054,0.19700026512145996,-0.43451613187789917,0.0,0.0,0.0
1759838347.936056,2,-1.9500001668930054,0.19700026512145996,-0.4344970549258136,0.0,True,0.01120901107788086,-1.9500001668930054,0.19700026512145996,-0.43451613187789917,0.0,0.0,0.0
1759838347.9464247,2,-1.9500001668930054,0.19700026512145996,-0.4344979031950036,0.0,True,0.010368824005126953,-1.9500001668930054,0.19700026512145996,-0.43451613187789917,0.0,0.0,0.0
1759838347.957264,2,-1.9500001668930054,0.19700026512145996,-0.434498504226589,0.0,True,0.010839223861694336,-1.9500001668930054,0.19700026512145996,-0.43451613187789917,0.0,0.0,0.0
1759838347.9685798,2,-1.9500001668930054,0.19700026512145996,-0.43449890710852657,0.0,True,0.01131582260131836,-1.9500001668930054,0.19700026512145996,-0.43451613187789917,0.0,0.0,0.0
1759838347.9845831,2,-1.9500001668930054,0.19700026512145996,-0.4344977475774705,0.0,True,0.01600337028503418,-1.9500001668930054,0.19700026512145996,-0.43451613187789917,0.0,0.0,0.0
1759838347.9959788,2,-1.9500001668930054,0.19700026512145996,-0.4344986758167053,0.0,True,0.011395692825317383,-1.9500001668930054,0.19700026512145996,-0.43451613187789917,0.0,0.0,0.0
1759838348.007015,2,-1.9500001668930054,0.19700026512145996,-0.43449973075060555,0.0,True,0.011036157608032227,-1.9500001668930054,0.19700026512145996,-0.43451613187789917,0.0,0.0,0.0
1759838348.0172026,2,-1.9500001668930054,0.19700026512145996,-0.434500889977226,0.0,True,0.010187625885009766,-1.9500001668930054,0.19700026512145996,-0.43451613187789917,0.0,0.0,0.0
1759838348.028157,2,-1.9500001668930054,0.19700026512145996,-0.43450161138189003,0.0,True,0.01095438003540039,-1.9500001668930054,0.19700026512145996,-0.43451613187789917,0.0,0.0,0.0
1759838348.039171,2,-1.9500001668930054,0.19700026512145996,-0.43450221273419487,0.0,True,0.011013984680175781,-1.9500001668930054,0.19700026512145996,-0.43451613187789917,0.0,0.0,0.0
1759838348.0500631,2,-1.9500001668930054,0.19700026512145996,-0.434502793629882,0.0,True,0.010892152786254883,-1.9500001668930054,0.19700026512145996,-0.43451613187789917,0.0,0.0,0.0
1759838348.0609255,2,-1.9500001668930054,0.19700026512145996,-0.4345033326991068,0.0,True,0.010862350463867188,-1.9500001668930054,0.19700026512145996,-0.43451613187789917,0.0,0.0,0.0
1759838348.071621,2,-1.9500001668930054,0.19700026512145996,-0.4345038704809916,0.0,True,0.010695457458496094,-1.9500001668930054,0.19700026512145996,-0.43451613187789917,0.0,0.0,0.0
1759838348.082842,2,-1.9500001668930054,0.19700026512145996,-0.434504229443899,0.0,True,0.011221170425415039,-1.9500001668930054,0.19700026512145996,-0.43451613187789917,0.0,0.0,0.0
1759838348.0936291,2,-1.9500001668930054,0.19700026512145996,-0.4345046910715489,0.0,True,0.010787010192871094,-1.9500001668930054,0.19700026512145996,-0.43451613187789917,0.0,0.0,0.0
1759838348.1049743,2,-1.9500001668930054,0.19700026512145996,-0.4345049977388751,0.0,True,0.011345148086547852,-1.9500001668930054,0.19700026512145996,-0.43451613187789917,0.0,0.0,0.0
1759838348.116379,2,-1.9500001668930054,0.19700026512145996,-0.4345053017183176,0.0,True,0.011404752731323242,-1.9500001668930054,0.19700026512145996,-0.43451613187789917,0.0,0.0,0.0
1759838348.1270928,2,-1.9500001668930054,0.19700026512145996,-0.4345057712790954,0.0,True,0.010713815689086914,-1.9500001668930054,0.19700026512145996,-0.43451613187789917,0.0,0.0,0.0
1759838348.1383235,2,-1.9500001668930054,0.19700026512145996,-0.43450609762359704,0.0,True,0.011230707168579102,-1.9500001668930054,0.19700026512145996,-0.43451613187789917,0.0,0.0,0.0
1759838348.148647,2,-1.9500001668930054,0.19700026512145996,-0.43450659782948087,0.0,True,0.010323524475097656,-1.9500001668930054,0.19700026512145996,-0.43451613187789917,0.0,0.0,0.0
1759838348.1594877,2,-1.9500001668930054,0.19700026512145996,-0.4345069408533888,0.0,True,0.010840654373168945,-1.9500001668930054,0.19700026512145996,-0.43451613187789917,0.0,0.0,0.0
1759838348.1707625,2,-1.9500001668930054,0.19700026512145996,-0.4345071767020947,0.0,True,0.01127481460571289,-1.9500001668930054,0.19700026512145996,-0.43451613187789917,0.0,0.0,0.0
1759838348.1828065,2,-1.9500001668930054,0.19700026512145996,-0.4345072861561068,0.0,True,0.012043952941894531,-1.9500001668930054,0.19700026512145996,-0.43451613187789917,0.0,0.0,0.0
1759838348.1930711,2,-1.9500001668930054,0.19700026512145996,-0.4345077602223988,0.0,True,0.01026463508605957,-1.9500001668930054,0.19700026512145996,-0.43451613187789917,0.0,0.0,0.0
1759838348.2031345,2,-1.9500001668930054,0.19700026512145996,-0.43450821905587667,0.0,True,0.010063409805297852,-1.9500001668930054,0.19700026512145996,-0.43451613187789917,0.0,0.0,0.0
1759838348.2137873,2,-1.9500001668930054,0.19700026512145996,-0.43450850997907864,0.0,True,0.010652780532836914,-1.9500001668930054,0.19700026512145996,-0.43451613187789917,0.0,0.0,0.0
1759838348.2246873,2,-1.9500001668930054,0.19700026512145996,-0.4345087344189196,0.0,True,0.010900020599365234,-1.9500001668930054,0.19700026512145996,-0.43451613187789917,0.0,0.0,0.0
1759838348.2357807,2,-1.9500001668930054,0.19700026512145996,-0.43450892782855277,0.0,True,0.011093378067016602,-1.9500001668930054,0.19700026512145996,-0.43451613187789917,0.0,0.0,0.0
1759838348.2457955,2,-1.9500001668930054,0.19700026512145996,-0.43450928967377855,0.0,True,0.010014772415161133,-1.9500001668930054,0.19700026512145996,-0.43451613187789917,0.0,0.0,0.0
1759838348.2559338,2,-1.9500001668930054,0.19700026512145996,-0.43450959238882625,0.0,True,0.010138273239135742,-1.9500001668930054,0.19700026512145996,-0.43451613187789917,0.0,0.0,0.0
1759838348.2663603,2,-1.9500001668930054,0.19700026512145996,-0.4345098167457735,0.0,True,0.010426521301269531,-1.9500001668930054,0.19700026512145996,-0.43451613187789917,0.0,0.0,0.0
1759838348.2778277,2,-1.9500001668930054,0.19700026512145996,-0.4345098857996259,0.0,True,0.011467456817626953,-1.9500001668930054,0.19700026512145996,-0.43451613187789917,0.0,0.0,0.0
1759838348.288042,2,-1.9500001668930054,0.19700026512145996,-0.434510150288725,0.0,True,0.01021432876586914,-1.9500001668930054,0.19700026512145996,-0.43451613187789917,0.0,0.0,0.0
1759838348.2993956,2,-1.9500001668930054,0.19700026512145996,-0.43451025577171265,0.0,True,0.011353492736816406,-1.9500001668930054,0.19700026512145996,-0.43451613187789917,0.0,0.0,0.0
1759838348.3102894,2,-1.9500001668930054,0.19700026512145996,-0.43451043484350826,0.0,True,0.010893821716308594,-1.9500001668930054,0.19700026512145996,-0.43451613187789917,0.0,0.0,0.0
1759838348.3206115,2,-1.9500001668930054,0.19700026512145996,-0.43451068490454503,0.0,True,0.010322093963623047,-1.9500001668930054,0.19700026512145996,-0.43451613187789917,0.0,0.0,0.0
1759838348.3308346,2,-1.9500001668930054,0.19700026512145996,-0.43451092301206984,0.0,True,0.010223150253295898,-1.9500001668930054,0.19700026512145996,-0.43451613187789917,0.0,0.0,0.0
1759838348.3416774,2,-1.9500001668930054,0.19700026512145996,-0.4345110663427256,0.0,True,0.01084280014038086,-1.9500001668930054,0.19700026512145996,-0.43451613187789917,0.0,0.0,0.0
1759838348.352515,2,-1.9500001668930054,0.19700026512145996,-0.4345112093817072,0.0,True,0.010837554931640625,-1.9500001668930054,0.19700026512145996,-0.43451613187789917,0.0,0.0,0.0
1759838348.3628488,2,-1.9500001668930054,0.19700026512145996,-0.4345114071957319,0.0,True,0.010333776473999023,-1.9500001668930054,0.19700026512145996,-0.43451613187789917,0.0,0.0,0.0
1759838348.3737056,2,-1.9500001668930054,0.19700026512145996,-0.4345115386492484,0.0,True,0.010856866836547852,-1.9500001668930054,0.19700026512145996,-0.43451613187789917,0.0,0.0,0.0
1759838348.3848162,2,-1.9500001668930054,0.19700026512145996,-0.4345116460095291,0.0,True,0.011110544204711914,-1.9500001668930054,0.19700026512145996,-0.43451613187789917,0.0,0.0,0.0
1759838348.3963485,2,-1.9500001668930054,0.19700026512145996,-0.4345117248862813,0.0,True,0.011532306671142578,-1.9500001668930054,0.19700026512145996,-0.43451613187789917,0.0,0.0,0.0
1759838348.4069648,2,-1.9500001668930054,0.19700026512145996,-0.4345119051804698,0.0,True,0.010616302490234375,-1.9500001668930054,0.19700026512145996,-0.43451613187789917,0.0,0.0,0.0
1759838348.4180224,2,-1.9500001668930054,0.19700026512145996,-0.43451203804785976,0.0,True,0.011057615280151367,-1.9500001668930054,0.19700026512145996,-0.43451613187789917,0.0,0.0,0.0
1759838348.4282904,2,-1.9500001668930054,0.19700026512145996,-0.4345122334542584,0.0,True,0.010267972946166992,-1.9500001668930054,0.19700026512145996,-0.43451613187789917,0.0,0.0,0.0
1759838348.4394035,2,-1.9500001668930054,0.19700026512145996,-0.43451234011799045,0.0,True,0.011113166809082031,-1.9500001668930054,0.19700026512145996,-0.43451613187789917,0.0,0.0,0.0
1759838348.4498289,2,-1.9500001668930054,0.19700026512145996,-0.4345124999452068,0.0,True,0.010425329208374023,-1.9500001668930054,0.19700026512145996,-0.43451613187789917,0.0,0.0,0.0
1759838348.460142,2,-1.9500001668930054,0.19700026512145996,-0.434512655665813,0.0,True,0.010313034057617188,-1.9500001668930054,0.19700026512145996,-0.43451613187789917,0.0,0.0,0.0
1759838348.4703434,2,-1.9500001668930054,0.19700026512145996,-0.43451280310369356,0.0,True,0.010201454162597656,-1.9500001668930054,0.19700026512145996,-0.43451613187789917,0.0,0.0,0.0
1759838348.4814856,2,-1.9500001668930054,0.19700026512145996,-0.4345128685183912,0.0,True,0.011142253875732422,-1.9500001668930054,0.19700026512145996,-0.43451613187789917,0.0,0.0,0.0
1759838348.4928412,2,-1.9500001668930054,0.19700026512145996,-0.43451292715204026,0.0,True,0.01135563850402832,-1.9500001668930054,0.19700026512145996,-0.43451613187789917,0.0,0.0,0.0
1759838348.5043578,2,-1.9500001668930054,0.19700026512145996,-0.43451298973100805,0.0,True,0.011516571044921875,-1.9500001668930054,0.19700026512145996,-0.43451613187789917,0.0,0.0,0.0
1759838348.5157933,2,-1.9500001668930054,0.19700026512145996,-0.4345130713661547,0.0,True,0.011435508728027344,-1.9500001668930054,0.19700026512145996,-0.43451613187789917,0.0,0.0,0.0
1759838348.527272,2,-1.9500001668930054,0.19700026512145996,-0.43451315833281257,0.0,True,0.011478662490844727,-1.9500001668930054,0.19700026512145996,-0.43451613187789917,0.0,0.0,0.0
1759838348.5385804,2,-1.9500001668930054,0.19700026512145996,-0.43451325998335477,0.0,True,0.011308431625366211,-1.9500001668930054,0.19700026512145996,-0.43451613187789917,0.0,0.0,0.0
1759838348.548877,2,-1.9500001668930054,0.19700026512145996,-0.43451341754007444,0.0,True,0.01029658317565918,-1.9500001668930054,0.19700026512145996,-0.43451613187789917,0.0,0.0,0.0
1759838348.5597591,2,-1.9500001668930054,0.19700026512145996,-0.43451352285006095,0.0,True,0.010882139205932617,-1.9500001668930054,0.19700026512145996,-0.43451613187789917,0.0,0.0,0.0
1759838348.5707808,2,-1.9500001668930054,0.19700026512145996,-0.4345136109351415,0.0,True,0.011021614074707031,-1.9500001668930054,0.19700026512145996,-0.43451613187789917,0.0,0.0,0.0
1759838348.581231,2,-1.9500001668930054,0.19700026512145996,-0.43451372483174566,0.0,True,0.010450363159179688,-1.9500001668930054,0.19700026512145996,-0.43451613187789917,0.0,0.0,0.0
1759838348.5912333,2,-1.9500001668930054,0.19700026512145996,-0.43451384955474737,0.0,True,0.01000213623046875,-1.9500001668930054,0.19700026512145996,-0.43451613187789917,0.0,0.0,0.0
1759838348.6014354,2,-1.9500001668930054,0.19700026512145996,-0.4345139471394006,0.0,True,0.010202169418334961,-1.9500001668930054,0.19700026512145996,-0.43451613187789917,0.0,0.0,0.0
1759838348.6127627,2,-1.9500001668930054,0.19700026512145996,-0.4345139807931062,0.0,True,0.011327266693115234,-1.9500001668930054,0.19700026512145996,-0.43451613187789917,0.0,0.0,0.0
1759838348.6236558,2,-1.9500001668930054,0.19700026512145996,-0.43451404146949457,0.0,True,0.010893106460571289,-1.9500001668930054,0.19700026512145996,-0.43451613187789917,0.0,0.0,0.0
1759838348.6342144,2,-1.9500001668930054,0.19700026512145996,-0.43451411963808084,0.0,True,0.010558605194091797,-1.9500001668930054,0.19700026512145996,-0.43451613187789917,0.0,0.0,0.0
1759838348.6442146,2,-1.9500001668930054,0.19700026512145996,-0.4345142168686209,0.0,True,0.010000228881835938,-1.9500001668930054,0.19700026512145996,-0.43451613187789917,0.0,0.0,0.0
1759838348.6545603,2,-1.9500001668930054,0.19700026512145996,-0.4345142881833972,0.0,True,0.010345697402954102,-1.9500001668930054,0.19700026512145996,-0.43451613187789917,0.0,0.0,0.0
1759838348.6645637,2,-1.9500001668930054,0.19700026512145996,-0.4345143662819346,0.0,True,0.010003328323364258,-1.9500001668930054,0.19700026512145996,-0.43451613187789917,0.0,0.0,0.0
1759838348.6749227,2,-1.9500001668930054,0.19700026512145996,-0.43451442268473883,0.0,True,0.010359048843383789,-1.9500001668930054,0.19700026512145996,-0.43451613187789917,0.0,0.0,0.0
1759838348.6859155,2,-1.9500001668930054,0.19700026512145996,-0.4345144526881519,0.0,True,0.010992765426635742,-1.9500001668930054,0.19700026512145996,-0.43451613187789917,0.0,0.0,0.0
1759838348.6965768,2,-1.9500001668930054,0.19700026512145996,-0.43451450002519465,0.0,True,0.01066136360168457,-1.9500001668930054,0.19700026512145996,-0.43451613187789917,0.0,0.0,0.0
1759838348.7080474,2,-1.9500001668930054,0.19700026512145996,-0.43451452147840364,0.0,True,0.011470556259155273,-1.9500001668930054,0.19700026512145996,-0.43451613187789917,0.0,0.0,0.0
1759838348.7183378,2,-1.9500001668930054,0.19700026512145996,-0.4345145905151071,0.0,True,0.010290384292602539,-1.9500001668930054,0.19700026512145996,-0.43451613187789917,0.0,0.0,0.0
1759838348.7297902,2,-1.9500001668930054,0.19700026512145996,-0.43451461798376734,0.0,True,0.011452436447143555,-1.9500001668930054,0.19700026512145996,-0.43451613187789917,0.0,0.0,0.0
1759838348.7411783,2,-1.9500001668930054,0.19700026512145996,-0.4345146523855057,0.0,True,0.011388063430786133,-1.9500001668930054,0.19700026512145996,-0.43451613187789917,0.0,0.0,0.0
1759838348.7511868,2,-1.9500001668930054,0.19700026512145996,-0.43451473285000297,0.0,True,0.010008573532104492,-1.9500001668930054,0.19700026512145996,-0.43451613187789917,0.0,0.0,0.0
1759838348.762414,2,-1.9500001668930054,0.19700026512145996,-0.43451476858572136,0.0,True,0.011227130889892578,-1.9500001668930054,0.19700026512145996,-0.43451613187789917,0.0,0.0,0.0
1759838348.7725515,2,-1.9500001668930054,0.19700026512145996,-0.4345148348431067,0.0,True,0.010137557983398438,-1.9500001668930054,0.19700026512145996,-0.43451613187789917,0.0,0.0,0.0
1759838348.7827206,2,-1.9500001668930054,0.19700026512145996,-0.4345148932859715,0.0,True,0.010169029235839844,-1.9500001668930054,0.19700026512145996,-0.43451613187789917,0.0,0.0,0.0
1759838348.794177,2,-1.9500001668930054,0.19700026512145996,-0.4345149109406137,0.0,True,0.011456489562988281,-1.9500001668930054,0.19700026512145996,-0.43451613187789917,0.0,0.0,0.0
1759838348.8051574,2,-1.9500001668930054,0.19700026512145996,-0.434514945396975,0.0,True,0.010980367660522461,-1.9500001668930054,0.19700026512145996,-0.43451613187789917,0.0,0.0,0.0
1759838348.8159606,2,-1.9500001668930054,0.19700026512145996,-0.4345149861900808,0.0,True,0.01080322265625,-1.9500001668930054,0.19700026512145996,-0.43451613187789917,0.0,0.0,0.0
1759838348.8272269,2,-1.9500001668930054,0.19700026512145996,-0.43451501508121027,0.0,True,0.011266231536865234,-1.9500001668930054,0.19700026512145996,-0.43451613187789917,0.0,0.0,0.0
1759838348.8384852,2,-1.9500001668930054,0.19700026512145996,-0.4345150459937628,0.0,True,0.011258363723754883,-1.9500001668930054,0.19700026512145996,-0.43451613187789917,0.0,0.0,0.0
1759838348.8496504,2,-1.9500001668930054,0.19700026512145996,-0.4345150806331972,0.0,True,0.011165142059326172,-1.9500001668930054,0.19700026512145996,-0.43451613187789917,0.0,0.0,0.0
1759838348.8610766,2,-1.9500001668930054,0.19700026512145996,-0.4345151100229234,0.0,True,0.011426210403442383,-1.9500001668930054,0.19700026512145996,-0.43451613187789917,0.0,0.0,0.0
1759838348.8723712,2,-1.9500001668930054,0.19700026512145996,-0.4345151433879444,0.0,True,0.01129460334777832,-1.9500001668930054,0.19700026512145996,-0.43451613187789917,0.0,0.0,0.0
1759838348.8826478,2,-1.9500001668930054,0.19700026512145996,-0.43451519664974114,0.0,True,0.010276556015014648,-1.9500001668930054,0.19700026512145996,-0.43451613187789917,0.0,0.0,0.0
1759838348.8941197,2,-1.9500001668930054,0.19700026512145996,-0.4345152207386036,0.0,True,0.011471986770629883,-1.9500001668930054,0.19700026512145996,-0.43451613187789917,0.0,0.0,0.0
1759838348.9054298,2,-1.9500001668930054,0.19700026512145996,-0.4345152482016985,0.0,True,0.011310100555419922,-1.9500001668930054,0.19700026512145996,-0.43451613187789917,0.0,0.0,0.0
1759838348.916359,2,-1.9500001668930054,0.19700026512145996,-0.43451528311007337,0.0,True,0.010929107666015625,-1.9500001668930054,0.19700026512145996,-0.43451613187789917,0.0,0.0,0.0
1759838348.9274328,2,-1.9500001668930054,0.19700026512145996,-0.4345153135991957,0.0,True,0.011073827743530273,-1.9500001668930054,0.19700026512145996,-0.43451613187789917,0.0,0.0,0.0
1759838348.9383867,2,-1.9500001668930054,0.19700026512145996,-0.4345153445654386,0.0,True,0.010953903198242188,-1.9500001668930054,0.19700026512145996,-0.43451613187789917,0.0,0.0,0.0
1759838348.9485857,2,-1.9500001668930054,0.19700026512145996,-0.4345153856401378,0.0,True,0.01019906997680664,-1.9500001668930054,0.19700026512145996,-0.43451613187789917,0.0,0.0,0.0
1759838348.9598906,2,-1.9500001668930054,0.19700026512145996,-0.4345154045513535,0.0,True,0.011304855346679688,-1.9500001668930054,0.19700026512145996,-0.43451613187789917,0.0,0.0,0.0
1759838348.970228,2,-1.9500001668930054,0.19700026512145996,-0.43451543798020253,0.0,True,0.010337352752685547,-1.9500001668930054,0.19700026512145996,-0.43451613187789917,0.0,0.6,0.0
1759838348.9883513,2,-1.9500001668930054,0.19700026512145996,-0.434515359631364,0.0,True,0.018123388290405273,-1.9500001668930054,0.19700026512145996,-0.43451613187789917,0.0,0.6,0.0
1759838348.9953718,2,-1.9500001668930054,0.19700026512145996,-0.4345154616974689,0.0,True,0.007020473480224609,-1.9500001668930054,0.19700026512145996,-0.43451613187789917,0.0,0.6,0.0
1759838349.006025,2,-1.9500001668930054,0.19700026512145996,-0.4345154991043394,0.0,True,0.010653257369995117,-1.9500001668930054,0.19700026512145996,-0.43451613187789917,0.0,0.6,0.0
1759838349.0177586,2,-1.9500001668930054,0.19700026512145996,-0.4345155137878365,0.0,True,0.011733531951904297,-1.9500001668930054,0.19700026512145996,-0.43451613187789917,0.0,0.6,0.0
1759838349.0284066,2,-1.9500001668930054,0.19700026512145996,-0.43451554238279577,0.0,True,0.010648012161254883,-1.9500001668930054,0.19700026512145996,-0.43451613187789917,0.0,0.6,0.0
1759838349.0403926,2,-1.9500001668930054,0.19700026512145996,-0.434515552886225,0.0,True,0.011986017227172852,-1.9500001668930054,0.19700026512145996,-0.43451613187789917,0.0,0.6,0.0
1759838349.0527518,2,-1.9500001668930054,0.19700026512145996,-0.43451556131901015,0.0,True,0.012359142303466797,-1.9500001668930054,0.19700026512145996,-0.43451613187789917,0.0,0.6,0.0
1759838349.0647883,2,-1.9500001668930054,0.19700026512145996,-0.4345155770744924,0.0,True,0.012036561965942383,-1.9500001668930054,0.19700026512145996,-0.43451613187789917,0.0,0.6,0.0
1759838349.0754864,2,-1.9500001668930054,0.19700026512145996,-0.43451560839854864,0.0,True,0.010698080062866211,-1.9500001668930054,0.19700026512145996,-0.43451613187789917,0.0,0.6,0.0
1759838349.085586,2,-1.9500001668930054,0.19700026512145996,-0.4345156419572742,0.0,True,0.010099649429321289,-1.9500001668930054,0.19700026512145996,-0.43451613187789917,0.0,0.6,0.0
1759838349.0958443,2,-1.9500001668930054,0.19700026512145996,-0.43451566813976683,0.0,True,0.010258197784423828,-1.9500001668930054,0.19700026512145996,-0.43451613187789917,0.0,0.6,0.0
1759838349.1067538,2,-1.9500001668930054,0.19700026512145996,-0.43451568387384754,0.0,True,0.010909557342529297,-1.9500001668930054,0.19700026512145996,-0.43451613187789917,0.0,0.6,0.0
1759838349.1178753,2,-1.9500001668930054,0.19700026512145996,-0.4345156965389734,0.0,True,0.011121511459350586,-1.9500001668930054,0.19700026512145996,-0.43451613187789917,0.0,0.6,0.0
1759838349.1289291,2,-1.9500001668930054,0.19700026512145996,-0.4345157100039927,0.0,True,0.011053800582885742,-1.9500001668930054,0.19700026512145996,-0.43451613187789917,0.0,0.6,0.0
1759838349.1397452,2,-1.9500001668930054,0.19700026512145996,-0.4345157255160288,0.0,True,0.010816097259521484,-1.9500001668930054,0.19700026512145996,-0.43451613187789917,0.0,0.6,0.0
1759838349.1508768,2,-1.9500001668930054,0.19700026512145996,-0.43451573765561413,0.0,True,0.011131525039672852,-1.9500001668930054,0.19700026512145996,-0.43451613187789917,0.0,0.6,0.0
1759838349.1615615,2,-1.9500001668930054,0.19700026512145996,-0.4345157533067905,0.0,True,0.010684728622436523,-1.9500001668930054,0.19700026512145996,-0.43451613187789917,0.0,0.6,0.0
1759838349.1729357,2,-1.9500001668930054,0.19700026512145996,-0.43451576261661984,0.0,True,0.011374235153198242,-1.9500001668930054,0.19700026512145996,-0.43451613187789917,0.0,0.6,0.0
1759838349.1843312,2,-1.9500001668930054,0.19700026512145996,-0.43451577229517824,0.0,True,0.011395454406738281,-1.9500001668930054,0.19700026512145996,-0.43451613187789917,0.0,0.6,0.0
1759838349.198817,2,-1.9500001668930054,0.19700026512145996,-0.434515760895815,0.0,True,0.014485836029052734,-1.9500001668930054,0.19700026512145996,-0.43451613187789917,0.0,0.6,0.0
1759838349.2095392,2,-1.9500001668930054,0.19700026512145996,-0.43451578252413015,0.0,True,0.010722160339355469,-1.9500001668930054,0.19700026512145996,-0.43451613187789917,0.0,0.6,0.0
1759838349.2208238,2,-1.9500001668930054,0.19700026512145996,-0.43451579900525417,0.0,True,0.011284589767456055,-1.9500001668930054,0.19700026512145996,-0.43451613187789917,0.0,0.6,0.0
1759838349.2318141,2,-1.9500001668930054,0.19700026512145996,-0.4345158153582318,0.0,True,0.010990381240844727,-1.9500001668930054,0.19700026512145996,-0.43451613187789917,0.0,0.6,0.0
1759838349.2424188,2,-1.9500001668930054,0.19700026512145996,-0.4345158321229867,0.0,True,0.010604619979858398,-1.9500001668930054,0.19700026512145996,-0.43451613187789917,0.0,0.6,0.0
1759838349.2537308,2,-1.9500001668930054,0.19700026512145996,-0.4345158423941804,0.0,True,0.011312007904052734,-1.9500001668930054,0.19700026512145996,-0.43451613187789917,0.0,0.6,0.0
1759838349.2643366,2,-1.9500001668930054,0.19700026512145996,-0.4345158560713216,0.0,True,0.010605812072753906,-1.9500001668930054,0.19700026512145996,-0.43451613187789917,0.0,0.6,0.0
1759838349.275417,2,-1.9500001668930054,0.19700026512145996,-0.4345158656952357,0.0,True,0.011080503463745117,-1.9500001668930054,0.19700026512145996,-0.43451613187789917,0.0,0.6,0.0
1759838349.2861047,2,-1.9500001668930054,0.19700026512145996,-0.43451587682563186,0.0,True,0.010687589645385742,-1.9500001668930054,0.19700026512145996,-0.43451613187789917,0.0,0.6,0.0
1759838349.2973597,2,-1.9500001668930054,0.19700026512145996,-0.4345158840953367,0.0,True,0.011255025863647461,-1.9500001668930054,0.19700026512145996,-0.43451613187789917,0.0,0.6,0.0
1759838349.3082294,2,-1.9500001668930054,0.19700026512145996,-0.4345158932909534,0.0,True,0.010869741439819336,-1.9500001668930054,0.19700026512145996,-0.43451613187789917,0.0,0.6,0.0
1759838349.3193963,2,-1.9500001668930054,0.19700026512145996,-0.43451590062817047,0.0,True,0.011166810989379883,-1.9500001668930054,0.19700026512145996,-0.43451613187789917,0.0,0.6,0.0
1759838349.330189,2,-1.9500001668930054,0.19700026512145996,-0.43451590962199305,0.0,True,0.010792732238769531,-1.9500001668930054,0.19700026512145996,-0.43451613187789917,0.0,0.6,0.0
1759838349.3409557,2,-1.9500001668930054,0.19700026512145996,-0.43451591817282775,0.0,True,0.010766744613647461,-1.9500001668930054,0.19700026512145996,-0.43451613187789917,0.0,0.6,0.0
1759838349.3522315,2,-1.9500001668930054,0.19700026512145996,-0.43451592389086713,0.0,True,0.011275768280029297,-1.9500001668930054,0.19700026512145996,-0.43451613187789917,0.0,0.6,0.0
1759838349.3628974,2,-1.9500001668930054,0.19700026512145996,-0.43451593231727514,0.0,True,0.0106658935546875,-1.9500001668930054,0.19700026512145996,-0.43451613187789917,0.0,0.6,0.0
1759838349.3742075,2,-1.9500001668930054,0.19700026512145996,-0.43451593757676754,0.0,True,0.011310100555419922,-1.9500001668930054,0.19700026512145996,-0.43451613187789917,0.0,0.6,0.0
1759838349.3849206,2,-1.9500001668930054,0.19700026512145996,-0.4345159453191876,0.0,True,0.01071310043334961,-1.9500001668930054,0.19700026512145996,-0.43451613187789917,0.0,0.6,0.0
1759838349.3972275,2,-1.9500001668930054,0.19700026512145996,-0.4345159465959725,0.0,True,0.012306928634643555,-1.9500001668930054,0.19700026512145996,-0.43451613187789917,0.0,0.6,0.0
1759838349.4085603,2,-1.9500001668930054,0.19700026512145996,-0.4345159527178133,0.0,True,0.01133275032043457,-1.9500001668930054,0.19700026512145996,-0.43451613187789917,0.0,0.6,0.0
1759838349.4197614,2,-1.9500001668930054,0.19700026512145996,-0.4345159595117227,0.0,True,0.011201143264770508,-1.9500001668930054,0.19700026512145996,-0.43451613187789917,0.0,0.6,0.0
1759838349.4306612,2,-1.9500001668930054,0.19700026512145996,-0.4345159669953169,0.0,True,0.010899782180786133,-1.9500001668930054,0.19700026512145996,-0.43451613187789917,0.0,0.6,0.0
1759838349.4416306,2,-1.9500001668930054,0.19700026512145996,-0.43451597358744465,0.0,True,0.010969400405883789,-1.9500001668930054,0.19700026512145996,-0.43451613187789917,0.0,0.6,0.0
1759838349.4524016,2,-1.9500001668930054,0.19700026512145996,-0.4345159802664398,0.0,True,0.010771036148071289,-1.9500001668930054,0.19700026512145996,-0.43451613187789917,0.0,0.6,0.0
1759838349.4638228,2,-1.9500001668930054,0.19700026512145996,-0.43451598436836747,0.0,True,0.01142120361328125,-1.9500001668930054,0.19700026512145996,-0.43451613187789917,0.0,0.6,0.0
1759838349.4747722,2,-1.9500001668930054,0.19700026512145996,-0.434515989947613,0.0,True,0.010949373245239258,-1.9500001668930054,0.19700026512145996,-0.43451613187789917,0.0,0.6,0.0
1759838349.4850402,2,-1.9500001668930054,0.19700026512145996,-0.4345159972004886,0.0,True,0.010267972946166992,-1.9500001668930054,0.19700026512145996,-0.43451613187789917,0.0,0.6,0.0
1759838349.496348,2,-1.9500001668930054,0.19700026512145996,-0.4345160006826365,0.0,True,0.011307716369628906,-1.9500001668930054,0.19700026512145996,-0.43451613187789917,0.0,0.6,0.0
1759838349.5066261,2,-1.9500001668930054,0.19700026512145996,-0.4345160069200915,0.0,True,0.01027822494506836,-1.9500001668930054,0.19700026512145996,-0.43451613187789917,0.0,0.6,0.0
1759838349.5176146,2,-1.9500001668930054,0.19700026512145996,-0.43451601069983425,0.0,True,0.010988473892211914,-1.9500001668930054,0.19700026512145996,-0.43451613187789917,0.0,0.6,0.0
1759838349.5278132,2,-1.9500001668930054,0.19700026512145996,-0.434516016309205,0.0,True,0.010198593139648438,-1.9500001668930054,0.19700026512145996,-0.43451613187789917,0.0,0.6,0.0
1759838349.53844,2,-1.9500001668930054,0.19700026512145996,-0.4345160202984175,0.0,True,0.010626792907714844,-1.9500001668930054,0.19700026512145996,-0.43451613187789917,0.0,0.6,0.0
1759838349.5498106,2,-1.9500001668930054,0.19700026512145996,-0.43451602227929165,0.0,True,0.011370658874511719,-1.9500001668930054,0.19700026512145996,-0.43451613187789917,0.0,0.6,0.0
1759838349.5604777,2,-1.9500001668930054,0.19700026512145996,-0.4345160262169401,0.0,True,0.010667085647583008,-1.9500001668930054,0.19700026512145996,-0.43451613187789917,0.0,0.6,0.0
1759838349.570618,2,-1.9500001668930054,0.19700026512145996,-0.43451603119080495,0.0,True,0.010140180587768555,-1.9500001668930054,0.19700026512145996,-0.43451613187789917,0.0,0.6,0.0
1759838349.5819077,2,-1.9500001668930054,0.19700026512145996,-0.4345160331724873,0.0,True,0.011289834976196289,-1.9500001668930054,0.19700026512145996,-0.43451613187789917,0.0,0.6,0.0
1759838349.5941236,2,-1.9500001668930054,0.19700026512145996,-0.43451603349781287,0.0,True,0.012215852737426758,-1.9500001668930054,0.19700026512145996,-0.43451613187789917,0.0,0.6,0.0
1759838349.6053925,2,-1.9500001668930054,0.19700026512145996,-0.43451603656793836,0.0,True,0.011268854141235352,-1.9500001668930054,0.19700026512145996,-0.43451613187789917,0.0,0.6,0.0
1759838349.615884,2,-1.9500001668930054,0.19700026512145996,-0.4345160412722944,0.0,True,0.010491609573364258,-1.9500001668930054,0.19700026512145996,-0.43451613187789917,0.0,0.6,0.0
1759838349.6271129,2,-1.9500001668930054,0.19700026512145996,-0.4345160441293743,0.0,True,0.011228799819946289,-1.9500001668930054,0.19700026512145996,-0.43451613187789917,0.0,0.6,0.0
1759838349.638582,2,-1.9500001668930054,0.19700026512145996,-0.43451604646826425,0.0,True,0.011469125747680664,-1.9500001668930054,0.19700026512145996,-0.43451613187789917,0.0,0.6,0.0
1759838349.648909,2,-1.9500001668930054,0.19700026512145996,-0.43451605086669787,0.0,True,0.01032710075378418,-1.9500001668930054,0.19700026512145996,-0.43451613187789917,0.0,0.6,0.0
1759838349.6594973,2,-1.9500001668930054,0.19700026512145996,-0.43451605434211515,0.0,True,0.01058816909790039,-1.9500001668930054,0.19700026512145996,-0.43451613187789917,0.0,0.6,0.0
1759838349.670283,2,-1.9500001668930054,0.19700026512145996,-0.43451605710992425,0.0,True,0.010785818099975586,-1.9500001668930054,0.19700026512145996,-0.43451613187789917,0.0,0.6,0.0
1759838349.6815374,2,-1.9500001668930054,0.19700026512145996,-0.4345160589846344,0.0,True,0.011254310607910156,-1.9500001668930054,0.19700026512145996,-0.43451613187789917,0.0,0.6,0.0
1759838349.6928096,2,-1.9500001668930054,0.19700026512145996,-0.43451606093825745,0.0,True,0.011272192001342773,-1.9500001668930054,0.19700026512145996,-0.43451613187789917,0.0,0.6,0.0
1759838349.7039354,2,-1.9500001668930054,0.19700026512145996,-0.43451606321954017,0.0,True,0.011125802993774414,-1.9500001668930054,0.19700026512145996,-0.43451613187789917,0.0,0.6,0.0
1759838349.7140317,2,-1.9500001668930054,0.19700026512145996,-0.4345160669135808,0.0,True,0.010096311569213867,-1.9500001668930054,0.19700026512145996,-0.43451613187789917,0.0,0.6,0.0
1759838349.7250786,2,-1.9500001668930054,0.19700026512145996,-0.43451606886527117,0.0,True,0.011046886444091797,-1.9500001668930054,0.19700026512145996,-0.43451613187789917,0.0,0.6,0.0
1759838349.7351995,2,-1.9500001668930054,0.19700026512145996,-0.4345160719265415,0.0,True,0.010120868682861328,-1.9500001668930054,0.19700026512145996,-0.43451613187789917,0.0,0.6,0.0
1759838349.7465131,2,-1.9500001668930054,0.19700026512145996,-0.4345160731569351,0.0,True,0.011313676834106445,-1.9500001668930054,0.19700026512145996,-0.43451613187789917,0.0,0.6,0.0
1759838349.7573843,2,-1.9500001668930054,0.19700026512145996,-0.43451607502744594,0.0,True,0.010871171951293945,-1.9500001668930054,0.19700026512145996,-0.43451613187789917,0.0,0.6,0.0
1759838349.767543,2,-1.9500001668930054,0.19700026512145996,-0.4345160777342887,0.0,True,0.010158777236938477,-1.9500001668930054,0.19700026512145996,-0.43451613187789917,0.0,0.6,0.0
1759838349.778115,2,-1.9500001668930054,0.19700026512145996,-0.43451607967470096,0.0,True,0.010571956634521484,-1.9500001668930054,0.19700026512145996,-0.43451613187789917,0.0,0.6,0.0
1759838349.7888012,2,-1.9500001668930054,0.19700026512145996,-0.43451608133604935,0.0,True,0.010686159133911133,-1.9500001668930054,0.19700026512145996,-0.43451613187789917,0.0,0.6,0.0
1759838349.8028717,2,-1.9500001668930054,0.19700026512145996,-0.4345160794139886,0.0,True,0.014070510864257812,-1.9500001668930054,0.19700026512145996,-0.43451613187789917,0.0,0.6,0.0
1759838349.8132951,2,-1.9500001668930054,0.19700026512145996,-0.43451608223901417,0.0,True,0.010423421859741211,-1.9500001668930054,0.19700026512145996,-0.43451613187789917,0.0,0.6,0.0
1759838349.8236723,2,-1.9500001668930054,0.19700026512145996,-0.43451608496797434,0.0,True,0.010377168655395508,-1.9500001668930054,0.19700026512145996,-0.43451613187789917,0.0,0.6,0.0
1759838349.8351693,2,-1.9500001668930054,0.19700026512145996,-0.43451608623660576,0.0,True,0.011497020721435547,-1.9500001668930054,0.19700026512145996,-0.43451613187789917,0.0,0.6,0.0
1759838349.845965,2,-1.9500001668930054,0.19700026512145996,-0.4345160881398975,0.0,True,0.01079559326171875,-1.9500001668930054,0.19700026512145996,-0.43451613187789917,0.0,0.6,0.0
1759838349.857385,2,-1.9500001668930054,0.19700026512145996,-0.43451608937080977,0.0,True,0.011420011520385742,-1.9500001668930054,0.19700026512145996,-0.43451613187789917,0.0,0.6,0.0
1759838349.8685684,2,-1.9500001668930054,0.19700026512145996,-0.43451609082190856,0.0,True,0.011183500289916992,-1.9500001668930054,0.19700026512145996,-0.43451613187789917,0.0,0.6,0.0
1759838349.880077,2,-1.9500001668930054,0.19700026512145996,-0.4345160919891047,0.0,True,0.011508464813232422,-1.9500001668930054,0.19700026512145996,-0.43451613187789917,0.0,0.6,0.0
1759838349.8913834,2,-1.9500001668930054,0.19700026512145996,-0.43451609335463104,0.0,True,0.011306524276733398,-1.9500001668930054,0.19700026512145996,-0.43451613187789917,0.0,0.6,0.0
1759838349.9015777,2,-1.9500001668930054,0.19700026512145996,-0.43451609554144,0.0,True,0.01019430160522461,-1.9500001668930054,0.19700026512145996,-0.43451613187789917,0.0,0.6,0.0
1759838349.912712,2,-1.9500001668930054,0.19700026512145996,-0.43451609674339764,0.0,True,0.01113438606262207,-1.9500001668930054,0.19700026512145996,-0.43451613187789917,0.0,0.6,0.0
1759838349.9230607,2,-1.9500001668930054,0.19700026512145996,-0.4345160984227867,0.0,True,0.01034855842590332,-1.9500001668930054,0.19700026512145996,-0.43451613187789917,0.0,0.6,0.0
1759838349.9332266,2,-1.9500001668930054,0.19700026512145996,-0.4345161000429627,0.0,True,0.010165929794311523,-1.9500001668930054,0.19700026512145996,-0.43451613187789917,0.0,0.6,0.0
1759838349.9441888,2,-1.9500001668930054,0.19700026512145996,-0.434516100917973,0.0,True,0.010962247848510742,-1.9500001668930054,0.19700026512145996,-0.43451613187789917,0.0,0.6,0.0
1759838349.9556549,2,-1.9500001668930054,0.19700026512145996,-0.43451610145926445,0.0,True,0.011466026306152344,-1.9500001668930054,0.19700026512145996,-0.43451613187789917,0.0,0.6,0.0
1759838349.9668868,2,-1.9500001668930054,0.19700026512145996,-0.4345161022709991,0.0,True,0.01123189926147461,-1.9500001668930054,0.19700026512145996,-0.43451613187789917,0.0,0.6,0.0
1759838349.9769096,2,-1.9500001668930054,0.19700026512145996,-0.4345161038646488,0.0,True,0.010022878646850586,-1.9500001668930054,0.19700026512145996,-0.43451613187789917,0.0,0.6,0.0
1759838349.9869392,2,-1.9500001668930054,0.19700026512145996,-0.4345161052563107,0.0,True,0.01002955436706543,-1.9500001668930054,0.19700026512145996,-0.43451613187789917,0.0,0.6,0.0
1759838350.0027494,2,-1.9500001668930054,0.19700026512145996,-0.4345161032456417,0.0,True,0.015810251235961914,-1.9500001668930054,0.19700026512145996,-0.43451613187789917,0.0,0.6,0.0
1759838350.0118983,2,-1.9500001668930054,0.19700026512145996,-0.43451610563052867,0.0,True,0.009148836135864258,-1.9500001668930054,0.19700026512145996,-0.43451613187789917,0.0,0.6,0.0
1759838350.0220187,2,-1.9500001668930054,0.19700026512145996,-0.4345161072395882,0.0,True,0.010120391845703125,-1.9500001668930054,0.19700026512145996,-0.43451613187789917,0.0,0.6,0.0
1759838350.0334752,2,-1.9500001668930054,0.19700026512145996,-0.4345161078659725,0.0,True,0.011456489562988281,-1.9500001668930054,0.19700026512145996,-0.43451613187789917,0.0,0.6,0.0
1759838350.0441802,2,-1.9500001668930054,0.19700026512145996,-0.4345161088512839,0.0,True,0.010704994201660156,-1.9500001668930054,0.19700026512145996,-0.43451613187789917,0.0,0.6,0.0
1759838350.0552895,2,-1.9500001668930054,0.19700026512145996,-0.4345161095848269,0.0,True,0.011109352111816406,-1.9500001668930054,0.19700026512145996,-0.43451613187789917,0.0,0.6,0.0
1759838350.0666113,2,-1.9500001668930054,0.19700026512145996,-0.434516110204509,0.0,True,0.011321783065795898,-1.9500001668930054,0.19700026512145996,-0.43451613187789917,0.0,0.6,0.0
1759838350.07697,2,-1.9500001668930054,0.19700026512145996,-0.4345161112627487,0.0,True,0.010358810424804688,-1.9500001668930054,0.19700026512145996,-0.43451613187789917,0.0,0.6,0.0
1759838350.088018,2,-1.9500001668930054,0.19700026512145996,-0.43451611192074324,0.0,True,0.011047840118408203,-1.9500001668930054,0.19700026512145996,-0.43451613187789917,0.0,0.6,0.0
1759838350.099383,2,-1.9500001668930054,0.19700026512145996,-0.4345161124219814,0.0,True,0.011365175247192383,-1.9500001668930054,0.19700026512145996,-0.43451613187789917,0.0,0.6,0.0
1759838350.1107247,2,-1.9500001668930054,0.19700026512145996,-0.43451611296765336,0.0,True,0.011341571807861328,-1.9500001668930054,0.19700026512145996,-0.43451613187789917,0.0,0.6,0.0
1759838350.12185,2,-1.9500001668930054,0.19700026512145996,-0.43451611362169373,0.0,True,0.011125326156616211,-1.9500001668930054,0.19700026512145996,-0.43451613187789917,0.0,0.6,0.0
1759838350.133375,2,-1.9500001668930054,0.19700026512145996,-0.43451611411841995,0.0,True,0.01152491569519043,-1.9500001668930054,0.19700026512145996,-0.43451613187789917,0.0,0.6,0.0
1759838350.143919,2,-1.9500001668930054,0.19700026512145996,-0.4345161149799921,0.0,True,0.010544061660766602,-1.9500001668930054,0.19700026512145996,-0.43451613187789917,0.0,0.6,0.0
1759838350.155428,2,-1.9500001668930054,0.19700026512145996,-0.4345161154301902,0.0,True,0.011508941650390625,-1.9500001668930054,0.19700026512145996,-0.43451613187789917,0.0,0.0,0.0
1759838350.1658566,2,-1.9500001668930054,0.19700026512145996,-0.43451611624001174,0.0,True,0.010428667068481445,-1.9500001668930054,0.19700026512145996,-0.43451613187789917,0.0,0.6,0.0
1759838350.1767714,2,-1.9500001668930054,0.19700026512145996,-0.4345161168122402,0.0,True,0.010914802551269531,-1.9500001668930054,0.19700026512145996,-0.43451613187789917,0.0,0.6,0.0
1759838350.1891646,2,-1.9500001668930054,0.19700026512145996,-0.4345161168936418,0.0,True,0.01239323616027832,-1.9500001668930054,0.19700026512145996,-0.43451613187789917,0.0,0.6,0.0
1759838350.1994073,2,-1.9500001668930054,0.19700026512145996,-0.43451611771931553,0.0,True,0.010242700576782227,-1.9500001668930054,0.19700026512145996,-0.43451613187789917,0.0,0.6,0.0
1759838350.215701,2,-1.9500001668930054,0.19700026512145996,-0.43451611677520674,0.0,True,0.016293764114379883,-1.9500001668930054,0.19700026512145996,-0.43451613187789917,0.0,0.0,0.0
1759838350.2279656,2,-1.9500001668930054,0.19700026512145996,-0.4345161173472025,0.0,True,0.012264490127563477,-1.9500001668930054,0.19700026512145996,-0.43451613187789917,0.0,0.0,0.0
1759838350.240677,2,-1.9500001668930054,0.19700026512145996,-0.4345161178816177,0.0,True,0.012711524963378906,-1.9500001668930054,0.19700026512145996,-0.43451613187789917,0.0,0.6,0.0
1759838350.2530353,2,-1.9500001668930054,0.19700026512145996,-0.4345161185027031,0.0,True,0.01235818862915039,-1.9500001668930054,0.19700026512145996,-0.43451613187789917,0.0,0.6,0.0
1759838350.266287,2,-1.9500001668930054,0.19700026512145996,-0.43451611888484365,0.0,True,0.013251781463623047,-1.9500001668930054,0.19700026512145996,-0.43451613187789917,0.0,0.0,0.0
1759838350.2785773,2,-1.9500001668930054,0.19700026512145996,-0.43451611951259395,0.0,True,0.012290239334106445,-1.9500001668930054,0.19700026512145996,-0.43451613187789917,0.0,0.0,0.0
1759838350.2923644,2,-1.9500001668930054,0.19700026512145996,-0.4345161197847016,0.0,True,0.013787031173706055,-1.9500001668930054,0.19700026512145996,-0.43451613187789917,0.0,0.0,0.0
1759838350.3051596,2,-1.9500001668930054,0.19700026512145996,-0.4345161203142638,0.0,True,0.012795209884643555,-1.9500001668930054,0.19700026512145996,-0.43451613187789917,0.0,0.0,0.0
1759838350.3189275,2,-1.9500001668930054,0.19700026512145996,-0.43451612064568224,0.0,True,0.01376795768737793,-1.9500001668930054,0.19700026512145996,-0.43451613187789917,0.0,0.0,0.0
1759838350.331365,2,-1.9500001668930054,0.19700026512145996,-0.4345161212559425,0.0,True,0.012437582015991211,-1.9500001668930054,0.19700026512145996,-0.43451613187789917,0.0,0.0,0.0
1759838350.3441973,2,-1.9500001668930054,0.19700026512145996,-0.43451612174356846,0.0,True,0.012832164764404297,-1.9500001668930054,0.19700026512145996,-0.43451613187789917,0.0,0.0,0.0
1759838350.3564708,2,-1.9500001668930054,0.19700026512145996,-0.43451612228726333,0.0,True,0.012273550033569336,-1.9500001668930054,0.19700026512145996,-0.43451613187789917,0.0,0.0,0.0
1759838350.3680303,2,-1.9500001668930054,0.19700026512145996,-0.43451612288782826,0.0,True,0.011559486389160156,-1.9500001668930054,0.19700026512145996,-0.43451613187789917,0.0,0.0,0.0
1759838350.380464,2,-1.9500001668930054,0.19700026512145996,-0.4345161232604511,0.0,True,0.012433767318725586,-1.9500001668930054,0.19700026512145996,-0.43451613187789917,0.0,0.0,0.0
1759838350.393103,2,-1.9500001668930054,0.19700026512145996,-0.4345161235708428,0.0,True,0.01263880729675293,-1.9500001668930054,0.19700026512145996,-0.43451613187789917,0.0,0.0,0.0
1759838350.4058182,2,-1.9500001668930054,0.19700026512145996,-0.43451612386585126,0.0,True,0.012715339660644531,-1.9500001668930054,0.19700026512145996,-0.43451613187789917,0.0,0.0,0.0
1759838350.4226835,2,-1.9500001668930054,0.19700026512145996,-0.43451612359542224,0.0,True,0.016865253448486328,-1.9500001668930054,0.19700026512145996,-0.43451613187789917,0.0,0.0,0.0
1759838350.429757,2,-1.9500001668930054,0.19700026512145996,-0.4345161248003322,0.0,True,0.007073640823364258,-1.9500001668930054,0.19700026512145996,-0.43451613187789917,0.0,0.0,0.0
1759838350.44213,2,-1.9500001668930054,0.19700026512145996,-0.4345161250752554,0.0,True,0.012372970581054688,-1.9500001668930054,0.19700026512145996,-0.43451613187789917,0.0,0.0,0.0
1759838350.4524624,2,-1.9500001668930054,0.19700026512145996,-0.4345161255402168,0.0,True,0.010332345962524414,-1.9500001668930054,0.19700026512145996,-0.43451613187789917,0.0,0.0,0.0
1759838350.4632277,2,-1.9500001668930054,0.19700026512145996,-0.4345161258766339,0.0,True,0.010765314102172852,-1.9500001668930054,0.19700026512145996,-0.43451613187789917,0.0,0.0,0.0
1759838350.4733179,2,-1.9500001668930054,0.19700026512145996,-0.4345161262364954,0.0,True,0.010090112686157227,-1.9500001668930054,0.19700026512145996,-0.43451613187789917,0.0,0.0,0.0
1759838350.4833815,2,-1.9500001668930054,0.19700026512145996,-0.4345161265385542,0.0,True,0.010063648223876953,-1.9500001668930054,0.19700026512145996,-0.43451613187789917,0.0,0.0,0.0
1759838350.4961283,2,-1.9500001668930054,0.19700026512145996,-0.43451612649417726,0.0,True,0.012746810913085938,-1.9500001668930054,0.19700026512145996,-0.43451613187789917,0.0,0.0,0.0
1759838350.5079303,2,-1.9500001668930054,0.19700026512145996,-0.4345161266030644,0.0,True,0.011801958084106445,-1.9500001668930054,0.19700026512145996,-0.43451613187789917,0.0,0.0,0.0
1759838350.5228164,2,-1.9500001668930054,0.19700026512145996,-0.43451612643012893,0.0,True,0.014886140823364258,-1.9500001668930054,0.19700026512145996,-0.43451613187789917,0.0,0.0,0.0
1759838350.533674,2,-1.9500001668930054,0.19700026512145996,-0.43451612676080664,0.0,True,0.010857582092285156,-1.9500001668930054,0.19700026512145996,-0.43451613187789917,0.0,0.0,0.0
1759838350.5441716,2,-1.9500001668930054,0.19700026512145996,-0.4345161270998119,0.0,True,0.010497570037841797,-1.9500001668930054,0.19700026512145996,-0.43451613187789917,0.0,0.0,0.0
1759838350.5545068,2,-1.9500001668930054,0.19700026512145996,-0.43451612739310264,0.0,True,0.010335206985473633,-1.9500001668930054,0.19700026512145996,-0.43451613187789917,0.0,0.0,0.0
1759838350.5652518,2,-1.9500001668930054,0.19700026512145996,-0.4345161275972771,0.0,True,0.010745048522949219,-1.9500001668930054,0.19700026512145996,-0.43451613187789917,0.0,0.0,0.0
1759838350.5755844,2,-1.9500001668930054,0.19700026512145996,-0.4345161278083012,0.0,True,0.010332584381103516,-1.9500001668930054,0.19700026512145996,-0.43451613187789917,0.0,0.0,0.0
1759838350.5862627,2,-1.9500001668930054,0.19700026512145996,-0.43451612796195604,0.0,True,0.010678291320800781,-1.9500001668930054,0.19700026512145996,-0.43451613187789917,0.0,0.0,0.0
1759838350.596532,2,-1.9500001668930054,0.19700026512145996,-0.4345161281335628,0.0,True,0.010269403457641602,-1.9500001668930054,0.19700026512145996,-0.43451613187789917,0.0,0.0,0.0
1759838350.606769,2,-1.9500001668930054,0.19700026512145996,-0.4345161282886174,0.0,True,0.010236978530883789,-1.9500001668930054,0.19700026512145996,-0.43451613187789917,0.0,0.0,0.0
1759838350.6171894,2,-1.9500001668930054,0.19700026512145996,-0.4345161284122483,0.0,True,0.01042032241821289,-1.9500001668930054,0.19700026512145996,-0.43451613187789917,0.0,0.0,0.0
1759838350.6320093,2,-1.9500001668930054,0.19700026512145996,-0.43451612820620866,0.0,True,0.014819860458374023,-1.9500001668930054,0.19700026512145996,-0.43451613187789917,0.0,0.0,0.0
1759838350.6433804,2,-1.9500001668930054,0.19700026512145996,-0.4345161283359733,0.0,True,0.011371135711669922,-1.9500001668930054,0.19700026512145996,-0.43451613187789917,0.0,0.0,0.0
