timestamp,vehicle_id,x,y,theta,velocity,gps_available,dt,gps_x,gps_y,gps_theta,gps_velocity,control_steering,control_acceleration
1759838346.3096435,0,-1.205,-0.83,-0.7801621756414647,0.0,False,0.01,nan,nan,nan,nan,0.0,0.0
1759838346.3205242,0,-1.205,-0.83,-0.7801621756414647,0.0,False,0.010880708694458008,nan,nan,nan,nan,0.0,0.0
1759838346.3309157,0,-1.205,-0.83,-0.7801621756414647,0.0,False,0.010391473770141602,nan,nan,nan,nan,0.0,0.0
1759838346.342159,0,-1.205,-0.83,-0.7801621756414647,0.0,False,0.011243343353271484,nan,nan,nan,nan,0.0,0.0
1759838346.3526213,0,-1.205,-0.83,-0.7801621756414647,0.0,False,0.010462284088134766,nan,nan,nan,nan,0.0,0.0
1759838346.362656,0,-1.205,-0.83,-0.7801621756414647,0.0,False,0.010034799575805664,nan,nan,nan,nan,0.0,0.0
1759838346.3733962,0,-1.205,-0.83,-0.7801621756414647,0.0,False,0.010740041732788086,nan,nan,nan,nan,0.0,0.0
1759838346.3839772,0,-1.205,-0.83,-0.7801621756414647,0.0,False,0.010581016540527344,nan,nan,nan,nan,0.0,0.0
1759838346.3947017,0,-1.205,-0.83,-0.7801621756414647,0.0,False,0.010724544525146484,nan,nan,nan,nan,0.0,0.0
1759838346.405192,0,-1.205,-0.83,-0.7801621756414647,0.0,False,0.010490179061889648,nan,nan,nan,nan,0.0,0.0
1759838346.4159749,0,-1.205,-0.83,-0.7801621756414647,0.0,False,0.010782957077026367,nan,nan,nan,nan,0.0,0.0
1759838346.4260993,0,-1.205,-0.83,-0.7801621756414647,0.0,False,0.010124444961547852,nan,nan,nan,nan,0.0,0.0
1759838346.4363356,0,-1.205,-0.83,-0.7801621756414647,0.0,False,0.010236263275146484,nan,nan,nan,nan,0.0,0.0
1759838346.4476912,0,-1.205,-0.83,-0.7801621756414647,0.0,False,0.01135563850402832,nan,nan,nan,nan,0.0,0.0
1759838346.4591928,0,-1.205,-0.83,-0.7801621756414647,0.0,False,0.011501550674438477,nan,nan,nan,nan,0.0,0.0
1759838346.469963,0,-1.205,-0.83,-0.7801621756414647,0.0,False,0.010770320892333984,nan,nan,nan,nan,0.0,0.0
1759838346.4805746,0,-1.205,-0.83,-0.7801621756414647,0.0,False,0.010611534118652344,nan,nan,nan,nan,0.0,0.0
1759838346.491297,0,-1.205,-0.83,-0.7801621756414647,0.0,False,0.01072239875793457,nan,nan,nan,nan,0.0,0.0
1759838346.5071332,0,-1.2050000425577163,-0.8299996879100799,-0.7229993184070977,0.0,True,0.015836238861083984,-1.2050000429153442,-0.8299996852874756,-0.7177030444145203,0.0,0.0,0.0
1759838346.5182583,0,-1.205000042795803,-0.8299996861641121,-0.7181148151266505,0.0,True,0.01112508773803711,-1.2050000429153442,-0.8299996852874756,-0.7177030444145203,0.0,0.0,0.0
1759838346.5289085,0,-1.2050000428705006,-0.8299996856163288,-0.7176565668017574,0.0,True,0.010650157928466797,-1.2050000429153442,-0.8299996852874756,-0.7177030444145203,0.0,0.0,0.0
1759838346.5401344,0,-1.2050000428982601,-0.8299996854127593,-0.7175949224267626,0.0,True,0.01122593879699707,-1.2050000429153442,-0.8299996852874756,-0.7177030444145203,0.0,0.0,0.0
1759838346.5509303,0,-1.2050000429088212,-0.8299996853353115,-0.7175892613851609,0.0,True,0.010795831680297852,-1.2050000429153442,-0.8299996852874756,-0.7177030444145203,0.0,0.0,0.0
1759838346.561243,0,-1.205000042912853,-0.8299996853057463,-0.7175980841128204,0.0,True,0.010312795639038086,-1.2050000429153442,-0.8299996852874756,-0.7177030444145203,0.0,0.0,0.0
1759838346.5717583,0,-1.2050000429143926,-0.8299996852944543,-0.7176092916474026,0.0,True,0.010515213012695312,-1.2050000429153442,-0.8299996852874756,-0.7177030444145203,0.0,0.0,0.0
1759838346.5827153,0,-1.2050000429149808,-0.8299996852901412,-0.7176198903357722,0.0,True,0.010957002639770508,-1.2050000429153442,-0.8299996852874756,-0.7177030444145203,0.0,0.0,0.0
1759838346.593992,0,-1.2050000429152055,-0.8299996852884938,-0.7176295276659452,0.0,True,0.011276721954345703,-1.2050000429153442,-0.8299996852874756,-0.7177030444145203,0.0,0.0,0.0
1759838346.6046722,0,-1.2050000429152912,-0.8299996852878645,-0.7176389616430789,0.0,True,0.010680198669433594,-1.2050000429153442,-0.8299996852874756,-0.7177030444145203,0.0,0.0,0.0
1759838346.6160505,0,-1.205000042915324,-0.8299996852876241,-0.7176460766726898,0.0,True,0.011378288269042969,-1.2050000429153442,-0.8299996852874756,-0.7177030444145203,0.0,0.0,0.0
1759838346.6266592,0,-1.2050000429153365,-0.8299996852875323,-0.7176529379702163,0.0,True,0.010608673095703125,-1.2050000429153442,-0.8299996852874756,-0.7177030444145203,0.0,0.0,0.0
1759838346.637831,0,-1.2050000429153414,-0.8299996852874972,-0.7176580774178145,0.0,True,0.011171817779541016,-1.2050000429153442,-0.8299996852874756,-0.7177030444145203,0.0,0.0,0.0
1759838346.6492562,0,-1.2050000429153431,-0.8299996852874838,-0.7176622841628522,0.0,True,0.011425256729125977,-1.2050000429153442,-0.8299996852874756,-0.7177030444145203,0.0,0.0,0.0
1759838346.6594377,0,-1.2050000429153438,-0.8299996852874787,-0.7176668165160365,0.0,True,0.010181427001953125,-1.2050000429153442,-0.8299996852874756,-0.7177030444145203,0.0,0.0,0.0
1759838346.6709342,0,-1.205000042915344,-0.8299996852874768,-0.7176696518207155,0.0,True,0.011496543884277344,-1.2050000429153442,-0.8299996852874756,-0.7177030444145203,0.0,0.0,0.0
1759838346.681036,0,-1.2050000429153442,-0.829999685287476,-0.7176729874115182,0.0,True,0.010101795196533203,-1.2050000429153442,-0.8299996852874756,-0.7177030444145203,0.0,0.0,0.0
1759838346.691585,0,-1.2050000429153442,-0.8299996852874758,-0.7176754822952383,0.0,True,0.010549068450927734,-1.2050000429153442,-0.8299996852874756,-0.7177030444145203,0.0,0.0,0.0
1759838346.7030551,0,-1.2050000429153442,-0.8299996852874757,-0.7176771278360299,0.0,True,0.01147007942199707,-1.2050000429153442,-0.8299996852874756,-0.7177030444145203,0.0,0.0,0.0
1759838346.7129107,0,-1.2050000429153442,-0.8299996852874756,-0.7176794492655283,0.0,True,0.009855508804321289,-1.2050000429153442,-0.8299996852874756,-0.7177030444145203,0.0,0.0,0.0
1759838346.7238367,0,-1.2050000429153442,-0.8299996852874756,-0.7176809069477184,0.0,True,0.010926008224487305,-1.2050000429153442,-0.8299996852874756,-0.7177030444145203,0.0,0.0,0.0
1759838346.7343407,0,-1.2050000429153442,-0.8299996852874756,-0.7176823901690508,0.0,True,0.010504007339477539,-1.2050000429153442,-0.8299996852874756,-0.7177030444145203,0.0,0.0,0.0
1759838346.744664,0,-1.2050000429153442,-0.8299996852874756,-0.7176837769049929,0.0,True,0.010323286056518555,-1.2050000429153442,-0.8299996852874756,-0.7177030444145203,0.0,0.0,0.0
1759838346.7551134,0,-1.2050000429153442,-0.8299996852874756,-0.7176849386618986,0.0,True,0.010449409484863281,-1.2050000429153442,-0.8299996852874756,-0.7177030444145203,0.0,0.0,0.0
1759838346.7664106,0,-1.2050000429153442,-0.8299996852874756,-0.7176856726001724,0.0,True,0.011297225952148438,-1.2050000429153442,-0.8299996852874756,-0.7177030444145203,0.0,0.0,0.0
1759838346.7769184,0,-1.2050000429153442,-0.8299996852874756,-0.7176866850775738,0.0,True,0.010507822036743164,-1.2050000429153442,-0.8299996852874756,-0.7177030444145203,0.0,0.0,0.0
1759838346.7872667,0,-1.2050000429153442,-0.8299996852874756,-0.7176876615480587,0.0,True,0.010348320007324219,-1.2050000429153442,-0.8299996852874756,-0.7177030444145203,0.0,0.0,0.0
1759838346.797672,0,-1.2050000429153442,-0.8299996852874756,-0.7176885065810179,0.0,True,0.010405302047729492,-1.2050000429153442,-0.8299996852874756,-0.7177030444145203,0.0,0.0,0.0
1759838346.8084772,0,-1.2050000429153442,-0.8299996852874756,-0.7176891458938357,0.0,True,0.010805130004882812,-1.2050000429153442,-0.8299996852874756,-0.7177030444145203,0.0,0.0,0.0
1759838346.8201087,0,-1.2050000429153442,-0.8299996852874756,-0.7176895285513112,0.0,True,0.011631488800048828,-1.2050000429153442,-0.8299996852874756,-0.7177030444145203,0.0,0.0,0.0
1759838346.8310468,0,-1.2050000429153442,-0.8299996852874756,-0.7176901545813479,0.0,True,0.010938167572021484,-1.2050000429153442,-0.8299996852874756,-0.7177030444145203,0.0,0.0,0.0
1759838346.8415236,0,-1.2050000429153442,-0.8299996852874756,-0.717690878451755,0.0,True,0.010476827621459961,-1.2050000429153442,-0.8299996852874756,-0.7177030444145203,0.0,0.0,0.0
1759838346.8523624,0,-1.2050000429153442,-0.8299996852874756,-0.7176914378310393,0.0,True,0.010838747024536133,-1.2050000429153442,-0.8299996852874756,-0.7177030444145203,0.0,0.0,0.0
1759838346.8634655,0,-1.2050000429153442,-0.8299996852874756,-0.7176918948833517,0.0,True,0.011103153228759766,-1.2050000429153442,-0.8299996852874756,-0.7177030444145203,0.0,0.0,0.0
1759838346.8737445,0,-1.2050000429153442,-0.8299996852874756,-0.717692523317762,0.0,True,0.010278940200805664,-1.2050000429153442,-0.8299996852874756,-0.7177030444145203,0.0,0.0,0.0
1759838346.883873,0,-1.2050000429153442,-0.8299996852874756,-0.7176931126262289,0.0,True,0.010128498077392578,-1.2050000429153442,-0.8299996852874756,-0.7177030444145203,0.0,0.0,0.0
1759838346.8938968,0,-1.2050000429153442,-0.8299996852874756,-0.717693643338146,0.0,True,0.010023832321166992,-1.2050000429153442,-0.8299996852874756,-0.7177030444145203,0.0,0.0,0.0
1759838346.9078362,0,-1.2050000429153442,-0.8299996852874756,-0.7176933454825036,0.0,True,0.013939380645751953,-1.2050000429153442,-0.8299996852874756,-0.7177030444145203,0.0,0.0,0.0
1759838346.9181933,0,-1.2050000429153442,-0.8299996852874756,-0.7176939135031155,0.0,True,0.010357141494750977,-1.2050000429153442,-0.8299996852874756,-0.7177030444145203,0.0,0.0,0.0
1759838346.9293358,0,-1.2050000429153442,-0.8299996852874756,-0.7176943108208622,0.0,True,0.011142492294311523,-1.2050000429153442,-0.8299996852874756,-0.7177030444145203,0.0,0.0,0.0
1759838346.9394643,0,-1.2050000429153442,-0.8299996852874756,-0.717694848747497,0.0,True,0.010128498077392578,-1.2050000429153442,-0.8299996852874756,-0.7177030444145203,0.0,0.0,0.0
1759838346.9501612,0,-1.2050000429153442,-0.8299996852874756,-0.7176952172915669,0.0,True,0.010696887969970703,-1.2050000429153442,-0.8299996852874756,-0.7177030444145203,0.0,0.0,0.0
1759838346.9606924,0,-1.2050000429153442,-0.8299996852874756,-0.717695572489923,0.0,True,0.010531187057495117,-1.2050000429153442,-0.8299996852874756,-0.7177030444145203,0.0,0.0,0.0
1759838346.971406,0,-1.2050000429153442,-0.8299996852874756,-0.717695867395852,0.0,True,0.010713577270507812,-1.2050000429153442,-0.8299996852874756,-0.7177030444145203,0.0,0.0,0.0
1759838346.9829102,0,-1.2050000429153442,-0.8299996852874756,-0.7176960287690584,0.0,True,0.011504173278808594,-1.2050000429153442,-0.8299996852874756,-0.7177030444145203,0.0,0.0,0.0
1759838346.9933782,0,-1.2050000429153442,-0.8299996852874756,-0.7176963590809979,0.0,True,0.010468006134033203,-1.2050000429153442,-0.8299996852874756,-0.7177030444145203,0.0,0.0,0.0
1759838347.0039952,0,-1.2050000429153442,-0.8299996852874756,-0.7176966446007675,0.0,True,0.01061701774597168,-1.2050000429153442,-0.8299996852874756,-0.7177030444145203,0.0,0.0,0.0
1759838347.014747,0,-1.2050000429153442,-0.8299996852874756,-0.7176968876938403,0.0,True,0.010751724243164062,-1.2050000429153442,-0.8299996852874756,-0.7177030444145203,0.0,0.0,0.0
1759838347.0250258,0,-1.2050000429153442,-0.8299996852874756,-0.7176971765472722,0.0,True,0.010278940200805664,-1.2050000429153442,-0.8299996852874756,-0.7177030444145203,0.0,0.0,0.0
1759838347.036582,0,-1.2050000429153442,-0.8299996852874756,-0.7176972817153704,0.0,True,0.011556148529052734,-1.2050000429153442,-0.8299996852874756,-0.7177030444145203,0.0,0.0,0.0
1759838347.0476115,0,-1.2050000429153442,-0.8299996852874756,-0.7176974703701582,0.0,True,0.011029481887817383,-1.2050000429153442,-0.8299996852874756,-0.7177030444145203,0.0,0.0,0.0
1759838347.0578392,0,-1.2050000429153442,-0.8299996852874756,-0.7176977542353367,0.0,True,0.010227680206298828,-1.2050000429153442,-0.8299996852874756,-0.7177030444145203,0.0,0.0,0.0
1759838347.0679011,0,-1.2050000429153442,-0.8299996852874756,-0.7176980246180662,0.0,True,0.010061979293823242,-1.2050000429153442,-0.8299996852874756,-0.7177030444145203,0.0,0.0,0.0
1759838347.0795994,0,-1.2050000429153442,-0.8299996852874756,-0.7176980868847096,0.0,True,0.011698246002197266,-1.2050000429153442,-0.8299996852874756,-0.7177030444145203,0.0,0.0,0.0
1759838347.0896003,0,-1.2050000429153442,-0.8299996852874756,-0.7176983444343517,0.0,True,0.010000944137573242,-1.2050000429153442,-0.8299996852874756,-0.7177030444145203,0.0,0.0,0.0
1759838347.0999956,0,-1.2050000429153442,-0.8299996852874756,-0.7176985386268484,0.0,True,0.010395288467407227,-1.2050000429153442,-0.8299996852874756,-0.7177030444145203,0.0,0.0,0.0
1759838347.1104612,0,-1.2050000429153442,-0.8299996852874756,-0.7176987061130262,0.0,True,0.010465621948242188,-1.2050000429153442,-0.8299996852874756,-0.7177030444145203,0.0,0.0,0.0
1759838347.120733,0,-1.2050000429153442,-0.8299996852874756,-0.7176988799808903,0.0,True,0.010271787643432617,-1.2050000429153442,-0.8299996852874756,-0.7177030444145203,0.0,0.0,0.0
1759838347.1312115,0,-1.2050000429153442,-0.8299996852874756,-0.7176990216488655,0.0,True,0.010478496551513672,-1.2050000429153442,-0.8299996852874756,-0.7177030444145203,0.0,0.0,0.0
1759838347.1425586,0,-1.2050000429153442,-0.8299996852874756,-0.7176990828059573,0.0,True,0.011347055435180664,-1.2050000429153442,-0.8299996852874756,-0.7177030444145203,0.0,0.0,0.0
1759838347.1528323,0,-1.2050000429153442,-0.8299996852874756,-0.7176992502430295,0.0,True,0.01027369499206543,-1.2050000429153442,-0.8299996852874756,-0.7177030444145203,0.0,0.0,0.0
1759838347.1635966,0,-1.2050000429153442,-0.8299996852874756,-0.7176993689580833,0.0,True,0.010764360427856445,-1.2050000429153442,-0.8299996852874756,-0.7177030444145203,0.0,0.0,0.0
1759838347.1747797,0,-1.2050000429153442,-0.8299996852874756,-0.7176994528887715,0.0,True,0.011183023452758789,-1.2050000429153442,-0.8299996852874756,-0.7177030444145203,0.0,0.0,0.0
1759838347.1851988,0,-1.2050000429153442,-0.8299996852874756,-0.7176996024200157,0.0,True,0.010419130325317383,-1.2050000429153442,-0.8299996852874756,-0.7177030444145203,0.0,0.0,0.0
1759838347.196458,0,-1.2050000429153442,-0.8299996852874756,-0.717699682772853,0.0,True,0.011259317398071289,-1.2050000429153442,-0.8299996852874756,-0.7177030444145203,0.0,0.0,0.0
1759838347.2067525,0,-1.2050000429153442,-0.8299996852874756,-0.7176998356046482,0.0,True,0.010294437408447266,-1.2050000429153442,-0.8299996852874756,-0.7177030444145203,0.0,0.0,0.0
1759838347.2179282,0,-1.2050000429153442,-0.8299996852874756,-0.7176999172510108,0.0,True,0.01117563247680664,-1.2050000429153442,-0.8299996852874756,-0.7177030444145203,0.0,0.0,0.0
1759838347.2287128,0,-1.2050000429153442,-0.8299996852874756,-0.7177000269196903,0.0,True,0.010784626007080078,-1.2050000429153442,-0.8299996852874756,-0.7177030444145203,0.0,0.0,0.0
1759838347.2399414,0,-1.2050000429153442,-0.8299996852874756,-0.7177001069338118,0.0,True,0.011228561401367188,-1.2050000429153442,-0.8299996852874756,-0.7177030444145203,0.0,0.0,0.0
1759838347.250522,0,-1.2050000429153442,-0.8299996852874756,-0.7177002294967565,0.0,True,0.01058053970336914,-1.2050000429153442,-0.8299996852874756,-0.7177030444145203,0.0,0.0,0.0
1759838347.2607477,0,-1.2050000429153442,-0.8299996852874756,-0.7177003641922006,0.0,True,0.010225772857666016,-1.2050000429153442,-0.8299996852874756,-0.7177030444145203,0.0,0.0,0.0
1759838347.2719948,0,-1.2050000429153442,-0.8299996852874756,-0.7177004262362559,0.0,True,0.01124715805053711,-1.2050000429153442,-0.8299996852874756,-0.7177030444145203,0.0,0.0,0.0
1759838347.2821589,0,-1.2050000429153442,-0.8299996852874756,-0.7177005499485052,0.0,True,0.010164022445678711,-1.2050000429153442,-0.8299996852874756,-0.7177030444145203,0.0,0.0,0.0
1759838347.2925935,0,-1.2050000429153442,-0.8299996852874756,-0.7177006478484778,0.0,True,0.010434627532958984,-1.2050000429153442,-0.8299996852874756,-0.7177030444145203,0.0,0.0,0.0
1759838347.3037536,0,-1.2050000429153442,-0.8299996852874756,-0.7177007003261267,0.0,True,0.011160135269165039,-1.2050000429153442,-0.8299996852874756,-0.7177030444145203,0.0,0.0,0.0
1759838347.3202891,0,-1.2050000429153442,-0.8299996852874756,-0.7177005030753563,0.0,True,0.016535520553588867,-1.2050000429153442,-0.8299996852874756,-0.7177030444145203,0.0,0.0,0.0
1759838347.3305933,0,-1.2050000429153442,-0.8299996852874756,-0.7177006792103633,0.0,True,0.01030421257019043,-1.2050000429153442,-0.8299996852874756,-0.7177030444145203,0.0,0.0,0.0
1759838347.3417506,0,-1.2050000429153442,-0.8299996852874756,-0.7177008064944772,0.0,True,0.01115727424621582,-1.2050000429153442,-0.8299996852874756,-0.7177030444145203,0.0,0.0,0.0
1759838347.352494,0,-1.2050000429153442,-0.8299996852874756,-0.7177009321655561,0.0,True,0.010743379592895508,-1.2050000429153442,-0.8299996852874756,-0.7177030444145203,0.0,0.0,0.0
1759838347.363332,0,-1.2050000429153442,-0.8299996852874756,-0.7177010357492115,0.0,True,0.010838031768798828,-1.2050000429153442,-0.8299996852874756,-0.7177030444145203,0.0,0.0,0.0
1759838347.3733804,0,-1.2050000429153442,-0.8299996852874756,-0.717701156966509,0.0,True,0.010048389434814453,-1.2050000429153442,-0.8299996852874756,-0.7177030444145203,0.0,0.0,0.0
1759838347.3841145,0,-1.2050000429153442,-0.8299996852874756,-0.7177012326104091,0.0,True,0.010734081268310547,-1.2050000429153442,-0.8299996852874756,-0.7177030444145203,0.0,0.0,0.0
1759838347.394494,0,-1.2050000429153442,-0.8299996852874756,-0.7177013128502132,0.0,True,0.010379552841186523,-1.2050000429153442,-0.8299996852874756,-0.7177030444145203,0.0,0.0,0.0
1759838347.4053292,0,-1.2050000429153442,-0.8299996852874756,-0.7177013683218725,0.0,True,0.01083517074584961,-1.2050000429153442,-0.8299996852874756,-0.7177030444145203,0.0,0.0,0.0
1759838347.4158745,0,-1.2050000429153442,-0.8299996852874756,-0.7177014314763905,0.0,True,0.01054525375366211,-1.2050000429153442,-0.8299996852874756,-0.7177030444145203,0.0,0.0,0.0
1759838347.4264123,0,-1.2050000429153442,-0.8299996852874756,-0.7177014909482473,0.0,True,0.010537862777709961,-1.2050000429153442,-0.8299996852874756,-0.7177030444145203,0.0,0.0,0.0
1759838347.4375858,0,-1.2050000429153442,-0.8299996852874756,-0.717701525875448,0.0,True,0.011173486709594727,-1.2050000429153442,-0.8299996852874756,-0.7177030444145203,0.0,0.0,0.0
1759838347.4485638,0,-1.2050000429153442,-0.8299996852874756,-0.7177015699206617,0.0,True,0.010977983474731445,-1.2050000429153442,-0.8299996852874756,-0.7177030444145203,0.0,0.0,0.0
1759838347.4597893,0,-1.2050000429153442,-0.8299996852874756,-0.7177016079740515,0.0,True,0.011225461959838867,-1.2050000429153442,-0.8299996852874756,-0.7177030444145203,0.0,0.0,0.0
1759838347.4704897,0,-1.2050000429153442,-0.8299996852874756,-0.7177016637156441,0.0,True,0.010700464248657227,-1.2050000429153442,-0.8299996852874756,-0.7177030444145203,0.0,0.0,0.0
1759838347.4808123,0,-1.2050000429153442,-0.8299996852874756,-0.7177017271047035,0.0,True,0.01032257080078125,-1.2050000429153442,-0.8299996852874756,-0.7177030444145203,0.0,0.0,0.0
1759838347.4916766,0,-1.2050000429153442,-0.8299996852874756,-0.7177017687700822,0.0,True,0.0108642578125,-1.2050000429153442,-0.8299996852874756,-0.7177030444145203,0.0,0.0,0.0
1759838347.503008,0,-1.2050000429153442,-0.8299996852874756,-0.7177017965001227,0.0,True,0.011331319808959961,-1.2050000429153442,-0.8299996852874756,-0.7177030444145203,0.0,0.0,0.0
1759838347.5150363,0,-1.2050000429153442,-0.8299996852874756,-0.7177018101217136,0.0,True,0.01202845573425293,-1.2050000429153442,-0.8299996852874756,-0.7177030444145203,0.0,0.0,0.0
1759838347.5254648,0,-1.2050000429153442,-0.8299996852874756,-0.7177018712276055,0.0,True,0.010428428649902344,-1.2050000429153442,-0.8299996852874756,-0.7177030444145203,0.0,0.0,0.0
1759838347.5362747,0,-1.2050000429153442,-0.8299996852874756,-0.7177019181654138,0.0,True,0.010809898376464844,-1.2050000429153442,-0.8299996852874756,-0.7177030444145203,0.0,0.0,0.0
1759838347.5475428,0,-1.2050000429153442,-0.8299996852874756,-0.7177019503769397,0.0,True,0.011268138885498047,-1.2050000429153442,-0.8299996852874756,-0.7177030444145203,0.0,0.0,0.0
1759838347.558852,0,-1.2050000429153442,-0.8299996852874756,-0.7177019820792694,0.0,True,0.011309146881103516,-1.2050000429153442,-0.8299996852874756,-0.7177030444145203,0.0,0.0,0.0
1759838347.5696228,0,-1.2050000429153442,-0.8299996852874756,-0.717702026202975,0.0,True,0.010770797729492188,-1.2050000429153442,-0.8299996852874756,-0.7177030444145203,0.0,0.0,0.0
1759838347.5802898,0,-1.2050000429153442,-0.8299996852874756,-0.7177020693761893,0.0,True,0.010667085647583008,-1.2050000429153442,-0.8299996852874756,-0.7177030444145203,0.0,0.0,0.0
1759838347.590953,0,-1.2050000429153442,-0.8299996852874756,-0.7177021085577202,0.0,True,0.010663270950317383,-1.2050000429153442,-0.8299996852874756,-0.7177030444145203,0.0,0.0,0.0
1759838347.6016116,0,-1.2050000429153442,-0.8299996852874756,-0.7177021444207874,0.0,True,0.010658502578735352,-1.2050000429153442,-0.8299996852874756,-0.7177030444145203,0.0,0.0,0.0
1759838347.612419,0,-1.2050000429153442,-0.8299996852874756,-0.7177021748286236,0.0,True,0.010807275772094727,-1.2050000429153442,-0.8299996852874756,-0.7177030444145203,0.0,0.0,0.0
1759838347.6229954,0,-1.2050000429153442,-0.8299996852874756,-0.7177022080314401,0.0,True,0.010576486587524414,-1.2050000429153442,-0.8299996852874756,-0.7177030444145203,0.0,0.0,0.0
1759838347.6338093,0,-1.2050000429153442,-0.8299996852874756,-0.7177022349105471,0.0,True,0.01081395149230957,-1.2050000429153442,-0.8299996852874756,-0.7177030444145203,0.0,0.0,0.0
1759838347.6445086,0,-1.2050000429153442,-0.8299996852874756,-0.7177022628388219,0.0,True,0.010699272155761719,-1.2050000429153442,-0.8299996852874756,-0.7177030444145203,0.0,0.0,0.0
1759838347.6549459,0,-1.2050000429153442,-0.8299996852874756,-0.7177022938696673,0.0,True,0.010437250137329102,-1.2050000429153442,-0.8299996852874756,-0.7177030444145203,0.0,0.0,0.0
1759838347.6653035,0,-1.2050000429153442,-0.8299996852874756,-0.7177023236928051,0.0,True,0.01035761833190918,-1.2050000429153442,-0.8299996852874756,-0.7177030444145203,0.0,0.0,0.0
1759838347.675737,0,-1.2050000429153442,-0.8299996852874756,-0.7177023497009927,0.0,True,0.010433435440063477,-1.2050000429153442,-0.8299996852874756,-0.7177030444145203,0.0,0.0,0.0
1759838347.6868527,0,-1.2050000429153442,-0.8299996852874756,-0.7177023638841025,0.0,True,0.011115789413452148,-1.2050000429153442,-0.8299996852874756,-0.7177030444145203,0.0,0.0,0.0
1759838347.6973412,0,-1.2050000429153442,-0.8299996852874756,-0.7177023886116984,0.0,True,0.010488510131835938,-1.2050000429153442,-0.8299996852874756,-0.7177030444145203,0.0,0.0,0.0
1759838347.7081764,0,-1.2050000429153442,-0.8299996852874756,-0.717702407671748,0.0,True,0.01083517074584961,-1.2050000429153442,-0.8299996852874756,-0.7177030444145203,0.0,0.0,0.0
1759838347.7183528,0,-1.2050000429153442,-0.8299996852874756,-0.7177024353831616,0.0,True,0.010176420211791992,-1.2050000429153442,-0.8299996852874756,-0.7177030444145203,0.0,0.0,0.0
1759838347.7286088,0,-1.2050000429153442,-0.8299996852874756,-0.7177024595105657,0.0,True,0.010256052017211914,-1.2050000429153442,-0.8299996852874756,-0.7177030444145203,0.0,0.0,0.0
1759838347.7398815,0,-1.2050000429153442,-0.8299996852874756,-0.7177024686905327,0.0,True,0.011272668838500977,-1.2050000429153442,-0.8299996852874756,-0.7177030444145203,0.0,0.0,0.0
1759838347.750688,0,-1.2050000429153442,-0.8299996852874756,-0.717702485562171,0.0,True,0.010806560516357422,-1.2050000429153442,-0.8299996852874756,-0.7177030444145203,0.0,0.0,0.0
1759838347.7611742,0,-1.2050000429153442,-0.8299996852874756,-0.7177025067608902,0.0,True,0.010486125946044922,-1.2050000429153442,-0.8299996852874756,-0.7177030444145203,0.0,0.0,0.0
1759838347.7716188,0,-1.2050000429153442,-0.8299996852874756,-0.7177025271550068,0.0,True,0.01044464111328125,-1.2050000429153442,-0.8299996852874756,-0.7177030444145203,0.0,0.0,0.0
1759838347.7820907,0,-1.2050000429153442,-0.8299996852874756,-0.7177025457253912,0.0,True,0.010471820831298828,-1.2050000429153442,-0.8299996852874756,-0.7177030444145203,0.0,0.0,0.0
1759838347.7928855,0,-1.2050000429153442,-0.8299996852874756,-0.717702559720319,0.0,True,0.010794878005981445,-1.2050000429153442,-0.8299996852874756,-0.7177030444145203,0.0,0.0,0.0
1759838347.8038213,0,-1.2050000429153442,-0.8299996852874756,-0.7177025723793076,0.0,True,0.010935783386230469,-1.2050000429153442,-0.8299996852874756,-0.7177030444145203,0.0,0.0,0.0
1759838347.8151765,0,-1.2050000429153442,-0.8299996852874756,-0.7177025815974627,0.0,True,0.011355161666870117,-1.2050000429153442,-0.8299996852874756,-0.7177030444145203,0.0,0.0,0.0
1759838347.8257396,0,-1.2050000429153442,-0.8299996852874756,-0.7177025999880193,0.0,True,0.010563135147094727,-1.2050000429153442,-0.8299996852874756,-0.7177030444145203,0.0,0.0,0.0
1759838347.8361204,0,-1.2050000429153442,-0.8299996852874756,-0.7177026190981799,0.0,True,0.010380744934082031,-1.2050000429153442,-0.8299996852874756,-0.7177030444145203,0.0,0.0,0.0
1759838347.8473024,0,-1.2050000429153442,-0.8299996852874756,-0.7177026292473663,0.0,True,0.011182069778442383,-1.2050000429153442,-0.8299996852874756,-0.7177030444145203,0.0,0.0,0.0
1759838347.8580582,0,-1.2050000429153442,-0.8299996852874756,-0.7177026435663887,0.0,True,0.010755777359008789,-1.2050000429153442,-0.8299996852874756,-0.7177030444145203,0.0,0.0,0.0
1759838347.8692992,0,-1.2050000429153442,-0.8299996852874756,-0.7177026536010516,0.0,True,0.011240959167480469,-1.2050000429153442,-0.8299996852874756,-0.7177030444145203,0.0,0.0,0.0
1759838347.8801045,0,-1.2050000429153442,-0.8299996852874756,-0.7177026677231453,0.0,True,0.010805368423461914,-1.2050000429153442,-0.8299996852874756,-0.7177030444145203,0.0,0.0,0.0
1759838347.8908572,0,-1.2050000429153442,-0.8299996852874756,-0.7177026817893619,0.0,True,0.010752677917480469,-1.2050000429153442,-0.8299996852874756,-0.7177030444145203,0.0,0.0,0.0
1759838347.9013307,0,-1.2050000429153442,-0.8299996852874756,-0.7177026970827942,0.0,True,0.010473489761352539,-1.2050000429153442,-0.8299996852874756,-0.7177030444145203,0.0,0.0,0.0
1759838347.9116063,0,-1.2050000429153442,-0.8299996852874756,-0.7177027123999054,0.0,True,0.010275602340698242,-1.2050000429153442,-0.8299996852874756,-0.7177030444145203,0.0,0.0,0.0
1759838347.921809,0,-1.2050000429153442,-0.8299996852874756,-0.7177027265398515,0.0,True,0.010202646255493164,-1.2050000429153442,-0.8299996852874756,-0.7177030444145203,0.0,0.0,0.0
1759838347.9329147,0,-1.2050000429153442,-0.8299996852874756,-0.7177027330671049,0.0,True,0.011105775833129883,-1.2050000429153442,-0.8299996852874756,-0.7177030444145203,0.0,0.0,0.0
1759838347.9432876,0,-1.2050000429153442,-0.8299996852874756,-0.7177027449848001,0.0,True,0.01037287712097168,-1.2050000429153442,-0.8299996852874756,-0.7177030444145203,0.0,0.0,0.0
1759838347.9546883,0,-1.2050000429153442,-0.8299996852874756,-0.7177027498568016,0.0,True,0.011400699615478516,-1.2050000429153442,-0.8299996852874756,-0.7177030444145203,0.0,0.0,0.0
1759838347.9654696,0,-1.2050000429153442,-0.8299996852874756,-0.7177027595970618,0.0,True,0.010781288146972656,-1.2050000429153442,-0.8299996852874756,-0.7177030444145203,0.0,0.0,0.0
1759838347.9758677,0,-1.2050000429153442,-0.8299996852874756,-0.7177027716012709,0.0,True,0.010398149490356445,-1.2050000429153442,-0.8299996852874756,-0.7177030444145203,0.0,0.0,0.0
1759838347.9866834,0,-1.2050000429153442,-0.8299996852874756,-0.7177027802086133,0.0,True,0.010815620422363281,-1.2050000429153442,-0.8299996852874756,-0.7177030444145203,0.0,0.0,0.0
1759838347.997501,0,-1.2050000429153442,-0.8299996852874756,-0.7177027885193255,0.0,True,0.010817527770996094,-1.2050000429153442,-0.8299996852874756,-0.7177030444145203,0.0,0.0,0.0
1759838348.007547,0,-1.2050000429153442,-0.8299996852874756,-0.7177028008026749,0.0,True,0.010046005249023438,-1.2050000429153442,-0.8299996852874756,-0.7177030444145203,0.0,0.0,0.0
1759838348.0187225,0,-1.2050000429153442,-0.8299996852874756,-0.7177028059270238,0.0,True,0.01117563247680664,-1.2050000429153442,-0.8299996852874756,-0.7177030444145203,0.0,0.0,0.0
1759838348.0298076,0,-1.2050000429153442,-0.8299996852874756,-0.7177028119071558,0.0,True,0.011085033416748047,-1.2050000429153442,-0.8299996852874756,-0.7177030444145203,0.0,0.0,0.0
1759838348.040755,0,-1.2050000429153442,-0.8299996852874756,-0.7177028190676111,0.0,True,0.010947465896606445,-1.2050000429153442,-0.8299996852874756,-0.7177030444145203,0.0,0.0,0.0
1759838348.0510716,0,-1.2050000429153442,-0.8299996852874756,-0.7177028292064094,0.0,True,0.010316610336303711,-1.2050000429153442,-0.8299996852874756,-0.7177030444145203,0.0,0.0,0.0
1759838348.061453,0,-1.2050000429153442,-0.8299996852874756,-0.7177028380838806,0.0,True,0.010381460189819336,-1.2050000429153442,-0.8299996852874756,-0.7177030444145203,0.0,0.0,0.0
1759838348.0726311,0,-1.2050000429153442,-0.8299996852874756,-0.7177028426360916,0.0,True,0.011178016662597656,-1.2050000429153442,-0.8299996852874756,-0.7177030444145203,0.0,0.0,0.0
1759838348.08385,0,-1.2050000429153442,-0.8299996852874756,-0.7177028474021263,0.0,True,0.011218786239624023,-1.2050000429153442,-0.8299996852874756,-0.7177030444145203,0.0,0.0,0.0
1759838348.0946424,0,-1.2050000429153442,-0.8299996852874756,-0.7177028544136856,0.0,True,0.01079249382019043,-1.2050000429153442,-0.8299996852874756,-0.7177030444145203,0.0,0.0,0.0
1759838348.1055026,0,-1.2050000429153442,-0.8299996852874756,-0.7177028609743346,0.0,True,0.010860204696655273,-1.2050000429153442,-0.8299996852874756,-0.7177030444145203,0.0,0.0,0.0
1759838348.116379,0,-1.2050000429153442,-0.8299996852874756,-0.7177028672203498,0.0,True,0.01087641716003418,-1.2050000429153442,-0.8299996852874756,-0.7177030444145203,0.0,0.0,0.0
1759838348.1265838,0,-1.2050000429153442,-0.8299996852874756,-0.7177028756798762,0.0,True,0.010204792022705078,-1.2050000429153442,-0.8299996852874756,-0.7177030444145203,0.0,0.0,0.0
1759838348.136804,0,-1.2050000429153442,-0.8299996852874756,-0.7177028831392533,0.0,True,0.01022028923034668,-1.2050000429153442,-0.8299996852874756,-0.7177030444145203,0.0,0.0,0.0
1759838348.1481385,0,-1.2050000429153442,-0.8299996852874756,-0.7177028859379426,0.0,True,0.011334419250488281,-1.2050000429153442,-0.8299996852874756,-0.7177030444145203,0.0,0.0,0.0
1759838348.1584752,0,-1.2050000429153442,-0.8299996852874756,-0.7177028924791156,0.0,True,0.010336637496948242,-1.2050000429153442,-0.8299996852874756,-0.7177030444145203,0.0,0.0,0.0
1759838348.169751,0,-1.2050000429153442,-0.8299996852874756,-0.7177028956495555,0.0,True,0.011275768280029297,-1.2050000429153442,-0.8299996852874756,-0.7177030444145203,0.0,0.0,0.0
1759838348.1807542,0,-1.2050000429153442,-0.8299996852874756,-0.7177028999941264,0.0,True,0.011003255844116211,-1.2050000429153442,-0.8299996852874756,-0.7177030444145203,0.0,0.0,0.0
1759838348.1915238,0,-1.2050000429153442,-0.8299996852874756,-0.717702905183323,0.0,True,0.01076960563659668,-1.2050000429153442,-0.8299996852874756,-0.7177030444145203,0.0,0.0,0.0
1759838348.202018,0,-1.2050000429153442,-0.8299996852874756,-0.7177029109494679,0.0,True,0.010494232177734375,-1.2050000429153442,-0.8299996852874756,-0.7177030444145203,0.0,0.0,0.0
1759838348.2132661,0,-1.2050000429153442,-0.8299996852874756,-0.7177029141546019,0.0,True,0.011248111724853516,-1.2050000429153442,-0.8299996852874756,-0.7177030444145203,0.0,0.0,0.0
1759838348.2246873,0,-1.2050000429153442,-0.8299996852874756,-0.717702917095469,0.0,True,0.01142120361328125,-1.2050000429153442,-0.8299996852874756,-0.7177030444145203,0.0,0.0,0.0
1759838348.235253,0,-1.2050000429153442,-0.8299996852874756,-0.7177029226171907,0.0,True,0.010565757751464844,-1.2050000429153442,-0.8299996852874756,-0.7177030444145203,0.0,0.0,0.0
1759838348.2457955,0,-1.2050000429153442,-0.8299996852874756,-0.7177029277951377,0.0,True,0.01054239273071289,-1.2050000429153442,-0.8299996852874756,-0.7177030444145203,0.0,0.0,0.0
1759838348.2564404,0,-1.2050000429153442,-0.8299996852874756,-0.7177029322132782,0.0,True,0.010644912719726562,-1.2050000429153442,-0.8299996852874756,-0.7177030444145203,0.0,0.0,0.0
1759838348.267369,0,-1.2050000429153442,-0.8299996852874756,-0.7177029356394904,0.0,True,0.010928630828857422,-1.2050000429153442,-0.8299996852874756,-0.7177030444145203,0.0,0.0,0.0
1759838348.2788396,0,-1.2050000429153442,-0.8299996852874756,-0.7177029378150621,0.0,True,0.011470556259155273,-1.2050000429153442,-0.8299996852874756,-0.7177030444145203,0.0,0.0,0.0
1759838348.2901258,0,-1.2050000429153442,-0.8299996852874756,-0.7177029407550855,0.0,True,0.011286258697509766,-1.2050000429153442,-0.8299996852874756,-0.7177030444145203,0.0,0.0,0.0
1759838348.3014257,0,-1.2050000429153442,-0.8299996852874756,-0.7177029438672147,0.0,True,0.011299848556518555,-1.2050000429153442,-0.8299996852874756,-0.7177030444145203,0.0,0.0,0.0
1759838348.313876,0,-1.2050000429153442,-0.8299996852874756,-0.7177029447885772,0.0,True,0.012450218200683594,-1.2050000429153442,-0.8299996852874756,-0.7177030444145203,0.0,0.0,0.0
1759838348.3272572,0,-1.2050000429153442,-0.8299996852874756,-0.7177029447264545,0.0,True,0.013381242752075195,-1.2050000429153442,-0.8299996852874756,-0.7177030444145203,0.0,0.0,0.0
1759838348.3378243,0,-1.2050000429153442,-0.8299996852874756,-0.7177029510258848,0.0,True,0.010567188262939453,-1.2050000429153442,-0.8299996852874756,-0.7177030444145203,0.0,0.0,0.0
1759838348.3493316,0,-1.2050000429153442,-0.8299996852874756,-0.7177029549761009,0.0,True,0.011507272720336914,-1.2050000429153442,-0.8299996852874756,-0.7177030444145203,0.0,0.0,0.0
1759838348.360788,0,-1.2050000429153442,-0.8299996852874756,-0.7177029586047272,0.0,True,0.011456489562988281,-1.2050000429153442,-0.8299996852874756,-0.7177030444145203,0.0,0.0,0.0
1759838348.372128,0,-1.2050000429153442,-0.8299996852874756,-0.7177029621822388,0.0,True,0.011339902877807617,-1.2050000429153442,-0.8299996852874756,-0.7177030444145203,0.0,0.0,0.0
1759838348.3832245,0,-1.2050000429153442,-0.8299996852874756,-0.7177029658810135,0.0,True,0.011096477508544922,-1.2050000429153442,-0.8299996852874756,-0.7177030444145203,0.0,0.0,0.0
1759838348.3942323,0,-1.2050000429153442,-0.8299996852874756,-0.7177029693648116,0.0,True,0.01100778579711914,-1.2050000429153442,-0.8299996852874756,-0.7177030444145203,0.0,0.0,0.0
1759838348.4043844,0,-1.2050000429153442,-0.8299996852874756,-0.717702973756591,0.0,True,0.010152101516723633,-1.2050000429153442,-0.8299996852874756,-0.7177030444145203,0.0,0.0,0.0
1759838348.415497,0,-1.2050000429153442,-0.8299996852874756,-0.7177029761166871,0.0,True,0.011112689971923828,-1.2050000429153442,-0.8299996852874756,-0.7177030444145203,0.0,0.0,0.0
1759838348.4266455,0,-1.2050000429153442,-0.8299996852874756,-0.7177029782605242,0.0,True,0.011148452758789062,-1.2050000429153442,-0.8299996852874756,-0.7177030444145203,0.0,0.0,0.0
1759838348.437747,0,-1.2050000429153442,-0.8299996852874756,-0.7177029804498609,0.0,True,0.011101484298706055,-1.2050000429153442,-0.8299996852874756,-0.7177030444145203,0.0,0.0,0.0
1759838348.4483001,0,-1.2050000429153442,-0.8299996852874756,-0.717702983299553,0.0,True,0.010553121566772461,-1.2050000429153442,-0.8299996852874756,-0.7177030444145203,0.0,0.0,0.0
1759838348.4586263,0,-1.2050000429153442,-0.8299996852874756,-0.7177029861596012,0.0,True,0.010326147079467773,-1.2050000429153442,-0.8299996852874756,-0.7177030444145203,0.0,0.0,0.0
1759838348.4693353,0,-1.2050000429153442,-0.8299996852874756,-0.71770298820881,0.0,True,0.010709047317504883,-1.2050000429153442,-0.8299996852874756,-0.7177030444145203,0.0,0.0,0.0
1759838348.4798605,0,-1.2050000429153442,-0.8299996852874756,-0.7177029903228398,0.0,True,0.010525226593017578,-1.2050000429153442,-0.8299996852874756,-0.7177030444145203,0.0,0.0,0.0
1759838348.491165,0,-1.2050000429153442,-0.8299996852874756,-0.7177029914142032,0.0,True,0.011304378509521484,-1.2050000429153442,-0.8299996852874756,-0.7177030444145203,0.0,0.0,0.0
1759838348.5022273,0,-1.2050000429153442,-0.8299996852874756,-0.7177029929043002,0.0,True,0.011062383651733398,-1.2050000429153442,-0.8299996852874756,-0.7177030444145203,0.0,0.0,0.0
1759838348.5129774,0,-1.2050000429153442,-0.8299996852874756,-0.7177029947899474,0.0,True,0.010750055313110352,-1.2050000429153442,-0.8299996852874756,-0.7177030444145203,0.0,0.0,0.0
1759838348.5256925,0,-1.2050000429153442,-0.8299996852874756,-0.7177029946138838,0.0,True,0.01271510124206543,-1.2050000429153442,-0.8299996852874756,-0.7177030444145203,0.0,0.0,0.0
1759838348.537043,0,-1.2050000429153442,-0.8299996852874756,-0.7177029962809947,0.0,True,0.011350631713867188,-1.2050000429153442,-0.8299996852874756,-0.7177030444145203,0.0,0.0,0.0
1759838348.5477822,0,-1.2050000429153442,-0.8299996852874756,-0.7177029986017374,0.0,True,0.01073908805847168,-1.2050000429153442,-0.8299996852874756,-0.7177030444145203,0.0,0.0,0.0
1759838348.5587487,0,-1.2050000429153442,-0.8299996852874756,-0.7177030004789771,0.0,True,0.01096653938293457,-1.2050000429153442,-0.8299996852874756,-0.7177030444145203,0.0,0.0,0.0
1759838348.569094,0,-1.2050000429153442,-0.8299996852874756,-0.7177030027246172,0.0,True,0.010345220565795898,-1.2050000429153442,-0.8299996852874756,-0.7177030444145203,0.0,0.0,0.0
1759838348.5806189,0,-1.2050000429153442,-0.8299996852874756,-0.7177030036870313,0.0,True,0.01152491569519043,-1.2050000429153442,-0.8299996852874756,-0.7177030444145203,0.0,0.0,0.0
1759838348.5912333,0,-1.2050000429153442,-0.8299996852874756,-0.7177030054408142,0.0,True,0.010614395141601562,-1.2050000429153442,-0.8299996852874756,-0.7177030444145203,0.0,0.0,0.0
1759838348.6014354,0,-1.2050000429153442,-0.8299996852874756,-0.7177030073901101,0.0,True,0.010202169418334961,-1.2050000429153442,-0.8299996852874756,-0.7177030444145203,0.0,0.0,0.0
1759838348.6127627,0,-1.2050000429153442,-0.8299996852874756,-0.7177030082254632,0.0,True,0.011327266693115234,-1.2050000429153442,-0.8299996852874756,-0.7177030444145203,0.0,0.0,0.0
1759838348.6241803,0,-1.2050000429153442,-0.8299996852874756,-0.717703009039278,0.0,True,0.011417627334594727,-1.2050000429153442,-0.8299996852874756,-0.7177030444145203,0.0,0.0,0.0
1759838348.6352224,0,-1.2050000429153442,-0.8299996852874756,-0.7177030102286714,0.0,True,0.011042118072509766,-1.2050000429153442,-0.8299996852874756,-0.7177030444145203,0.0,0.0,0.0
1759838348.6462352,0,-1.2050000429153442,-0.8299996852874756,-0.7177030114299257,0.0,True,0.011012792587280273,-1.2050000429153442,-0.8299996852874756,-0.7177030444145203,0.0,0.0,0.0
1759838348.6574411,0,-1.2050000429153442,-0.8299996852874756,-0.71770301245882,0.0,True,0.011205911636352539,-1.2050000429153442,-0.8299996852874756,-0.7177030444145203,0.0,0.0,0.0
1759838348.667775,0,-1.2050000429153442,-0.8299996852874756,-0.7177030140372302,0.0,True,0.010333776473999023,-1.2050000429153442,-0.8299996852874756,-0.7177030444145203,0.0,0.0,0.0
1759838348.6792157,0,-1.2050000429153442,-0.8299996852874756,-0.7177030147557097,0.0,True,0.011440753936767578,-1.2050000429153442,-0.8299996852874756,-0.7177030444145203,0.0,0.0,0.0
1759838348.689951,0,-1.2050000429153442,-0.8299996852874756,-0.7177030159276043,0.0,True,0.010735273361206055,-1.2050000429153442,-0.8299996852874756,-0.7177030444145203,0.0,0.0,0.0
1759838348.7012882,0,-1.2050000429153442,-0.8299996852874756,-0.7177030166899971,0.0,True,0.0113372802734375,-1.2050000429153442,-0.8299996852874756,-0.7177030444145203,0.0,0.0,0.0
1759838348.7116096,0,-1.2050000429153442,-0.8299996852874756,-0.7177030180392325,0.0,True,0.010321378707885742,-1.2050000429153442,-0.8299996852874756,-0.7177030444145203,0.0,0.0,0.0
1759838348.7224202,0,-1.2050000429153442,-0.8299996852874756,-0.7177030189838778,0.0,True,0.010810613632202148,-1.2050000429153442,-0.8299996852874756,-0.7177030444145203,0.0,0.0,0.0
1759838348.7328966,0,-1.2050000429153442,-0.8299996852874756,-0.7177030200318448,0.0,True,0.010476350784301758,-1.2050000429153442,-0.8299996852874756,-0.7177030444145203,0.0,0.0,0.0
1759838348.7442503,0,-1.2050000429153442,-0.8299996852874756,-0.717703020547388,0.0,True,0.011353731155395508,-1.2050000429153442,-0.8299996852874756,-0.7177030444145203,0.0,0.0,0.0
1759838348.7557282,0,-1.2050000429153442,-0.8299996852874756,-0.7177030210560851,0.0,True,0.011477947235107422,-1.2050000429153442,-0.8299996852874756,-0.7177030444145203,0.0,0.0,0.0
1759838348.7664793,0,-1.2050000429153442,-0.8299996852874756,-0.7177030219878446,0.0,True,0.010751008987426758,-1.2050000429153442,-0.8299996852874756,-0.7177030444145203,0.0,0.0,0.0
1759838348.7776449,0,-1.2050000429153442,-0.8299996852874756,-0.7177030226843293,0.0,True,0.011165618896484375,-1.2050000429153442,-0.8299996852874756,-0.7177030444145203,0.0,0.0,0.0
1759838348.7886186,0,-1.2050000429153442,-0.8299996852874756,-0.7177030234538648,0.0,True,0.010973691940307617,-1.2050000429153442,-0.8299996852874756,-0.7177030444145203,0.0,0.0,0.0
1759838348.7990453,0,-1.2050000429153442,-0.8299996852874756,-0.7177030244259157,0.0,True,0.010426759719848633,-1.2050000429153442,-0.8299996852874756,-0.7177030444145203,0.0,0.0,0.0
1759838348.8092623,0,-1.2050000429153442,-0.8299996852874756,-0.7177030253803132,0.0,True,0.010216951370239258,-1.2050000429153442,-0.8299996852874756,-0.7177030444145203,0.0,0.0,0.0
1759838348.819508,0,-1.2050000429153442,-0.8299996852874756,-0.7177030261999278,0.0,True,0.010245800018310547,-1.2050000429153442,-0.8299996852874756,-0.7177030444145203,0.0,0.0,0.0
1759838348.8297532,0,-1.2050000429153442,-0.8299996852874756,-0.7177030269236262,0.0,True,0.010245084762573242,-1.2050000429153442,-0.8299996852874756,-0.7177030444145203,0.0,0.0,0.0
1759838348.8410056,0,-1.2050000429153442,-0.8299996852874756,-0.717703027202063,0.0,True,0.011252403259277344,-1.2050000429153442,-0.8299996852874756,-0.7177030444145203,0.0,0.0,0.0
1759838348.852221,0,-1.2050000429153442,-0.8299996852874756,-0.7177030275541032,0.0,True,0.011215448379516602,-1.2050000429153442,-0.8299996852874756,-0.7177030444145203,0.0,0.0,0.0
1759838348.8625863,0,-1.2050000429153442,-0.8299996852874756,-0.7177030282637951,0.0,True,0.01036524772644043,-1.2050000429153442,-0.8299996852874756,-0.7177030444145203,0.0,0.0,0.0
1759838348.8738976,0,-1.2050000429153442,-0.8299996852874756,-0.7177030286072963,0.0,True,0.01131129264831543,-1.2050000429153442,-0.8299996852874756,-0.7177030444145203,0.0,0.0,0.0
1759838348.8841803,0,-1.2050000429153442,-0.8299996852874756,-0.717703029315846,0.0,True,0.010282754898071289,-1.2050000429153442,-0.8299996852874756,-0.7177030444145203,0.0,0.0,0.0
1759838348.894625,0,-1.2050000429153442,-0.8299996852874756,-0.7177030299137108,0.0,True,0.01044464111328125,-1.2050000429153442,-0.8299996852874756,-0.7177030444145203,0.0,0.0,0.0
1759838348.9049075,0,-1.2050000429153442,-0.8299996852874756,-0.7177030305041772,0.0,True,0.010282516479492188,-1.2050000429153442,-0.8299996852874756,-0.7177030444145203,0.0,0.0,0.0
1759838348.9158387,0,-1.2050000429153442,-0.8299996852874756,-0.7177030308483161,0.0,True,0.010931253433227539,-1.2050000429153442,-0.8299996852874756,-0.7177030444145203,0.0,0.0,0.0
1759838348.926395,0,-1.2050000429153442,-0.8299996852874756,-0.7177030313099237,0.0,True,0.010556221008300781,-1.2050000429153442,-0.8299996852874756,-0.7177030444145203,0.0,0.0,0.0
1759838348.9367855,0,-1.2050000429153442,-0.8299996852874756,-0.7177030318037296,0.0,True,0.010390520095825195,-1.2050000429153442,-0.8299996852874756,-0.7177030444145203,0.0,0.0,0.0
1759838348.9475424,0,-1.2050000429153442,-0.8299996852874756,-0.7177030321658204,0.0,True,0.010756969451904297,-1.2050000429153442,-0.8299996852874756,-0.7177030444145203,0.0,0.0,0.0
1759838348.9583614,0,-1.2050000429153442,-0.8299996852874756,-0.7177030325097906,0.0,True,0.010818958282470703,-1.2050000429153442,-0.8299996852874756,-0.7177030444145203,0.0,0.0,0.0
1759838348.9831572,0,-1.2050000429153442,-0.8299996852874756,-0.7177030295446869,0.0,True,0.0247957706451416,-1.2050000429153442,-0.8299996852874756,-0.7177030444145203,0.0,0,0
1759838348.9938211,0,-1.2050000429153442,-0.8299996852874756,-0.7177030309260495,0.0,True,0.010663986206054688,-1.2050000429153442,-0.8299996852874756,-0.7177030444145203,0.0,0,0
1759838349.004277,0,-1.2050000429153442,-0.8299996852874756,-0.7177030322801681,0.0,True,0.010455846786499023,-1.2050000429153442,-0.8299996852874756,-0.7177030444145203,0.0,0,0
1759838349.0153797,0,-1.2050000429153442,-0.8299996852874756,-0.717703033188851,0.0,True,0.011102676391601562,-1.2050000429153442,-0.8299996852874756,-0.7177030444145203,0.0,0,0
1759838349.0266275,0,-1.2050000429153442,-0.8299996852874756,-0.717703033874038,0.0,True,0.011247873306274414,-1.2050000429153442,-0.8299996852874756,-0.7177030444145203,0.0,0,0
1759838349.0368106,0,-1.2050000429153442,-0.8299996852874756,-0.7177030346460889,0.0,True,0.010183095932006836,-1.2050000429153442,-0.8299996852874756,-0.7177030444145203,0.0,0,0
1759838349.0474944,0,-1.2050000429153442,-0.8299996852874756,-0.7177030351791309,0.0,True,0.010683774948120117,-1.2050000429153442,-0.8299996852874756,-0.7177030444145203,0.0,0,0
1759838349.0588124,0,-1.2050000429153442,-0.8299996852874756,-0.7177030355069274,0.0,True,0.011317968368530273,-1.2050000429153442,-0.8299996852874756,-0.7177030444145203,0.0,0,0
1759838349.0699594,0,-1.2050000429153442,-0.8299996852874756,-0.7177030358410583,0.0,True,0.011147022247314453,-1.2050000429153442,-0.8299996852874756,-0.7177030444145203,0.0,0,0
1759838349.0804818,0,-1.2050000429153442,-0.8299996852874756,-0.7177030362620442,0.0,True,0.01052236557006836,-1.2050000429153442,-0.8299996852874756,-0.7177030444145203,0.0,0,0
1759838349.0906641,0,-1.2050000429153442,-0.8299996852874756,-0.7177030366889419,0.0,True,0.010182380676269531,-1.2050000429153442,-0.8299996852874756,-0.7177030444145203,0.0,0,0
1759838349.1007066,0,-1.2050000429153442,-0.8299996852874756,-0.717703037075534,0.0,True,0.010042428970336914,-1.2050000429153442,-0.8299996852874756,-0.7177030444145203,0.0,0,0
1759838349.1115777,0,-1.2050000429153442,-0.8299996852874756,-0.7177030372770723,0.0,True,0.010871171951293945,-1.2050000429153442,-0.8299996852874756,-0.7177030444145203,0.0,0,0
1759838349.1223898,0,-1.2050000429153442,-0.8299996852874756,-0.7177030374817868,0.0,True,0.010812044143676758,-1.2050000429153442,-0.8299996852874756,-0.7177030444145203,0.0,0,0
1759838349.138186,0,-1.2050000429153442,-0.8299996852874756,-0.7177030369811703,0.0,True,0.015796184539794922,-1.2050000429153442,-0.8299996852874756,-0.7177030444145203,0.0,0,0
1759838349.1493587,0,-1.2050000429153442,-0.8299996852874756,-0.7177030373378059,0.0,True,0.011172771453857422,-1.2050000429153442,-0.8299996852874756,-0.7177030444145203,0.0,0,0
1759838349.160045,0,-1.2050000429153442,-0.8299996852874756,-0.7177030377668832,0.0,True,0.010686159133911133,-1.2050000429153442,-0.8299996852874756,-0.7177030444145203,0.0,0,0
1759838349.1708717,0,-1.2050000429153442,-0.8299996852874756,-0.7177030381129974,0.0,True,0.010826826095581055,-1.2050000429153442,-0.8299996852874756,-0.7177030444145203,0.0,0,0
1759838349.1812603,0,-1.2050000429153442,-0.8299996852874756,-0.7177030384618703,0.0,True,0.010388612747192383,-1.2050000429153442,-0.8299996852874756,-0.7177030444145203,0.0,0,0
1759838349.192118,0,-1.2050000429153442,-0.8299996852874756,-0.717703038702119,0.0,True,0.010857582092285156,-1.2050000429153442,-0.8299996852874756,-0.7177030444145203,0.0,0,0
1759838349.203377,0,-1.2050000429153442,-0.8299996852874756,-0.7177030388706882,0.0,True,0.011259078979492188,-1.2050000429153442,-0.8299996852874756,-0.7177030444145203,0.0,0,0
1759838349.2136183,0,-1.2050000429153442,-0.8299996852874756,-0.7177030391510115,0.0,True,0.010241270065307617,-1.2050000429153442,-0.8299996852874756,-0.7177030444145203,0.0,0,0
1759838349.22467,0,-1.2050000429153442,-0.8299996852874756,-0.7177030393114023,0.0,True,0.011051654815673828,-1.2050000429153442,-0.8299996852874756,-0.7177030444145203,0.0,0,0
1759838349.2348077,0,-1.2050000429153442,-0.8299996852874756,-0.717703039559904,0.0,True,0.010137796401977539,-1.2050000429153442,-0.8299996852874756,-0.7177030444145203,0.0,0,0
1759838349.2460809,0,-1.2050000429153442,-0.8299996852874756,-0.7177030396654764,0.0,True,0.01127314567565918,-1.2050000429153442,-0.8299996852874756,-0.7177030444145203,0.0,0,0
1759838349.256718,0,-1.2050000429153442,-0.8299996852874756,-0.7177030398391402,0.0,True,0.010637044906616211,-1.2050000429153442,-0.8299996852874756,-0.7177030444145203,0.0,0,0
1759838349.267502,0,-1.2050000429153442,-0.8299996852874756,-0.7177030399918767,0.0,True,0.010784149169921875,-1.2050000429153442,-0.8299996852874756,-0.7177030444145203,0.0,0,0
1759838349.2785254,0,-1.2050000429153442,-0.8299996852874756,-0.7177030401164295,0.0,True,0.011023283004760742,-1.2050000429153442,-0.8299996852874756,-0.7177030444145203,0.0,0,0
1759838349.289254,0,-1.2050000429153442,-0.8299996852874756,-0.7177030402685638,0.0,True,0.010728597640991211,-1.2050000429153442,-0.8299996852874756,-0.7177030444145203,0.0,0,0
1759838349.3005319,0,-1.2050000429153442,-0.8299996852874756,-0.7177030403678852,0.0,True,0.011277914047241211,-1.2050000429153442,-0.8299996852874756,-0.7177030444145203,0.0,0,0
1759838349.3117392,0,-1.2050000429153442,-0.8299996852874756,-0.7177030404799005,0.0,True,0.011207342147827148,-1.2050000429153442,-0.8299996852874756,-0.7177030444145203,0.0,0,0
1759838349.3223946,0,-1.2050000429153442,-0.8299996852874756,-0.7177030406409468,0.0,True,0.010655403137207031,-1.2050000429153442,-0.8299996852874756,-0.7177030444145203,0.0,0,0
1759838349.3362741,0,-1.2050000429153442,-0.8299996852874756,-0.7177030405462119,0.0,True,0.013879537582397461,-1.2050000429153442,-0.8299996852874756,-0.7177030444145203,0.0,0,0
1759838349.3471794,0,-1.2050000429153442,-0.8299996852874756,-0.7177030407336265,0.0,True,0.010905265808105469,-1.2050000429153442,-0.8299996852874756,-0.7177030444145203,0.0,0,0
1759838349.3573267,0,-1.2050000429153442,-0.8299996852874756,-0.7177030409683773,0.0,True,0.010147333145141602,-1.2050000429153442,-0.8299996852874756,-0.7177030444145203,0.0,0,0
1759838349.3675528,0,-1.2050000429153442,-0.8299996852874756,-0.717703041159119,0.0,True,0.010226011276245117,-1.2050000429153442,-0.8299996852874756,-0.7177030444145203,0.0,0,0
1759838349.3787894,0,-1.2050000429153442,-0.8299996852874756,-0.7177030412512231,0.0,True,0.01123666763305664,-1.2050000429153442,-0.8299996852874756,-0.7177030444145203,0.0,0,0
1759838349.3900864,0,-1.2050000429153442,-0.8299996852874756,-0.7177030413371099,0.0,True,0.011296987533569336,-1.2050000429153442,-0.8299996852874756,-0.7177030444145203,0.0,0,0
1759838349.401283,0,-1.2050000429153442,-0.8299996852874756,-0.7177030414333387,0.0,True,0.011196613311767578,-1.2050000429153442,-0.8299996852874756,-0.7177030444145203,0.0,0,0
1759838349.412611,0,-1.2050000429153442,-0.8299996852874756,-0.7177030415225172,0.0,True,0.011327981948852539,-1.2050000429153442,-0.8299996852874756,-0.7177030444145203,0.0,0,0
1759838349.423981,0,-1.2050000429153442,-0.8299996852874756,-0.7177030416107932,0.0,True,0.011369943618774414,-1.2050000429153442,-0.8299996852874756,-0.7177030444145203,0.0,0,0
1759838349.4353094,0,-1.2050000429153442,-0.8299996852874756,-0.717703041702741,0.0,True,0.011328458786010742,-1.2050000429153442,-0.8299996852874756,-0.7177030444145203,0.0,0,0
1759838349.4463754,0,-1.2050000429153442,-0.8299996852874756,-0.7177030418080861,0.0,True,0.011065959930419922,-1.2050000429153442,-0.8299996852874756,-0.7177030444145203,0.0,0,0
1759838349.4570456,0,-1.2050000429153442,-0.8299996852874756,-0.7177030419277912,0.0,True,0.010670185089111328,-1.2050000429153442,-0.8299996852874756,-0.7177030444145203,0.0,0,0
1759838349.4680152,0,-1.2050000429153442,-0.8299996852874756,-0.7177030420200907,0.0,True,0.01096963882446289,-1.2050000429153442,-0.8299996852874756,-0.7177030444145203,0.0,0,0
1759838349.4784057,0,-1.2050000429153442,-0.8299996852874756,-0.7177030421335129,0.0,True,0.010390520095825195,-1.2050000429153442,-0.8299996852874756,-0.7177030444145203,0.0,0,0
1759838349.4896445,0,-1.2050000429153442,-0.8299996852874756,-0.7177030421946569,0.0,True,0.011238813400268555,-1.2050000429153442,-0.8299996852874756,-0.7177030444145203,0.0,0,0
1759838349.5010073,0,-1.2050000429153442,-0.8299996852874756,-0.7177030422506228,0.0,True,0.011362791061401367,-1.2050000429153442,-0.8299996852874756,-0.7177030444145203,0.0,0,0
1759838349.5113525,0,-1.2050000429153442,-0.8299996852874756,-0.7177030423549802,0.0,True,0.010345220565795898,-1.2050000429153442,-0.8299996852874756,-0.7177030444145203,0.0,0,0
1759838349.5222142,0,-1.2050000429153442,-0.8299996852874756,-0.7177030424270772,0.0,True,0.010861635208129883,-1.2050000429153442,-0.8299996852874756,-0.7177030444145203,0.0,0,0
1759838349.5353718,0,-1.2050000429153442,-0.8299996852874756,-0.7177030424018831,0.0,True,0.01315760612487793,-1.2050000429153442,-0.8299996852874756,-0.7177030444145203,0.0,0,0
1759838349.5426226,0,-1.2050000429153442,-0.8299996852874756,-0.7177030426331434,0.0,True,0.007250785827636719,-1.2050000429153442,-0.8299996852874756,-0.7177030444145203,0.0,0,0
1759838349.5538661,0,-1.2050000429153442,-0.8299996852874756,-0.7177030426675337,0.0,True,0.011243581771850586,-1.2050000429153442,-0.8299996852874756,-0.7177030444145203,0.0,0,0
1759838349.5640538,0,-1.2050000429153442,-0.8299996852874756,-0.7177030427361437,0.0,True,0.010187625885009766,-1.2050000429153442,-0.8299996852874756,-0.7177030444145203,0.0,0,0
1759838349.57502,0,-1.2050000429153442,-0.8299996852874756,-0.7177030427726727,0.0,True,0.010966300964355469,-1.2050000429153442,-0.8299996852874756,-0.7177030444145203,0.0,0,0
1759838349.5854774,0,-1.2050000429153442,-0.8299996852874756,-0.717703042829406,0.0,True,0.010457277297973633,-1.2050000429153442,-0.8299996852874756,-0.7177030444145203,0.0,0,0
1759838349.5956807,0,-1.2050000429153442,-0.8299996852874756,-0.71770304289279,0.0,True,0.010203361511230469,-1.2050000429153442,-0.8299996852874756,-0.7177030444145203,0.0,0,0
1759838349.6069102,0,-1.2050000429153442,-0.8299996852874756,-0.7177030429174529,0.0,True,0.011229515075683594,-1.2050000429153442,-0.8299996852874756,-0.7177030444145203,0.0,0,0
1759838349.6173985,0,-1.2050000429153442,-0.8299996852874756,-0.7177030429702711,0.0,True,0.010488271713256836,-1.2050000429153442,-0.8299996852874756,-0.7177030444145203,0.0,0,0
1759838349.6281219,0,-1.2050000429153442,-0.8299996852874756,-0.7177030430146587,0.0,True,0.010723352432250977,-1.2050000429153442,-0.8299996852874756,-0.7177030444145203,0.0,0,0
1759838349.638582,0,-1.2050000429153442,-0.8299996852874756,-0.7177030430658391,0.0,True,0.010460138320922852,-1.2050000429153442,-0.8299996852874756,-0.7177030444145203,0.0,0,0
1759838349.6494174,0,-1.2050000429153442,-0.8299996852874756,-0.7177030431034801,0.0,True,0.010835409164428711,-1.2050000429153442,-0.8299996852874756,-0.7177030444145203,0.0,0,0
1759838349.6605065,0,-1.2050000429153442,-0.8299996852874756,-0.7177030431344313,0.0,True,0.011089086532592773,-1.2050000429153442,-0.8299996852874756,-0.7177030444145203,0.0,0,0
1759838349.6708043,0,-1.2050000429153442,-0.8299996852874756,-0.7177030431889726,0.0,True,0.010297775268554688,-1.2050000429153442,-0.8299996852874756,-0.7177030444145203,0.0,0,0
1759838349.6810327,0,-1.2050000429153442,-0.8299996852874756,-0.7177030432410003,0.0,True,0.010228395462036133,-1.2050000429153442,-0.8299996852874756,-0.7177030444145203,0.0,0,0
1759838349.6912947,0,-1.2050000429153442,-0.8299996852874756,-0.7177030432866314,0.0,True,0.010262012481689453,-1.2050000429153442,-0.8299996852874756,-0.7177030444145203,0.0,0,0
1759838349.7014167,0,-1.2050000429153442,-0.8299996852874756,-0.7177030433313938,0.0,True,0.010122060775756836,-1.2050000429153442,-0.8299996852874756,-0.7177030444145203,0.0,0,0
1759838349.7130232,0,-1.2050000429153442,-0.8299996852874756,-0.7177030433374991,0.0,True,0.011606454849243164,-1.2050000429153442,-0.8299996852874756,-0.7177030444145203,0.0,0,0
1759838349.7240715,0,-1.2050000429153442,-0.8299996852874756,-0.7177030433632048,0.0,True,0.011048316955566406,-1.2050000429153442,-0.8299996852874756,-0.7177030444145203,0.0,0,0
1759838349.7397568,0,-1.2050000429153442,-0.8299996852874756,-0.7177030432940263,0.0,True,0.015685319900512695,-1.2050000429153442,-0.8299996852874756,-0.7177030444145203,0.0,0,0
1759838349.7505767,0,-1.2050000429153442,-0.8299996852874756,-0.717703043357627,0.0,True,0.01081991195678711,-1.2050000429153442,-0.8299996852874756,-0.7177030444145203,0.0,0,0
1759838349.762026,0,-1.2050000429153442,-0.8299996852874756,-0.7177030434070932,0.0,True,0.011449337005615234,-1.2050000429153442,-0.8299996852874756,-0.7177030444145203,0.0,0,0
1759838349.7728312,0,-1.2050000429153442,-0.8299996852874756,-0.717703043463235,0.0,True,0.010805130004882812,-1.2050000429153442,-0.8299996852874756,-0.7177030444145203,0.0,0,0
1759838349.7839708,0,-1.2050000429153442,-0.8299996852874756,-0.7177030435056331,0.0,True,0.011139631271362305,-1.2050000429153442,-0.8299996852874756,-0.7177030444145203,0.0,0,0
1759838349.794533,0,-1.2050000429153442,-0.8299996852874756,-0.7177030435534917,0.0,True,0.01056218147277832,-1.2050000429153442,-0.8299996852874756,-0.7177030444145203,0.0,0,0
1759838349.8060715,0,-1.2050000429153442,-0.8299996852874756,-0.7177030435784602,0.0,True,0.011538505554199219,-1.2050000429153442,-0.8299996852874756,-0.7177030444145203,0.0,0,0
1759838349.8169134,0,-1.2050000429153442,-0.8299996852874756,-0.717703043614577,0.0,True,0.010841846466064453,-1.2050000429153442,-0.8299996852874756,-0.7177030444145203,0.0,0,0
1759838349.8282683,0,-1.2050000429153442,-0.8299996852874756,-0.7177030436398457,0.0,True,0.011354923248291016,-1.2050000429153442,-0.8299996852874756,-0.7177030444145203,0.0,0,0
1759838349.8387632,0,-1.2050000429153442,-0.8299996852874756,-0.7177030436777496,0.0,True,0.01049494743347168,-1.2050000429153442,-0.8299996852874756,-0.7177030444145203,0.0,0,0
1759838349.84895,0,-1.2050000429153442,-0.8299996852874756,-0.7177030437161207,0.0,True,0.01018667221069336,-1.2050000429153442,-0.8299996852874756,-0.7177030444145203,0.0,0,0
1759838349.8589644,0,-1.2050000429153442,-0.8299996852874756,-0.7177030437514595,0.0,True,0.010014533996582031,-1.2050000429153442,-0.8299996852874756,-0.7177030444145203,0.0,0,0
1759838349.8690753,0,-1.2050000429153442,-0.8299996852874756,-0.7177030437802365,0.0,True,0.010110855102539062,-1.2050000429153442,-0.8299996852874756,-0.7177030444145203,0.0,0,0
1759838349.880077,0,-1.2050000429153442,-0.8299996852874756,-0.717703043793346,0.0,True,0.0110015869140625,-1.2050000429153442,-0.8299996852874756,-0.7177030444145203,0.0,0,0
1759838349.8903167,0,-1.2050000429153442,-0.8299996852874756,-0.7177030438174441,0.0,True,0.010239839553833008,-1.2050000429153442,-0.8299996852874756,-0.7177030444145203,0.0,0,0
1759838349.9005678,0,-1.2050000429153442,-0.8299996852874756,-0.7177030438399434,0.0,True,0.010251045227050781,-1.2050000429153442,-0.8299996852874756,-0.7177030444145203,0.0,0,0
1759838349.9111993,0,-1.2050000429153442,-0.8299996852874756,-0.7177030438559004,0.0,True,0.010631561279296875,-1.2050000429153442,-0.8299996852874756,-0.7177030444145203,0.0,0,0
1759838349.9220135,0,-1.2050000429153442,-0.8299996852874756,-0.7177030438695979,0.0,True,0.010814189910888672,-1.2050000429153442,-0.8299996852874756,-0.7177030444145203,0.0,0,0
1759838349.93839,0,-1.2050000429153442,-0.8299996852874756,-0.7177030438214373,0.0,True,0.016376495361328125,-1.2050000429153442,-0.8299996852874756,-0.7177030444145203,0.0,0,0
1759838349.9441888,0,-1.2050000429153442,-0.8299996852874756,-0.7177030439089407,0.0,True,0.005798816680908203,-1.2050000429153442,-0.8299996852874756,-0.7177030444145203,0.0,0,0
1759838349.9551358,0,-1.2050000429153442,-0.8299996852874756,-0.7177030439250753,0.0,True,0.010946989059448242,-1.2050000429153442,-0.8299996852874756,-0.7177030444145203,0.0,0,0
1759838349.9653468,0,-1.2050000429153442,-0.8299996852874756,-0.717703043944514,0.0,True,0.010210990905761719,-1.2050000429153442,-0.8299996852874756,-0.7177030444145203,0.0,0,0
1759838349.9769096,0,-1.2050000429153442,-0.8299996852874756,-0.7177030439488838,0.0,True,0.011562824249267578,-1.2050000429153442,-0.8299996852874756,-0.7177030444145203,0.0,0.5235987755982988,0.03059853978310111
