timestamp,vehicle_id,x,y,theta,velocity,gps_available,dt,gps_x,gps_y,gps_theta,gps_velocity,control_steering,control_acceleration
1759838346.4704697,1,-1.735,-0.35,-0.7801621756414647,0.0,False,0.01,nan,nan,nan,nan,0.0,0.0
1759838346.48108,1,-1.735,-0.35,-0.7801621756414647,0.0,False,0.010610342025756836,nan,nan,nan,nan,0.0,0.0
1759838346.4923449,1,-1.735,-0.35,-0.7801621756414647,0.0,False,0.011264801025390625,nan,nan,nan,nan,0.0,0.0
1759838346.5027945,1,-1.735,-0.35,-0.7801621756414647,0.0,False,0.010449647903442383,nan,nan,nan,nan,0.0,0.0
1759838346.5129008,1,-1.735,-0.35,-0.7801621756414647,0.0,False,0.010106325149536133,nan,nan,nan,nan,0.0,0.0
1759838346.5241287,1,-1.735,-0.35,-0.7801621756414647,0.0,False,0.011227846145629883,nan,nan,nan,nan,0.0,0.0
1759838346.5349207,1,-1.735,-0.35,-0.7801621756414647,0.0,False,0.010792016983032227,nan,nan,nan,nan,0.0,0.0
1759838346.545715,1,-1.735,-0.35,-0.7801621756414647,0.0,False,0.010794401168823242,nan,nan,nan,nan,0.0,0.0
1759838346.5571318,1,-1.735,-0.35,-0.7801621756414647,0.0,False,0.01141667366027832,nan,nan,nan,nan,0.0,0.0
1759838346.5687294,1,-1.735,-0.35,-0.7801621756414647,0.0,False,0.011597633361816406,nan,nan,nan,nan,0.0,0.0
1759838346.5796762,1,-1.735,-0.35,-0.7801621756414647,0.0,False,0.01094675064086914,nan,nan,nan,nan,0.0,0.0
1759838346.5908067,1,-1.735,-0.35,-0.7801621756414647,0.0,False,0.011130571365356445,nan,nan,nan,nan,0.0,0.0
1759838346.602148,1,-1.735,-0.35,-0.7801621756414647,0.0,False,0.011341333389282227,nan,nan,nan,nan,0.0,0.0
1759838346.6130037,1,-1.735,-0.35,-0.7801621756414647,0.0,False,0.010855674743652344,nan,nan,nan,nan,0.0,0.0
1759838346.6234806,1,-1.735,-0.35,-0.7801621756414647,0.0,False,0.010476827621459961,nan,nan,nan,nan,0.0,0.0
1759838346.6347165,1,-1.735,-0.35,-0.7801621756414647,0.0,False,0.011235952377319336,nan,nan,nan,nan,0.0,0.0
1759838346.645702,1,-1.735,-0.35,-0.7801621756414647,0.0,False,0.010985374450683594,nan,nan,nan,nan,0.0,0.0
1759838346.6558907,1,-1.735,-0.35,-0.7801621756414647,0.0,False,0.010188817977905273,nan,nan,nan,nan,0.0,0.0
1759838346.667765,1,-1.7350000141859054,-0.34999975765744845,-0.722999650207889,0.0,True,0.011874198913574219,-1.7350000143051147,-0.3499997556209564,-0.7177034020423889,0.0,0.0,0.0
1759838346.677956,1,-1.7350000142652677,-0.349999756301678,-0.7181197856981871,0.0,True,0.010191202163696289,-1.7350000143051147,-0.3499997556209564,-0.7177034020423889,0.0,0.0,0.0
1759838346.6884131,1,-1.735000014290167,-0.34999975587631593,-0.7176598821605733,0.0,True,0.010457038879394531,-1.7350000143051147,-0.3499997556209564,-0.7177034020423889,0.0,0.0,0.0
1759838346.6989942,1,-1.73500001429942,-0.3499997557182411,-0.717598011969665,0.0,True,0.010581016540527344,-1.7350000143051147,-0.3499997556209564,-0.7177034020423889,0.0,0.0,0.0
1759838346.70931,1,-1.7350000143029403,-0.34999975565810176,-0.7175905920561583,0.0,True,0.010315895080566406,-1.7350000143051147,-0.3499997556209564,-0.7177034020423889,0.0,0.0,0.0
1759838346.7207851,1,-1.7350000143042843,-0.3499997556351439,-0.7175946293200681,0.0,True,0.011475086212158203,-1.7350000143051147,-0.3499997556209564,-0.7177034020423889,0.0,0.0,0.0
1759838346.7313068,1,-1.7350000143047974,-0.34999975562637553,-0.7176071698547108,0.0,True,0.010521650314331055,-1.7350000143051147,-0.3499997556209564,-0.7177034020423889,0.0,0.0,0.0
1759838346.7416182,1,-1.7350000143049935,-0.3499997556230263,-0.717619799692871,0.0,True,0.010311365127563477,-1.7350000143051147,-0.3499997556209564,-0.7177034020423889,0.0,0.0,0.0
1759838346.7520752,1,-1.7350000143050683,-0.34999975562174707,-0.7176304053746936,0.0,True,0.010457038879394531,-1.7350000143051147,-0.3499997556209564,-0.7177034020423889,0.0,0.0,0.0
1759838346.7628047,1,-1.735000014305097,-0.3499997556212584,-0.7176390389847604,0.0,True,0.010729551315307617,-1.7350000143051147,-0.3499997556209564,-0.7177034020423889,0.0,0.0,0.0
1759838346.7733138,1,-1.7350000143051079,-0.3499997556210718,-0.7176466587708905,0.0,True,0.010509014129638672,-1.7350000143051147,-0.3499997556209564,-0.7177034020423889,0.0,0.0,0.0
1759838346.7846262,1,-1.735000014305112,-0.3499997556210005,-0.7176522790905189,0.0,True,0.011312484741210938,-1.7350000143051147,-0.3499997556209564,-0.7177034020423889,0.0,0.0,0.0
1759838346.7951539,1,-1.7350000143051136,-0.34999975562097324,-0.7176579584153515,0.0,True,0.010527610778808594,-1.7350000143051147,-0.3499997556209564,-0.7177034020423889,0.0,0.0,0.0
1759838346.8054163,1,-1.7350000143051143,-0.34999975562096286,-0.7176628822159028,0.0,True,0.010262489318847656,-1.7350000143051147,-0.3499997556209564,-0.7177034020423889,0.0,0.0,0.0
1759838346.8163722,1,-1.7350000143051145,-0.34999975562095886,-0.717666411671539,0.0,True,0.010955810546875,-1.7350000143051147,-0.3499997556209564,-0.7177034020423889,0.0,0.0,0.0
1759838346.8278236,1,-1.7350000143051147,-0.34999975562095736,-0.7176691881099408,0.0,True,0.011451482772827148,-1.7350000143051147,-0.3499997556209564,-0.7177034020423889,0.0,0.0,0.0
1759838346.837975,1,-1.7350000143051147,-0.34999975562095675,-0.7176725413497813,0.0,True,0.010151386260986328,-1.7350000143051147,-0.3499997556209564,-0.7177034020423889,0.0,0.0,0.0
1759838346.848612,1,-1.7350000143051147,-0.34999975562095653,-0.7176750551403899,0.0,True,0.010637044906616211,-1.7350000143051147,-0.3499997556209564,-0.7177034020423889,0.0,0.0,0.0
1759838346.8592174,1,-1.7350000143051147,-0.3499997556209565,-0.7176772208110265,0.0,True,0.010605335235595703,-1.7350000143051147,-0.3499997556209564,-0.7177034020423889,0.0,0.0,0.0
1759838346.8701124,1,-1.7350000143051147,-0.3499997556209564,-0.7176789696468155,0.0,True,0.010895013809204102,-1.7350000143051147,-0.3499997556209564,-0.7177034020423889,0.0,0.0,0.0
1759838346.881357,1,-1.7350000143051147,-0.3499997556209564,-0.717680396741363,0.0,True,0.011244535446166992,-1.7350000143051147,-0.3499997556209564,-0.7177034020423889,0.0,0.0,0.0
1759838346.8923485,1,-1.7350000143051147,-0.3499997556209564,-0.7176818592823562,0.0,True,0.010991573333740234,-1.7350000143051147,-0.3499997556209564,-0.7177034020423889,0.0,0.0,0.0
1759838346.903282,1,-1.7350000143051147,-0.3499997556209564,-0.7176832259270807,0.0,True,0.010933399200439453,-1.7350000143051147,-0.3499997556209564,-0.7177034020423889,0.0,0.0,0.0
1759838346.913529,1,-1.7350000143051147,-0.3499997556209564,-0.7176847193573614,0.0,True,0.010246992111206055,-1.7350000143051147,-0.3499997556209564,-0.7177034020423889,0.0,0.0,0.0
1759838346.924038,1,-1.7350000143051147,-0.3499997556209564,-0.717685900394196,0.0,True,0.010509014129638672,-1.7350000143051147,-0.3499997556209564,-0.7177034020423889,0.0,0.0,0.0
1759838346.934904,1,-1.7350000143051147,-0.3499997556209564,-0.7176868095959108,0.0,True,0.010866165161132812,-1.7350000143051147,-0.3499997556209564,-0.7177034020423889,0.0,0.0,0.0
1759838346.945265,1,-1.7350000143051147,-0.3499997556209564,-0.7176878145578733,0.0,True,0.010360956192016602,-1.7350000143051147,-0.3499997556209564,-0.7177034020423889,0.0,0.0,0.0
1759838346.9558349,1,-1.7350000143051147,-0.3499997556209564,-0.7176886433886516,0.0,True,0.01056981086730957,-1.7350000143051147,-0.3499997556209564,-0.7177034020423889,0.0,0.0,0.0
1759838346.9673345,1,-1.7350000143051147,-0.3499997556209564,-0.7176891230858438,0.0,True,0.011499643325805664,-1.7350000143051147,-0.3499997556209564,-0.7177034020423889,0.0,0.0,0.0
1759838346.9776475,1,-1.7350000143051147,-0.3499997556209564,-0.7176899693610483,0.0,True,0.010313034057617188,-1.7350000143051147,-0.3499997556209564,-0.7177034020423889,0.0,0.0,0.0
1759838346.9886422,1,-1.7350000143051147,-0.3499997556209564,-0.7176905503965649,0.0,True,0.010994672775268555,-1.7350000143051147,-0.3499997556209564,-0.7177034020423889,0.0,0.0,0.0
1759838346.998714,1,-1.7350000143051147,-0.3499997556209564,-0.7176913351404401,0.0,True,0.010071754455566406,-1.7350000143051147,-0.3499997556209564,-0.7177034020423889,0.0,0.0,0.0
1759838347.0091188,1,-1.7350000143051147,-0.3499997556209564,-0.7176919395873238,0.0,True,0.010404825210571289,-1.7350000143051147,-0.3499997556209564,-0.7177034020423889,0.0,0.0,0.0
1759838347.0193589,1,-1.7350000143051147,-0.3499997556209564,-0.717692516399282,0.0,True,0.01024007797241211,-1.7350000143051147,-0.3499997556209564,-0.7177034020423889,0.0,0.0,0.0
1759838347.030879,1,-1.7350000143051147,-0.3499997556209564,-0.7176927478390667,0.0,True,0.011520147323608398,-1.7350000143051147,-0.3499997556209564,-0.7177034020423889,0.0,0.0,0.0
1759838347.0424473,1,-1.7350000143051147,-0.3499997556209564,-0.717693018071131,0.0,True,0.011568307876586914,-1.7350000143051147,-0.3499997556209564,-0.7177034020423889,0.0,0.0,0.0
1759838347.053215,1,-1.7350000143051147,-0.3499997556209564,-0.7176935038925087,0.0,True,0.010767698287963867,-1.7350000143051147,-0.3499997556209564,-0.7177034020423889,0.0,0.0,0.0
1759838347.063246,1,-1.7350000143051147,-0.3499997556209564,-0.7176941080939034,0.0,True,0.010030984878540039,-1.7350000143051147,-0.3499997556209564,-0.7177034020423889,0.0,0.0,0.0
1759838347.0746942,1,-1.7350000143051147,-0.3499997556209564,-0.7176943611252451,0.0,True,0.011448144912719727,-1.7350000143051147,-0.3499997556209564,-0.7177034020423889,0.0,0.0,0.0
1759838347.0857978,1,-1.7350000143051147,-0.3499997556209564,-0.7176946890706439,0.0,True,0.011103630065917969,-1.7350000143051147,-0.3499997556209564,-0.7177034020423889,0.0,0.0,0.0
1759838347.09593,1,-1.7350000143051147,-0.3499997556209564,-0.7176951879578262,0.0,True,0.010132312774658203,-1.7350000143051147,-0.3499997556209564,-0.7177034020423889,0.0,0.0,0.0
1759838347.1068337,1,-1.7350000143051147,-0.3499997556209564,-0.7176954970320892,0.0,True,0.010903596878051758,-1.7350000143051147,-0.3499997556209564,-0.7177034020423889,0.0,0.0,0.0
1759838347.1171968,1,-1.7350000143051147,-0.3499997556209564,-0.7176958737401762,0.0,True,0.010363101959228516,-1.7350000143051147,-0.3499997556209564,-0.7177034020423889,0.0,0.0,0.0
1759838347.1280675,1,-1.7350000143051147,-0.3499997556209564,-0.7176961370244612,0.0,True,0.010870695114135742,-1.7350000143051147,-0.3499997556209564,-0.7177034020423889,0.0,0.0,0.0
1759838347.1388803,1,-1.7350000143051147,-0.3499997556209564,-0.7176964000667247,0.0,True,0.010812759399414062,-1.7350000143051147,-0.3499997556209564,-0.7177034020423889,0.0,0.0,0.0
1759838347.1497724,1,-1.7350000143051147,-0.3499997556209564,-0.7176966455703138,0.0,True,0.010892152786254883,-1.7350000143051147,-0.3499997556209564,-0.7177034020423889,0.0,0.0,0.0
1759838347.1610157,1,-1.7350000143051147,-0.3499997556209564,-0.7176968390247236,0.0,True,0.011243343353271484,-1.7350000143051147,-0.3499997556209564,-0.7177034020423889,0.0,0.0,0.0
1759838347.1712313,1,-1.7350000143051147,-0.3499997556209564,-0.7176971780441868,0.0,True,0.010215520858764648,-1.7350000143051147,-0.3499997556209564,-0.7177034020423889,0.0,0.0,0.0
1759838347.1826725,1,-1.7350000143051147,-0.3499997556209564,-0.7176973261473147,0.0,True,0.011441230773925781,-1.7350000143051147,-0.3499997556209564,-0.7177034020423889,0.0,0.0,0.0
1759838347.1934211,1,-1.7350000143051147,-0.3499997556209564,-0.7176975706203965,0.0,True,0.010748624801635742,-1.7350000143051147,-0.3499997556209564,-0.7177034020423889,0.0,0.0,0.0
1759838347.2042253,1,-1.7350000143051147,-0.3499997556209564,-0.717697798801165,0.0,True,0.010804176330566406,-1.7350000143051147,-0.3499997556209564,-0.7177034020423889,0.0,0.0,0.0
1759838347.2155037,1,-1.7350000143051147,-0.3499997556209564,-0.717697960186559,0.0,True,0.011278390884399414,-1.7350000143051147,-0.3499997556209564,-0.7177034020423889,0.0,0.0,0.0
1759838347.2256222,1,-1.7350000143051147,-0.3499997556209564,-0.7176982533962182,0.0,True,0.010118484497070312,-1.7350000143051147,-0.3499997556209564,-0.7177034020423889,0.0,0.0,0.0
1759838347.2369134,1,-1.7350000143051147,-0.3499997556209564,-0.7176983890738633,0.0,True,0.011291265487670898,-1.7350000143051147,-0.3499997556209564,-0.7177034020423889,0.0,0.0,0.0
1759838347.2475517,1,-1.7350000143051147,-0.3499997556209564,-0.7176985941364631,0.0,True,0.010638236999511719,-1.7350000143051147,-0.3499997556209564,-0.7177034020423889,0.0,0.0,0.0
1759838347.2586977,1,-1.7350000143051147,-0.3499997556209564,-0.717698738361424,0.0,True,0.011146068572998047,-1.7350000143051147,-0.3499997556209564,-0.7177034020423889,0.0,0.0,0.0
1759838347.2714865,1,-1.7350000143051147,-0.3499997556209564,-0.7176987308827005,0.0,True,0.012788772583007812,-1.7350000143051147,-0.3499997556209564,-0.7177034020423889,0.0,0.0,0.0
1759838347.2821589,1,-1.7350000143051147,-0.3499997556209564,-0.7176989659256421,0.0,True,0.010672330856323242,-1.7350000143051147,-0.3499997556209564,-0.7177034020423889,0.0,0.0,0.0
1759838347.2930994,1,-1.7350000143051147,-0.3499997556209564,-0.7176991630762402,0.0,True,0.0109405517578125,-1.7350000143051147,-0.3499997556209564,-0.7177034020423889,0.0,0.0,0.0
1759838347.3037536,1,-1.7350000143051147,-0.3499997556209564,-0.717699364531974,0.0,True,0.010654211044311523,-1.7350000143051147,-0.3499997556209564,-0.7177034020423889,0.0,0.0,0.0
1759838347.314513,1,-1.7350000143051147,-0.3499997556209564,-0.7176995354442006,0.0,True,0.010759353637695312,-1.7350000143051147,-0.3499997556209564,-0.7177034020423889,0.0,0.0,0.0
1759838347.3259177,1,-1.7350000143051147,-0.3499997556209564,-0.7176996403204292,0.0,True,0.011404752731323242,-1.7350000143051147,-0.3499997556209564,-0.7177034020423889,0.0,0.0,0.0
1759838347.3370266,1,-1.7350000143051147,-0.3499997556209564,-0.7176997713249165,0.0,True,0.011108875274658203,-1.7350000143051147,-0.3499997556209564,-0.7177034020423889,0.0,0.0,0.0
1759838347.347338,1,-1.7350000143051147,-0.3499997556209564,-0.7176999582182333,0.0,True,0.010311365127563477,-1.7350000143051147,-0.3499997556209564,-0.7177034020423889,0.0,0.0,0.0
1759838347.3579626,1,-1.7350000143051147,-0.3499997556209564,-0.7177001011143407,0.0,True,0.01062464714050293,-1.7350000143051147,-0.3499997556209564,-0.7177034020423889,0.0,0.0,0.0
1759838347.3695197,1,-1.7350000143051147,-0.3499997556209564,-0.7177001667144154,0.0,True,0.01155710220336914,-1.7350000143051147,-0.3499997556209564,-0.7177034020423889,0.0,0.0,0.0
1759838347.3800604,1,-1.7350000143051147,-0.3499997556209564,-0.7177003081660374,0.0,True,0.01054072380065918,-1.7350000143051147,-0.3499997556209564,-0.7177034020423889,0.0,0.0,0.0
1759838347.3913922,1,-1.7350000143051147,-0.3499997556209564,-0.7177003904030901,0.0,True,0.011331796646118164,-1.7350000143051147,-0.3499997556209564,-0.7177034020423889,0.0,0.0,0.0
1759838347.4021266,1,-1.7350000143051147,-0.3499997556209564,-0.7177005113609081,0.0,True,0.010734319686889648,-1.7350000143051147,-0.3499997556209564,-0.7177034020423889,0.0,0.0,0.0
1759838347.4122038,1,-1.7350000143051147,-0.3499997556209564,-0.7177006637586878,0.0,True,0.010077238082885742,-1.7350000143051147,-0.3499997556209564,-0.7177034020423889,0.0,0.0,0.0
1759838347.4232252,1,-1.7350000143051147,-0.3499997556209564,-0.717700742394646,0.0,True,0.01102137565612793,-1.7350000143051147,-0.3499997556209564,-0.7177034020423889,0.0,0.0,0.0
1759838347.4340303,1,-1.7350000143051147,-0.3499997556209564,-0.7177008309425279,0.0,True,0.010805130004882812,-1.7350000143051147,-0.3499997556209564,-0.7177034020423889,0.0,0.0,0.0
1759838347.4454052,1,-1.7350000143051147,-0.3499997556209564,-0.7177008878841491,0.0,True,0.011374950408935547,-1.7350000143051147,-0.3499997556209564,-0.7177034020423889,0.0,0.0,0.0
1759838347.4562418,1,-1.7350000143051147,-0.3499997556209564,-0.717700978883931,0.0,True,0.010836601257324219,-1.7350000143051147,-0.3499997556209564,-0.7177034020423889,0.0,0.0,0.0
1759838347.4664063,1,-1.7350000143051147,-0.3499997556209564,-0.7177011004714906,0.0,True,0.010164499282836914,-1.7350000143051147,-0.3499997556209564,-0.7177034020423889,0.0,0.0,0.0
1759838347.4776564,1,-1.7350000143051147,-0.3499997556209564,-0.7177011557778776,0.0,True,0.011250019073486328,-1.7350000143051147,-0.3499997556209564,-0.7177034020423889,0.0,0.0,0.0
1759838347.4880185,1,-1.7350000143051147,-0.3499997556209564,-0.717701253808233,0.0,True,0.01036214828491211,-1.7350000143051147,-0.3499997556209564,-0.7177034020423889,0.0,0.0,0.0
1759838347.4982884,1,-1.7350000143051147,-0.3499997556209564,-0.7177013480610412,0.0,True,0.010269880294799805,-1.7350000143051147,-0.3499997556209564,-0.7177034020423889,0.0,0.0,0.0
1759838347.5086439,1,-1.7350000143051147,-0.3499997556209564,-0.7177014281897804,0.0,True,0.010355472564697266,-1.7350000143051147,-0.3499997556209564,-0.7177034020423889,0.0,0.0,0.0
1759838347.518817,1,-1.7350000143051147,-0.3499997556209564,-0.717701508589645,0.0,True,0.01017308235168457,-1.7350000143051147,-0.3499997556209564,-0.7177034020423889,0.0,0.0,0.0
1759838347.5300267,1,-1.7350000143051147,-0.3499997556209564,-0.7177015395458888,0.0,True,0.011209726333618164,-1.7350000143051147,-0.3499997556209564,-0.7177034020423889,0.0,0.0,0.0
1759838347.5404758,1,-1.7350000143051147,-0.3499997556209564,-0.7177016063894701,0.0,True,0.01044917106628418,-1.7350000143051147,-0.3499997556209564,-0.7177034020423889,0.0,0.0,0.0
1759838347.5515852,1,-1.7350000143051147,-0.3499997556209564,-0.717701646589024,0.0,True,0.011109352111816406,-1.7350000143051147,-0.3499997556209564,-0.7177034020423889,0.0,0.0,0.0
1759838347.5620122,1,-1.7350000143051147,-0.3499997556209564,-0.7177017151749645,0.0,True,0.010426998138427734,-1.7350000143051147,-0.3499997556209564,-0.7177034020423889,0.0,0.0,0.0
1759838347.5731761,1,-1.7350000143051147,-0.3499997556209564,-0.7177017541206894,0.0,True,0.011163949966430664,-1.7350000143051147,-0.3499997556209564,-0.7177034020423889,0.0,0.0,0.0
1759838347.5833807,1,-1.7350000143051147,-0.3499997556209564,-0.717701828455759,0.0,True,0.010204553604125977,-1.7350000143051147,-0.3499997556209564,-0.7177034020423889,0.0,0.0,0.0
1759838347.5945935,1,-1.7350000143051147,-0.3499997556209564,-0.7177018631993626,0.0,True,0.011212825775146484,-1.7350000143051147,-0.3499997556209564,-0.7177034020423889,0.0,0.0,0.0
1759838347.6046758,1,-1.7350000143051147,-0.3499997556209564,-0.7177019363106893,0.0,True,0.010082244873046875,-1.7350000143051147,-0.3499997556209564,-0.7177034020423889,0.0,0.0,0.0
1759838347.6160882,1,-1.7350000143051147,-0.3499997556209564,-0.717701961535866,0.0,True,0.011412382125854492,-1.7350000143051147,-0.3499997556209564,-0.7177034020423889,0.0,0.0,0.0
1759838347.6266456,1,-1.7350000143051147,-0.3499997556209564,-0.7177020163766468,0.0,True,0.010557413101196289,-1.7350000143051147,-0.3499997556209564,-0.7177034020423889,0.0,0.0,0.0
1759838347.6381218,1,-1.7350000143051147,-0.3499997556209564,-0.7177020429510517,0.0,True,0.011476278305053711,-1.7350000143051147,-0.3499997556209564,-0.7177034020423889,0.0,0.0,0.0
1759838347.6492443,1,-1.7350000143051147,-0.3499997556209564,-0.7177020836748067,0.0,True,0.011122465133666992,-1.7350000143051147,-0.3499997556209564,-0.7177034020423889,0.0,0.0,0.0
1759838347.6597345,1,-1.7350000143051147,-0.3499997556209564,-0.7177021426958312,0.0,True,0.010490179061889648,-1.7350000143051147,-0.3499997556209564,-0.7177034020423889,0.0,0.0,0.0
1759838347.670571,1,-1.7350000143051147,-0.3499997556209564,-0.7177021875613949,0.0,True,0.010836601257324219,-1.7350000143051147,-0.3499997556209564,-0.7177034020423889,0.0,0.0,0.0
1759838347.6858397,1,-1.7350000143051147,-0.3499997556209564,-0.7177021214786414,0.0,True,0.015268564224243164,-1.7350000143051147,-0.3499997556209564,-0.7177034020423889,0.0,0.0,0.0
1759838347.6962736,1,-1.7350000143051147,-0.3499997556209564,-0.7177022021585238,0.0,True,0.01043391227722168,-1.7350000143051147,-0.3499997556209564,-0.7177034020423889,0.0,0.0,0.0
1759838347.7076688,1,-1.7350000143051147,-0.3499997556209564,-0.7177022557666355,0.0,True,0.01139521598815918,-1.7350000143051147,-0.3499997556209564,-0.7177034020423889,0.0,0.0,0.0
1759838347.7183528,1,-1.7350000143051147,-0.3499997556209564,-0.7177023187508187,0.0,True,0.010684013366699219,-1.7350000143051147,-0.3499997556209564,-0.7177034020423889,0.0,0.0,0.0
1759838347.7286088,1,-1.7350000143051147,-0.3499997556209564,-0.717702382272428,0.0,True,0.010256052017211914,-1.7350000143051147,-0.3499997556209564,-0.7177034020423889,0.0,0.0,0.0
1759838347.7398815,1,-1.7350000143051147,-0.3499997556209564,-0.7177024148985485,0.0,True,0.011272668838500977,-1.7350000143051147,-0.3499997556209564,-0.7177034020423889,0.0,0.0,0.0
1759838347.751218,1,-1.7350000143051147,-0.3499997556209564,-0.7177024445149449,0.0,True,0.011336565017700195,-1.7350000143051147,-0.3499997556209564,-0.7177034020423889,0.0,0.0,0.0
1759838347.7617204,1,-1.7350000143051147,-0.3499997556209564,-0.7177024904125773,0.0,True,0.010502338409423828,-1.7350000143051147,-0.3499997556209564,-0.7177034020423889,0.0,0.0,0.0
1759838347.7721398,1,-1.7350000143051147,-0.3499997556209564,-0.7177025331377713,0.0,True,0.010419368743896484,-1.7350000143051147,-0.3499997556209564,-0.7177034020423889,0.0,0.0,0.0
1759838347.7837138,1,-1.7350000143051147,-0.3499997556209564,-0.7177025500960461,0.0,True,0.011574029922485352,-1.7350000143051147,-0.3499997556209564,-0.7177034020423889,0.0,0.0,0.0
1759838347.7950363,1,-1.7350000143051147,-0.3499997556209564,-0.7177025735517795,0.0,True,0.011322498321533203,-1.7350000143051147,-0.3499997556209564,-0.7177034020423889,0.0,0.0,0.0
1759838347.8058496,1,-1.7350000143051147,-0.3499997556209564,-0.717702606967002,0.0,True,0.010813236236572266,-1.7350000143051147,-0.3499997556209564,-0.7177034020423889,0.0,0.0,0.0
1759838347.8172228,1,-1.7350000143051147,-0.3499997556209564,-0.7177026294340827,0.0,True,0.011373281478881836,-1.7350000143051147,-0.3499997556209564,-0.7177034020423889,0.0,0.0,0.0
1759838347.8283215,1,-1.7350000143051147,-0.3499997556209564,-0.7177026564891449,0.0,True,0.011098623275756836,-1.7350000143051147,-0.3499997556209564,-0.7177034020423889,0.0,0.0,0.0
1759838347.8397346,1,-1.7350000143051147,-0.3499997556209564,-0.7177026782546108,0.0,True,0.011413097381591797,-1.7350000143051147,-0.3499997556209564,-0.7177034020423889,0.0,0.0,0.0
1759838347.8503487,1,-1.7350000143051147,-0.3499997556209564,-0.717702711856326,0.0,True,0.010614156723022461,-1.7350000143051147,-0.3499997556209564,-0.7177034020423889,0.0,0.0,0.0
1759838347.8606489,1,-1.7350000143051147,-0.3499997556209564,-0.7177027466344743,0.0,True,0.010300159454345703,-1.7350000143051147,-0.3499997556209564,-0.7177034020423889,0.0,0.0,0.0
1759838347.8713665,1,-1.7350000143051147,-0.3499997556209564,-0.717702771156663,0.0,True,0.010717630386352539,-1.7350000143051147,-0.3499997556209564,-0.7177034020423889,0.0,0.0,0.0
1759838347.8841918,1,-1.7350000143051147,-0.3499997556209564,-0.7177027664227129,0.0,True,0.012825250625610352,-1.7350000143051147,-0.3499997556209564,-0.7177034020423889,0.0,0.0,0.0
1759838347.8956769,1,-1.7350000143051147,-0.3499997556209564,-0.7177027856213787,0.0,True,0.011485099792480469,-1.7350000143051147,-0.3499997556209564,-0.7177034020423889,0.0,0.0,0.0
1759838347.9058867,1,-1.7350000143051147,-0.3499997556209564,-0.7177028218613106,0.0,True,0.010209798812866211,-1.7350000143051147,-0.3499997556209564,-0.7177034020423889,0.0,0.0,0.0
1759838347.917183,1,-1.7350000143051147,-0.3499997556209564,-0.7177028406217758,0.0,True,0.011296272277832031,-1.7350000143051147,-0.3499997556209564,-0.7177034020423889,0.0,0.0,0.0
1759838347.9274158,1,-1.7350000143051147,-0.3499997556209564,-0.7177028701522623,0.0,True,0.010232925415039062,-1.7350000143051147,-0.3499997556209564,-0.7177034020423889,0.0,0.0,0.0
1759838347.9381201,1,-1.7350000143051147,-0.3499997556209564,-0.7177028909163603,0.0,True,0.010704278945922852,-1.7350000143051147,-0.3499997556209564,-0.7177034020423889,0.0,0.0,0.0
1759838347.949572,1,-1.7350000143051147,-0.3499997556209564,-0.7177029018332206,0.0,True,0.011451959609985352,-1.7350000143051147,-0.3499997556209564,-0.7177034020423889,0.0,0.0,0.0
1759838347.9598293,1,-1.7350000143051147,-0.3499997556209564,-0.7177029259719063,0.0,True,0.010257244110107422,-1.7350000143051147,-0.3499997556209564,-0.7177034020423889,0.0,0.0,0.0
1759838347.970097,1,-1.7350000143051147,-0.3499997556209564,-0.7177029476315226,0.0,True,0.01026773452758789,-1.7350000143051147,-0.3499997556209564,-0.7177034020423889,0.0,0.0,0.0
1759838347.9814856,1,-1.7350000143051147,-0.3499997556209564,-0.7177029559936408,0.0,True,0.011388540267944336,-1.7350000143051147,-0.3499997556209564,-0.7177034020423889,0.0,0.0,0.0
1759838347.9923072,1,-1.7350000143051147,-0.3499997556209564,-0.7177029707066449,0.0,True,0.01082158088684082,-1.7350000143051147,-0.3499997556209564,-0.7177034020423889,0.0,0.0,0.0
1759838348.0023654,1,-1.7350000143051147,-0.3499997556209564,-0.7177029921141287,0.0,True,0.010058164596557617,-1.7350000143051147,-0.3499997556209564,-0.7177034020423889,0.0,0.0,0.0
1759838348.0129375,1,-1.7350000143051147,-0.3499997556209564,-0.7177030065400452,0.0,True,0.010572195053100586,-1.7350000143051147,-0.3499997556209564,-0.7177034020423889,0.0,0.0,0.0
1759838348.0245605,1,-1.7350000143051147,-0.3499997556209564,-0.7177030111292098,0.0,True,0.011622905731201172,-1.7350000143051147,-0.3499997556209564,-0.7177034020423889,0.0,0.0,0.0
1759838348.035124,1,-1.7350000143051147,-0.3499997556209564,-0.717703026242889,0.0,True,0.01056361198425293,-1.7350000143051147,-0.3499997556209564,-0.7177034020423889,0.0,0.0,0.0
1759838348.0459678,1,-1.7350000143051147,-0.3499997556209564,-0.7177030386549674,0.0,True,0.010843753814697266,-1.7350000143051147,-0.3499997556209564,-0.7177034020423889,0.0,0.0,0.0
1759838348.0568247,1,-1.7350000143051147,-0.3499997556209564,-0.7177030504957251,0.0,True,0.010856866836547852,-1.7350000143051147,-0.3499997556209564,-0.7177034020423889,0.0,0.0,0.0
1759838348.0680761,1,-1.7350000143051147,-0.3499997556209564,-0.7177030592188611,0.0,True,0.011251449584960938,-1.7350000143051147,-0.3499997556209564,-0.7177034020423889,0.0,0.0,0.0
1759838348.0802763,1,-1.7350000143051147,-0.3499997556209564,-0.7177030619999805,0.0,True,0.012200117111206055,-1.7350000143051147,-0.3499997556209564,-0.7177034020423889,0.0,0.0,0.0
1759838348.0910654,1,-1.7350000143051147,-0.3499997556209564,-0.7177030767844599,0.0,True,0.010789155960083008,-1.7350000143051147,-0.3499997556209564,-0.7177034020423889,0.0,0.0,0.0
1759838348.1018531,1,-1.7350000143051147,-0.3499997556209564,-0.7177030908480777,0.0,True,0.010787725448608398,-1.7350000143051147,-0.3499997556209564,-0.7177034020423889,0.0,0.0,0.0
1759838348.1133194,1,-1.7350000143051147,-0.3499997556209564,-0.7177030993395377,0.0,True,0.011466264724731445,-1.7350000143051147,-0.3499997556209564,-0.7177034020423889,0.0,0.0,0.0
1759838348.1240156,1,-1.7350000143051147,-0.3499997556209564,-0.7177031126456299,0.0,True,0.010696172714233398,-1.7350000143051147,-0.3499997556209564,-0.7177034020423889,0.0,0.0,0.0
1759838348.1352696,1,-1.7350000143051147,-0.3499997556209564,-0.7177031216648917,0.0,True,0.011254072189331055,-1.7350000143051147,-0.3499997556209564,-0.7177034020423889,0.0,0.0,0.0
1759838348.1455464,1,-1.7350000143051147,-0.3499997556209564,-0.7177031359547641,0.0,True,0.01027679443359375,-1.7350000143051147,-0.3499997556209564,-0.7177034020423889,0.0,0.0,0.0
1759838348.1568851,1,-1.7350000143051147,-0.3499997556209564,-0.7177031428283716,0.0,True,0.01133871078491211,-1.7350000143051147,-0.3499997556209564,-0.7177034020423889,0.0,0.0,0.0
1759838348.1677103,1,-1.7350000143051147,-0.3499997556209564,-0.7177031524761741,0.0,True,0.010825157165527344,-1.7350000143051147,-0.3499997556209564,-0.7177034020423889,0.0,0.0,0.0
1759838348.1789637,1,-1.7350000143051147,-0.3499997556209564,-0.717703159561971,0.0,True,0.01125335693359375,-1.7350000143051147,-0.3499997556209564,-0.7177034020423889,0.0,0.0,0.0
1759838348.1894882,1,-1.7350000143051147,-0.3499997556209564,-0.717703170306736,0.0,True,0.010524511337280273,-1.7350000143051147,-0.3499997556209564,-0.7177034020423889,0.0,0.0,0.0
1759838348.1994908,1,-1.7350000143051147,-0.3499997556209564,-0.7177031825729063,0.0,True,0.010002613067626953,-1.7350000143051147,-0.3499997556209564,-0.7177034020423889,0.0,0.0,0.0
1759838348.2095606,1,-1.7350000143051147,-0.3499997556209564,-0.7177031927795845,0.0,True,0.010069847106933594,-1.7350000143051147,-0.3499997556209564,-0.7177034020423889,0.0,0.0,0.0
1759838348.2206006,1,-1.7350000143051147,-0.3499997556209564,-0.7177031972772596,0.0,True,0.011039972305297852,-1.7350000143051147,-0.3499997556209564,-0.7177034020423889,0.0,0.0,0.0
1759838348.2311227,1,-1.7350000143051147,-0.3499997556209564,-0.7177032042703164,0.0,True,0.010522127151489258,-1.7350000143051147,-0.3499997556209564,-0.7177034020423889,0.0,0.0,0.0
1759838348.242142,1,-1.7350000143051147,-0.3499997556209564,-0.7177032090244388,0.0,True,0.011019229888916016,-1.7350000143051147,-0.3499997556209564,-0.7177034020423889,0.0,0.0,0.0
1759838348.252891,1,-1.7350000143051147,-0.3499997556209564,-0.7177032151514027,0.0,True,0.010749101638793945,-1.7350000143051147,-0.3499997556209564,-0.7177034020423889,0.0,0.0,0.0
1759838348.263801,1,-1.7350000143051147,-0.3499997556209564,-0.7177032206283229,0.0,True,0.0109100341796875,-1.7350000143051147,-0.3499997556209564,-0.7177034020423889,0.0,0.0,0.0
1759838348.2747283,1,-1.7350000143051147,-0.3499997556209564,-0.7177032260789211,0.0,True,0.010927200317382812,-1.7350000143051147,-0.3499997556209564,-0.7177034020423889,0.0,0.0,0.0
1759838348.2849615,1,-1.7350000143051147,-0.3499997556209564,-0.717703234065187,0.0,True,0.010233163833618164,-1.7350000143051147,-0.3499997556209564,-0.7177034020423889,0.0,0.0,0.0
1759838348.2953267,1,-1.7350000143051147,-0.3499997556209564,-0.7177032407953519,0.0,True,0.01036524772644043,-1.7350000143051147,-0.3499997556209564,-0.7177034020423889,0.0,0.0,0.0
1759838348.3061602,1,-1.7350000143051147,-0.3499997556209564,-0.7177032452733378,0.0,True,0.010833501815795898,-1.7350000143051147,-0.3499997556209564,-0.7177034020423889,0.0,0.0,0.0
1759838348.317575,1,-1.7350000143051147,-0.3499997556209564,-0.7177032478543452,0.0,True,0.011414766311645508,-1.7350000143051147,-0.3499997556209564,-0.7177034020423889,0.0,0.0,0.0
1759838348.3283062,1,-1.7350000143051147,-0.3499997556209564,-0.7177032532643501,0.0,True,0.010731220245361328,-1.7350000143051147,-0.3499997556209564,-0.7177034020423889,0.0,0.0,0.0
1759838348.3388648,1,-1.7350000143051147,-0.3499997556209564,-0.7177032591180676,0.0,True,0.010558605194091797,-1.7350000143051147,-0.3499997556209564,-0.7177034020423889,0.0,0.0,0.0
1759838348.3503816,1,-1.7350000143051147,-0.3499997556209564,-0.7177032617231465,0.0,True,0.011516809463500977,-1.7350000143051147,-0.3499997556209564,-0.7177034020423889,0.0,0.0,0.0
1759838348.3618379,1,-1.7350000143051147,-0.3499997556209564,-0.7177032649796047,0.0,True,0.01145625114440918,-1.7350000143051147,-0.3499997556209564,-0.7177034020423889,0.0,0.0,0.0
1759838348.372128,1,-1.7350000143051147,-0.3499997556209564,-0.7177032718764131,0.0,True,0.010290145874023438,-1.7350000143051147,-0.3499997556209564,-0.7177034020423889,0.0,0.0,0.0
1759838348.3832245,1,-1.7350000143051147,-0.3499997556209564,-0.7177032759193231,0.0,True,0.011096477508544922,-1.7350000143051147,-0.3499997556209564,-0.7177034020423889,0.0,0.0,0.0
1759838348.393657,1,-1.7350000143051147,-0.3499997556209564,-0.7177032815071733,0.0,True,0.01043248176574707,-1.7350000143051147,-0.3499997556209564,-0.7177034020423889,0.0,0.0,0.0
1759838348.4049034,1,-1.7350000143051147,-0.3499997556209564,-0.7177032845733482,0.0,True,0.011246442794799805,-1.7350000143051147,-0.3499997556209564,-0.7177034020423889,0.0,0.0,0.0
1759838348.415497,1,-1.7350000143051147,-0.3499997556209564,-0.7177032892935564,0.0,True,0.010593652725219727,-1.7350000143051147,-0.3499997556209564,-0.7177034020423889,0.0,0.0,0.0
1759838348.4261386,1,-1.7350000143051147,-0.3499997556209564,-0.7177032936076113,0.0,True,0.01064157485961914,-1.7350000143051147,-0.3499997556209564,-0.7177034020423889,0.0,0.0,0.0
1759838348.436703,1,-1.7350000143051147,-0.3499997556209564,-0.7177032977694751,0.0,True,0.010564327239990234,-1.7350000143051147,-0.3499997556209564,-0.7177034020423889,0.0,0.0,0.0
1759838348.447777,1,-1.7350000143051147,-0.3499997556209564,-0.7177033005220022,0.0,True,0.011074066162109375,-1.7350000143051147,-0.3499997556209564,-0.7177034020423889,0.0,0.0,0.0
1759838348.458119,1,-1.7350000143051147,-0.3499997556209564,-0.7177033048743571,0.0,True,0.010341882705688477,-1.7350000143051147,-0.3499997556209564,-0.7177034020423889,0.0,0.0,0.0
1759838348.4682903,1,-1.7350000143051147,-0.3499997556209564,-0.7177033092120446,0.0,True,0.01017141342163086,-1.7350000143051147,-0.3499997556209564,-0.7177034020423889,0.0,0.0,0.0
1759838348.4788125,1,-1.7350000143051147,-0.3499997556209564,-0.7177033123618557,0.0,True,0.010522127151489258,-1.7350000143051147,-0.3499997556209564,-0.7177034020423889,0.0,0.0,0.0
1759838348.4901505,1,-1.7350000143051147,-0.3499997556209564,-0.7177033137674353,0.0,True,0.011337995529174805,-1.7350000143051147,-0.3499997556209564,-0.7177034020423889,0.0,0.0,0.0
1759838348.5006332,1,-1.7350000143051147,-0.3499997556209564,-0.7177033170931537,0.0,True,0.0104827880859375,-1.7350000143051147,-0.3499997556209564,-0.7177034020423889,0.0,0.0,0.0
1759838348.511461,1,-1.7350000143051147,-0.3499997556209564,-0.717703319686148,0.0,True,0.010827779769897461,-1.7350000143051147,-0.3499997556209564,-0.7177034020423889,0.0,0.0,0.0
1759838348.5225859,1,-1.7350000143051147,-0.3499997556209564,-0.717703321729589,0.0,True,0.011124849319458008,-1.7350000143051147,-0.3499997556209564,-0.7177034020423889,0.0,0.0,0.0
1759838348.532959,1,-1.7350000143051147,-0.3499997556209564,-0.7177033251489124,0.0,True,0.010373115539550781,-1.7350000143051147,-0.3499997556209564,-0.7177034020423889,0.0,0.0,0.0
1759838348.5442395,1,-1.7350000143051147,-0.3499997556209564,-0.7177033268614199,0.0,True,0.011280536651611328,-1.7350000143051147,-0.3499997556209564,-0.7177034020423889,0.0,0.0,0.0
1759838348.5546188,1,-1.7350000143051147,-0.3499997556209564,-0.7177033300946576,0.0,True,0.010379314422607422,-1.7350000143051147,-0.3499997556209564,-0.7177034020423889,0.0,0.0,0.0
1759838348.5660393,1,-1.7350000143051147,-0.3499997556209564,-0.717703331540406,0.0,True,0.011420488357543945,-1.7350000143051147,-0.3499997556209564,-0.7177034020423889,0.0,0.0,0.0
1759838348.5770717,1,-1.7350000143051147,-0.3499997556209564,-0.7177033337225911,0.0,True,0.011032342910766602,-1.7350000143051147,-0.3499997556209564,-0.7177034020423889,0.0,0.0,0.0
1759838348.5875669,1,-1.7350000143051147,-0.3499997556209564,-0.7177033366937025,0.0,True,0.010495185852050781,-1.7350000143051147,-0.3499997556209564,-0.7177034020423889,0.0,0.0,0.0
1759838348.5989037,1,-1.7350000143051147,-0.3499997556209564,-0.7177033382858582,0.0,True,0.011336803436279297,-1.7350000143051147,-0.3499997556209564,-0.7177034020423889,0.0,0.0,0.0
1759838348.6102355,1,-1.7350000143051147,-0.3499997556209564,-0.7177033399710986,0.0,True,0.011331796646118164,-1.7350000143051147,-0.3499997556209564,-0.7177034020423889,0.0,0.0,0.0
1759838348.6215703,1,-1.7350000143051147,-0.3499997556209564,-0.7177033417777245,0.0,True,0.011334896087646484,-1.7350000143051147,-0.3499997556209564,-0.7177034020423889,0.0,0.0,0.0
1759838348.632144,1,-1.7350000143051147,-0.3499997556209564,-0.717703344563251,0.0,True,0.010573625564575195,-1.7350000143051147,-0.3499997556209564,-0.7177034020423889,0.0,0.0,0.0
1759838348.6432054,1,-1.7350000143051147,-0.3499997556209564,-0.7177033465280935,0.0,True,0.011061429977416992,-1.7350000143051147,-0.3499997556209564,-0.7177034020423889,0.0,0.0,0.0
1759838348.6545603,1,-1.7350000143051147,-0.3499997556209564,-0.7177033480689126,0.0,True,0.011354923248291016,-1.7350000143051147,-0.3499997556209564,-0.7177034020423889,0.0,0.0,0.0
1759838348.6645637,1,-1.7350000143051147,-0.3499997556209564,-0.717703351117402,0.0,True,0.010003328323364258,-1.7350000143051147,-0.3499997556209564,-0.7177034020423889,0.0,0.0,0.0
1759838348.6749227,1,-1.7350000143051147,-0.3499997556209564,-0.7177033533942971,0.0,True,0.010359048843383789,-1.7350000143051147,-0.3499997556209564,-0.7177034020423889,0.0,0.0,0.0
1759838348.691547,1,-1.7350000143051147,-0.3499997556209564,-0.7177033491503231,0.0,True,0.01662421226501465,-1.7350000143051147,-0.3499997556209564,-0.7177034020423889,0.0,0.0,0.0
1759838348.7028408,1,-1.7350000143051147,-0.3499997556209564,-0.7177033518035483,0.0,True,0.011293888092041016,-1.7350000143051147,-0.3499997556209564,-0.7177034020423889,0.0,0.0,0.0
1759838348.7142015,1,-1.7350000143051147,-0.3499997556209564,-0.7177033544804612,0.0,True,0.011360645294189453,-1.7350000143051147,-0.3499997556209564,-0.7177034020423889,0.0,0.0,0.0
1759838348.7255476,1,-1.7350000143051147,-0.3499997556209564,-0.7177033568386815,0.0,True,0.011346101760864258,-1.7350000143051147,-0.3499997556209564,-0.7177034020423889,0.0,0.0,0.0
1759838348.7360127,1,-1.7350000143051147,-0.3499997556209564,-0.7177033596611171,0.0,True,0.010465145111083984,-1.7350000143051147,-0.3499997556209564,-0.7177034020423889,0.0,0.0,0.0
1759838348.7464073,1,-1.7350000143051147,-0.3499997556209564,-0.7177033620927737,0.0,True,0.010394573211669922,-1.7350000143051147,-0.3499997556209564,-0.7177034020423889,0.0,0.0,0.0
1759838348.7577467,1,-1.7350000143051147,-0.3499997556209564,-0.717703363373495,0.0,True,0.011339426040649414,-1.7350000143051147,-0.3499997556209564,-0.7177034020423889,0.0,0.0,0.0
1759838348.7690008,1,-1.7350000143051147,-0.3499997556209564,-0.7177033646522784,0.0,True,0.011254072189331055,-1.7350000143051147,-0.3499997556209564,-0.7177034020423889,0.0,0.0,0.0
1759838348.7802,1,-1.7350000143051147,-0.3499997556209564,-0.7177033659535557,0.0,True,0.011199235916137695,-1.7350000143051147,-0.3499997556209564,-0.7177034020423889,0.0,0.0,0.0
1759838348.7916522,1,-1.7350000143051147,-0.3499997556209564,-0.7177033670370463,0.0,True,0.011452198028564453,-1.7350000143051147,-0.3499997556209564,-0.7177034020423889,0.0,0.0,0.0
1759838348.8020725,1,-1.7350000143051147,-0.3499997556209564,-0.7177033688413168,0.0,True,0.01042032241821289,-1.7350000143051147,-0.3499997556209564,-0.7177034020423889,0.0,0.0,0.0
1759838348.8128927,1,-1.7350000143051147,-0.3499997556209564,-0.717703370170721,0.0,True,0.010820150375366211,-1.7350000143051147,-0.3499997556209564,-0.7177034020423889,0.0,0.0,0.0
1759838348.8230982,1,-1.7350000143051147,-0.3499997556209564,-0.7177033717638324,0.0,True,0.010205507278442383,-1.7350000143051147,-0.3499997556209564,-0.7177034020423889,0.0,0.0,0.0
1759838348.8333604,1,-1.7350000143051147,-0.3499997556209564,-0.717703373117228,0.0,True,0.010262250900268555,-1.7350000143051147,-0.3499997556209564,-0.7177034020423889,0.0,0.0,0.0
1759838348.8445432,1,-1.7350000143051147,-0.3499997556209564,-0.717703373743726,0.0,True,0.011182785034179688,-1.7350000143051147,-0.3499997556209564,-0.7177034020423889,0.0,0.0,0.0
1759838348.8558614,1,-1.7350000143051147,-0.3499997556209564,-0.7177033743356809,0.0,True,0.011318206787109375,-1.7350000143051147,-0.3499997556209564,-0.7177034020423889,0.0,0.0,0.0
1759838348.8671348,1,-1.7350000143051147,-0.3499997556209564,-0.7177033750468738,0.0,True,0.011273384094238281,-1.7350000143051147,-0.3499997556209564,-0.7177034020423889,0.0,0.0,0.0
1759838348.8775835,1,-1.7350000143051147,-0.3499997556209564,-0.7177033762638523,0.0,True,0.010448694229125977,-1.7350000143051147,-0.3499997556209564,-0.7177034020423889,0.0,0.0,0.0
1759838348.8895824,1,-1.7350000143051147,-0.3499997556209564,-0.7177033765609053,0.0,True,0.011998891830444336,-1.7350000143051147,-0.3499997556209564,-0.7177034020423889,0.0,0.0,0.0
1759838348.9007745,1,-1.7350000143051147,-0.3499997556209564,-0.717703377398081,0.0,True,0.011192083358764648,-1.7350000143051147,-0.3499997556209564,-0.7177034020423889,0.0,0.0,0.0
1759838348.9122272,1,-1.7350000143051147,-0.3499997556209564,-0.7177033781288582,0.0,True,0.011452674865722656,-1.7350000143051147,-0.3499997556209564,-0.7177034020423889,0.0,0.0,0.0
1759838348.9222631,1,-1.7350000143051147,-0.3499997556209564,-0.7177033795396071,0.0,True,0.010035991668701172,-1.7350000143051147,-0.3499997556209564,-0.7177034020423889,0.0,0.0,0.0
1759838348.9337358,1,-1.7350000143051147,-0.3499997556209564,-0.7177033801008559,0.0,True,0.011472702026367188,-1.7350000143051147,-0.3499997556209564,-0.7177034020423889,0.0,0.0,0.0
1759838348.943959,1,-1.7350000143051147,-0.3499997556209564,-0.7177033812143634,0.0,True,0.010223150253295898,-1.7350000143051147,-0.3499997556209564,-0.7177034020423889,0.0,0.0,0.0
1759838348.9542873,1,-1.7350000143051147,-0.3499997556209564,-0.7177033821592662,0.0,True,0.010328292846679688,-1.7350000143051147,-0.3499997556209564,-0.7177034020423889,0.0,0.0,0.0
1759838348.964634,1,-1.7350000143051147,-0.3499997556209564,-0.7177033829766266,0.0,True,0.010346651077270508,-1.7350000143051147,-0.3499997556209564,-0.7177034020423889,0.0,0.0,0.0
1759838348.978103,1,-1.7350000143051147,-0.3499997556209564,-0.7177033824694448,0.0,True,0.01346898078918457,-1.7350000143051147,-0.3499997556209564,-0.7177034020423889,0.0,0.12114460670943927,0.0
1759838348.989361,1,-1.7350000143051147,-0.3499997556209564,-0.717703383130992,0.0,True,0.011258125305175781,-1.7350000143051147,-0.3499997556209564,-0.7177034020423889,0.0,0.12114460670943927,0.0
1759838349.000208,1,-1.7350000143051147,-0.3499997556209564,-0.7177033839973035,0.0,True,0.010846853256225586,-1.7350000143051147,-0.3499997556209564,-0.7177034020423889,0.0,0.12114460670943927,0.0
1759838349.0107179,1,-1.7350000143051147,-0.3499997556209564,-0.7177033849028689,0.0,True,0.010509967803955078,-1.7350000143051147,-0.3499997556209564,-0.7177034020423889,0.0,0.12114460670943927,0.0
1759838349.020973,1,-1.7350000143051147,-0.3499997556209564,-0.7177033857793376,0.0,True,0.010255098342895508,-1.7350000143051147,-0.3499997556209564,-0.7177034020423889,0.0,0.12114460670943927,0.0
1759838349.0315113,1,-1.7350000143051147,-0.3499997556209564,-0.7177033864371474,0.0,True,0.010538339614868164,-1.7350000143051147,-0.3499997556209564,-0.7177034020423889,0.0,0.12114460670943927,0.0
1759838349.041911,1,-1.7350000143051147,-0.3499997556209564,-0.7177033870694647,0.0,True,0.010399580001831055,-1.7350000143051147,-0.3499997556209564,-0.7177034020423889,0.0,0.12114460670943927,0.0
1759838349.0527518,1,-1.7350000143051147,-0.3499997556209564,-0.7177033875043968,0.0,True,0.010840892791748047,-1.7350000143051147,-0.3499997556209564,-0.7177034020423889,0.0,0.12114460670943927,0.0
1759838349.062853,1,-1.7350000143051147,-0.3499997556209564,-0.7177033881561208,0.0,True,0.010101318359375,-1.7350000143051147,-0.3499997556209564,-0.7177034020423889,0.0,0.12114460670943927,0.0
1759838349.0741637,1,-1.7350000143051147,-0.3499997556209564,-0.7177033883885038,0.0,True,0.011310577392578125,-1.7350000143051147,-0.3499997556209564,-0.7177034020423889,0.0,0.12114460670943927,0.0
1759838349.08417,1,-1.7350000143051147,-0.3499997556209564,-0.7177033890304685,0.0,True,0.010006427764892578,-1.7350000143051147,-0.3499997556209564,-0.7177034020423889,0.0,0.12114460670943927,0.0
1759838349.099627,1,-1.7350000143051147,-0.3499997556209564,-0.7177033881361154,0.0,True,0.015456914901733398,-1.7350000143051147,-0.3499997556209564,-0.7177034020423889,0.0,0.12114460670943927,0.0
1759838349.1099617,1,-1.7350000143051147,-0.3499997556209564,-0.7177033889676245,0.0,True,0.01033473014831543,-1.7350000143051147,-0.3499997556209564,-0.7177034020423889,0.0,0.12114460670943927,0.0
1759838349.1208415,1,-1.7350000143051147,-0.3499997556209564,-0.7177033896238676,0.0,True,0.010879755020141602,-1.7350000143051147,-0.3499997556209564,-0.7177034020423889,0.0,0.12114460670943927,0.0
1759838349.1320999,1,-1.7350000143051147,-0.3499997556209564,-0.717703390098329,0.0,True,0.011258363723754883,-1.7350000143051147,-0.3499997556209564,-0.7177034020423889,0.0,0.12114460670943927,0.0
1759838349.142266,1,-1.7350000143051147,-0.3499997556209564,-0.7177033907921597,0.0,True,0.010166168212890625,-1.7350000143051147,-0.3499997556209564,-0.7177034020423889,0.0,0.12114460670943927,0.0
1759838349.1534238,1,-1.7350000143051147,-0.3499997556209564,-0.717703391162118,0.0,True,0.011157751083374023,-1.7350000143051147,-0.3499997556209564,-0.7177034020423889,0.0,0.12114460670943927,0.0
1759838349.164092,1,-1.7350000143051147,-0.3499997556209564,-0.7177033916148972,0.0,True,0.010668277740478516,-1.7350000143051147,-0.3499997556209564,-0.7177034020423889,0.0,0.12114460670943927,0.0
1759838349.1744525,1,-1.7350000143051147,-0.3499997556209564,-0.7177033920964533,0.0,True,0.010360479354858398,-1.7350000143051147,-0.3499997556209564,-0.7177034020423889,0.0,0.12114460670943927,0.0
1759838349.1853404,1,-1.7350000143051147,-0.3499997556209564,-0.7177033924144283,0.0,True,0.010887861251831055,-1.7350000143051147,-0.3499997556209564,-0.7177034020423889,0.0,0.12114460670943927,0.0
1759838349.1966794,1,-1.7350000143051147,-0.3499997556209564,-0.7177033926289909,0.0,True,0.011338949203491211,-1.7350000143051147,-0.3499997556209564,-0.7177034020423889,0.0,0.12114460670943927,0.0
1759838349.2080204,1,-1.7350000143051147,-0.3499997556209564,-0.7177033928665644,0.0,True,0.011341094970703125,-1.7350000143051147,-0.3499997556209564,-0.7177034020423889,0.0,0.12114460670943927,0.0
1759838349.2193072,1,-1.7350000143051147,-0.3499997556209564,-0.7177033931356256,0.0,True,0.011286735534667969,-1.7350000143051147,-0.3499997556209564,-0.7177034020423889,0.0,0.12114460670943927,0.0
1759838349.2297783,1,-1.7350000143051147,-0.3499997556209564,-0.7177033935581001,0.0,True,0.010471105575561523,-1.7350000143051147,-0.3499997556209564,-0.7177034020423889,0.0,0.12114460670943927,0.0
1759838349.2409058,1,-1.7350000143051147,-0.3499997556209564,-0.7177033938256088,0.0,True,0.011127471923828125,-1.7350000143051147,-0.3499997556209564,-0.7177034020423889,0.0,0.12114460670943927,0.0
1759838349.2522175,1,-1.7350000143051147,-0.3499997556209564,-0.7177033940532951,0.0,True,0.011311769485473633,-1.7350000143051147,-0.3499997556209564,-0.7177034020423889,0.0,0.12114460670943927,0.0
1759838349.2629774,1,-1.7350000143051147,-0.3499997556209564,-0.7177033943775353,0.0,True,0.010759830474853516,-1.7350000143051147,-0.3499997556209564,-0.7177034020423889,0.0,0.12114460670943927,0.0
1759838349.2737277,1,-1.7350000143051147,-0.3499997556209564,-0.7177033946822071,0.0,True,0.010750293731689453,-1.7350000143051147,-0.3499997556209564,-0.7177034020423889,0.0,0.12114460670943927,0.0
1759838349.2845912,1,-1.7350000143051147,-0.3499997556209564,-0.7177033949453531,0.0,True,0.010863542556762695,-1.7350000143051147,-0.3499997556209564,-0.7177034020423889,0.0,0.12114460670943927,0.0
1759838349.2978923,1,-1.7350000143051147,-0.3499997556209564,-0.7177033948453566,0.0,True,0.01330113410949707,-1.7350000143051147,-0.3499997556209564,-0.7177034020423889,0.0,0.12114460670943927,0.0
1759838349.3082294,1,-1.7350000143051147,-0.3499997556209564,-0.7177033952525527,0.0,True,0.010337114334106445,-1.7350000143051147,-0.3499997556209564,-0.7177034020423889,0.0,0.12114460670943927,0.0
1759838349.318888,1,-1.7350000143051147,-0.3499997556209564,-0.717703395582511,0.0,True,0.010658502578735352,-1.7350000143051147,-0.3499997556209564,-0.7177034020423889,0.0,0.12114460670943927,0.0
1759838349.3296616,1,-1.7350000143051147,-0.3499997556209564,-0.7177033958530217,0.0,True,0.010773658752441406,-1.7350000143051147,-0.3499997556209564,-0.7177034020423889,0.0,0.12114460670943927,0.0
1759838349.3409557,1,-1.7350000143051147,-0.3499997556209564,-0.7177033960314851,0.0,True,0.011294126510620117,-1.7350000143051147,-0.3499997556209564,-0.7177034020423889,0.0,0.12114460670943927,0.0
1759838349.3522315,1,-1.7350000143051147,-0.3499997556209564,-0.7177033962127926,0.0,True,0.011275768280029297,-1.7350000143051147,-0.3499997556209564,-0.7177034020423889,0.0,0.12114460670943927,0.0
1759838349.3628974,1,-1.7350000143051147,-0.3499997556209564,-0.7177033964678259,0.0,True,0.0106658935546875,-1.7350000143051147,-0.3499997556209564,-0.7177034020423889,0.0,0.12114460670943927,0.0
1759838349.3737018,1,-1.7350000143051147,-0.3499997556209564,-0.7177033966857618,0.0,True,0.010804414749145508,-1.7350000143051147,-0.3499997556209564,-0.7177034020423889,0.0,0.12114460670943927,0.0
1759838349.3849206,1,-1.7350000143051147,-0.3499997556209564,-0.7177033968410882,0.0,True,0.011218786239624023,-1.7350000143051147,-0.3499997556209564,-0.7177034020423889,0.0,0.12114460670943927,0.0
1759838349.3956673,1,-1.7350000143051147,-0.3499997556209564,-0.7177033970463409,0.0,True,0.01074671745300293,-1.7350000143051147,-0.3499997556209564,-0.7177034020423889,0.0,0.12114460670943927,0.0
1759838349.4070442,1,-1.7350000143051147,-0.3499997556209564,-0.717703397175347,0.0,True,0.01137685775756836,-1.7350000143051147,-0.3499997556209564,-0.7177034020423889,0.0,0.12114460670943927,0.0
1759838349.4177327,1,-1.7350000143051147,-0.3499997556209564,-0.7177033973768054,0.0,True,0.010688543319702148,-1.7350000143051147,-0.3499997556209564,-0.7177034020423889,0.0,0.12114460670943927,0.0
1759838349.4291482,1,-1.7350000143051147,-0.3499997556209564,-0.7177033974962921,0.0,True,0.011415481567382812,-1.7350000143051147,-0.3499997556209564,-0.7177034020423889,0.0,0.12114460670943927,0.0
1759838349.439982,1,-1.7350000143051147,-0.3499997556209564,-0.717703397673592,0.0,True,0.010833740234375,-1.7350000143051147,-0.3499997556209564,-0.7177034020423889,0.0,0.12114460670943927,0.0
1759838349.4499838,1,-1.7350000143051147,-0.3499997556209564,-0.7177033979146383,0.0,True,0.010001897811889648,-1.7350000143051147,-0.3499997556209564,-0.7177034020423889,0.0,0.12114460670943927,0.0
1759838349.4607117,1,-1.7350000143051147,-0.3499997556209564,-0.7177033980596761,0.0,True,0.010727882385253906,-1.7350000143051147,-0.3499997556209564,-0.7177034020423889,0.0,0.12114460670943927,0.0
1759838349.471662,1,-1.7350000143051147,-0.3499997556209564,-0.7177033981739704,0.0,True,0.010950326919555664,-1.7350000143051147,-0.3499997556209564,-0.7177034020423889,0.0,0.12114460670943927,0.0
1759838349.482471,1,-1.7350000143051147,-0.3499997556209564,-0.7177033982999781,0.0,True,0.010808944702148438,-1.7350000143051147,-0.3499997556209564,-0.7177034020423889,0.0,0.12114460670943927,0.0
1759838349.4927046,1,-1.7350000143051147,-0.3499997556209564,-0.7177033984678189,0.0,True,0.010233640670776367,-1.7350000143051147,-0.3499997556209564,-0.7177034020423889,0.0,0.12114460670943927,0.0
1759838349.5056174,1,-1.7350000143051147,-0.3499997556209564,-0.7177033984199674,0.0,True,0.012912750244140625,-1.7350000143051147,-0.3499997556209564,-0.7177034020423889,0.0,0.12114460670943927,0.0
1759838349.5160117,1,-1.7350000143051147,-0.3499997556209564,-0.7177033985971093,0.0,True,0.01039433479309082,-1.7350000143051147,-0.3499997556209564,-0.7177034020423889,0.0,0.12114460670943927,0.0
1759838349.526298,1,-1.7350000143051147,-0.3499997556209564,-0.7177033987716719,0.0,True,0.010286331176757812,-1.7350000143051147,-0.3499997556209564,-0.7177034020423889,0.0,0.12114460670943927,0.0
1759838349.5369225,1,-1.7350000143051147,-0.3499997556209564,-0.7177033988995447,0.0,True,0.010624408721923828,-1.7350000143051147,-0.3499997556209564,-0.7177034020423889,0.0,0.12114460670943927,0.0
1759838349.5472577,1,-1.7350000143051147,-0.3499997556209564,-0.717703399033649,0.0,True,0.010335206985473633,-1.7350000143051147,-0.3499997556209564,-0.7177034020423889,0.0,0.12114460670943927,0.0
1759838349.5574312,1,-1.7350000143051147,-0.3499997556209564,-0.7177033991643391,0.0,True,0.010173559188842773,-1.7350000143051147,-0.3499997556209564,-0.7177034020423889,0.0,0.12114460670943927,0.0
1759838349.568566,1,-1.7350000143051147,-0.3499997556209564,-0.717703399221886,0.0,True,0.011134862899780273,-1.7350000143051147,-0.3499997556209564,-0.7177034020423889,0.0,0.12114460670943927,0.0
1759838349.578676,1,-1.7350000143051147,-0.3499997556209564,-0.7177033993454316,0.0,True,0.010109901428222656,-1.7350000143051147,-0.3499997556209564,-0.7177034020423889,0.0,0.12114460670943927,0.0
1759838349.5895283,1,-1.7350000143051147,-0.3499997556209564,-0.7177033994163882,0.0,True,0.010852336883544922,-1.7350000143051147,-0.3499997556209564,-0.7177034020423889,0.0,0.12114460670943927,0.0
1759838349.6001852,1,-1.7350000143051147,-0.3499997556209564,-0.7177033994983884,0.0,True,0.01065683364868164,-1.7350000143051147,-0.3499997556209564,-0.7177034020423889,0.0,0.12114460670943927,0.0
1759838349.6104298,1,-1.7350000143051147,-0.3499997556209564,-0.7177033996016107,0.0,True,0.010244607925415039,-1.7350000143051147,-0.3499997556209564,-0.7177034020423889,0.0,0.12114460670943927,0.0
1759838349.6214688,1,-1.7350000143051147,-0.3499997556209564,-0.7177033996553597,0.0,True,0.011039018630981445,-1.7350000143051147,-0.3499997556209564,-0.7177034020423889,0.0,0.12114460670943927,0.0
1759838349.6326632,1,-1.7350000143051147,-0.3499997556209564,-0.7177033997054387,0.0,True,0.011194467544555664,-1.7350000143051147,-0.3499997556209564,-0.7177034020423889,0.0,0.12114460670943927,0.0
1759838349.6437898,1,-1.7350000143051147,-0.3499997556209564,-0.7177033997665703,0.0,True,0.011126518249511719,-1.7350000143051147,-0.3499997556209564,-0.7177034020423889,0.0,0.12114460670943927,0.0
1759838349.6549597,1,-1.7350000143051147,-0.3499997556209564,-0.7177033998302651,0.0,True,0.011169910430908203,-1.7350000143051147,-0.3499997556209564,-0.7177034020423889,0.0,0.12114460670943927,0.0
1759838349.6651237,1,-1.7350000143051147,-0.3499997556209564,-0.717703399941616,0.0,True,0.010164022445678711,-1.7350000143051147,-0.3499997556209564,-0.7177034020423889,0.0,0.12114460670943927,0.0
1759838349.6759715,1,-1.7350000143051147,-0.3499997556209564,-0.7177034000107998,0.0,True,0.010847806930541992,-1.7350000143051147,-0.3499997556209564,-0.7177034020423889,0.0,0.12114460670943927,0.0
1759838349.6861389,1,-1.7350000143051147,-0.3499997556209564,-0.7177034001043943,0.0,True,0.010167360305786133,-1.7350000143051147,-0.3499997556209564,-0.7177034020423889,0.0,0.12114460670943927,0.0
1759838349.697315,1,-1.7350000143051147,-0.3499997556209564,-0.7177034001471796,0.0,True,0.011176109313964844,-1.7350000143051147,-0.3499997556209564,-0.7177034020423889,0.0,0.12114460670943927,0.0
1759838349.7109041,1,-1.7350000143051147,-0.3499997556209564,-0.7177034000995661,0.0,True,0.013589143753051758,-1.7350000143051147,-0.3499997556209564,-0.7177034020423889,0.0,0.12114460670943927,0.0
1759838349.7209754,1,-1.7350000143051147,-0.3499997556209564,-0.7177034002174985,0.0,True,0.010071277618408203,-1.7350000143051147,-0.3499997556209564,-0.7177034020423889,0.0,0.12114460670943927,0.0
1759838349.7321227,1,-1.7350000143051147,-0.3499997556209564,-0.7177034002860676,0.0,True,0.011147260665893555,-1.7350000143051147,-0.3499997556209564,-0.7177034020423889,0.0,0.12114460670943927,0.0
1759838349.742376,1,-1.7350000143051147,-0.3499997556209564,-0.7177034003795288,0.0,True,0.010253429412841797,-1.7350000143051147,-0.3499997556209564,-0.7177034020423889,0.0,0.12114460670943927,0.0
1759838349.7536836,1,-1.7350000143051147,-0.3499997556209564,-0.7177034004253393,0.0,True,0.011307477951049805,-1.7350000143051147,-0.3499997556209564,-0.7177034020423889,0.0,0.12114460670943927,0.0
1759838349.7650642,1,-1.7350000143051147,-0.3499997556209564,-0.717703400468487,0.0,True,0.011380672454833984,-1.7350000143051147,-0.3499997556209564,-0.7177034020423889,0.0,0.12114460670943927,0.0
1759838349.7765677,1,-1.7350000143051147,-0.3499997556209564,-0.7177034005106044,0.0,True,0.011503458023071289,-1.7350000143051147,-0.3499997556209564,-0.7177034020423889,0.0,0.12114460670943927,0.0
1759838349.7871745,1,-1.7350000143051147,-0.3499997556209564,-0.7177034005826837,0.0,True,0.010606765747070312,-1.7350000143051147,-0.3499997556209564,-0.7177034020423889,0.0,0.12114460670943927,0.0
1759838349.7981677,1,-1.7350000143051147,-0.3499997556209564,-0.7177034006368501,0.0,True,0.010993242263793945,-1.7350000143051147,-0.3499997556209564,-0.7177034020423889,0.0,0.12114460670943927,0.0
1759838349.809642,1,-1.7350000143051147,-0.3499997556209564,-0.7177034006737024,0.0,True,0.011474370956420898,-1.7350000143051147,-0.3499997556209564,-0.7177034020423889,0.0,0.12114460670943927,0.0
1759838349.820609,1,-1.7350000143051147,-0.3499997556209564,-0.7177034007261653,0.0,True,0.010967016220092773,-1.7350000143051147,-0.3499997556209564,-0.7177034020423889,0.0,0.12114460670943927,0.0
1759838349.8310797,1,-1.7350000143051147,-0.3499997556209564,-0.7177034007892793,0.0,True,0.01047062873840332,-1.7350000143051147,-0.3499997556209564,-0.7177034020423889,0.0,0.12114460670943927,0.0
1759838349.8428373,1,-1.7350000143051147,-0.3499997556209564,-0.7177034008127219,0.0,True,0.011757612228393555,-1.7350000143051147,-0.3499997556209564,-0.7177034020423889,0.0,0.12114460670943927,0.0
1759838349.853654,1,-1.7350000143051147,-0.3499997556209564,-0.7177034008627103,0.0,True,0.010816574096679688,-1.7350000143051147,-0.3499997556209564,-0.7177034020423889,0.0,0.12114460670943927,0.0
1759838349.8645275,1,-1.7350000143051147,-0.3499997556209564,-0.7177034009088619,0.0,True,0.010873556137084961,-1.7350000143051147,-0.3499997556209564,-0.7177034020423889,0.0,0.12114460670943927,0.0
1759838349.8758833,1,-1.7350000143051147,-0.3499997556209564,-0.7177034009406498,0.0,True,0.011355876922607422,-1.7350000143051147,-0.3499997556209564,-0.7177034020423889,0.0,0.12114460670943927,0.0
1759838349.8872907,1,-1.7350000143051147,-0.3499997556209564,-0.7177034009719883,0.0,True,0.01140737533569336,-1.7350000143051147,-0.3499997556209564,-0.7177034020423889,0.0,0.12114460670943927,0.0
1759838349.8985453,1,-1.7350000143051147,-0.3499997556209564,-0.7177034010079026,0.0,True,0.011254549026489258,-1.7350000143051147,-0.3499997556209564,-0.7177034020423889,0.0,0.12114460670943927,0.0
1759838349.911705,1,-1.7350000143051147,-0.3499997556209564,-0.7177034010050551,0.0,True,0.013159751892089844,-1.7350000143051147,-0.3499997556209564,-0.7177034020423889,0.0,0.12114460670943927,0.0
1759838349.9225426,1,-1.7350000143051147,-0.3499997556209564,-0.7177034010588841,0.0,True,0.010837554931640625,-1.7350000143051147,-0.3499997556209564,-0.7177034020423889,0.0,0.12114460670943927,0.0
1759838349.9327197,1,-1.7350000143051147,-0.3499997556209564,-0.7177034011212768,0.0,True,0.010177135467529297,-1.7350000143051147,-0.3499997556209564,-0.7177034020423889,0.0,0.12114460670943927,0.0
1759838349.9430966,1,-1.7350000143051147,-0.3499997556209564,-0.7177034011696204,0.0,True,0.010376930236816406,-1.7350000143051147,-0.3499997556209564,-0.7177034020423889,0.0,0.12114460670943927,0.0
1759838349.9535778,1,-1.7350000143051147,-0.3499997556209564,-0.7177034012084551,0.0,True,0.010481119155883789,-1.7350000143051147,-0.3499997556209564,-0.7177034020423889,0.0,0.12114460670943927,0.0
1759838349.9638345,1,-1.7350000143051147,-0.3499997556209564,-0.7177034012463324,0.0,True,0.010256767272949219,-1.7350000143051147,-0.3499997556209564,-0.7177034020423889,0.0,0.12114460670943927,0.0
1759838349.9753401,1,-1.7350000143051147,-0.3499997556209564,-0.71770340125898,0.0,True,0.011505603790283203,-1.7350000143051147,-0.3499997556209564,-0.7177034020423889,0.0,0.12114460670943927,0.0
1759838349.986417,1,-1.7350000143051147,-0.3499997556209564,-0.7177034012811472,0.0,True,0.011076927185058594,-1.7350000143051147,-0.3499997556209564,-0.7177034020423889,0.0,0.12114460670943927,0.0
1759838350.0002084,1,-1.7350000143051147,-0.3499997556209564,-0.7177034012630887,0.0,True,0.013791322708129883,-1.7350000143051147,-0.3499997556209564,-0.7177034020423889,0.0,0.12114460670943927,0.0
1759838350.0103223,1,-1.7350000143051147,-0.3499997556209564,-0.7177034013124626,0.0,True,0.010113954544067383,-1.7350000143051147,-0.3499997556209564,-0.7177034020423889,0.0,0.12114460670943927,0.0
1759838350.0204484,1,-1.7350000143051147,-0.3499997556209564,-0.7177034013567951,0.0,True,0.010126113891601562,-1.7350000143051147,-0.3499997556209564,-0.7177034020423889,0.0,0.12114460670943927,0.0
