timestamp,observer_vehicle_id,vehicle_0_x,vehicle_0_y,vehicle_0_theta,vehicle_0_velocity,vehicle_1_x,vehicle_1_y,vehicle_1_theta,vehicle_1_velocity
1759827970.528266,0,0.0,6.0,-0.05483113549895436,0.0,0.0,0.0,0.0,0.0
1759827970.539438,0,0.0,6.0,-0.05483113549895436,0.0,0.0,0.0,0.0,0.0
1759827970.5501049,0,0.0,6.0,-0.05483113549895436,0.0,1.4866012573242189,1.114950942993164,-0.5837869479363157,0.0
1759827970.5601184,0,0.0,6.0,-0.05483113549895436,0.0,2.6839101140675488,2.0129325855506615,-1.0539690359519094,0.0
1759827970.571328,0,0.0,6.0,-0.05483113549895436,0.0,3.6492086049460593,2.736906453709544,-1.4330408664519119,0.0
1759827970.5814235,0,0.0,6.0,-0.05483113549895436,0.0,4.430442904479958,3.3228321783599677,-1.7398308581198612,0.0
1759827970.5918622,0,0.0,6.0,-0.05483113549895436,0.0,5.101472020559143,3.8261040154193573,-2.003343375496157,0.0
1759827970.6026044,0,0.0,6.0,-0.05483113549895436,0.0,5.640129308135563,4.230096981101672,-2.214873597436034,0.0
1759827970.6133773,0,0.0,6.0,-0.05483113549895436,0.0,6.073598932125541,4.555199199094156,-2.385096720526681,0.0
1759827970.6238515,0,0.0,6.0,-0.05483113549895436,0.0,6.4234117764912355,4.817558832368427,-2.5224679031185384,0.0
1759827970.63511,0,0.0,6.0,-0.05483113549895436,0.0,6.722845976250767,5.042134482188074,-2.640055438258935,0.0
1759827970.6454248,0,0.0,6.0,-0.05483113549895436,0.0,6.962775252419604,5.222081439314703,-2.7342754445754154,0.0
1759827970.65646,0,0.0,6.0,-0.05483113549895436,0.0,7.1553416310755305,5.366506223306647,-2.8098960845532375,0.0
1759827970.667873,0,0.0,6.0,-0.05483113549895436,0.0,7.320225707837358,5.490168955089876,-1.648119310342265,0.0
1759827970.6786094,0,0.0,6.0,-0.05483113549895436,0.0,7.451463452246814,5.588597004089328,-0.7234153222489765,0.0
1759827970.6893334,0,0.0,6.0,-0.05483113549895436,0.0,7.556187862299849,5.667140104708148,0.014475138018495204,0.0
1759827970.699893,0,0.0,6.0,-0.05483113549895436,0.0,7.639981446309181,5.729985127150608,0.6048865448795571,0.0
1759827970.7111714,0,0.0,6.0,-0.05483113549895436,0.0,7.710989331670938,5.783240900870161,1.1052096422899156,0.0
1759827970.7278836,0,-1.815795857851299e-06,5.999996217091878,-2.8798512453855984,0.0,7.767026084288884,5.825268354612743,1.500045814298047,0.0
1759827970.7389772,0,-1.8259542158023407e-06,5.999996195928632,-3.1212640315400897,0.0,7.811680908092737,5.858759384233875,1.8146846694904621,0.0
1759827970.7490013,0,-1.829141318833373e-06,5.999996189288834,3.1393995835733843,0.0,7.847399093427228,5.885547952660547,2.066355776570834,0.0
1759827970.7594233,0,-1.8303257235446442e-06,5.999996186821324,3.136377062137374,0.0,7.877648447625536,5.908234908540735,2.2794933810785096,0.0
1759827970.7706444,0,-1.830776328493004e-06,5.999996185882564,3.1358571897728673,0.0,7.901627065567652,5.926218824618889,2.4484472421785695,0.0
1759827970.7818973,0,-1.8309483444161885e-06,5.999996185524197,3.136172510027773,0.0,7.920684961185338,5.940512208676386,2.582729587258783,0.0
1759827970.7927856,0,-1.8310140430902439e-06,5.999996185387325,3.1367908734500567,0.0,7.935878061874238,5.951907004173595,2.6897805036071762,0.0
1759827970.803935,0,-1.8310391374407785e-06,5.999996185335045,3.137388071245489,0.0,7.948017914257663,5.961011869474493,2.775318166299646,0.0
1759827970.8143845,0,-1.8310487226124851e-06,5.9999961853150765,3.1379710229807625,0.0,7.958295393681332,5.968719958735367,2.847733508801745,0.0
1759827970.8253078,0,-1.8310523838213264e-06,5.999996185307449,3.138416360175171,0.0,7.966449816725103,5.974835759906183,2.9051897500919766,0.0
1759827970.835697,0,-1.8310537822786103e-06,5.999996185304535,3.1388155499046135,0.0,7.972940144111283,5.979703492621828,2.9509207373551165,0.0
1759827970.8468695,0,-1.831054316441758e-06,5.999996185303422,3.139102564163215,0.0,7.9781144772002195,5.983584232214763,2.9873792003117354,0.0
1759827970.8580058,0,-1.8310545204739246e-06,5.999996185302997,3.1393529571439593,0.0,7.9822506723896804,5.986686370434309,3.016522921155443,0.0
1759827970.868692,0,-1.8310545984072776e-06,5.999996185302835,3.1395867722278243,0.0,7.985774990488211,5.989329602044641,3.0413553427707716,0.0
1759827970.8790474,0,-1.8310546281751695e-06,5.999996185302773,3.1397930417705524,0.0,7.988570091963725,5.991425922628543,3.0610496882745304,0.0
1759827970.8896632,0,-1.8310546395454924e-06,5.999996185302749,3.1399538514100875,0.0,7.99079174539306,5.993092158310864,3.0767035064311212,0.0
1759827970.9000473,0,-1.8310546438885694e-06,5.99999618530274,3.140096777654433,0.0,7.992562481920426,5.994420207207658,3.089180154335164,0.0
1759827970.9104366,0,-1.831054645547477e-06,5.999996185302736,3.140217645393264,0.0,7.9939772870143955,5.995481308232676,3.0991489016544285,0.0
1759827970.925939,0,-1.8310546461811233e-06,5.999996185302735,3.140195153959171,0.0,7.9951663918308205,5.996373134495488,3.1075273599322397,0.0
1759827970.9372597,0,-1.8310546464231547e-06,5.999996185302734,3.140313966051446,0.0,7.996109814819164,5.997080699872672,3.114174738730967,0.0
1759827970.9480455,0,-1.8310546465156024e-06,5.999996185302734,3.1404337925825043,0.0,7.996860743136362,5.99764389462684,3.1194657959097536,0.0
1759827970.9586127,0,-1.8310546465509144e-06,5.999996185302734,3.1405361134584098,0.0,7.997460117514178,5.998093424225921,3.123689000750871,0.0
1759827970.9686735,0,-1.8310546465644023e-06,5.999996185302734,3.1406288777688047,0.0,7.99793997628547,5.9984533173562555,3.1270700960411935,0.0
1759827970.9788835,0,-1.8310546465695544e-06,5.999996185302734,3.140701009582447,0.0,7.998348512098276,5.998759718408649,3.1299486482220473,0.0
1759827970.9891024,0,-1.8310546465715223e-06,5.999996185302734,3.140760489411269,0.0,7.998672688969667,5.999002850421664,3.1322328054755255,0.0
1759827970.9991138,0,-1.8310546465722738e-06,5.999996185302734,3.1408144901631943,0.0,7.998930609082168,5.999196289996425,3.1340501161715637,0.0
1759827971.0105221,0,-1.831054646572561e-06,5.999996185302734,3.140838859838844,0.0,7.999136004550589,5.999350336191907,3.135497337088379,0.0
1759827971.0213542,0,-1.8310546465726707e-06,5.999996185302734,3.140873586860069,0.0,7.999300111492617,5.999473416074175,3.136653638154432,0.0
1759827971.0314536,0,-1.8310546465727126e-06,5.999996185302734,3.140917803063731,0.0,7.999439622849309,5.99957804931604,3.137636638193774,0.0
1759827971.0421083,0,-1.8310546465727285e-06,5.999996185302734,3.140948999184115,0.0,7.999550166573594,5.9996609568908355,3.1384155316681,0.0
1759827971.0521615,0,-1.8310546465727346e-06,5.999996185302734,3.1409854723409616,0.0,7.999638034389093,5.999726857578845,3.1390346501982376,0.0
1759827971.0629613,0,-1.831054646572737e-06,5.999996185302734,3.1410083700860145,0.0,7.999707991035936,5.999779324925753,3.1395275662462883,0.0
1759827971.073325,0,-1.8310546465727378e-06,5.999996185302734,3.1410357105116375,0.0,7.999763855548527,5.999821223199816,3.1399211888113396,0.0
1759827971.0843277,0,-1.8310546465727382e-06,5.999996185302734,3.141053841528924,0.0,7.999808545611178,5.9998547406585025,3.140236075960211,0.0
1759827971.09552,0,-1.8310546465727384e-06,5.999996185302734,3.1410703678184557,0.0,7.999846471491975,5.9998831849941645,3.1405033025373115,0.0
1759827971.1067123,0,-1.8310546465727384e-06,5.999996185302734,3.141088148203359,0.0,7.9998765759350015,5.999905763266951,3.140715419094561,0.0
1759827971.1170306,0,-1.8310546465727384e-06,5.999996185302734,3.1411153197792405,0.0,7.9999005571548985,5.99992374913449,3.1408843912890925,0.0
1759827971.131271,0,-1.8310546465727384e-06,5.999996185302734,3.1411026197627194,0.0,7.999919628631211,5.999938052704042,3.1410187693240434,0.0
1759827971.1425147,0,-1.8310546465727384e-06,5.999996185302734,3.1411269498988474,0.0,7.9999357452527455,5.999950140138347,3.141132327388255,0.0
1759827971.1539736,0,-1.8310546465727384e-06,5.999996185302734,3.1411494083684914,0.0,7.999948518513626,5.9999597200587695,3.1412223280609304,0.0
1759827971.1649115,0,-1.8310546465727384e-06,5.999996185302734,3.141174357427694,0.0,7.999958674995667,5.999967337400233,3.141293890853252,0.0
1759827971.1762443,0,-1.8310546465727384e-06,5.999996185302734,3.1411932159218985,0.0,7.999966768380796,5.999973407423089,3.141350917020078,0.0
1759827971.1868403,0,-1.8310546465727384e-06,5.999996185302734,3.1412160582622572,0.0,7.9999732400077574,5.999978261130522,3.141396516243744,0.0
1759827971.1970854,0,-1.8310546465727384e-06,5.999996185302734,3.1412385228333353,0.0,7.999978749755343,5.999982393430325,3.141435338044501,0.0
1759827971.2077487,0,-1.8310546465727384e-06,5.999996185302734,3.1412545685746203,0.0,7.999983116758014,5.9999856686737,3.141466108039862,0.0
1759827971.2195163,0,-1.8310546465727384e-06,5.999996185302734,3.1412613148374824,0.0,7.999986582891578,5.999988268267025,3.14149053049199,0.0
1759827971.2305727,0,-1.8310546465727384e-06,5.999996185302734,3.1412739581214826,0.0,7.999989343695743,5.999990338864693,3.1415099831778988,0.0
1759827971.24147,0,-1.8310546465727384e-06,5.999996185302734,3.1412874349486053,0.0,7.99999154881175,5.999991992697342,3.1415255204730235,0.0
1759827971.2515833,0,-1.8310546465727384e-06,5.999996185302734,3.1413047124115696,0.0,7.99999341989216,5.999993396003951,3.141538704146091,0.0
1759827971.2630196,0,-1.8310546465727384e-06,5.999996185302734,3.1413118916277973,0.0,7.9999949014929,5.999994507201579,3.1415491435369747,0.0
1759827971.274134,0,-1.8310546465727384e-06,5.999996185302734,3.1413211730771984,0.0,7.99999607826741,5.999995389780136,3.14155743511565,0.0
1759827971.2842982,0,-1.8310546465727384e-06,5.999996185302734,3.141335694540686,0.0,7.999997016321167,5.999996093318601,3.14156404466273,0.0
1759827971.294981,0,-1.8310546465727384e-06,5.999996185302734,3.141345741129193,0.0,7.999997765476073,5.999996655183301,3.141569323224416,0.0
1759827971.3063035,0,-1.8310546465727384e-06,5.999996185302734,3.1413516730152278,0.0,7.999998398887903,5.999997130240922,3.1415737862578794,0.0
1759827971.3166866,0,-1.8310546465727384e-06,5.999996185302734,3.141362656121961,0.0,7.999998901151989,5.999997506937993,3.1415773252214994,0.0
1759827971.3295906,0,-1.8310546465727384e-06,5.999996185302734,3.1413609949917536,0.0,7.9999992993751965,5.999997805604612,3.141580131110837,0.0
1759827971.3371396,0,-1.8310546465727384e-06,5.999996185302734,3.1413860841728667,0.0,7.999999617838853,5.999998044451725,3.1415823750126513,0.0
1759827971.348565,0,-1.8310546465727384e-06,5.999996185302734,3.1413893633836665,0.0,7.999999871943606,5.999998235029788,3.141584165440248,0.0
1759827971.3597682,0,-1.8310546465727384e-06,5.999996185302734,3.141393474518285,0.0,8.000000086972578,5.999998396301091,3.1415856805390354,0.0
1759827971.370419,0,-1.8310546465727384e-06,5.999996185302734,3.1414006590068446,0.0,8.00000025741136,5.999998524129841,3.1415868814543786,0.0
1759827971.381878,0,-1.8310546465727384e-06,5.999996185302734,3.141404500622741,0.0,8.000000392737306,5.999998625624033,3.1415878349639277,0.0
1759827971.3930786,0,-1.8310546465727384e-06,5.999996185302734,3.141409943524174,0.0,8.000000500504672,5.999998706449346,3.141588594295135,0.0
1759827971.4044032,0,-1.8310546465727384e-06,5.999996185302734,3.1414152396060118,0.0,8.000000586541347,5.999998770976683,3.1415892005114134,0.0
1759827971.4144096,0,-1.8310546465727384e-06,5.999996185302734,3.1414253686366855,0.0,8.000000659456758,5.999998825663097,3.1415897142749762,0.0
1759827971.4251146,0,-1.8310546465727384e-06,5.999996185302734,3.141431783802595,0.0,8.000000717260692,5.999998869015934,3.1415901215627464,0.0
1759827971.4361966,0,-1.8310546465727384e-06,5.999996185302734,3.1414363352141663,0.0,8.000000763184097,5.999998903458397,3.1415904451400554,0.0
1759827971.4471838,0,-1.8310546465727384e-06,5.999996185302734,3.1414412520198898,0.0,8.000000799768276,5.999998930896458,3.1415907029129695,0.0
1759827971.4572937,0,-1.8310546465727384e-06,5.999996185302734,3.1414488604586897,0.0,8.000000829015168,5.999998952831567,3.1415909089871885,0.0
1759827971.4687989,0,-1.8310546465727384e-06,5.999996185302734,3.141451457074398,0.0,8.000000852417402,5.999998970383198,3.141591073879848,0.0
1759827971.4793653,0,-1.8310546465727384e-06,5.999996185302734,3.141457119169827,0.0,8.0000008724655,5.999998985419231,3.141591215139171,0.0
1759827971.490489,0,-1.8310546465727384e-06,5.999996185302734,3.1414609639200552,0.0,8.000000888363559,5.999998997342744,3.1415913271572364,0.0
1759827971.5014343,0,-1.8310546465727384e-06,5.999996185302734,3.1414653194449933,0.0,8.000000901006322,5.999999006824792,3.1415914162384238,0.0
1759827971.5117574,0,-1.8310546465727384e-06,5.999996185302734,3.1414712108969205,0.0,8.000000911092979,5.999999014389765,3.1415914873092254,0.0
1759827971.5228772,0,-1.8310546465727384e-06,5.999996185302734,3.1414745189334425,0.0,8.0000009191532,5.999999020434915,3.1415915441017206,0.0
1759827971.5344303,0,-1.8310546465727384e-06,5.999996185302734,3.141476813669602,0.0,8.00000092598466,5.999999025558496,3.1415915922363316,0.0
1759827971.5456555,0,-1.8310546465727384e-06,5.999996185302734,3.141480316469746,0.0,8.000000931402061,5.999999029621537,3.1415916304074663,0.0
1759827971.556054,0,-1.8310546465727384e-06,5.999996185302734,3.141485781002995,0.0,8.000000935713246,5.999999032854916,3.1415916607841545,0.0
1759827971.5672197,0,-1.8310546465727384e-06,5.999996185302734,3.141489020737266,0.0,8.000000939149814,5.999999035432336,3.141591684998294,0.0
1759827971.577348,0,-1.8310546465727384e-06,5.999996185302734,3.1414943234158557,0.0,8.000000941899428,5.999999037494541,3.1415917043721335,0.0
1759827971.588286,0,-1.8310546465727384e-06,5.999996185302734,3.141497367666437,0.0,8.000000944228647,5.99999903924145,3.141591720783863,0.0
1759827971.5993562,0,-1.8310546465727384e-06,5.999996185302734,3.1415000185693405,0.0,8.000000946076204,5.999999040627115,3.141591733801793,0.0
1759827971.6102407,0,-1.8310546465727384e-06,5.999996185302734,3.141503092323404,0.0,8.000000947545843,5.999999041729341,3.141591744156894,0.0
1759827971.6203804,0,-1.8310546465727384e-06,5.999996185302734,3.141507454939706,0.0,8.000000948718792,5.99999904260905,3.1415917524215273,0.0
1759827971.6311808,0,-1.8310546465727384e-06,5.999996185302734,3.1415101527772578,0.0,8.000000949656544,5.999999043312362,3.1415917590289406,0.0
1759827971.6424153,0,-1.8310546465727384e-06,5.999996185302734,3.141511980868051,0.0,8.000000950453106,5.9999990439097814,3.141591764641529,0.0
1759827971.6535747,0,-1.8310546465727384e-06,5.999996185302734,3.141514127093494,0.0,8.000000951084552,5.999999044383364,3.141591769090712,0.0
1759827971.6641903,0,-1.8310546465727384e-06,5.999996185302734,3.141517265978816,0.0,8.000000951586719,5.9999990447599885,3.1415917726289915,0.0
1759827971.6745808,0,-1.8310546465727384e-06,5.999996185302734,3.141520544593668,0.0,8.000000951987174,5.99999904506033,3.1415917754506153,0.0
1759827971.6858163,0,-1.8310546465727384e-06,5.999996185302734,3.1415222402508878,0.0,8.00000095230702,5.999999045300215,3.141591777704265,0.0
1759827971.6959682,0,-1.8310546465727384e-06,5.999996185302734,3.1415255637905446,0.0,8.000000952578395,5.9999990455037455,3.1415917796163724,0.0
1759827971.7062435,0,-1.8310546465727384e-06,5.999996185302734,3.141528383592366,0.0,8.000000952793656,5.999999045665191,3.141591781133105,0.0
1759827971.7173588,0,-1.8310546465727384e-06,5.999996185302734,3.1415297660692865,0.0,8.000000952964678,5.999999045793456,3.1415917823381263,0.0
1759827971.736467,0,-1.8310546465727384e-06,5.999996185302734,3.1415212515890794,0.0,8.000000953099775,5.999999045894779,3.1415917832900275,0.0
1759827971.7414837,0,-1.8310546465727384e-06,5.999996185302734,3.1415331395987156,0.0,8.000000953208577,5.999999045976381,3.1415917840566485,0.0
1759827971.7518127,0,-1.8310546465727384e-06,5.999996185302734,3.141536504470798,0.0,8.000000953300763,5.99999904604552,3.141591784706191,0.0
1759827971.7631874,0,-1.8310546465727384e-06,5.999996185302734,3.1415376660722885,0.0,8.000000953373851,5.999999046100337,3.141591785221179,0.0
1759827971.7732103,0,-1.8310546465727384e-06,5.999996185302734,3.1415403866128653,0.0,8.000000953432037,5.9999990461439765,3.1415917856311615,0.0
1759827971.7838016,0,-1.8310546465727384e-06,5.999996185302734,3.1415422039540726,0.0,8.000000953478443,5.99999904617878,3.1415917859581324,0.0
1759827971.795196,0,-1.8310546465727384e-06,5.999996185302734,3.141543044213835,0.0,8.000000953515514,5.999999046206582,3.141591786219331,0.0
1759827971.805213,0,-1.8310546465727384e-06,5.999996185302734,3.1415454413900115,0.0,8.000000953546898,5.999999046230121,3.1415917864404648,0.0
1759827971.8164256,0,-1.8310546465727384e-06,5.999996185302734,3.1415464420614594,0.0,8.000000953571794,5.999999046248792,3.1415917866158827,0.0
1759827971.8274717,0,-1.8310546465727384e-06,5.999996185302734,3.14154766472792,0.0,8.0000009535916,5.999999046263646,3.1415917867554297,0.0
1759827971.8375525,0,-1.8310546465727384e-06,5.999996185302734,3.1415498289219865,0.0,8.000000953607413,5.999999046275506,3.1415917868668446,0.0
1759827971.848297,0,-1.8310546465727384e-06,5.999996185302734,3.1415511743392113,0.0,8.00000095362006,5.999999046284991,3.141591786955948,0.0
1759827971.859027,0,-1.8310546465727384e-06,5.999996185302734,3.1415524586038384,0.0,8.000000953630844,5.99999904629308,3.1415917870319423,0.0
1759827971.8692749,0,-1.8310546465727384e-06,5.999996185302734,3.1415541118762835,0.0,8.000000953639395,5.999999046299495,3.141591787092203,0.0
1759827971.880187,0,-1.8310546465727384e-06,5.999996185302734,3.1415550925491793,0.0,8.00000095364619,5.99999904630459,3.1415917871400714,0.0
1759827971.8912642,0,-1.8310546465727384e-06,5.999996185302734,3.14155596306078,0.0,8.000000953651599,5.999999046308647,3.141591787178188,0.0
1759827971.901661,0,-1.8310546465727384e-06,5.999996185302734,3.1415574154312473,0.0,8.00000095365592,5.999999046311888,3.141591787208641,0.0
1759827971.91277,0,-1.8310546465727384e-06,5.999996185302734,3.1415582627206025,0.0,8.000000953659582,5.999999046314634,3.1415917872344377,0.0
1759827971.9234548,0,-1.8310546465727384e-06,5.999996185302734,3.1415594405845724,0.0,8.000000953662484,5.999999046316809,3.141591787254878,0.0
1759827971.9336073,0,-1.8310546465727384e-06,5.999996185302734,3.141560937277056,0.0,8.00000095366479,5.999999046318538,3.1415917872711248,0.0
1759827971.9449084,0,-1.8310546465727384e-06,5.999996185302734,3.1415615283492215,0.0,8.000000953666625,5.999999046319915,3.141591787284054,0.0
1759827971.9555495,0,-1.8310546465727384e-06,5.999996185302734,3.1415626033308968,0.0,8.00000095366809,5.999999046321014,3.1415917872943777,0.0
1759827971.9658995,0,-1.8310546465727384e-06,5.999996185302734,3.141563826696771,0.0,8.00000095366933,5.999999046321944,3.1415917873031125,0.0
1759827971.9770706,0,-1.8310546465727384e-06,5.999996185302734,3.1415644610592626,0.0,8.000000953670312,5.999999046322681,3.14159178731003,0.0
1759827971.988343,0,-1.8310546465727384e-06,5.999996185302734,3.1415650842691996,0.0,8.00000095367109,5.999999046323265,3.141591787315522,0.0
1759827971.9983923,0,-1.8310546465727384e-06,5.999996185302734,3.1415664488622905,0.0,8.000000953671712,5.9999990463237305,3.1415917873199,0.0
1759827972.0091338,0,-1.8310546465727384e-06,5.999996185302734,3.141567298166901,0.0,8.00000095367221,5.999999046324103,3.141591787323396,0.0
1759827972.0198667,0,-1.8310546465727384e-06,5.999996185302734,3.141568095747852,0.0,8.000000953672629,5.999999046324417,3.141591787326354,0.0
1759827972.0310884,0,-1.8310546465727384e-06,5.999996185302734,3.141568632274925,0.0,8.000000953672961,5.999999046324667,3.1415917873286965,0.0
1759827972.0413234,0,-1.8310546465727384e-06,5.999996185302734,3.1415696890861753,0.0,8.000000953673224,5.999999046324866,3.1415917873305585,0.0
1759827972.0523636,0,-1.8310546465727384e-06,5.999996185302734,3.1415702824135536,0.0,8.000000953673435,5.999999046325023,3.1415917873320414,0.0
1759827972.063366,0,-1.8310546465727384e-06,5.999996185302734,3.141570896566412,0.0,8.000000953673604,5.999999046325148,3.141591787333225,0.0
1759827972.0741665,0,-1.8310546465727384e-06,5.999996185302734,3.141571615198121,0.0,8.000000953673746,5.999999046325255,3.1415917873342263,0.0
1759827972.0851612,0,-1.8310546465727384e-06,5.999996185302734,3.141572233885146,0.0,8.000000953673858,5.999999046325339,3.14159178733502,0.0
1759827972.0962443,0,-1.8310546465727384e-06,5.999996185302734,3.141572814740071,0.0,8.000000953673947,5.9999990463254065,3.14159178733565,0.0
1759827972.1073442,0,-1.8310546465727384e-06,5.999996185302734,3.1415733979353426,0.0,8.000000953674018,5.99999904632546,3.1415917873361514,0.0
1759827972.118169,0,-1.8310546465727384e-06,5.999996185302734,3.141574087657526,0.0,8.000000953674075,5.999999046325502,3.141591787336552,0.0
1759827972.128971,0,-1.8310546465727384e-06,5.999996185302734,3.1415747513615475,0.0,8.000000953674123,5.999999046325538,3.141591787336891,0.0
1759827972.1406012,0,-1.8310546465727384e-06,5.999996185302734,3.1415750892082706,0.0,8.000000953674162,5.999999046325566,3.1415917873371595,0.0
1759827972.1519876,0,-1.8310546465727384e-06,5.999996185302734,3.1415755629304947,0.0,8.000000953674192,5.999999046325589,3.1415917873373727,0.0
1759827972.1629786,0,-1.8310546465727384e-06,5.999996185302734,3.1415761929745436,0.0,8.000000953674215,5.999999046325607,3.1415917873375423,0.0
1759827972.173645,0,-1.8310546465727384e-06,5.999996185302734,3.1415768928053325,0.0,8.000000953674235,5.999999046325622,3.1415917873376777,0.0
1759827972.1844976,0,-1.8310546465727384e-06,5.999996185302734,3.1415774678585606,0.0,8.000000953674252,5.999999046325635,3.1415917873377928,0.0
1759827972.1946316,0,-1.8310546465727384e-06,5.999996185302734,3.1415782055833503,0.0,8.000000953674265,5.9999990463256445,3.1415917873378842,0.0
1759827972.205184,0,-1.8310546465727384e-06,5.999996185302734,3.1415787302619194,0.0,8.000000953674276,5.999999046325652,3.1415917873379566,0.0
1759827972.2155063,0,-1.8310546465727384e-06,5.999996185302734,3.1415792657344177,0.0,8.000000953674283,5.999999046325658,3.141591787338015,0.0
1759827972.226197,0,-1.8310546465727384e-06,5.999996185302734,3.141579654235846,0.0,8.00000095367429,5.999999046325663,3.141591787338061,0.0
1759827972.2366674,0,-1.8310546465727384e-06,5.999996185302734,3.1415800852495614,0.0,8.000000953674295,5.999999046325667,3.141591787338098,0.0
1759827972.2479632,0,-1.8310546465727384e-06,5.999996185302734,3.1415802915325877,0.0,8.000000953674299,5.99999904632567,3.1415917873381294,0.0
1759827972.2580812,0,-1.8310546465727384e-06,5.999996185302734,3.141580816536921,0.0,8.000000953674302,5.999999046325673,3.1415917873381547,0.0
1759827972.2689402,0,-1.8310546465727384e-06,5.999996185302734,3.1415811259051,0.0,8.000000953674306,5.999999046325675,3.1415917873381747,0.0
1759827972.2804384,0,-1.8310546465727384e-06,5.999996185302734,3.141581289342888,0.0,8.00000095367431,5.9999990463256765,3.1415917873381907,0.0
1759827972.291131,0,-1.8310546465727384e-06,5.999996185302734,3.1415816749828327,0.0,8.00000095367431,5.999999046325678,3.141591787338203,0.0
1759827972.301559,0,-1.8310546465727384e-06,5.999996185302734,3.141582105698511,0.0,8.00000095367431,5.99999904632568,3.1415917873382133,0.0
1759827972.312377,0,-1.8310546465727384e-06,5.999996185302734,3.1415824182627308,0.0,8.00000095367431,5.99999904632568,3.141591787338222,0.0
1759827972.3238528,0,-1.8310546465727384e-06,5.999996185302734,3.141582591707156,0.0,8.00000095367431,5.99999904632568,3.141591787338229,0.0
1759827972.3387392,0,-1.8310546465727384e-06,5.999996185302734,3.1415821747367616,0.0,8.00000095367431,5.99999904632568,3.141591787338234,0.0
1759827972.3443143,0,-1.8310546465727384e-06,5.999996185302734,3.1415836431775936,0.0,8.00000095367431,5.99999904632568,3.1415917873382386,0.0
1759827972.3558881,0,-1.8310546465727384e-06,5.999996185302734,3.1415837646239133,0.0,8.00000095367431,5.99999904632568,3.141591787338242,0.0
1759827972.3664927,0,-1.8310546465727384e-06,5.999996185302734,3.1415840176548393,0.0,8.00000095367431,5.99999904632568,3.141591787338245,0.0
1759827972.3766572,0,-1.8310546465727384e-06,5.999996185302734,3.1415843444528804,0.0,8.00000095367431,5.99999904632568,3.1415917873382475,0.0
1759827972.3869705,0,-1.8310546465727384e-06,5.999996185302734,3.141584617970464,0.0,8.00000095367431,5.99999904632568,3.1415917873382493,0.0
1759827972.398062,0,-1.8310546465727384e-06,5.999996185302734,3.141584750541316,0.0,8.00000095367431,5.99999904632568,3.141591787338251,0.0
1759827972.4095209,0,-1.8310546465727384e-06,5.999996185302734,3.141584849705499,0.0,8.00000095367431,5.99999904632568,3.141591787338252,0.0
1759827972.4203541,0,-1.8310546465727384e-06,5.999996185302734,3.141585076674703,0.0,8.00000095367431,5.99999904632568,3.141591787338253,0.0
1759827972.4318683,0,-1.8310546465727384e-06,5.999996185302734,3.1415852131862945,0.0,8.00000095367431,5.99999904632568,3.1415917873382537,0.0
1759827972.4432583,0,-1.8310546465727384e-06,5.999996185302734,3.1415853879143363,0.0,8.00000095367431,5.99999904632568,3.1415917873382546,0.0
1759827972.4544873,0,-1.8310546465727384e-06,5.999996185302734,3.1415855978358636,0.0,8.00000095367431,5.99999904632568,3.141591787338255,0.0
1759827972.4653723,0,-1.8310546465727384e-06,5.999996185302734,3.1415858502778278,0.0,8.00000095367431,5.99999904632568,3.141591787338255,0.0
1759827972.4760094,0,-1.8310546465727384e-06,5.999996185302734,3.1415861149044364,0.0,8.00000095367431,5.99999904632568,3.141591787338255,0.0
1759827972.4867742,0,-1.8310546465727384e-06,5.999996185302734,3.141586338181055,0.0,8.00000095367431,5.99999904632568,3.141591787338255,0.0
1759827972.497307,0,-1.8310546465727384e-06,5.999996185302734,3.141586568464689,0.0,8.00000095367431,5.99999904632568,3.141591787338255,0.0
1759827972.508048,0,-1.8310546465727384e-06,5.999996185302734,3.1415867549231944,0.0,8.00000095367431,5.99999904632568,3.141591787338255,0.0
1759827972.5182452,0,-1.8310546465727384e-06,5.999996185302734,3.1415869858327152,0.0,8.00000095367431,5.99999904632568,3.141591787338255,0.0
1759827972.543029,0,-1.8310546465727384e-06,5.999996185302734,3.141585787997858,0.0,8.000000953700418,5.99999904632568,2.520972921535755,-2.610942404501771e-09
1759827972.551172,0,-1.8310546465727384e-06,5.999996185302734,3.1415865665169562,0.0,8.000000953764399,5.9999990463411805,2.0207642511969315,-4.715319388783277e-09
1759827972.5620716,0,-1.8310546465727384e-06,5.999996185302734,3.141587003238726,0.0,8.000000953843628,5.9999990463135076,1.615160918614428,-6.421691874255173e-09
1759827972.5730543,0,-1.8310546465727384e-06,5.999996185302734,3.1415873251650943,0.0,8.000000953897494,5.999999046241124,1.2778080501768558,-7.840934990566496e-09
1759827972.583216,0,-1.8310546465727384e-06,5.999996185302734,3.1415876522143336,0.0,8.000000953851167,5.999999046138599,0.48587596708939307,-3.7605956396948e-08
1759827972.5936103,0,-1.8310546465727384e-06,5.999996185302734,3.1415878973673035,0.0,8.000000953575984,5.999999045876909,0.4745486785260422,-6.153361858435952e-08
1759827972.6051095,0,-1.8310546465727384e-06,5.999996185302734,3.1415880131382234,0.0,8.000000953220436,5.999999045498061,0.4656684056799138,-8.113632027280192e-08
1759827972.616616,0,-1.8310546465727384e-06,5.999996185302734,3.1415881240012897,0.0,8.000000952818592,5.999999045050436,0.466524503536459,-9.729620463566379e-08
1759827972.627748,0,-1.8310546465727384e-06,5.999996185302734,3.14158826469936,0.0,8.000000952403147,5.999999044557803,0.47498912181279795,-1.1070799313144529e-07
1759827972.6380115,0,-1.8310546465727384e-06,5.999996185302734,3.1415884584200544,0.0,8.000000952006104,5.999999044102242,0.4489597084963756,-1.207886084637441e-07
1759827972.6495602,0,-1.8310546465727384e-06,5.999996185302734,3.1415885395347054,0.0,8.0000009515947,5.999999043688408,0.43623571130245586,-1.292428630342857e-07
1759827972.6601324,0,-1.8310546465727384e-06,5.999996185302734,3.1415886854736073,0.0,7.945947389643442,5.988709379399542,0.4332417793847576,0.3999998673320922
1759827972.6717277,0,-1.8310546465727384e-06,5.999996185302734,3.141588755110707,0.0,7.885005355786734,5.982241234231764,0.4364419521533859,0.7230732514725647
1759827972.6823661,0,-1.8310546465727384e-06,5.999996185302734,3.1415888877201255,0.0,7.828910266572181,5.979119147556609,0.446318638421213,0.9855527622078265
1759827972.6924982,0,-1.8310546465727384e-06,5.999996185302734,3.1415890396746438,0.0,7.6951278915170604,5.9661074474694376,0.3977472393740234,1.5838558760465837
1759827972.7027736,0,-1.8310546465727384e-06,5.999996185302734,3.14158916217421,0.0,7.586847645310668,5.958332875820475,0.36562803891847484,2.0584432999598015
1759827972.7130725,0,-1.8310546465727384e-06,5.999996185302734,3.141589267447454,0.0,7.504344090059407,5.954117823593273,0.3469348661957701,2.435811403313044
1759827972.7234018,0,-1.8310546465727384e-06,5.999996185302734,3.1415893601889717,0.0,7.441622051731842,5.9524204505154,0.3389743232435047,2.7366014719040366
1759827972.733699,0,-1.8310546465727384e-06,5.999996185302734,3.1415894469717536,0.0,7.391799202840206,5.952576940874819,0.3390974652441346,2.9769483416395954
1759827972.7464619,0,-1.8310546465727384e-06,5.999996185302734,3.1415894048565054,0.0,7.349645901684152,5.952257240867474,0.30737610230570067,3.181043017920864
1759827972.7565858,0,-1.8310546465727384e-06,5.999996185302734,3.141589522044759,0.0,7.318077325241679,5.951738200380001,0.2888624315732235,3.3427634072307084
1759827972.7679641,0,-1.8310546465727384e-06,5.999996185302734,3.141589574165387,0.0,7.29439804971244,5.95148818701152,0.28137569267747137,3.471053033414614
1759827972.7788026,0,-1.8310546465727384e-06,5.999996185302734,3.1415896531180802,0.0,7.2763009972948876,5.951860673113546,0.28239759438030837,3.573154498535458
1759827972.7903447,0,-1.8310546465727384e-06,5.999996185302734,3.1415896994500176,0.0,7.262861032762856,5.953158843336241,0.29100620677066263,3.6545622022499735
1759827972.8009477,0,-1.8310546465727384e-06,5.999996185302734,3.141589790363671,0.0,7.2520069127519315,5.955563939402333,0.30515207611086215,3.7197113444246677
1759827972.811289,0,-1.8310546465727384e-06,5.999996185302734,3.1415898851049153,0.0,7.241570167598119,5.9566103073464225,0.28390652960858603,3.7752752646008254
1759827972.8219926,0,-1.8310546465727384e-06,5.999996185302734,3.1415899541073955,0.0,7.234865868504434,5.956872472804987,0.2743219280585203,3.819343217850088
1759827972.832789,0,-1.8310546465727384e-06,5.999996185302734,3.1415900142073276,0.0,7.230040723049441,5.957139903662512,0.2738804228444532,3.8543794675148053
1759827972.8442514,0,-1.8310546465727384e-06,5.999996185302734,3.1415900479416585,0.0,7.226758177029736,5.958006121497813,0.2809269842342996,3.882287012760964
1759827972.855776,0,-1.8310546465727384e-06,5.999996185302734,3.1415900854885965,0.0,7.115585343827113,5.955158644325215,0.2605912715531996,3.905755335839491
1759827972.8665009,0,-1.8310546465727384e-06,5.999996185302734,3.141590156404206,0.0,6.9683564534310865,5.949994879143318,0.25156192685526796,3.924342647592016
1759827972.8765466,0,-1.8310546465727384e-06,5.999996185302734,3.1415902451894713,0.0,6.830202755843283,5.945755347256511,0.24959388038846803,3.9391120837692446
1759827972.887071,0,-1.8310546465727384e-06,5.999996185302734,3.141590306125501,0.0,6.711258997893197,5.942746960103769,0.25483518730740334,3.9508701430399795
1759827972.8978214,0,-1.8310546465727384e-06,5.999996185302734,3.141590353497268,0.0,6.609095637949293,5.941134346270517,0.26614524579279475,3.9602519663876294
1759827972.9081757,0,-1.8310546465727384e-06,5.999996185302734,3.141590410882575,0.0,6.5212390298936045,5.938671691634655,0.23243852577040527,3.9681634285045044
1759827972.9195225,0,-1.8310546465727384e-06,5.999996185302734,3.141590435134116,0.0,6.45035467999064,5.934935490336186,0.2131777336486457,3.9744279442027155
1759827972.9301724,0,-1.8310546465727384e-06,5.999996185302734,3.141590483028857,0.0,6.393512343056519,5.931107413065961,0.20443520304950685,3.979405318894918
1759827972.9403193,0,-1.8310546465727384e-06,5.999996185302734,3.141590543331425,0.0,6.348787935303014,5.927896640248055,0.20410820689239834,3.983372099717893
1759827972.9517486,0,-1.8310546465727384e-06,5.999996185302734,3.141590563535436,0.0,6.312147904409436,5.925700357309133,0.211122599926668,3.986536824593824
1759827972.9620523,0,-1.8310546465727384e-06,5.999996185302734,3.141590615971907,0.0,6.283026974604628,5.924873075181867,0.22363344137618987,3.9890714775804748
1759827972.9726505,0,-1.8310546465727384e-06,5.999996185302734,3.141590657590701,0.0,6.2558168401448,5.922910198996783,0.20111954519954395,3.9912362393434866
1759827972.9837334,0,-1.8310546465727384e-06,5.999996185302734,3.1415906849862996,0.0,6.234845178825466,5.920240221179851,0.19058639425173116,3.9929527740378
1759827972.9948924,0,-1.8310546465727384e-06,5.999996185302734,3.141590712309716,0.0,6.218421599493232,5.917805201221204,0.18913851061486067,3.994317370089133
1759827973.0060856,0,-1.8310546465727384e-06,5.999996185302734,3.1415907412217834,0.0,6.205746247733631,5.9162216702326464,0.195343010401327,3.9954050122597695
1759827973.0164447,0,-1.8310546465727384e-06,5.999996185302734,3.1415907894518185,0.0,6.195567570376382,5.915791225299189,0.20718096683462683,3.9962749646498303
1759827973.0277803,0,-1.8310546465727384e-06,5.999996185302734,3.14159081318137,0.0,6.185188747126894,5.914384856288039,0.18726747241310487,3.9970134138604863
1759827973.0378842,0,-1.8310546465727384e-06,5.999996185302734,3.141590862423506,0.0,6.17720632248768,5.912276347350978,0.17813277451880288,3.997599440427757
1759827973.0483801,0,-1.8310546465727384e-06,5.999996185302734,3.141590898738915,0.0,6.1713764881048,5.910379960429197,0.17768006702974248,3.9980654403277827
1759827973.0584602,0,-1.8310546465727384e-06,5.999996185302734,3.1415909391017856,0.0,6.124562863290681,5.913452324645164,0.18373179803069078,3.979230522488386
1759827973.0688455,0,-1.8310546465727384e-06,5.999996185302734,3.141590969320294,0.0,6.08678159077971,5.9167335888157835,0.19544962495662072,3.963970657517073
1759827973.0793507,0,-1.8310546465727384e-06,5.999996185302734,3.1415909950392322,0.0,5.965054406858556,5.922835721793813,0.1714998122185812,3.930876138644173
1759827973.090553,0,-1.8310546465727384e-06,5.999996185302734,3.1415910081941902,0.0,5.863049790854936,5.926398753749595,0.1597193070707796,3.9044967021650296
1759827973.1021676,0,-1.8310546465727384e-06,5.999996185302734,3.141591017714889,0.0,5.777490387462004,5.928877352798959,0.1577219404815657,3.8830933337746334
1759827973.1129792,0,-1.8310546465727384e-06,5.999996185302734,3.141591044709525,0.0,5.709620009173224,5.9310589344850655,0.16317294127042445,3.866056343663313
1759827973.1244411,0,-1.8310546465727384e-06,5.999996185302734,3.1415910618156566,0.0,5.65378411799026,5.933609574259814,0.17493640585629497,3.8519961804963834
1759827973.1350732,0,-1.8310546465727384e-06,5.999996185302734,3.1415910926862676,0.0,5.604250238630999,5.934787992435353,0.15397387556764985,3.8400006155417605
1759827973.1455755,0,-1.8310546465727384e-06,5.999996185302734,3.14159112326789,0.0,5.564928364999927,5.934682109301827,0.14409048435223196,3.830334767014353
1759827973.159265,0,-1.8310546465727384e-06,5.999996185302734,3.141591107738005,0.0,5.5332258961206415,5.934416238359421,0.1451743467813841,3.8225515659676437
1759827973.1700375,0,-1.8310546465727384e-06,5.999996185302734,3.1415911409865735,0.0,5.507517574782501,5.934645591577338,0.15275775072342287,3.816062838284875
1759827973.1809247,0,-1.8310546465727384e-06,5.999996185302734,3.141591171587576,0.0,5.487207066567187,5.935712008506643,0.16598299506541936,3.8108842411093207
1759827973.1916468,0,-1.8310546465727384e-06,5.999996185302734,3.1415912006523463,0.0,5.468091360863758,5.936047348019852,0.15082961693759664,3.806500016286055
1759827973.2019742,0,-1.8310546465727384e-06,5.999996185302734,3.141591230922643,0.0,5.453329524640301,5.935669283174539,0.14561236252226414,3.802906992042201
1759827973.2122204,0,-1.8310546465727384e-06,5.999996185302734,3.1415912579697896,0.0,5.442021227700464,5.935369084307231,0.14808292907473927,3.800050196534977
1759827973.2232869,0,-1.8310546465727384e-06,5.999996185302734,3.1415912723384807,0.0,5.433027271554396,5.935677221664465,0.1570765471119494,3.7976961552387376
1759827973.233471,0,-1.8310546465727384e-06,5.999996185302734,3.141591295954351,0.0,5.425295827262779,5.936882119257741,0.17102153184200883,3.795786347546154
1759827973.243579,0,-1.8310546465727384e-06,5.999996185302734,3.141591318019694,0.0,5.416861689041935,5.937078290376743,0.15094552112757234,3.794153622469169
1759827973.254107,0,-1.8310546465727384e-06,5.999996185302734,3.14159133319707,0.0,5.4110355463393764,5.9362692132980035,0.14181673505213785,3.7928375899504303
1759827973.2648838,0,-1.8310546465727384e-06,5.999996185302734,3.14159134511441,0.0,5.368153271499047,5.936511020131849,0.14162745836121546,3.7549758083318463
1759827973.2752216,0,-1.8310546465727384e-06,5.999996185302734,3.1415913614535818,0.0,5.31939979495183,5.936944512584456,0.14727646469062236,3.724393878577886
1759827973.286183,0,-1.8310546465727384e-06,5.999996185302734,3.1415913712724794,0.0,5.274055671139748,5.937984145297423,0.15896944760502366,3.6991903998558318
1759827973.29681,0,-1.8310546465727384e-06,5.999996185302734,3.1415913846470094,0.0,5.168276675384198,5.939212448875788,0.1336870146726681,3.639025752458221
1759827973.3081746,0,-1.8310546465727384e-06,5.999996185302734,3.1415913917049565,0.0,5.081048806417473,5.938827406013179,0.12099154522021638,3.590874053923314
1759827973.318423,0,-1.8310546465727384e-06,5.999996185302734,3.141591409309468,0.0,5.010589128687528,5.937956809070317,0.11717170274700028,3.552033559320155
1759827973.3297951,0,-1.8310546465727384e-06,5.999996185302734,3.1415914167236316,0.0,4.953774266682951,5.93729827472029,0.1213170754278769,3.520671758586789
1759827973.3411212,0,-1.8310546465727384e-06,5.999996185302734,3.1415914254313986,0.0,4.907484033193689,5.937312606374037,0.13195418554451216,3.4952812551239805
1759827973.3512778,0,-1.8310546465727384e-06,5.999996185302734,3.1415914437542547,0.0,4.866310229697988,5.936535468359567,0.11148651470057713,3.4736701063533877
1759827973.3627493,0,-1.8310546465727384e-06,5.999996185302734,3.141591450816218,0.0,4.833345046487885,5.934958141527944,0.10264287619280504,3.456015290725958
1759827973.373649,0,-1.8310546465727384e-06,5.999996185302734,3.141591462447252,0.0,4.806740755480465,5.933440700722118,0.10234700052537704,3.441790273554899
1759827973.3839474,0,-1.8310546465727384e-06,5.999996185302734,3.141591477880459,0.0,4.785365122282899,5.93245528399965,0.10864147413250869,3.4301474140960515
1759827973.3941286,0,-1.8310546465727384e-06,5.999996185302734,3.1415914923620782,0.0,4.768476281006605,5.932328657139416,0.12028484108877358,3.4208535696087594
1759827973.4044075,0,-1.8310546465727384e-06,5.999996185302734,3.1415915043900906,0.0,4.755008399093181,5.933215028911032,0.13642025313300338,3.4133027741945643
1759827973.4156666,0,-1.8310546465727384e-06,5.999996185302734,3.1415915092940274,0.0,4.74170702741323,5.933555381816961,0.12039872739222335,3.4067657172688577
1759827973.4270425,0,-1.8310546465727384e-06,5.999996185302734,3.1415915144141557,0.0,4.7312724438997185,5.933185685632917,0.1149003234232937,3.401585363241303
1759827973.438054,0,-1.8310546465727384e-06,5.999996185302734,3.141591522789792,0.0,4.723339304361276,5.932884487386641,0.11758724906639972,3.3973275346263523
1759827973.449221,0,-1.8310546465727384e-06,5.999996185302734,3.141591530564847,0.0,4.717242638769535,5.933123292667164,0.12691710573159085,3.393883007934931
1759827973.4596741,0,-1.8310546465727384e-06,5.999996185302734,3.1415915421837575,0.0,4.681673494900366,5.935992648154006,0.14127118571078623,3.33185333120958
1759827973.4701238,0,-1.8310546465727384e-06,5.999996185302734,3.141591552749011,0.0,4.595958170473373,5.95639335373898,0.11511570339020041,3.2168224310286813
1759827973.4807632,0,-1.8310546465727384e-06,5.999996185302734,3.1415915612664094,0.0,4.518647828328655,5.96828287212919,-0.4647361884475715,3.1257107238704234
1759827973.4911168,0,-1.8310546465727384e-06,5.999996185302734,3.141591570522621,0.0,4.432152393935518,5.9496590810214895,-0.9250290567112052,3.051610080670434
1759827973.5014863,0,-1.8310546465727384e-06,5.999996185302734,3.1415915788868354,0.0,4.3354375822439915,5.926524735811649,-1.2910889684118807,2.9926355313490687
1759827973.513105,0,-1.8310546465727384e-06,5.999996185302734,3.141591581067532,0.0,4.230787793538479,5.914095164999632,-1.5927389762836326,2.9440112181253277
1759827973.5245254,0,-1.8310546465727384e-06,5.999996185302734,3.1415915852289853,0.0,4.128636456592794,5.917326097703719,-1.8371173781905992,2.9045694291384723
1759827973.5351434,0,-1.8310546465727384e-06,5.999996185302734,-3.139592491437771,0.0020652197906667435,4.034052177855284,5.937510056314363,-2.04755514931784,2.870812334291296
1759827973.5464754,0,-1.8310546465727384e-06,5.999996185302734,-3.1395721343410625,0.002956621128854975,3.9514421978607155,5.969581649906505,-2.2194512184687656,2.843185949615061
1759827973.557243,0,-2.2440986047058963e-06,5.99999618530313,3.0808171159628883,0.002115471021022144,3.8832337137549398,6.009537126528293,-2.35794559840808,2.8208829869580687
1759827973.575155,0,-0.10778808841689604,6.025707414989252,-2.6007358610831925,0.7139876354961514,3.827780221667674,6.053925458705056,-2.4700723834474623,2.802750263362847
1759827973.585233,0,-0.14407861562618668,6.027707690841471,-2.6018026352912376,0.7139876354961514,3.7851789553763746,6.099126028318134,-2.559638700506335,2.788221879427853
1759827973.595989,0,-0.1581347840801087,6.028335785472607,-2.5850334339348926,0.7139977882640066,3.7553610263186292,6.143120597854113,-2.6379730305411324,2.7757366645113386
1759827973.6063457,0,-0.16647512078121737,6.0296562893574865,-2.688879599676805,0.7281934944605549,3.7332922808156592,6.185165508112849,-2.7007643619673463,2.7656570573455648
1759827973.6165242,0,-0.17130645053752605,6.030786227689315,-2.7702613794439275,0.7415379879577123,3.7175944732161197,6.224909813862485,-2.752114730725756,2.7573705864059064
1759827973.6272392,0,-0.17420781604110655,6.031543927710468,-2.8362063799387314,0.7513774178844935,3.7070786712983828,6.261453049086241,-2.793378165763753,2.7506663907246653
1759827973.6378968,0,-0.17605946284793786,6.0317164584890435,-2.891323470205479,0.7548490546630483,3.7002466501114104,6.294705632928229,-2.8265711474197883,2.745227266935054
1759827973.648812,0,-0.17624723315530966,6.031729197171475,-2.8916347070568413,0.7544601458457957,3.696141918475953,6.324385480078926,-2.8528506330351227,2.740872215970886
1759827973.6588352,0,-0.17607893537456332,6.031733826273596,-2.8916720504074505,0.7544344648778996,3.697414581196861,6.34779136376353,-2.8749674569098462,2.7371631984304012
1759827973.6689262,0,-0.17771688259616558,5.986913779687189,2.7174026646799794,0.7611303579289561,3.6988463972650054,6.368911086233606,-2.8926374903598306,2.734154977253915
1759827973.680426,0,-0.17995764372488302,5.986552970379048,2.6811395198687222,0.7664825180176874,3.685701302469868,6.386406038993276,-2.907164753610782,2.6149554981606413
1759827973.6916611,0,-0.1817379255763916,5.985549241159416,2.7082276713705955,0.7707627591324541,3.674759542478031,6.377342258232824,-2.3530377204446347,2.5185186585941235
1759827973.702961,0,-0.18291004338306396,5.984594720900348,2.728533028172209,0.7738233974433212,3.650291398616329,6.3331806525218886,-1.9030829407649819,2.440054895933862
1759827973.714113,0,-0.18288624160279082,6.029121936658985,-2.9262443189687497,0.7741423040044556,3.6123720571083715,6.259288440968944,-1.5488575919569643,2.251251833197025
1759827973.7255595,0,-0.18397747866639458,6.027654472454109,-2.895283986329013,0.7786252506126095,3.5954875756792104,6.187440699807028,-1.2514632279915472,2.098875846143379
1759827973.737069,0,-0.18402149211915492,5.98312641325592,2.7595216083952723,0.7785325322625936,3.595624294420192,6.126172714399414,-1.008123697944887,1.9779488845512352
1759827973.7481365,0,-0.1842684432929428,5.983227609695109,2.7160311504440595,0.7801065686666214,3.60472524835878,6.076540649098645,-0.8007976958549495,1.8782835672859917
1759827973.7584493,0,-0.1846587948502,5.982575002751807,2.735478664300642,0.7814611296654346,3.619927390775057,6.039149414321959,-0.625994850290137,1.7974502123201639
1759827973.7760773,0,-0.36660926594550214,6.0560822821329,-2.918440868329697,1.423496668680061,3.6370922802011973,6.013008737482818,-0.47556051356853635,1.7332623937579679
1759827973.7870176,0,-0.4302253508253604,6.05917192915819,-2.9176809915041746,1.423408094548799,3.654436135768885,5.99480777994766,-0.38595347214816994,1.6771639766039232
1759827973.7975426,0,-0.4545518793750773,6.059685711637279,-2.9006497871380623,1.4244699176685807,3.669411398330664,5.98207066933583,-0.3045792238409921,1.630931584038074
1759827973.808165,0,-0.4659056444792798,6.0608908271478565,-2.943023886090154,1.431723310576985,3.6830544750164096,5.974036025690528,-0.23170430534849437,1.593579110616479
1759827973.8181763,0,-0.46913491134450425,6.061052250915287,-2.942748978648194,1.4316720937351923,3.6946318377712135,5.969742937231237,-0.1672151903021185,1.5638247459635022
1759827973.8295329,0,-0.4710657464870799,6.061107636433052,-2.942594435040902,1.4316240832665386,3.7043475881197665,5.968194327195323,-0.10843111868874643,1.5401108766306864
1759827973.8407762,0,-0.471748005188646,6.061125707434804,-2.9424673750011157,1.4315786070114425,3.7124324726048283,5.968668548003595,-0.05405613140264541,1.5211656059797323
1759827973.851061,0,-0.4715166412947235,6.061132014930622,-2.9423894853365953,1.4315353963119357,3.719097915728761,5.970630669035793,-0.0035946433783567815,1.5059788598720294
1759827973.8624578,0,-0.47200148079820947,6.061131512428286,-2.9423556727514115,1.4314942018926557,3.7245480923574634,5.973687102839264,0.044587622362811954,1.4938007891719678
1759827973.872784,0,-0.471635983740098,6.061132258563325,-2.9423252854099253,1.4314416310063214,3.7289412505896946,5.977558512015979,0.09045710507190798,1.4840020476372244
1759827973.8831463,0,-0.47151454801936016,6.061132378241443,-2.942318813760394,1.4313936563340994,3.7324190376720785,5.982030053255376,0.13465074359061316,1.4761061514253047
1759827973.8941667,0,-0.47180651130459444,6.061131440571108,-2.942353812611943,1.4313512405924511,3.6973344976496016,5.999546228713892,0.10756035564873735,1.4958277291628284
1759827973.9050505,0,-0.4843315223888197,6.0637935733891135,-3.0053052974468644,1.4537346743270088,3.641962866179683,6.015837464184592,-0.4662380692283944,1.5333715087414677
1759827973.9164648,0,-0.4903286623129655,6.065501989648732,-3.0291362548851515,1.4621564226745598,3.587792673453689,6.014669607976118,-0.9209504701931313,1.5631477595137413
1759827973.927882,0,-0.4955850896904204,6.06756312035068,-3.047975971592828,1.4699908741690848,3.5288969103440535,6.0089753416888945,-1.2881404716117548,1.5873940790115098
1759827973.9381342,0,-0.4994043525941089,6.069948921033051,-3.0636109995161673,1.4755843506357416,3.4677640206244313,6.006760387690017,-1.5854983531035667,1.6070481489444477
1759827973.948197,0,-0.4990921701612724,6.069949744697747,-3.063668954075523,1.4755506733892882,3.406680555964751,6.012746491261023,-1.8414549207941957,1.6237878859172319
1759827973.959392,0,-0.5061143178115943,6.075201762186322,-3.08660670787595,1.483714449809781,3.3499619563483787,6.026380502583136,-2.0502258300729315,1.637467697299502
1759827973.9703617,0,-0.7154912117055583,6.1094684985992656,-3.0934349779701606,1.8844239143857695,3.3006080670900846,6.0463158142613365,-2.2181348725331933,1.6484890017589404
1759827973.9811213,0,-0.7947262072576983,6.118898200468471,-3.0990525600703123,1.8870369107985632,3.2591662034084043,6.070492359622968,-2.353530044631046,1.657394827390401
1759827973.991588,0,-0.8276086815728158,6.12424357387065,-3.103704781820692,1.8931092863002466,3.2253630622101364,6.096991417981012,-2.4629590364454916,1.664610987800867
1759827974.001597,0,-0.8385720509260477,6.125204489047639,-3.102910434349191,1.8930951824413191,3.1996819393255724,6.124357139449143,-2.5573516610361016,1.6707573031271714
1759827974.0116353,0,-0.8466443847395146,6.1283260093721,-3.107034243156371,1.898074887364237,3.179707499714604,6.1516674093693435,-2.6342658013739664,1.675784101228706
1759827974.0218425,0,-0.855012858174181,6.131354579458871,-3.110511584114281,1.9064909237056977,3.165129057493903,6.177514629336634,-2.6950324085043116,1.6797727219741225
1759827974.0318544,0,-0.8609845097646067,6.1341589507576035,-3.1132946638509904,1.9132023511053877,3.154140847154909,6.202012294810056,-2.7444004486055746,1.6830791472732092
1759827974.0422575,0,-0.8658382783033172,6.136745601838567,-3.1155930859063425,1.9185935567341665,3.1463063132868236,6.224601373115866,-2.7840757578455926,1.68575439056688
1759827974.0529983,0,-0.8697776424878102,6.139125253169705,-3.1174618843382254,1.922960040059175,3.1408084892009525,6.245227207099735,-2.815961775210379,1.6879238903618277
1759827974.063259,0,-0.8696167352738821,6.139124250859264,-3.117367927708547,1.9229504506681763,3.138935235467554,6.262318458902616,-2.840179591244134,1.690027485228601
1759827974.0747263,0,-0.8754689570821701,6.143102420994371,-3.120267240153513,1.929477911728971,3.137757602065977,6.2776893349185245,-2.859381112028208,1.691720684997968
1759827974.0848563,0,-0.8748626027223817,6.143106963791082,-3.1201875124362557,1.9295023437149021,3.1371820630904943,6.291230934849723,-2.874320514511557,1.693067773989991
1759827974.0962048,0,-0.8773265171724848,6.144824499843616,-3.121303774493168,1.9319388336274435,3.1130794269273587,6.305768933261584,-2.8864241820412353,1.7322622872805307
1759827974.106624,0,-0.8784115911949386,6.146378762086733,-3.122185097374175,1.9338889217296602,3.085047422311154,6.3199037877980215,-2.8963730438030884,1.7640268044675107
1759827974.1180182,0,-0.8801296583005783,6.147776228940938,-3.1227288049084976,1.9356565361615814,3.020857262040197,6.3339341728913885,-2.9119076075969703,1.830988710666895
1759827974.129984,0,-0.8816752124482813,6.149039470103026,-3.1232584486739023,1.9369311853878959,2.968080741546362,6.348146792955751,-2.9238475456055766,1.8840152605791889
1759827974.1402652,0,-0.881471815309711,6.149938637012329,-3.1238109631013806,1.938030405526822,2.9247161242631456,6.362117636461173,-2.9331370091886737,1.9265132672178686
1759827974.15085,0,-0.8819157167037478,6.150776843787137,-3.124178646052743,1.9389508864562053,2.8888700905112343,6.3755681057939055,-2.94039483724088,1.9610541536232107
1759827974.162084,0,-0.8822965782008962,6.150771055406239,-3.1241380556998957,1.9389743707974398,2.859730792361932,6.388234509220908,-2.9458961111898594,1.9886315800647945
1759827974.1809967,0,-1.0972712843102046,6.147306892934736,-3.1239624418728837,1.7579316337925266,2.8346995659595042,6.398366271688144,-2.9516614596051634,2.013189233291667
1759827974.1918073,0,-1.1751568504837797,6.148250879860625,-3.123950558341584,1.7584712297046978,2.813824486851214,6.408124739710712,-2.956002456681165,2.0329848720679067
1759827974.2022026,0,-1.2069017806560642,6.148837594411198,-3.1238585722096306,1.7570791941358208,2.79676089433798,6.417391231636955,-2.959253952829825,2.04901268077642
1759827974.2132127,0,-1.2211784410913054,6.149266625684779,-3.1237535564295533,1.7559604839267846,2.782418398944045,6.426168891037861,-2.9615996963438107,2.0620115681197535
1759827974.2239637,0,-1.2254611779425375,6.14928968795607,-3.123637732839594,1.7559485785489828,2.7704897816539007,6.434351782537462,-2.9631940260344645,2.07242350603277
1759827974.2350857,0,-1.2298074460146418,6.149624430037003,-3.1235929763507997,1.755037822546374,2.762019928642306,6.438690256039885,-2.965917150144999,2.081532077479343
1759827974.2454534,0,-1.2322437455314235,6.149942731061831,-3.1236417631976865,1.7542506040705075,2.7548762686678705,6.443245520815546,-2.9678414154517334,2.0888947132105162
1759827974.2562494,0,-1.242095938231851,6.149733756348026,-3.123671874090863,1.7496707806830367,2.7485709040470194,6.447959909822474,-2.968716521683417,2.0949511989046634
1759827974.2667956,0,-1.2454647295173213,6.149669728381025,-3.12368313034889,1.7480477028636934,2.7430231853112264,6.4526496641188364,-2.9691546799840247,2.099858608985889
1759827974.2772028,0,-1.2453771385717338,6.149670761101257,-3.1236565776416896,1.748054268412863,2.7398854727464097,6.453920041635767,-2.9661061974943186,2.104060035621043
1759827974.2885904,0,-1.2487648107265523,6.149629839072641,-3.1236143393318168,1.7467167540665847,2.7366334009584214,6.455691081993346,-2.963372604256183,2.1074933721800013
1759827974.29871,0,-1.250501951470595,6.1493437801178965,-3.1236655437853624,1.7455950596167449,2.713788776850844,6.457623218275126,-2.960839534348419,2.0799258588479974
1759827974.3090782,0,-1.2522975421113978,6.149142894158239,-3.1236803118456087,1.7446939010065179,2.6877476214138594,6.459310059671478,-2.9587124472898436,2.057718658087449
1759827974.3201928,0,-1.254222674556804,6.149016483241026,-3.1237616961272567,1.743833936591455,2.663369028064914,6.460787796626255,-2.956628232181624,2.0393793899418364
1759827974.3304822,0,-1.2551226803355875,6.148964768794733,-3.1237823385786654,1.743246485050791,2.6419932487641495,6.462078530675888,-2.954606141816347,2.0241472323266603
1759827974.341982,0,-1.256743161738419,6.1489524970261895,-3.1237589371819836,1.742772251443797,2.5916623224531166,6.460290620830131,-2.9572882376700127,1.9793510937143508
1759827974.3526628,0,-1.2572576642683715,6.148685109821041,-3.1237848242539528,1.742358670989442,2.5517627120248627,6.458398680787104,-2.9591002568429685,1.943705639228124
1759827974.3636844,0,-1.2580139700581812,6.148524136444093,-3.123761258936779,1.7420257870520495,2.5196691058961735,6.456614144887213,-2.9602618523524113,1.9149582063821404
1759827974.3783898,0,-1.461783663268513,6.1543382432786835,-3.1226213334286275,1.8850217983524067,2.4937517797511286,6.45528760392498,-2.9607966579150924,1.891815452038039
1759827974.3892262,0,-1.5367942703019062,6.15471999647651,-3.121823440021268,1.8848311977194356,2.472594471197686,6.454218872026494,-2.9609304846353233,1.8730398884747421
1759827974.3996704,0,-1.5650294987518498,6.154848342383788,-3.12126465254092,1.8848247143190335,2.456364457531423,6.449968314893336,-2.9623942348743517,1.8569616811840066
1759827974.4100857,0,-1.5782704362388817,6.155013413212114,-3.1208430990720406,1.8860643126370331,2.4432759585010153,6.44677315855986,-2.963283568982724,1.843995343908851
1759827974.4208965,0,-1.5934869505176714,6.155029322578158,-3.1204140307723973,1.8906516194553045,2.43246054738109,6.444448667719393,-2.9633211421009564,1.8333605194378968
1759827974.4312036,0,-1.5992925631941524,6.155228126947976,-3.120171211477785,1.8922581984089761,2.4235238646489514,6.442840294513078,-2.9630756333336192,1.824762836098239
1759827974.4417899,0,-1.603795401129792,6.155501141928054,-3.119987518538819,1.8935984589856618,2.415928543966574,6.441855310680187,-2.962582604912331,1.8177104484127926
1759827974.4521782,0,-1.6039375883939715,6.155497666267634,-3.119893825944281,1.8935980446142824,2.4110027295219236,6.438222739341349,-2.959138126899666,1.811745001731674
1759827974.463619,0,-1.6078173040764987,6.155500122942736,-3.1197385509813818,1.894735563303624,2.4067021200029846,6.435646987364529,-2.9560661678293934,1.8070299807486487
1759827974.473657,0,-1.6118539502504818,6.155814802779093,-3.1196427538645177,1.8964053817347502,2.4027465763224645,6.433803876863928,-2.9532488419401517,1.8031110170294993
1759827974.4850867,0,-1.6125251179000177,6.155799152507925,-3.1195596507100856,1.896401913179426,2.399166233460488,6.432725061328085,-2.950651734200268,1.7999978544353428
1759827974.4953213,0,-1.6137497543624124,6.156076342440164,-3.119568019868744,1.8969833340986775,2.3742502646853945,6.433340197245104,-2.948225651281295,1.805793091082011
1759827974.5063078,0,-1.6154724970884353,6.15636603700397,-3.119506322483589,1.8974645204246972,2.345628226281437,6.434846899737396,-2.9464034921838493,1.8105167036735998
1759827974.5175357,0,-1.6157410122329923,6.156360588545914,-3.1195186489623596,1.8974501485875237,2.286539215422805,6.435211947548382,-2.9513599227943312,1.8230584265926235
1759827974.5281637,0,-1.617528929511618,6.156450077598867,-3.1195030934447074,1.8981799749865864,2.2344702429741052,6.436795101271272,-2.9549505211735725,1.8330710219825825
1759827974.5388021,0,-1.6174241821962088,6.1564527778205225,-3.1195212797255207,1.8981675663794186,2.1928145311419587,6.439054033641941,-2.9575236050072666,1.8410245984760516
1759827974.550029,0,-1.619237480326062,6.156812852643043,-3.119472947107421,1.8986307356854966,2.15726023595215,6.441869793312866,-2.959390161449694,1.8476578721439396
1759827974.5602124,0,-1.6191609473465958,6.156738064822976,-3.1194899187744545,1.8987980005450769,2.1285241146706118,6.444955923235397,-2.96061102600965,1.8529580303280895
1759827974.5714827,0,-1.6196610066525141,6.156728755303,-3.1194943320494795,1.8987916534005713,2.1055244163103732,6.445098568069049,-2.9629442135201387,1.8574836116622273
1759827974.5854657,0,-1.8415696345469632,6.159452417902169,-3.120458118051633,1.8260162346137379,2.0861519994848607,6.4462569924910555,-2.9644820883539196,1.8612162023155752
1759827974.5961845,0,-1.9245760771182157,6.161627407712119,-3.121326126485907,1.8261199080351405,2.070441462916735,6.447938035194644,-2.9654243060701875,1.8641806728104662
1759827974.6070757,0,-1.959573722399832,6.162671699612621,-3.121935032118684,1.82548359596198,2.057102292755776,6.45003555865606,-2.9659102479407418,1.8666072172419406
1759827974.6180692,0,-1.978185934990656,6.162941602653739,-3.122482657973751,1.8241350800287643,2.0461971084603214,6.452423537520547,-2.9660057552213903,1.8685437877529192
1759827974.6294966,0,-1.98308736785626,6.16306758797878,-3.1228041230361767,1.8241238788186844,2.038404433513958,6.451822090296529,-2.9625649227364774,1.8702704502676921
1759827974.639686,0,-1.9898331845555317,6.163141360304418,-3.123085440206048,1.8230760422246879,2.031532491067548,6.451841024041171,-2.9591011989849028,1.8716889173986093
1759827974.649769,0,-1.9984259523687797,6.163289695398035,-3.123379286001234,1.8215290600190903,2.0254587545818836,6.4522948754649025,-2.9559747547900015,1.8728474389540506
1759827974.659968,0,-1.9986264156909983,6.163304353013812,-3.1234889326816835,1.8215302618173819,2.0201299488536497,6.453120244558888,-2.9531699602425205,1.8737704260923396
1759827974.6701245,0,-2.0017267000319503,6.16342291568149,-3.123592699466046,1.820976489467583,2.015363947587877,6.4542561440913495,-2.9505840466158797,1.8745192629933025
1759827974.6814656,0,-2.004964404654401,6.163231690623396,-3.1236936272198896,1.8204936094730677,2.0109809339092783,6.455712300927341,-2.948158761275882,1.8751183860854401
1759827974.692797,0,-2.007259972804583,6.163141667884162,-3.1237479802452377,1.820100872114319,2.008513990464574,6.454342168090429,-2.947463776180702,1.875641114999272
1759827974.7041597,0,-2.009063384362632,6.163171050271311,-3.1237902657193506,1.8197832851206615,1.9826600165049932,6.454604706358143,-2.94659931885838,1.876788651471872
1759827974.7145119,0,-2.009855524046194,6.163267032779672,-3.123864107111652,1.8195297291845873,1.9526939727799821,6.455683307476638,-2.946116512099236,1.8777054871682708
1759827974.725282,0,-2.010966404174993,6.163057098955951,-3.1237632126769275,1.8194998604058656,1.92481973355688,6.457270559636258,-2.945445901675207,1.87844560626466
1759827974.7356298,0,-2.01071634219081,6.163060909870327,-3.123770555068544,1.819498703418726,1.8630578431779445,6.457550130784474,-2.951480843366665,1.8796520978569786
1759827974.746256,0,-2.011678122602319,6.162959203420912,-3.1237994287616573,1.8193148363294016,1.812320189363289,6.4587116710881105,-2.956004685984326,1.8806223940412046
1759827974.7571406,0,-2.012592199464159,6.162933622597331,-3.1237869004528998,1.8191786561900742,1.7715613706014497,6.460473386081757,-2.959332590562472,1.8813909735921495
