timestamp,observer_vehicle_id,vehicle_0_x,vehicle_0_y,vehicle_0_theta,vehicle_0_velocity,vehicle_1_x,vehicle_1_y,vehicle_1_theta,vehicle_1_velocity
1759827970.4216888,1,0.0,0.0,0.0,0.0,8.0,6.0,-0.05483113549895436,0.0
1759827970.4320247,1,0.0,0.0,0.0,0.0,8.0,6.0,-0.05483113549895436,0.0
1759827970.4431202,1,0.0,0.0,0.0,0.0,8.0,6.0,-0.05483113549895436,0.0
1759827970.454187,1,0.0,0.0,0.0,0.0,8.0,6.0,-0.05483113549895436,0.0
1759827970.4651525,1,0.0,0.0,0.0,0.0,8.0,6.0,-0.05483113549895436,0.0
1759827970.4757025,1,0.0,0.0,0.0,0.0,8.0,6.0,-0.05483113549895436,0.0
1759827970.4870353,1,0.0,0.0,0.0,0.0,8.0,6.0,-0.05483113549895436,0.0
1759827970.4976637,1,0.0,0.0,0.0,0.0,8.0,6.0,-0.05483113549895436,0.0
1759827970.508192,1,0.0,0.0,0.0,0.0,8.0,6.0,-0.05483113549895436,0.0
1759827970.5189986,1,0.0,0.0,0.0,0.0,8.0,6.0,-0.05483113549895436,0.0
1759827970.5292723,1,0.0,0.0,0.0,0.0,8.0,6.0,-0.05483113549895436,0.0
1759827970.5399451,1,0.0,1.1890093803405763,-0.6225638550098349,0.0,8.0,6.0,-0.05483113549895436,0.0
1759827970.5511105,1,0.0,2.131651568109346,-1.116130149788883,0.0,8.0,6.0,-0.05483113549895436,0.0
1759827970.561641,1,0.0,2.8814499068710573,-1.50872364146155,0.0,8.0,6.0,-0.05483113549895436,0.0
1759827970.571842,1,0.0,3.4795530869826705,-1.821889733891595,0.0,8.0,6.0,-0.05483113549895436,0.0
1759827970.582431,1,0.0,3.957608873184143,-2.0721991579283476,0.0,8.0,6.0,-0.05483113549895436,0.0
1759827970.5928729,1,0.0,4.362564935275771,-2.284233655968348,0.0,8.0,6.0,-0.05483113549895436,0.0
1759827970.6041899,1,0.0,4.68352196819208,-2.452286365230962,0.0,8.0,6.0,-0.05483113549895436,0.0
1759827970.6197371,1,0.0,4.937474020071758,-2.585255348503898,0.0,8.000000945727031,5.99999905427297,-2.879849532792127,0.0
1759827970.6300588,1,0.0,5.140244660376488,-2.69142580737342,0.0,8.000000951017842,5.999999048982158,-3.1210568361282114,0.0
1759827970.6402292,1,0.0,5.311923758652683,-2.7813167729239403,0.0,8.00000095267779,5.999999047322208,3.139479380071368,0.0
1759827970.6518247,1,0.0,5.44772562926602,-2.852422466019792,0.0,8.000000953294668,5.999999046705331,3.136201240807816,0.0
1759827970.663288,1,0.0,5.5554588334425254,-2.9088314397534347,0.0,8.000000953529359,5.9999990464706405,3.13581442957215,0.0
1759827970.6734478,1,0.0,5.641273034357025,-2.9537636502298708,0.0,8.000000953618951,5.999999046381049,3.1363496950701624,0.0
1759827970.683952,1,0.0,5.709768035680999,-2.989627549016727,0.0,8.000000953653169,5.999999046346831,3.136940893062583,0.0
1759827970.6946766,1,0.0,5.767630932755515,-3.0199244910428944,0.0,8.00000095366624,5.999999046333762,3.1374962808987483,0.0
1759827970.7055302,1,0.0,5.813453428678988,-3.043917093775868,0.0,8.00000095367123,5.999999046328769,3.1379923851669,0.0
1759827970.7155597,1,0.0,5.849865667520372,-3.062982497428224,0.0,8.000000953673139,5.999999046326862,3.1384723101442322,0.0
1759827970.7258258,1,0.0,5.878862301991223,-3.078165099716285,0.0,8.000000953673867,5.999999046326134,3.138843113679588,0.0
1759827970.7359512,1,0.0,5.9020132729540915,-3.0902869197525034,0.0,8.000000953674144,5.999999046325856,3.1391526137695873,0.0
1759827970.7474868,1,-3.6442191689635985e-07,5.921514122264086,-1.8499999689755775,0.0,8.00000095367425,5.999999046325749,3.139348242032465,0.0
1759827970.758414,1,-6.531102670357374e-07,5.936962336964137,-0.8674674238185316,0.0,8.000000953674292,5.9999990463257085,3.139558562212587,0.0
1759827970.7686052,1,-8.825729842458681e-07,5.949241285246628,-0.08650557533980781,0.0,8.000000953674308,5.999999046325693,3.1397700728419196,0.0
1759827970.7792647,1,-1.0653144695611084e-06,5.959020099315132,0.5354435146940513,0.0,8.000000953674313,5.999999046325687,3.1399290644134794,0.0
1759827970.7897444,1,-1.2112426863265075e-06,5.966828971485758,1.0321009730206996,0.0,8.000000953674315,5.999999046325685,3.140070564917977,0.0
1759827970.800314,1,-1.3346389239954094e-06,5.973432118345571,1.4520722652501767,0.0,8.000000953674316,5.9999990463256845,3.1401896486129566,0.0
1759827970.8112268,1,-1.4323851613131376e-06,5.978662689165202,1.7847454032030763,0.0,8.000000953674316,5.999999046325684,3.1402847222467685,0.0
1759827970.8263144,1,-1.5096817808236524e-06,5.98279896544102,2.047819560033566,0.0,8.000000953674316,5.999999046325684,3.140274342771491,0.0
1759827970.8372188,1,-1.5712907615650228e-06,5.986095768936847,2.257501830284946,0.0,8.000000953674316,5.999999046325684,3.1403924889343546,0.0
1759827970.8478801,1,-1.6205350677267107e-06,5.988730917234219,2.4251017124560703,0.0,8.000000953674316,5.999999046325684,3.140501986341871,0.0
1759827970.858512,1,-1.6622816381071338e-06,5.990964848675914,2.567183524997698,0.0,8.000000953674316,5.999999046325684,3.14059176733457,0.0
1759827970.868692,1,-1.695406135188342e-06,5.9927373980098055,2.6799206562623774,0.0,8.000000953674316,5.999999046325684,3.140673943461975,0.0
1759827970.8790474,1,-1.721748460427657e-06,5.99414702155644,2.7695750945181747,0.0,8.000000953674316,5.999999046325684,3.140738282649295,0.0
1759827970.8901694,1,-1.7427320852415061e-06,5.995269891742068,2.840991534720968,0.0,8.000000953674316,5.999999046325684,3.140779889092581,0.0
1759827970.9010594,1,-1.7594950946187985e-06,5.996166909469851,2.898043377166328,0.0,8.000000953674316,5.999999046325684,3.1408225109346475,0.0
1759827970.911447,1,-1.773680046341376e-06,5.996925970857727,2.946320963401398,0.0,8.000000953674316,5.999999046325684,3.1408696762799853,0.0
1759827970.9228415,1,-1.7849224232222e-06,5.997527569958313,2.9845836822294967,0.0,8.000000953674316,5.999999046325684,3.140897008368171,0.0
1759827970.9336715,1,-1.7938619691378994e-06,5.998005940576871,3.0150088614820016,0.0,8.000000953674316,5.999999046325684,3.1409320376749594,0.0
1759827970.9449348,1,-1.8009854184014337e-06,5.9983871287113235,3.0392530706155476,0.0,8.000000953674316,5.999999046325684,3.1409593724384273,0.0
1759827970.9558547,1,-1.8066788556846297e-06,5.998691794422599,3.0586303243975226,0.0,8.000000953674316,5.999999046325684,3.1409903066358993,0.0
1759827970.9664044,1,-1.8112428411452708e-06,5.998936021206429,3.074163560319716,0.0,8.000000953674316,5.999999046325684,3.1410235328796787,0.0
1759827970.9778757,1,-1.8151411194170549e-06,5.999144624843098,3.0874311039190925,0.0,8.000000953674316,5.999999046325684,3.1410428450516505,0.0
1759827970.9885833,1,-1.818238272126254e-06,5.999310358860379,3.09797206732354,0.0,8.000000953674316,5.999999046325684,3.141070605966103,0.0
1759827970.9986064,1,-1.8207069528936801e-06,5.999442462253199,3.1063740662141366,0.0,8.000000953674316,5.999999046325684,3.141103182891639,0.0
1759827971.00892,1,-1.822678773948595e-06,5.999547977820391,3.11308503449098,0.0,8.000000953674316,5.999999046325684,3.141128098528039,0.0
1759827971.0247524,1,-1.8243352173537815e-06,5.999636616982135,3.1187226348791524,0.0,8.000000953674316,5.999999046325684,3.141098397186216,0.0
1759827971.0358062,1,-1.8256492213669847e-06,5.999706931617634,3.1231947644500746,0.0,8.000000953674316,5.999999046325684,3.1411268511983863,0.0
1759827971.0467706,1,-1.826694414614889e-06,5.999762861722499,3.126752013578932,0.0,8.000000953674316,5.999999046325684,3.141155690206954,0.0
1759827971.0578191,1,-1.8275278743990368e-06,5.999807461602207,3.1295886412523704,0.0,8.000000953674316,5.999999046325684,3.1411797575427745,0.0
1759827971.0680506,1,-1.8282321261456962e-06,5.9998451473355585,3.1319855175403903,0.0,8.000000953674316,5.999999046325684,3.141207041732443,0.0
1759827971.0782073,1,-1.8287900142759125e-06,5.999875000897748,3.133884254514812,0.0,8.000000953674316,5.999999046325684,3.1412304521945558,0.0
1759827971.088265,1,-1.8292330770704954e-06,5.9998987099569225,3.1353921907201205,0.0,8.000000953674316,5.999999046325684,3.141250675194012,0.0
1759827971.0985954,1,-1.8295856935552853e-06,5.99991757907707,3.1365922986292123,0.0,8.000000953674316,5.999999046325684,3.141265840572764,0.0
1759827971.109824,1,-1.8298667522641338e-06,5.9999326190164215,3.137548864172679,0.0,8.000000953674316,5.999999046325684,3.141273175345603,0.0
1759827971.1201515,1,-1.8300915816445316e-06,5.999944650026809,3.138314056752295,0.0,8.000000953674316,5.999999046325684,3.141287154703404,0.0
1759827971.1302576,1,-1.830282827976146e-06,5.9999548839499655,3.1389649515489233,0.0,8.000000953674316,5.999999046325684,3.14130157318656,0.0
1759827971.1415045,1,-1.830434360316523e-06,5.999962992708518,3.1394806822875996,0.0,8.000000953674316,5.999999046325684,3.1413073806300744,0.0
1759827971.1524336,1,-1.8305547862427819e-06,5.9999694369088585,3.1398905443127654,0.0,8.000000953674316,5.999999046325684,3.1413158385511757,0.0
1759827971.1633317,1,-1.8306507424831213e-06,5.999974571693833,3.1402171253091895,0.0,8.000000953674316,5.999999046325684,3.141324879420086,0.0
1759827971.1741304,1,-1.8307274060505706e-06,5.999978674094394,3.140478044913359,0.0,8.000000953674316,5.999999046325684,3.1413344617473733,0.0
1759827971.185313,1,-1.830792563342435e-06,5.999982160774177,3.1406998036361484,0.0,8.000000953674316,5.999999046325684,3.141341733100706,0.0
1759827971.1955664,1,-1.8308442096296202e-06,5.9999849244566485,3.140875578508849,0.0,8.000000953674316,5.999999046325684,3.141353967679313,0.0
1759827971.2056887,1,-1.8308852524456359e-06,5.999987120728973,3.14101526513791,0.0,8.000000953674316,5.999999046325684,3.1413656100044705,0.0
1759827971.2230701,1,-1.8309177015654706e-06,5.999988857137697,3.141125703665423,0.0,8.000000953674316,5.999999046325684,3.1413420964445073,0.0
1759827971.2311413,1,-1.8309437136739043e-06,5.999990249090769,3.141214234231661,0.0,8.000000953674316,5.999999046325684,3.141369719262208,0.0
1759827971.24147,1,-1.83096571119476e-06,5.999991426216291,3.1412891014029305,0.0,8.000000953674316,5.999999046325684,3.141383528311353,0.0
1759827971.2515833,1,-1.8309831668160689e-06,5.999992360296885,3.1413485105062886,0.0,8.000000953674316,5.999999046325684,3.1413951809744916,0.0
1759827971.2630196,1,-1.8309970328769709e-06,5.999993102293872,3.1413957027677806,0.0,8.000000953674316,5.999999046325684,3.141399610597407,0.0
1759827971.2731209,1,-1.831008092723494e-06,5.999993694125457,3.141433344256079,0.0,8.000000953674316,5.999999046325684,3.1414094785700026,0.0
1759827971.2842982,1,-1.831016925390884e-06,5.99999416677682,3.141463405681027,0.0,8.000000953674316,5.999999046325684,3.141414243037561,0.0
1759827971.294981,1,-1.8310244159364742e-06,5.999994567608916,3.141488899279296,0.0,8.000000953674316,5.999999046325684,3.1414208604574156,0.0
1759827971.305255,1,-1.8310303569171725e-06,5.999994885521105,3.141509119031439,0.0,8.000000953674316,5.999999046325684,3.1414286338782063,0.0
1759827971.3172143,1,-1.8310350722678018e-06,5.999995137847702,3.1415251674291413,0.0,8.000000953674316,5.999999046325684,3.1414299026205867,0.0
1759827971.3285735,1,-1.8310388277577066e-06,5.999995338810486,3.1415379490015622,0.0,8.000000953674316,5.999999046325684,3.141434165909452,0.0
1759827971.3386695,1,-1.8310418307846886e-06,5.999995499507671,3.1415481696140057,0.0,8.000000953674316,5.999999046325684,3.1414428858188153,0.0
1759827971.3500907,1,-1.831044368656021e-06,5.999995635313571,3.141556807098609,0.0,8.000000953674316,5.999999046325684,3.1414465156108893,0.0
1759827971.3607833,1,-1.831046381980928e-06,5.999995743050081,3.141563659322622,0.0,8.000000953674316,5.999999046325684,3.141452387139566,0.0
1759827971.3720315,1,-1.8310479823265817e-06,5.9999958286873545,3.1415691059978603,0.0,8.000000953674316,5.999999046325684,3.141456363039296,0.0
1759827971.382401,1,-1.8310492589621884e-06,5.999995897002342,3.141573450946423,0.0,8.000000953674316,5.999999046325684,3.141462783982945,0.0
1759827971.3935864,1,-1.8310502789867068e-06,5.999995951585625,3.1415769225353727,0.0,8.000000953674316,5.999999046325684,3.1414664249406634,0.0
1759827971.4049106,1,-1.8310511448158945e-06,5.999995997917647,3.1415798693302643,0.0,8.000000953674316,5.999999046325684,3.1414697122529844,0.0
1759827971.416963,1,-1.8310518305623055e-06,5.999996034613128,3.141582203224812,0.0,8.000000953674316,5.999999046325684,3.141471462786427,0.0
1759827971.4329174,1,-1.8310523730340417e-06,5.999996063641731,3.141584049493065,0.0,8.000000953674316,5.999999046325684,3.141464988094395,0.0
1759827971.4435675,1,-1.831052806162183e-06,5.99999608681917,3.141585523617306,0.0,8.000000953674316,5.999999046325684,3.141473833826616,0.0
1759827971.4547508,1,-1.8310531724833497e-06,5.999996106421652,3.141586770368234,0.0,8.000000953674316,5.999999046325684,3.1414807968228935,0.0
1759827971.4661715,1,-1.8310534625237525e-06,5.9999961219422175,3.141587757502405,0.0,8.000000953674316,5.999999046325684,3.1414861521464026,0.0
1759827971.4772549,1,-1.831053692871437e-06,5.999996134268522,3.1415885414761835,0.0,8.000000953674316,5.999999046325684,3.141491531651342,0.0
1759827971.488448,1,-1.8310538762717766e-06,5.999996144082593,3.1415891656676416,0.0,8.000000953674316,5.999999046325684,3.1414960491951653,0.0
1759827971.4992208,1,-1.8310540227438605e-06,5.999996151920568,3.141589664176118,0.0,8.000000953674316,5.999999046325684,3.1415008634616335,0.0
1759827971.5100572,1,-1.831054146731587e-06,5.9999961585553665,3.1415900861605053,0.0,8.000000953674316,5.999999046325684,3.141504972907466,0.0
1759827971.5201328,1,-1.831054245069171e-06,5.999996163817581,3.1415904208462537,0.0,8.000000953674316,5.999999046325684,3.141509922490293,0.0
1759827971.5314221,1,-1.8310543231535041e-06,5.999996167996009,3.141590686601344,0.0,8.000000953674316,5.999999046325684,3.141512100090843,0.0
1759827971.5424886,1,-1.8310543853361922e-06,5.999996171323513,3.141590898236191,0.0,8.000000953674316,5.999999046325684,3.1415146070781006,0.0
1759827971.5539632,1,-1.8310544349637143e-06,5.999996173979167,3.1415910671403244,0.0,8.000000953674316,5.999999046325684,3.1415164864297687,0.0
1759827971.5640852,1,-1.8310544770824719e-06,5.999996176233015,3.1415912104888526,0.0,8.000000953674316,5.999999046325684,3.1415205481968016,0.0
1759827971.5752666,1,-1.8310545104388663e-06,5.999996178017974,3.141591324015232,0.0,8.000000953674316,5.999999046325684,3.1415225810064964,0.0
1759827971.586662,1,-1.8310545369203214e-06,5.999996179435042,3.141591414143189,0.0,8.000000953674316,5.999999046325684,3.1415242611885397,0.0
1759827971.5978332,1,-1.831054558005481e-06,5.999996180563346,3.141591485905196,0.0,8.000000953674316,5.999999046325684,3.141526393994644,0.0
1759827971.6092274,1,-1.831054574834325e-06,5.999996181463887,3.141591543181103,0.0,8.000000953674316,5.999999046325684,3.1415282580174644,0.0
1759827971.6203804,1,-1.8310545890775241e-06,5.999996182226066,3.1415915916569306,0.0,8.000000953674316,5.999999046325684,3.141530485161873,0.0
1759827971.631705,1,-1.8310546003626053e-06,5.99999618282995,3.141591630064991,0.0,8.000000953674316,5.999999046325684,3.1415324513572465,0.0
1759827971.6424153,1,-1.831054609333682e-06,5.9999961833100075,3.1415916605974834,0.0,8.000000953674316,5.999999046325684,3.141535116973728,0.0
1759827971.6530674,1,-1.83105461648381e-06,5.999996183692623,3.1415916849324925,0.0,8.000000953674316,5.999999046325684,3.14153760563358,0.0
1759827971.6636822,1,-1.8310546221971917e-06,5.9999961839983555,3.141591704377625,0.0,8.000000953674316,5.999999046325684,3.141539869242866,0.0
1759827971.6750886,1,-1.8310546270314283e-06,5.999996184257044,3.1415917208306436,0.0,8.000000953674316,5.999999046325684,3.141541073304598,0.0
1759827971.6853065,1,-1.8310546308669893e-06,5.999996184462291,3.1415917338847326,0.0,8.000000953674316,5.999999046325684,3.1415435738558646,0.0
1759827971.696478,1,-1.8310546339146169e-06,5.999996184625376,3.141591744257141,0.0,8.000000953674316,5.999999046325684,3.14154486909122,0.0
1759827971.7072845,1,-1.8310546363435084e-06,5.99999618475535,3.1415917525237194,0.0,8.000000953674316,5.999999046325684,3.1415465097697,0.0
1759827971.7173588,1,-1.8310546382857236e-06,5.999996184859281,3.1415917591339264,0.0,8.000000953674316,5.999999046325684,3.1415487732067984,0.0
1759827971.7281704,1,-1.8310546399302074e-06,5.99999618494728,3.141591764730823,0.0,8.000000953674316,5.999999046325684,3.1415500955234066,0.0
1759827971.7384717,1,-1.8310546412346728e-06,5.999996185017085,3.141591769170488,0.0,8.000000953674316,5.999999046325684,3.1415517952625223,0.0
1759827971.74978,1,-1.8310546422708933e-06,5.9999961850725345,3.1415917726971996,0.0,8.000000953674316,5.999999046325684,3.141552510202878,0.0
1759827971.760561,1,-1.831054643096688e-06,5.999996185116724,3.1415917755077394,0.0,8.000000953674316,5.999999046325684,3.1415537686521926,0.0
1759827971.7711608,1,-1.8310546437565915e-06,5.999996185152037,3.1415917777536797,0.0,8.000000953674316,5.999999046325684,3.141555174301578,0.0
1759827971.7816823,1,-1.8310546442852912e-06,5.999996185180329,3.1415917795530754,0.0,8.000000953674316,5.999999046325684,3.141556557558081,0.0
1759827971.7917843,1,-1.8310546447362916e-06,5.999996185204464,3.1415917810880267,0.0,8.000000953674316,5.999999046325684,3.1415581479610726,0.0
1759827971.8031797,1,-1.831054645094186e-06,5.9999961852236146,3.1415917823060973,0.0,8.000000953674316,5.999999046325684,3.1415586411157026,0.0
1759827971.8138547,1,-1.8310546453791758e-06,5.999996185238865,3.141591783276042,0.0,8.000000953674316,5.999999046325684,3.141559748882294,0.0
1759827971.8243377,1,-1.8310546456067314e-06,5.9999961852510415,3.1415917840505134,0.0,8.000000953674316,5.999999046325684,3.141560980124229,0.0
1759827971.839071,1,-1.8310546457983197e-06,5.999996185261294,3.141591784702572,0.0,8.000000953674316,5.999999046325684,3.1415594315340307,0.0
1759827971.8503966,1,-1.831054645950156e-06,5.999996185269419,3.1415917852193376,0.0,8.000000953674316,5.999999046325684,3.141560738162868,0.0
1759827971.8612556,1,-1.8310546460708706e-06,5.9999961852758785,3.1415917856301814,0.0,8.000000953674316,5.999999046325684,3.141562395225831,0.0
1759827971.8724046,1,-1.83105464616706e-06,5.999996185281026,3.1415917859575564,0.0,8.000000953674316,5.999999046325684,3.141563686054626,0.0
1759827971.883319,1,-1.831054646243928e-06,5.99999618528514,3.141591786219172,0.0,8.000000953674316,5.999999046325684,3.1415649692622925,0.0
1759827971.8943195,1,-1.8310546463088658e-06,5.999996185288614,3.141591786440184,0.0,8.000000953674316,5.999999046325684,3.141566074109212,0.0
1759827971.9053571,1,-1.8310546463603964e-06,5.999996185291372,3.141591786615565,0.0,8.000000953674316,5.999999046325684,3.141567063396929,0.0
1759827971.915995,1,-1.831054646401412e-06,5.999996185293567,3.1415917867551593,0.0,8.000000953674316,5.999999046325684,3.1415681814024765,0.0
1759827971.9261794,1,-1.8310546464341562e-06,5.999996185295319,3.1415917868666017,0.0,8.000000953674316,5.999999046325684,3.1415694004707717,0.0
1759827971.9371853,1,-1.8310546464603374e-06,5.99999618529672,3.141591786955707,0.0,8.000000953674316,5.999999046325684,3.1415700734633525,0.0
1759827971.947441,1,-1.8310546464825754e-06,5.99999618529791,3.1415917870313925,0.0,8.000000953674316,5.999999046325684,3.1415710528987795,0.0
1759827971.9586012,1,-1.8310546465002123e-06,5.999996185298853,3.141591787091419,0.0,8.000000953674316,5.999999046325684,3.1415715459166194,0.0
1759827971.9686403,1,-1.8310546465142538e-06,5.999996185299604,3.141591787139208,0.0,8.000000953674316,5.999999046325684,3.1415725254627596,0.0
1759827971.9797893,1,-1.8310546465254462e-06,5.999996185300203,3.141591787177301,0.0,8.000000953674316,5.999999046325684,3.1415729534896446,0.0
1759827971.9908676,1,-1.831054646534392e-06,5.999996185300682,3.1415917872077475,0.0,8.000000953674316,5.999999046325684,3.1415734317370685,0.0
1759827972.0019512,1,-1.8310546465419841e-06,5.999996185301088,3.1415917872335863,0.0,8.000000953674316,5.999999046325684,3.1415739442727446,0.0
1759827972.0124536,1,-1.8310546465480084e-06,5.99999618530141,3.14159178725409,0.0,8.000000953674316,5.999999046325684,3.141574687739226,0.0
1759827972.0237284,1,-1.8310546465527967e-06,5.999996185301667,3.141591787270387,0.0,8.000000953674316,5.999999046325684,3.1415751038420723,0.0
1759827972.0338094,1,-1.8310546465566177e-06,5.999996185301871,3.141591787283392,0.0,8.000000953674316,5.999999046325684,3.1415759453652647,0.0
1759827972.0443988,1,-1.8310546465596725e-06,5.9999961853020345,3.141591787293789,0.0,8.000000953674316,5.999999046325684,3.1415765260361788,0.0
1759827972.055406,1,-1.8310546465622568e-06,5.999996185302173,3.1415917873025845,0.0,8.000000953674316,5.999999046325684,3.1415769232549344,0.0
1759827972.0664055,1,-1.831054646564307e-06,5.999996185302282,3.141591787309562,0.0,8.000000953674316,5.999999046325684,3.141577335409975,0.0
1759827972.0775783,1,-1.8310546465659374e-06,5.99999618530237,3.141591787315111,0.0,8.000000953674316,5.999999046325684,3.1415777119234214,0.0
1759827972.0876877,1,-1.8310546465672388e-06,5.9999961853024395,3.14159178731954,0.0,8.000000953674316,5.999999046325684,3.141578414845874,0.0
1759827972.0989294,1,-1.8310546465682788e-06,5.9999961853024955,3.141591787323079,0.0,8.000000953674316,5.999999046325684,3.141578726276716,0.0
1759827972.1093833,1,-1.8310546465691614e-06,5.9999961853025425,3.141591787326083,0.0,8.000000953674316,5.999999046325684,3.1415792611095075,0.0
1759827972.1208081,1,-1.831054646569861e-06,5.999996185302581,3.1415917873284642,0.0,8.000000953674316,5.999999046325684,3.1415795095579746,0.0
1759827972.132079,1,-1.8310546465704175e-06,5.99999618530261,3.141591787330358,0.0,8.000000953674316,5.999999046325684,3.141579829956246,0.0
1759827972.1433866,1,-1.8310546465708612e-06,5.999996185302634,3.1415917873318677,0.0,8.000000953674316,5.999999046325684,3.14158016853621,0.0
1759827972.1536584,1,-1.831054646571216e-06,5.999996185302653,3.1415917873330756,0.0,8.000000953674316,5.999999046325684,3.141580762057309,0.0
1759827972.165055,1,-1.8310546465715176e-06,5.999996185302669,3.141591787334102,0.0,8.000000953674316,5.999999046325684,3.1415810363382413,0.0
1759827972.1761754,1,-1.8310546465717567e-06,5.999996185302681,3.1415917873349155,0.0,8.000000953674316,5.999999046325684,3.1415813783018027,0.0
1759827972.1876388,1,-1.8310546465719469e-06,5.999996185302692,3.141591787335562,0.0,8.000000953674316,5.999999046325684,3.1415816517691155,0.0
1759827972.198331,1,-1.8310546465720985e-06,5.9999961853027,3.141591787336078,0.0,8.000000953674316,5.999999046325684,3.14158209690504,0.0
1759827972.2092764,1,-1.8310546465722196e-06,5.999996185302706,3.1415917873364907,0.0,8.000000953674316,5.999999046325684,3.1415824583089638,0.0
1759827972.2199128,1,-1.831054646572322e-06,5.999996185302711,3.1415917873368397,0.0,8.000000953674316,5.999999046325684,3.1415828529697976,0.0
1759827972.238194,1,-1.831054646572403e-06,5.999996185302716,3.1415917873371146,0.0,8.000000953674316,5.999999046325684,3.141581857627809,0.0
1759827972.2443986,1,-1.8310546465724676e-06,5.999996185302719,3.141591787337335,0.0,8.000000953674316,5.999999046325684,3.1415833280143417,0.0
1759827972.2550213,1,-1.8310546465725193e-06,5.999996185302723,3.1415917873375108,0.0,8.000000953674316,5.999999046325684,3.1415837943056246,0.0
1759827972.2653482,1,-1.831054646572563e-06,5.999996185302725,3.141591787337659,0.0,8.000000953674316,5.999999046325684,3.1415841836815357,0.0
1759827972.276124,1,-1.8310546465725976e-06,5.999996185302726,3.1415917873377768,0.0,8.000000953674316,5.999999046325684,3.14158444791331,0.0
1759827972.2863817,1,-1.8310546465726251e-06,5.999996185302728,3.1415917873378705,0.0,8.000000953674316,5.999999046325684,3.1415847715596676,0.0
1759827972.297518,1,-1.8310546465726472e-06,5.99999618530273,3.141591787337945,0.0,8.000000953674316,5.999999046325684,3.1415849335463992,0.0
1759827972.3087487,1,-1.8310546465726645e-06,5.999996185302731,3.141591787338004,0.0,8.000000953674316,5.999999046325684,3.1415850906326206,0.0
1759827972.3202655,1,-1.8310546465726793e-06,5.999996185302731,3.1415917873380543,0.0,8.000000953674316,5.999999046325684,3.1415852271970905,0.0
1759827972.330374,1,-1.831054646572691e-06,5.999996185302731,3.1415917873380943,0.0,8.000000953674316,5.999999046325684,3.1415855731017643,0.0
1759827972.341957,1,-1.8310546465727e-06,5.999996185302731,3.1415917873381263,0.0,8.000000953674316,5.999999046325684,3.1415856925315886,0.0
1759827972.3521605,1,-1.8310546465727075e-06,5.999996185302731,3.141591787338151,0.0,8.000000953674316,5.999999046325684,3.14158599473069,0.0
1759827972.363698,1,-1.8310546465727134e-06,5.999996185302731,3.1415917873381716,0.0,8.000000953674316,5.999999046325684,3.1415861082336445,0.0
1759827972.3751185,1,-1.8310546465727185e-06,5.999996185302731,3.1415917873381884,0.0,8.000000953674316,5.999999046325684,3.141586248431757,0.0
1759827972.3854501,1,-1.8310546465727223e-06,5.999996185302731,3.1415917873382018,0.0,8.000000953674316,5.999999046325684,3.1415865237788108,0.0
1759827972.3964531,1,-1.8310546465727255e-06,5.999996185302731,3.1415917873382124,0.0,8.000000953674316,5.999999046325684,3.141586698563529,0.0
1759827972.4073844,1,-1.831054646572728e-06,5.999996185302731,3.141591787338221,0.0,8.000000953674316,5.999999046325684,3.1415868711370756,0.0
1759827972.417824,1,-1.83105464657273e-06,5.999996185302731,3.1415917873382275,0.0,8.000000953674316,5.999999046325684,3.1415870872039875,0.0
1759827972.4286757,1,-1.8310546465727316e-06,5.999996185302731,3.1415917873382337,0.0,8.000000953674316,5.999999046325684,3.1415872428877094,0.0
1759827972.4422474,1,-1.831054646572733e-06,5.999996185302731,3.141591787338238,0.0,8.000000953674316,5.999999046325684,3.1415871397012225,0.0
1759827972.4523692,1,-1.831054646572734e-06,5.999996185302731,3.1415917873382417,0.0,8.000000953674316,5.999999046325684,3.141587419434968,0.0
1759827972.4633331,1,-1.8310546465727348e-06,5.999996185302731,3.1415917873382444,0.0,8.000000953674316,5.999999046325684,3.141587601391416,0.0
1759827972.4734359,1,-1.8310546465727357e-06,5.999996185302731,3.141591787338247,0.0,8.000000953674316,5.999999046325684,3.1415878345308528,0.0
1759827972.4847438,1,-1.831054646572736e-06,5.999996185302731,3.141591787338249,0.0,8.000000953674316,5.999999046325684,3.1415879370262765,0.0
1759827972.4957438,1,-1.8310546465727365e-06,5.999996185302731,3.1415917873382506,0.0,8.000000953674316,5.999999046325684,3.1415880634017785,0.0
1759827972.5070374,1,-1.831054646572737e-06,5.999996185302731,3.1415917873382515,0.0,8.000000953674316,5.999999046325684,3.141588166725512,0.0
1759827972.5182452,1,-1.8310546465727374e-06,5.999996185302731,3.1415917873382524,0.0,8.000000953674316,5.999999046325684,3.1415882798293957,0.0
1759827972.5292819,1,-1.8310546465727376e-06,5.999996185302731,3.1415917873382533,0.0,8.000000953674316,5.999999046325684,-3.0645968706867466,-2.6109424045017705e-08
1759827972.5404875,1,-1.8310546465727376e-06,5.999996185302731,3.141591787338254,0.0,8.000000953674316,5.999999046325684,-3.064596760693541,-2.6109424045017705e-08
1759827972.5537934,1,-1.8310546465727376e-06,5.999996185302731,3.141591787338255,0.0,8.000000953674316,5.999999046325684,-3.064596787833369,-2.6109424045017705e-08
1759827972.5642905,1,-1.8310546465727376e-06,5.999996185302731,3.141591787338255,0.0,8.000000953679537,5.999999046325684,-3.126658174477509,-2.637051828546788e-08
1759827972.574577,1,-1.8310546465727376e-06,5.999996185302731,3.141591787338255,0.0,8.000000953697668,5.999999046324466,3.0659460985858997,-2.6751593232443224e-08
1759827972.5847468,1,-1.8310546465727376e-06,5.999996185302731,3.141591787338255,0.0,8.000000953704475,5.999999046317227,3.0322109567076123,-2.6893517544074356e-08
1759827972.5971246,1,-1.8310546465727376e-06,5.999996185302731,3.141591787338255,0.0,8.000000953729607,5.999999046306975,2.953017758138712,-2.987001968471251e-08
1759827972.6081736,1,-1.8310546465727376e-06,5.999996185302731,3.141591787338255,0.0,8.000000953726015,5.999999046280806,2.95188512095535,-3.2262785903453656e-08
1759827972.6196783,1,-1.8310546465727376e-06,5.999996185302731,3.141591787338255,0.0,8.000000953710066,5.999999046242921,2.950997163953934,-3.4223056072297894e-08
1759827972.6302764,1,-1.8310546465727376e-06,5.999996185302731,3.141591787338255,0.0,8.00000095368604,5.999999046198159,2.95108288618998,-3.583904450858409e-08
1759827972.6469307,1,-1.8310546465727376e-06,5.999996185302731,3.141591787338255,0.0,7.423211393488626,5.870201178623368,2.9493261734927563,4.0
1759827972.6580465,1,-1.8310546465727376e-06,5.999996185302731,3.141591787338255,0.0,7.227035818759205,5.870200665343774,2.924323420512142,4.0
1759827972.6717277,1,-1.8310546465727376e-06,5.999996185302731,3.141591787338255,0.0,7.142312859491643,5.869142544761444,2.9227516578334813,4.0
1759827972.6828835,1,-1.8310546465727376e-06,5.999996185302731,3.141591787338255,0.0,7.109674734686992,5.868481173945994,2.923071826334008,4.0
1759827972.6965456,1,-1.8310546465727376e-06,5.999996185302731,3.141591787338255,0.0,7.075917384737984,5.867042629836835,2.9192023821380246,4.0
1759827972.7077382,1,-1.8310546465727376e-06,5.999996185302731,3.141591787338255,0.0,7.074441013086948,5.8670425961721495,2.919202519529574,4.0
1759827972.7192476,1,-1.8310546465727376e-06,5.999996185302731,3.141591787338255,0.0,7.053454537883976,5.866073232271207,2.9141213847605996,4.0
1759827972.7297146,1,-1.8310546465727376e-06,5.999996185302731,3.141591787338255,0.0,7.048097410581776,5.8659394467320825,2.9133254555256523,4.0
1759827972.740774,1,-1.8310546465727376e-06,5.999996185302731,3.141591787338255,0.0,7.042419200543353,5.865954528863093,2.913337849791824,4.0
1759827972.751306,1,-1.8310546465727376e-06,5.999996185302731,3.141591787338255,0.0,7.03864466003448,5.866065891006913,2.9101658007137945,4.0
1759827972.7627223,1,-1.8310546465727376e-06,5.999996185302731,3.141591787338255,0.0,7.037517648144007,5.866065886803075,2.9101658450548147,4.0
1759827972.7740724,1,-1.8310546465727376e-06,5.999996185302731,3.141591787338255,0.0,7.031374970147846,5.866106469143528,2.9075658508685667,4.0
1759827972.7887192,1,-1.8310546465727376e-06,5.999996185302731,3.141591787338255,0.0,7.024216787415696,5.866139116157131,2.9076679872471733,4.0
1759827972.798919,1,-1.8310546465727376e-06,5.999996185302731,3.141591787338255,0.0,7.027695632859324,5.866230009822464,2.9085289631765368,4.0
1759827972.8096986,1,-1.8310546465727376e-06,5.999996185302731,3.141591787338255,0.0,7.027517589317124,5.866406584935838,2.9099436241300367,4.0
1759827972.823004,1,-1.8310546465727376e-06,5.999996185302731,3.141591787338255,0.0,7.02396533816761,5.8664065914510415,2.909943616778188,4.0
1759827972.834378,1,-1.8310546465727376e-06,5.999996185302731,3.141591787338255,0.0,7.023795151225102,5.866676752200695,2.9068606647870117,4.0
1759827972.8493705,1,-1.8310546465727376e-06,5.999996185302731,3.141591787338255,0.0,6.410453107842404,5.844906096203851,2.9075211270477435,4.0
1759827972.8598115,1,-1.8310546465727376e-06,5.999996185302731,3.141591787338255,0.0,6.187409019012254,5.84490414358508,2.8931970580429507,4.0
1759827972.870547,1,-1.8310546465727376e-06,5.999996185302731,3.141591787338255,0.0,6.090538150110257,5.844726100671942,2.8911635684120784,4.0
1759827972.8898616,1,-1.8310546465727376e-06,5.999996185302731,3.141591787338255,0.0,6.013636853570974,5.8438436391930235,2.8900637448982764,4.0
1759827972.901301,1,-1.8310546465727376e-06,5.999996185302731,3.141591787338255,0.0,5.997575646968787,5.84351497329947,2.8905879437544426,4.0
1759827972.9117646,1,-1.8310546465727376e-06,5.999996185302731,3.141591787338255,0.0,5.987535024627781,5.843293886076578,2.891719043483343,4.0
1759827972.9250026,1,-1.8310546465727376e-06,5.999996185302731,3.141591787338255,0.0,5.973772784589283,5.843225711825244,2.8883484076534582,4.0
1759827972.9357078,1,-1.8310546465727376e-06,5.999996185302731,3.141591787338255,0.0,5.969380885374836,5.842953844631306,2.886422392514129,4.0
1759827972.946691,1,-1.8310546465727376e-06,5.999996185302731,3.141591787338255,0.0,5.9597426733753425,5.842297871282068,2.8855154942564814,4.0
1759827972.9599514,1,-1.8310546465727376e-06,5.999996185302731,3.141591787338255,0.0,5.955807736116115,5.842297873697482,2.885515509567661,4.0
1759827972.970117,1,-1.8310546465727376e-06,5.999996185302731,3.141591787338255,0.0,5.95334436961753,5.841892330532128,2.8874680854386936,4.0
1759827972.980178,1,-1.8310546465727376e-06,5.999996185302731,3.141591787338255,0.0,5.955107598785456,5.841892320031467,2.887468136741315,4.0
1759827972.9908419,1,-1.8310546465727376e-06,5.999996185302731,3.141591787338255,0.0,5.949864197352533,5.8416036512759275,2.884163466856889,4.0
1759827973.002026,1,-1.8310546465727376e-06,5.999996185302731,3.141591787338255,0.0,5.947114115577425,5.8413677978829215,2.884018701074728,4.0
1759827973.0154371,1,-1.8310546465727376e-06,5.999996185302731,3.141591787338255,0.0,5.941377892188577,5.841176666651533,2.884639148015545,4.0
1759827973.0267668,1,-1.8310546465727376e-06,5.999996185302731,3.141591787338255,0.0,5.94243351219391,5.8410710639754395,2.885822965217561,4.0
1759827973.0493927,1,-1.8310546465727376e-06,5.999996185302731,3.141591787338255,0.0,5.519186206979004,5.883655948197092,2.8838308502325045,3.807934405283331
1759827973.05947,1,-1.8310546465727376e-06,5.999996185302731,3.141591787338255,0.0,5.3677241607186765,5.883295753918374,2.8793556950528747,3.8080394818285384
1759827973.0704508,1,-1.8310546465727376e-06,5.999996185302731,3.141591787338255,0.0,5.304559908928736,5.88358161681518,2.879960517545922,3.8061559900445987
1759827973.0810478,1,-1.8310546465727376e-06,5.999996185302731,3.141591787338255,0.0,5.278951073431931,5.883865968828155,2.881132083276371,3.8046300035474676
1759827973.0952754,1,-1.8310546465727376e-06,5.999996185302731,3.141591787338255,0.0,5.253740540303999,5.88456714093258,2.878736837872425,3.8013205516601776
1759827973.1067443,1,-1.8310546465727376e-06,5.999996185302731,3.141591787338255,0.0,5.233630692202889,5.885223569565719,2.877358983078718,3.7965422711732235
1759827973.1169188,1,-1.8310546465727376e-06,5.999996185302731,3.141591787338255,0.0,5.234780524407298,5.885223598981602,2.8773589544821068,3.7965422711732235
1759827973.1274958,1,-1.8310546465727376e-06,5.999996185302731,3.141591787338255,0.0,5.2279257945653885,5.885421130775623,2.8779040114450436,3.7948385721620914
1759827973.1424787,1,-1.8310546465727376e-06,5.999996185302731,3.141591787338255,0.0,5.216588058434722,5.885631686505162,2.879080206628323,3.7934325558453983
1759827973.1531935,1,-1.8310546465727376e-06,5.999996185302731,3.141591787338255,0.0,5.214999849260893,5.885828898478739,2.8769840159551774,3.7922329993499364
1759827973.1640706,1,-1.8310546465727376e-06,5.999996185302731,3.141591787338255,0.0,5.2089842952171015,5.885825042299409,2.8761040709802783,3.7904880943925248
1759827973.1777828,1,-1.8310546465727376e-06,5.999996185302731,3.141591787338255,0.0,5.2057020410825565,5.885825060765265,2.8761040011554138,3.7904880943925248
1759827973.1879861,1,-1.8310546465727376e-06,5.999996185302731,3.141591787338255,0.0,5.204425994547084,5.885875818823579,2.878184944688177,3.7893213619066923
1759827973.198845,1,-1.8310546465727376e-06,5.999996185302731,3.141591787338255,0.0,5.204838657033628,5.885875815669935,2.878184955968122,3.7893213619066923
1759827973.2095878,1,-1.8310546465727376e-06,5.999996185302731,3.141591787338255,0.0,5.2017673499549755,5.885948682069189,2.8761479111127035,3.7885236369999804
1759827973.225186,1,-1.8310546465727376e-06,5.999996185302731,3.141591787338255,0.0,5.194436293780819,5.8859093381590535,2.8763948574634304,3.7882379574492577
1759827973.2365062,1,-1.8310546465727376e-06,5.999996185302731,3.141591787338255,0.0,5.1967393638471355,5.8859060762779585,2.8772943049264135,3.7880025533196338
1759827973.2530441,1,-1.8310546465727376e-06,5.999996185302731,3.141591787338255,0.0,4.813089837754643,5.8976221430758615,2.878676795998119,3.419825627636065
1759827973.2638347,1,-1.8310546465727376e-06,5.999996185302731,3.141591787338255,0.0,4.670688184951033,5.897666898822888,2.8695143217622223,3.4195296353152864
1759827973.2752216,1,-1.8310546465727376e-06,5.999996185302731,3.141591787338255,0.0,4.611896031739509,5.89769491862159,2.869488265586494,3.415743457153428
1759827973.2882025,1,-1.8310546465727376e-06,5.999996185302731,3.141591787338255,0.0,4.584366729439431,5.897720762177695,2.8700477872005434,3.412685264178032
1759827973.2989373,1,-1.8310546465727376e-06,5.999996185302731,3.141591787338255,0.0,4.573801053739641,5.897785892939816,2.871213884370274,3.4101649163058267
1759827973.3097246,1,-1.8310546465727376e-06,5.999996185302731,3.141591787338255,0.0,4.560908911396369,5.897994519023636,2.868683136563493,3.4041484515660656
1759827973.3200192,1,-1.8310546465727376e-06,5.999996185302731,3.141591787338255,0.0,4.551899266377937,5.897999108172157,2.867411900515593,3.3993332817125745
1759827973.3334076,1,-1.8310546465727376e-06,5.999996185302731,3.141591787338255,0.0,4.541171388282206,5.897925319833498,2.8670279439995436,3.395449232252259
1759827973.343651,1,-1.8310546465727376e-06,5.999996185302731,3.141591787338255,0.0,4.537752275820739,5.89784542527772,2.8674421000734305,3.392313052178922
1759827973.354583,1,-1.8310546465727376e-06,5.999996185302731,3.141591787338255,0.0,4.5332011578721705,5.8978109953670375,2.8685051246935296,3.389774001832641
1759827973.3683126,1,-1.8310546465727376e-06,5.999996185302731,3.141591787338255,0.0,4.525876590104577,5.897802681678867,2.866457288616237,3.387612886955582
1759827973.3794105,1,-1.8310546465727376e-06,5.999996185302731,3.141591787338255,0.0,4.521774364476881,5.8975239957958845,2.8655434679443332,3.3844249036757335
1759827973.390053,1,-1.8310546465727376e-06,5.999996185302731,3.141591787338255,0.0,4.520873519024447,5.897404134099421,2.866172910588152,3.3832606177298485
1759827973.4007316,1,-1.8310546465727376e-06,5.999996185302731,3.141591787338255,0.0,4.5196200514225415,5.897352123462061,2.867337194638505,3.3823312332811195
1759827973.4146576,1,-1.8310546465727376e-06,5.999996185302731,3.141591787338255,0.0,4.51601151366955,5.897352366161656,2.8673364629280225,3.3823312332811195
1759827973.4250255,1,-1.8310546465727376e-06,5.999996185302731,3.141591787338255,0.0,4.51610241766574,5.8974744760030715,2.8673484482265317,3.380922448047129
1759827973.43595,1,-1.8310546465727376e-06,5.999996185302731,3.141591787338255,0.0,4.515469465761455,5.897456054378509,2.8667986250729354,3.3804044126443737
1759827973.4508326,1,-1.8310546465727376e-06,5.999996185302731,3.141591787338255,0.0,4.21241505604421,5.916279599712661,2.8670953677349402,2.7876485430094755
1759827973.4612827,1,-1.8310546465727376e-06,5.999996185302731,3.141591787338255,0.0,4.098236196124834,6.0701517554222,-2.7907161119090014,2.7873045331495105
1759827973.4838576,1,-1.8310546465727376e-06,5.999996185302731,3.141591787338255,0.0,4.031564834762987,6.0725354760049655,-2.791879112782221,2.7695984754588854
1759827973.4997485,1,-1.8310546465727376e-06,5.999996185302731,3.141591787338255,0.0,4.000697357729265,6.074699917557704,-2.8958801911789522,2.753077240423061
1759827973.5098605,1,-1.8310546465727376e-06,5.999996185302731,3.141591787338255,0.0,3.9908911577943713,6.07338524669239,-2.932477080074633,2.7471797854909243
1759827973.5208426,1,-1.8310546465727376e-06,5.999996185302731,3.141591787338255,0.0,3.990003493176454,6.073386151851726,-2.932470969309168,2.7471797854909243
1759827973.5318563,1,-1.8310546465727376e-06,5.999996185302731,3.141591787338255,0.0,3.969042472579473,6.073951598144524,-2.9870694336463037,2.7383731752698646
1759827973.5427725,1,-3.896274437238706e-06,5.99999618530452,2.5134733594606526,0.00020652197906667437,3.9595679062046534,6.076542300993474,-3.0081100896719013,2.734997465785147
1759827973.5562043,1,-9.676315612958549e-06,5.99999555098285,2.0060218121398847,0.00046251013644379215,3.9489632585888876,6.080216730133051,-3.0252973684991358,2.7322348273175234
1759827973.5671031,1,-1.999131239608891e-05,5.99999666662474,2.2156180174893434,0.0005862147789284314,3.943627249875818,6.08458894454524,-3.039145126616402,2.7300045310518244
1759827973.5783422,1,-3.192410227814651e-05,5.999993675181382,2.383325149518465,0.0006877424574801589,3.943867744789416,6.0845888714082506,-3.0391440796977367,2.7300045310518244
1759827973.5939448,1,-0.02940152005267072,6.002091438395881,1.3499976454268936,0.15426026998859563,3.93434473303847,6.089328874115292,-3.0483799310675574,2.728242248829424
1759827973.6053371,1,-0.05678634332595722,6.005881872528067,0.5322754149200107,0.27608973939453807,3.9295444489067144,6.098705066141883,-3.065184508634429,2.7255408889442734
1759827973.616019,1,-0.07583350977766022,6.007851944753831,-0.1285688118683297,0.37448403866235014,3.9289342131868414,6.103080464556633,-3.071468444882853,2.724532928227696
1759827973.6272392,1,-0.09068789443533591,6.004996875239586,-0.6633719929562426,0.4543022113032382,3.9274749507155478,6.107194403477168,-3.076601022862487,2.7237042811337298
1759827973.6426072,1,-0.10684164959860977,5.9984607294778405,-1.1204790982783817,0.522314284394544,3.922588883327707,6.110959690004103,-3.0807053213850724,2.723033861565606
1759827973.666365,1,-0.12507490198146592,5.991989739059296,-1.483155934913381,0.5758994931300235,3.7627140012562803,6.095313392645811,-3.088975323568582,1.5549095042634642
1759827973.676777,1,-0.14176306663278998,5.984085751858921,-1.2114876812556103,0.6193621529689202,3.704221811716225,6.023023405332376,2.5647968865180317,1.554436030609355
1759827973.6869826,1,-0.15273625681416628,5.976137414723258,-1.008176233223555,0.6504612040811261,3.6819242683504245,6.025342301005511,2.564733756051705,1.554436030609355
1759827973.7024293,1,-0.15929567949241963,5.969262413027574,-0.8397332141153644,0.6758992593557566,3.668647310929332,6.026305152547494,2.618617760653633,1.5328723987433759
1759827973.7124493,1,-0.16248853004772512,5.963905726750734,-0.6977140173126509,0.6964262633348771,3.6647021143876666,6.021586674603105,2.663618985715436,1.5250260224773498
1759827973.7397006,1,-0.16581313863573374,5.961490372799237,-1.1323594631629506,0.7129482600852273,3.6505222299903584,6.006219188590479,2.7286427357296,1.4909081174983014
1759827973.7508292,1,-0.1720068503646869,5.956494605500892,-0.9375728216199946,0.7270058689561741,3.655099068008048,5.999793143464644,2.7530609626152343,1.478815421339087
1759827973.7760773,1,-0.17419112790749097,5.9524319890454365,-0.7725937997127815,0.7382699579927431,3.6524914038611285,5.990569402820897,2.791174276396963,1.4607655541159799
1759827973.7865112,1,-0.1943490637896392,5.9537014915010396,-1.199862382622736,0.8114637221031428,3.6595335890206067,5.98774542025329,2.806304331855521,1.4543467722597603
1759827973.8851547,1,-0.25763193043806215,5.961898545038519,-1.5495328317696369,0.9361604983107227,3.4101493400130374,6.0931941921869885,-2.7897647214625447,1.6770021943110112
1759827973.8947036,1,-0.3169145915655725,5.9708838083933475,-1.8292021968222458,1.0358920172705948,3.364524384115255,6.101757520845163,-2.7846741761393017,1.6762316844366343
1759827973.9060895,1,-0.37314898561101545,5.984401471589267,-2.0672837606814864,1.1205123176068807,3.3458811721218065,6.10486208822174,-2.7836525348342067,1.6762316844366343
1759827973.919172,1,-0.423584456863789,6.002255159344485,-2.261648999683618,1.1895901947027452,3.328646411495015,6.110426373410794,-2.843092806653074,1.6819582201682506
1759827973.9293675,1,-0.46677010409472175,6.023772543321396,-2.4185745681681476,1.2453571510727848,3.321766417278016,6.111525351355218,-2.8881348948323833,1.684935845245478
1759827973.9401984,1,-0.502604016311517,6.047724919963155,-2.5454376458121315,1.2905546289347,3.3149247016161216,6.1117389584432775,-2.9245645642702507,1.6873604771952548
1759827973.952246,1,-0.5315020663381398,6.072874405298247,-2.648146067178082,1.3271503540512881,3.30771901825017,6.112072268094685,-2.9540852042107892,1.6893258841885486
1759827973.9625714,1,-0.5535492023811969,6.097967032525213,-2.735665064053386,1.3592066116484318,3.302184179894936,6.113128263892139,-2.9795338185848688,1.690999857885827
1759827973.9739277,1,-0.5707054930315459,6.122733411216685,-2.8072633377914435,1.3854183654891623,3.29611802908517,6.114847524777725,-3.000308535027959,1.692367839024054
1759827973.9858315,1,-0.6045230106411319,6.149369828028715,-2.864767256796773,1.446302240805924,3.290703114631458,6.117121946554422,-3.017019944777553,1.693469969469998
1759827973.9966433,1,-0.6424811871274743,6.176183974297226,-2.911608908257325,1.4961806069922279,3.2836175488040342,6.122607391249414,-3.0414518227483582,1.6950821680741905
1759827974.00688,1,-0.7079137564500804,6.204524042930444,-2.9506031165140785,1.5803884911965511,3.284128080639242,6.122610390121341,-3.041427065046294,1.6950821680741905
1759827974.0187747,1,-0.7615143717260313,6.2315892080590976,-2.981733851572509,1.64744226410034,3.2787653760413193,6.128356632716932,-3.054388323277305,1.6964233852138386
1759827974.0292923,1,-0.8047510408931139,6.256923706969434,-3.006772064798055,1.7015073801053795,3.277811323236116,6.131047305073383,-3.0604580867089948,1.6968222472883803
1759827974.0397236,1,-0.8395792420362526,6.280389857628752,-3.02695594456435,1.7452036720604345,3.2769534966528187,6.133582508598635,-3.0653976429216705,1.697152889818289
1759827974.0519483,1,-0.8676782290283451,6.3020249544867255,-3.043231052429663,1.7805313714815216,3.27521145561356,6.135899967127495,-3.0693356684833364,1.697420414147656
1759827974.063259,1,-0.8899530201481748,6.319730249501204,-3.0571014285608658,1.8104026775545834,3.275381390561231,6.135901338271272,-3.0693434175404444,1.697420414147656
1759827974.0833316,1,-0.908508221190484,6.336785543952385,-3.068403257366631,1.8349063170291593,3.0408205307761134,6.162531238044417,-3.0752077869555166,2.0786363400239076
1759827974.0931468,1,-0.9231470309221161,6.3521146343797055,-3.0773837000306226,1.8544388542935482,2.960441158532583,6.167034637035613,-3.0814236237756276,2.078797107135627
1759827974.1034544,1,-0.9350599550103986,6.366076424959701,-3.08464375565575,1.8702755564480344,2.926923036997838,6.169673610914461,-3.081819202199915,2.082716558464681
1759827974.1148427,1,-0.9446339451651214,6.378697615703097,-3.090423308945219,1.8829333951702683,2.914245709908476,6.170086779762491,-3.0812021227374027,2.082716558464681
1759827974.1269808,1,-0.9515849324865906,6.387467915355372,-3.09549874979114,1.8939239732772335,2.9060052500976266,6.17165624407622,-3.0817384395534315,2.085893010183379
1759827974.1377368,1,-0.9573586373826098,6.395758547372669,-3.099560792411571,1.9028256283604972,2.898454290527738,6.173146822019824,-3.083008142147319,2.0925892008033173
1759827974.1552265,1,-0.9623416436394063,6.404050955067502,-3.1028416807421415,1.9100942628145752,2.883405977611872,6.175949148173206,-3.0847332427746736,2.1021416564584148
1759827974.1654282,1,-0.9665080346945232,6.411773269506254,-3.1054814983420758,1.916000458209363,2.8830709104198653,6.177359196115215,-3.0854243908569314,2.105595745098949
1759827974.1809967,1,-0.9689457861278429,6.415908475307978,-3.1077568883868048,1.9212823740104035,2.8774559288211528,6.1785930430851295,-3.0857666025930084,2.1083534877431074
1759827974.1918073,1,-0.9923731303620055,6.419779529691197,-3.1095225654007463,1.9073721597462936,2.87738360523044,6.179651775228861,-3.08636014693335,2.1108092530657947
1759827974.2047684,1,-1.0191397702269243,6.423409391652812,-3.1108950634142336,1.896135155797173,2.874640530069783,6.180624183949055,-3.0867274187409506,2.1127888169434184
1759827974.2148144,1,-1.0440717614934563,6.426717238889181,-3.1119600825311053,1.8868261546937508,2.8748061979129096,6.181585309577933,-3.0870975057761485,2.11439159781427
1759827974.2250023,1,-1.0659164114288722,6.429819313839702,-3.1127792842040005,1.8790626672950206,2.873976438661098,6.182477244256576,-3.0873465195285292,2.115691486548603
1759827974.2377326,1,-1.118893516104599,6.428712728231772,-3.113359743899035,1.8535263056835287,2.871150863183307,6.183273882101888,-3.087455488612799,2.1167326803399047
1759827974.2479813,1,-1.161315517211582,6.427736065167658,-3.1137954778628645,1.8331860553256476,2.8714877168313455,6.183730942943528,-3.0835576861005114,2.117675585344923
1759827974.2593188,1,-1.1952928678888908,6.427081866931296,-3.1141236789588183,1.8169624866933736,2.870426417574429,6.1841854481847784,-3.083742000168042,2.11841184891804
1759827974.2709095,1,-1.2237473893937474,6.426764290299194,-3.1143655729441253,1.8034378394689008,2.8689160975453905,6.185124136185171,-3.0838745580405114,2.1195082384955772
1759827974.2875402,1,-1.2467195698787399,6.423813060026917,-3.1145990112365145,1.7920661798265132,2.668861533543384,6.183907721674722,-3.0832679734215227,1.8165533824012063
1759827974.29871,1,-1.2653659738259455,6.421793756076982,-3.114754446405642,1.7829354820790115,2.5939342685173585,6.187760623139191,-3.085283127956799,1.817247937682192
1759827974.3100955,1,-1.2804980376561406,6.42056781934773,-3.114859593666509,1.7755826323261574,2.5631623900617155,6.18929863863269,-3.0847590284474378,1.8144911863489916
1759827974.3207014,1,-1.292892373190927,6.4199876971425445,-3.1149228512113054,1.769641576932427,2.550162372487508,6.189981433340523,-3.08436538835528,1.8122704662729368
1759827974.3310034,1,-1.3031571865651848,6.419956780456757,-3.1149599334509115,1.7648154234005113,2.5439465183682763,6.190322956423262,-3.084032530072992,1.8104365394583755
1759827974.341982,1,-1.3109709925431892,6.417236635039172,-3.115067008700204,1.7605612551772931,2.539955864273951,6.190514448121314,-3.083728519296281,1.808913323696858
1759827974.3537257,1,-1.3175271513581857,6.415640299953108,-3.1151256170382364,1.757150501720631,2.5337816494518353,6.1903563807549045,-3.083914203491753,1.804433709835627
1759827974.3652868,1,-1.323002206117747,6.41492555314458,-3.1151509541806215,1.7544054204992416,2.5294853634755112,6.190177317214346,-3.0840471907999496,1.8008691643870043
1759827974.3783898,1,-1.3276914472378116,6.415039509097326,-3.1151414646854687,1.752195366343616,2.5252256588540605,6.189986662247418,-3.0841035918111643,1.797994421102406
1759827974.389733,1,-1.3521908535149951,6.416323321899148,-3.1149959088620087,1.7647338998113575,2.5233260447270127,6.189867565026266,-3.084159145797219,1.7956801456679958
1759827974.4031904,1,-1.4063761030309596,6.415640076381163,-3.1145181048855686,1.7903041005535878,2.5222821830006232,6.1898498216921345,-3.084120499352157,1.7956801456679958
1759827974.4132347,1,-1.460041063824332,6.416509764645636,-3.1139852554699643,1.8105796791759095,2.5202754819662547,6.189349541054714,-3.0803724685527536,1.7922364426802149
1759827974.4245322,1,-1.5044283820957878,6.41850420341049,-3.1134977548254317,1.8268102759608695,2.518858394753182,6.189029946455275,-3.0804580047488095,1.7909398089526993
1759827974.4363306,1,-1.5422908326572573,6.421322658674817,-3.1130186990562048,1.840348990241451,2.5165488386631583,6.1886309423947,-3.080436214777906,1.7890165581716382
1759827974.447479,1,-1.5735161698852382,6.421531012662996,-3.1127051458090644,1.8517332575869272,2.5168137664178167,6.188635981513356,-3.080456289361847,1.7890165581716382
1759827974.4578762,1,-1.5990406139413373,6.422692965414075,-3.112417599661103,1.8608835461191744,2.516624716393325,6.188547035442442,-3.080436346410892,1.7883113194030935
1759827974.4693053,1,-1.6200377704657287,6.424590028950904,-3.1121412977384266,1.8682548296682897,2.51529438033657,6.187908293824587,-3.079784424744802,1.7872432726366791
1759827974.48408,1,-1.6374979431556738,6.427266981272434,-3.1118818714899628,1.8742640154119161,2.2995478992355527,6.1992500538782975,-3.0794901986825614,1.8700192280076888
1759827974.4943113,1,-1.6517586752702256,6.43023545439357,-3.1116527402635636,1.87906804910496,2.220569887587375,6.2026169744062924,-3.084178224396831,1.869900256744884
1759827974.5057955,1,-1.6629615532610273,6.430111799045446,-3.1115089355534407,1.8831274485486948,2.189238156274045,6.203777754355491,-3.0839704126725738,1.8695889404854682
1759827974.5200787,1,-1.672470326807063,6.431075741781939,-3.111360136464895,1.8864405812087337,2.1702349689300426,6.204439367192859,-3.0835539518618065,1.8706408254092939
1759827974.530759,1,-1.6803458409712033,6.432612305406913,-3.1112202721825977,1.8890762103582874,2.161431350990764,6.204698693210003,-3.0840973386120774,1.8718949977011963
1759827974.5436559,1,-1.6871141523553688,6.434743742308327,-3.1110815223931194,1.8912467229498287,2.149509471419287,6.205153273757108,-3.0847275888089656,1.873691614889539
1759827974.5550601,1,-1.6918548649831313,6.433877166308399,-3.1110203379247974,1.8930161845702649,2.149507206416667,6.205192222294253,-3.0847566383758105,1.873691614889539
1759827974.5655384,1,-1.6960513272199187,6.433929728103637,-3.110944868492837,1.8944657714663713,2.146542996056656,6.205502557307105,-3.084973738327838,1.874354942256328
1759827974.577045,1,-1.6997088505673679,6.434728317283495,-3.1108624773052123,1.8956340865663242,2.1409245006138824,6.2058314805832335,-3.0853434721976973,1.8753375162081567
1759827974.5885134,1,-1.7029052182730586,6.436126469298339,-3.110772092121014,1.8965659304786542,2.1407835258068433,6.205832163106718,-3.0853576747733857,1.8753375162081567
1759827974.6021202,1,-1.7362078592620442,6.438636930959903,-3.110853511937029,1.890043286229339,2.1358341689136013,6.206098891228727,-3.0856016770705548,1.8760072223229807
1759827974.6132782,1,-1.8009869979274093,6.438167710777933,-3.111391835989822,1.8767920377548168,2.136867979429913,6.2061164320932445,-3.0856237807549927,1.8760072223229807
1759827974.6243067,1,-1.8576419044433423,6.438222333432568,-3.111907346987996,1.8661131612116204,2.13491463713173,6.206572738991952,-3.081287883695587,1.8765127091835154
1759827974.6345227,1,-1.9032191635471876,6.438604005693325,-3.1123255713102997,1.857636304131871,2.134841814633242,6.206517999606451,-3.080962972409849,1.8766853754349928
1759827974.6457038,1,-1.9402806439550229,6.439369189512118,-3.1126608385855596,1.8507966179576487,2.1338007240570267,6.20650812038777,-3.080619700406336,1.8768272221480846
1759827974.656281,1,-1.970863246233234,6.440463820876084,-3.1129336393398885,1.845190237171247,2.1334482142571582,6.206552323962318,-3.080322467025627,1.8769430743036286
1759827974.6680331,1,-1.9957145889771324,6.438605193182112,-3.1132530137844174,1.8404004166078067,2.132787230656215,6.206542006511292,-3.0803191958234795,1.8769430743036286
1759827974.6794343,1,-2.015899528428341,6.437704164676079,-3.113502234271438,1.8365589670945592,2.131750863849897,6.206727972221121,-3.079788813888516,1.877110256707554
1759827974.697836,1,-2.032708144294795,6.437986692309791,-3.1136737754916775,1.8334529815591276,1.8969114735852752,6.214188941222294,-3.0801322532006483,1.884432160564971
1759827974.7092407,1,-2.0465089013602706,6.43883745060843,-3.113789440644846,1.8309494558763912,1.8094834259910801,6.217063467462044,-3.0853856071091195,1.884381720460971
1759827974.7204182,1,-2.057175805484081,6.436772843110476,-3.113958441075429,1.8287970436009382,1.7772340445756412,6.2181665533801596,-3.085837454302488,1.884381720460971
1759827974.7319205,1,-2.066028930231195,6.4357607259207015,-3.114064533125497,1.827069636195733,1.7589292609275495,6.218858904693756,-3.086042103127408,1.8845474159402498
1759827974.7421343,1,-2.0732685739859664,6.435529439776566,-3.114126392818524,1.8257006337344157,1.7549888589590774,6.219040294389024,-3.0862658103035767,1.8845474159402498
1759827974.7536,1,-2.079339287700129,6.436001324538548,-3.114153766395339,1.8245971912875154,1.7414257781412736,6.21926798746118,-3.0874936377774658,1.8847650947179042
1759827974.7648208,1,-2.0845170795391876,6.43704047085599,-3.114149183813594,1.8237070393444872,1.7366284859566448,6.219480421393152,-3.087946784190022,1.8848419526729987
1759827974.7751071,1,-2.087908546174588,6.435208191779884,-3.1141977742582823,1.8231422669365294,1.7369612798692395,6.219502111683821,-3.088029312773471,1.8848419526729987
1759827974.7865326,1,-2.112535946833212,6.43635007729952,-3.1142607202048205,1.8399016555741983,1.730182033218853,6.219989915949748,-3.0885172054622263,1.8849561055356365
1759827974.799627,1,-2.140581876698009,6.439114725426763,-3.1143444865164516,1.8534179117964318,1.726625166970027,6.220250336504273,-3.0886851412205933,1.8849968415997918
1759827974.80971,1,-2.1669162150772947,6.442602002020099,-3.1144209126514584,1.8645494748530291,1.726245913125652,6.220251921896561,-3.0889269489166935,1.8850331077171447
1759827974.8207703,1,-2.1901984897531768,6.446568212569314,-3.114486905189962,1.8737780280465255,1.724658243573955,6.2203119960912785,-3.089103708830609,1.8850621730235992
1759827974.8326862,1,-2.2456116484579804,6.450397945726724,-3.1149076716658763,1.89962998984435,1.722843289518116,6.220422189372064,-3.089218331668586,1.885085548575034
1759827974.8428364,1,-2.290427051637981,6.454930562032677,-3.11522832242797,1.92022687226329,1.7227282598782552,6.220592832274419,-3.0850086480608567,1.8852628515106502
1759827974.8537793,1,-2.3269845317648628,6.459919827657567,-3.115477923261031,1.9368434357172741,1.7216942875355576,6.220781940618791,-3.085011654611227,1.8852780592766463
1759827974.8658524,1,-2.3570131459413135,6.465243067364471,-3.115655277491198,1.9502662405740965,1.7203030347190826,6.220669205695219,-3.0846409610188106,1.8853105113865587
1759827974.8771834,1,-2.3816694799647142,6.470719320666228,-3.115781111779269,1.9611482424933506,1.719947152713695,6.220632599135336,-3.084326460456588,1.8853365054861335
1759827974.8904765,1,-2.4020240198616536,6.472979780354629,-3.1159318763052792,1.970496491625497,1.7182529005895222,6.220634642831292,-3.084023511204571,1.8853575819282642
1759827974.907389,1,-2.418944072654726,6.47623691008438,-3.116025368441208,1.9780645529123817,1.4952228693760012,6.240072115450241,-3.0833169564750675,1.9357951139148106
1759827974.9186666,1,-2.43280157659738,6.47981926635603,-3.11607072684615,1.9840924176700647,1.4139473607832864,6.2469525855082,-3.0876513566411887,1.9356043221836436
1759827974.9297493,1,-2.4443012999601783,6.48365069490033,-3.116062320917808,1.9890090502687943,1.3769006542890703,6.24983613369739,-3.0875258259040708,1.9366677338395264
1759827974.9403539,1,-2.4530236549387463,6.484063935020493,-3.116161321273185,1.9934211087495295,1.3654623610781593,6.250821524827361,-3.0874539156010674,1.9366677338395264
1759827974.9520686,1,-2.460469665926439,6.485376594098597,-3.1162146911637687,1.9970271031509548,1.349491202797921,6.25200884676415,-3.087337901870655,1.9381883591240743
1759827974.9626575,1,-2.466794458470763,6.487245075230956,-3.116231908142311,1.9999422859734062,1.3441161081420756,6.252580012130006,-3.0872202162626246,1.9387295136636113
1759827974.973574,1,-2.472245161615209,6.489576100444057,-3.116219432685591,2.002305685754811,1.3399012737680953,6.253057513530741,-3.0871020420439303,1.9391765100185452
1759827974.9847968,1,-2.476998803231802,6.492298097503975,-3.1161845240643182,2.0042255203180583,1.336513218004632,6.253207362626642,-3.087634680043617,1.9395396846945046
1759827974.9984157,1,-2.5332180895675225,6.494776848214556,-3.115541150690268,1.9576680954828198,1.3323523618124904,6.253388222841865,-3.083938028218536,1.9400456597177735
1759827975.0095127,1,-2.5885045096170414,6.496891613226011,-3.1148060208743917,1.9203043943954403,1.3298133174075224,6.253935244557124,-3.084407371159397,1.9404734740693164
1759827975.0209608,1,-2.634076092491606,6.498248315213228,-3.114129456601287,1.8902370604822774,1.3286244075860267,6.254241732844257,-3.084514386268398,1.9406312785705213
1759827975.0310662,1,-2.67085154471956,6.499069166669201,-3.1135224010011306,1.8662428323316989,1.3284758236966512,6.254567960695822,-3.0845858857969475,1.940757550614189
1759827975.0412998,1,-2.700328552966006,6.499628560183958,-3.1130135658374845,1.8470574249352876,1.3287540469133414,6.2545715756002105,-3.0845823567025996,1.940757550614189
1759827975.0527089,1,-2.724948122710704,6.496688436175141,-3.112623886190269,1.8303328016847298,1.3272809579523102,6.254554862242085,-3.084326296627062,1.9408910619219824
1759827975.0646915,1,-2.745566703196946,6.494551780919191,-3.1122348528403974,1.8164947043143316,1.3253549693473035,6.254698838405027,-3.083877176598423,1.9410851022600164
1759827975.075421,1,-2.7623534858310834,6.493049310982561,-3.1118824755064347,1.805353165284269,1.3253960269125655,6.2548440689040214,-3.083675319252701,1.9411563543873562
