timestamp,vehicle_id,x,y,theta,velocity,gps_available,dt,gps_x,gps_y,gps_theta,gps_velocity,control_steering,control_acceleration
1759827970.4216888,1,8.0,6.0,-0.05483113549895435,0.0,False,0.01,nan,nan,nan,nan,0.0,0.0
1759827970.4320247,1,8.0,6.0,-0.05483113549895435,0.0,False,0.010335922241210938,nan,nan,nan,nan,0.0,0.0
1759827970.4431202,1,8.0,6.0,-0.05483113549895435,0.0,False,0.011095523834228516,nan,nan,nan,nan,0.0,0.0
1759827970.454187,1,8.0,6.0,-0.05483113549895435,0.0,False,0.011066675186157227,nan,nan,nan,nan,0.0,0.0
1759827970.4651525,1,8.0,6.0,-0.05483113549895435,0.0,False,0.010965585708618164,nan,nan,nan,nan,0.0,0.0
1759827970.4757025,1,8.0,6.0,-0.05483113549895435,0.0,False,0.01055002212524414,nan,nan,nan,nan,0.0,0.0
1759827970.4870353,1,8.0,6.0,-0.05483113549895435,0.0,False,0.01133275032043457,nan,nan,nan,nan,0.0,0.0
1759827970.4976637,1,8.0,6.0,-0.05483113549895435,0.0,False,0.010628461837768555,nan,nan,nan,nan,0.0,0.0
1759827970.508192,1,8.0,6.0,-0.05483113549895435,0.0,False,0.010528326034545898,nan,nan,nan,nan,0.0,0.0
1759827970.5189986,1,8.0,6.0,-0.05483113549895435,0.0,False,0.010806560516357422,nan,nan,nan,nan,0.0,0.0
1759827970.5292723,1,8.0,6.0,-0.05483113549895435,0.0,False,0.01027369499206543,nan,nan,nan,nan,0.0,0.0
1759827970.5399451,1,8.0,6.0,-0.05483113549895435,0.0,False,0.010672807693481445,nan,nan,nan,nan,0.0,0.0
1759827970.5511105,1,8.0,6.0,-0.05483113549895435,0.0,False,0.011165380477905273,nan,nan,nan,nan,0.0,0.0
1759827970.561641,1,8.0,6.0,-0.05483113549895435,0.0,False,0.010530471801757812,nan,nan,nan,nan,0.0,0.0
1759827970.571842,1,8.0,6.0,-0.05483113549895435,0.0,False,0.010200977325439453,nan,nan,nan,nan,0.0,0.0
1759827970.582431,1,8.0,6.0,-0.05483113549895435,0.0,False,0.010589122772216797,nan,nan,nan,nan,0.0,0.0
1759827970.5928729,1,8.0,6.0,-0.05483113549895435,0.0,False,0.010441780090332031,nan,nan,nan,nan,0.0,0.0
1759827970.6041899,1,8.0,6.0,-0.05483113549895435,0.0,False,0.011317014694213867,nan,nan,nan,nan,0.0,0.0
1759827970.6197371,1,8.000000945727031,5.99999905427297,-2.879849532792127,0.0,True,0.01554727554321289,8.000000953674316,5.999999046325684,3.141591787338257,0.0,0.0,0.0
1759827970.6300588,1,8.000000951017842,5.999999048982158,-3.1210568361282114,0.0,True,0.010321617126464844,8.000000953674316,5.999999046325684,3.141591787338257,0.0,0.0,0.0
1759827970.6402292,1,8.00000095267779,5.999999047322208,3.139479380071368,0.0,True,0.010170459747314453,8.000000953674316,5.999999046325684,3.141591787338257,0.0,0.0,0.0
1759827970.6518247,1,8.000000953294668,5.999999046705331,3.136201240807816,0.0,True,0.011595487594604492,8.000000953674316,5.999999046325684,3.141591787338257,0.0,0.0,0.0
1759827970.663288,1,8.000000953529359,5.9999990464706405,3.13581442957215,0.0,True,0.011463403701782227,8.000000953674316,5.999999046325684,3.141591787338257,0.0,0.0,0.0
1759827970.6734478,1,8.000000953618951,5.999999046381049,3.1363496950701624,0.0,True,0.010159730911254883,8.000000953674316,5.999999046325684,3.141591787338257,0.0,0.0,0.0
1759827970.683952,1,8.000000953653169,5.999999046346831,3.136940893062583,0.0,True,0.01050424575805664,8.000000953674316,5.999999046325684,3.141591787338257,0.0,0.0,0.0
1759827970.6946766,1,8.00000095366624,5.999999046333762,3.1374962808987483,0.0,True,0.010724544525146484,8.000000953674316,5.999999046325684,3.141591787338257,0.0,0.0,0.0
1759827970.7055302,1,8.00000095367123,5.999999046328769,3.1379923851669,0.0,True,0.01085352897644043,8.000000953674316,5.999999046325684,3.141591787338257,0.0,0.0,0.0
1759827970.7155597,1,8.000000953673139,5.999999046326862,3.1384723101442322,0.0,True,0.01002955436706543,8.000000953674316,5.999999046325684,3.141591787338257,0.0,0.0,0.0
1759827970.7258258,1,8.000000953673867,5.999999046326134,3.138843113679588,0.0,True,0.01026606559753418,8.000000953674316,5.999999046325684,3.141591787338257,0.0,0.0,0.0
1759827970.7359512,1,8.000000953674144,5.999999046325856,3.1391526137695873,0.0,True,0.010125398635864258,8.000000953674316,5.999999046325684,3.141591787338257,0.0,0.0,0.0
1759827970.7474868,1,8.00000095367425,5.999999046325749,3.139348242032465,0.0,True,0.01153564453125,8.000000953674316,5.999999046325684,3.141591787338257,0.0,0.0,0.0
1759827970.758414,1,8.000000953674292,5.9999990463257085,3.139558562212587,0.0,True,0.010927200317382812,8.000000953674316,5.999999046325684,3.141591787338257,0.0,0.0,0.0
1759827970.7686052,1,8.000000953674308,5.999999046325693,3.1397700728419196,0.0,True,0.010191202163696289,8.000000953674316,5.999999046325684,3.141591787338257,0.0,0.0,0.0
1759827970.7792647,1,8.000000953674313,5.999999046325687,3.1399290644134794,0.0,True,0.010659456253051758,8.000000953674316,5.999999046325684,3.141591787338257,0.0,0.0,0.0
1759827970.7897444,1,8.000000953674315,5.999999046325685,3.140070564917977,0.0,True,0.01047968864440918,8.000000953674316,5.999999046325684,3.141591787338257,0.0,0.0,0.0
1759827970.800314,1,8.000000953674316,5.9999990463256845,3.1401896486129566,0.0,True,0.010569572448730469,8.000000953674316,5.999999046325684,3.141591787338257,0.0,0.0,0.0
1759827970.8112268,1,8.000000953674316,5.999999046325684,3.1402847222467685,0.0,True,0.010912895202636719,8.000000953674316,5.999999046325684,3.141591787338257,0.0,0.0,0.0
1759827970.8263144,1,8.000000953674316,5.999999046325684,3.140274342771491,0.0,True,0.015087604522705078,8.000000953674316,5.999999046325684,3.141591787338257,0.0,0.0,0.0
1759827970.8372188,1,8.000000953674316,5.999999046325684,3.1403924889343546,0.0,True,0.010904312133789062,8.000000953674316,5.999999046325684,3.141591787338257,0.0,0.0,0.0
1759827970.8478801,1,8.000000953674316,5.999999046325684,3.140501986341871,0.0,True,0.01066136360168457,8.000000953674316,5.999999046325684,3.141591787338257,0.0,0.0,0.0
1759827970.858512,1,8.000000953674316,5.999999046325684,3.14059176733457,0.0,True,0.010631799697875977,8.000000953674316,5.999999046325684,3.141591787338257,0.0,0.0,0.0
1759827970.868692,1,8.000000953674316,5.999999046325684,3.140673943461975,0.0,True,0.010179996490478516,8.000000953674316,5.999999046325684,3.141591787338257,0.0,0.0,0.0
1759827970.8790474,1,8.000000953674316,5.999999046325684,3.140738282649295,0.0,True,0.010355472564697266,8.000000953674316,5.999999046325684,3.141591787338257,0.0,0.0,0.0
1759827970.8901694,1,8.000000953674316,5.999999046325684,3.140779889092581,0.0,True,0.011121988296508789,8.000000953674316,5.999999046325684,3.141591787338257,0.0,0.0,0.0
1759827970.9010594,1,8.000000953674316,5.999999046325684,3.1408225109346475,0.0,True,0.010890007019042969,8.000000953674316,5.999999046325684,3.141591787338257,0.0,0.0,0.0
1759827970.911447,1,8.000000953674316,5.999999046325684,3.1408696762799853,0.0,True,0.010387659072875977,8.000000953674316,5.999999046325684,3.141591787338257,0.0,0.0,0.0
1759827970.9228415,1,8.000000953674316,5.999999046325684,3.140897008368171,0.0,True,0.011394500732421875,8.000000953674316,5.999999046325684,3.141591787338257,0.0,0.0,0.0
1759827970.9336715,1,8.000000953674316,5.999999046325684,3.1409320376749594,0.0,True,0.010829925537109375,8.000000953674316,5.999999046325684,3.141591787338257,0.0,0.0,0.0
1759827970.9449348,1,8.000000953674316,5.999999046325684,3.1409593724384273,0.0,True,0.011263370513916016,8.000000953674316,5.999999046325684,3.141591787338257,0.0,0.0,0.0
1759827970.9558547,1,8.000000953674316,5.999999046325684,3.1409903066358993,0.0,True,0.010919809341430664,8.000000953674316,5.999999046325684,3.141591787338257,0.0,0.0,0.0
1759827970.9664044,1,8.000000953674316,5.999999046325684,3.1410235328796787,0.0,True,0.010549783706665039,8.000000953674316,5.999999046325684,3.141591787338257,0.0,0.0,0.0
1759827970.9778757,1,8.000000953674316,5.999999046325684,3.1410428450516505,0.0,True,0.011471271514892578,8.000000953674316,5.999999046325684,3.141591787338257,0.0,0.0,0.0
1759827970.9885833,1,8.000000953674316,5.999999046325684,3.141070605966103,0.0,True,0.010707616806030273,8.000000953674316,5.999999046325684,3.141591787338257,0.0,0.0,0.0
1759827970.9986064,1,8.000000953674316,5.999999046325684,3.141103182891639,0.0,True,0.010023117065429688,8.000000953674316,5.999999046325684,3.141591787338257,0.0,0.0,0.0
1759827971.00892,1,8.000000953674316,5.999999046325684,3.141128098528039,0.0,True,0.01031351089477539,8.000000953674316,5.999999046325684,3.141591787338257,0.0,0.0,0.0
1759827971.0247524,1,8.000000953674316,5.999999046325684,3.141098397186216,0.0,True,0.01583242416381836,8.000000953674316,5.999999046325684,3.141591787338257,0.0,0.0,0.0
1759827971.0358062,1,8.000000953674316,5.999999046325684,3.1411268511983863,0.0,True,0.011053800582885742,8.000000953674316,5.999999046325684,3.141591787338257,0.0,0.0,0.0
1759827971.0467706,1,8.000000953674316,5.999999046325684,3.141155690206954,0.0,True,0.010964393615722656,8.000000953674316,5.999999046325684,3.141591787338257,0.0,0.0,0.0
1759827971.0578191,1,8.000000953674316,5.999999046325684,3.1411797575427745,0.0,True,0.011048555374145508,8.000000953674316,5.999999046325684,3.141591787338257,0.0,0.0,0.0
1759827971.0680506,1,8.000000953674316,5.999999046325684,3.141207041732443,0.0,True,0.010231494903564453,8.000000953674316,5.999999046325684,3.141591787338257,0.0,0.0,0.0
1759827971.0782073,1,8.000000953674316,5.999999046325684,3.1412304521945558,0.0,True,0.010156631469726562,8.000000953674316,5.999999046325684,3.141591787338257,0.0,0.0,0.0
1759827971.088265,1,8.000000953674316,5.999999046325684,3.141250675194012,0.0,True,0.010057687759399414,8.000000953674316,5.999999046325684,3.141591787338257,0.0,0.0,0.0
1759827971.0985954,1,8.000000953674316,5.999999046325684,3.141265840572764,0.0,True,0.010330438613891602,8.000000953674316,5.999999046325684,3.141591787338257,0.0,0.0,0.0
1759827971.109824,1,8.000000953674316,5.999999046325684,3.141273175345603,0.0,True,0.011228561401367188,8.000000953674316,5.999999046325684,3.141591787338257,0.0,0.0,0.0
1759827971.1201515,1,8.000000953674316,5.999999046325684,3.141287154703404,0.0,True,0.010327577590942383,8.000000953674316,5.999999046325684,3.141591787338257,0.0,0.0,0.0
1759827971.1302576,1,8.000000953674316,5.999999046325684,3.14130157318656,0.0,True,0.010106086730957031,8.000000953674316,5.999999046325684,3.141591787338257,0.0,0.0,0.0
1759827971.1415045,1,8.000000953674316,5.999999046325684,3.1413073806300744,0.0,True,0.011246919631958008,8.000000953674316,5.999999046325684,3.141591787338257,0.0,0.0,0.0
1759827971.1524336,1,8.000000953674316,5.999999046325684,3.1413158385511757,0.0,True,0.010929107666015625,8.000000953674316,5.999999046325684,3.141591787338257,0.0,0.0,0.0
1759827971.1633317,1,8.000000953674316,5.999999046325684,3.141324879420086,0.0,True,0.010898113250732422,8.000000953674316,5.999999046325684,3.141591787338257,0.0,0.0,0.0
1759827971.1741304,1,8.000000953674316,5.999999046325684,3.1413344617473733,0.0,True,0.01079869270324707,8.000000953674316,5.999999046325684,3.141591787338257,0.0,0.0,0.0
1759827971.185313,1,8.000000953674316,5.999999046325684,3.141341733100706,0.0,True,0.011182546615600586,8.000000953674316,5.999999046325684,3.141591787338257,0.0,0.0,0.0
1759827971.1955664,1,8.000000953674316,5.999999046325684,3.141353967679313,0.0,True,0.010253429412841797,8.000000953674316,5.999999046325684,3.141591787338257,0.0,0.0,0.0
1759827971.2056887,1,8.000000953674316,5.999999046325684,3.1413656100044705,0.0,True,0.010122299194335938,8.000000953674316,5.999999046325684,3.141591787338257,0.0,0.0,0.0
1759827971.2230701,1,8.000000953674316,5.999999046325684,3.1413420964445073,0.0,True,0.01738142967224121,8.000000953674316,5.999999046325684,3.141591787338257,0.0,0.0,0.0
1759827971.2311413,1,8.000000953674316,5.999999046325684,3.141369719262208,0.0,True,0.008071184158325195,8.000000953674316,5.999999046325684,3.141591787338257,0.0,0.0,0.0
1759827971.24147,1,8.000000953674316,5.999999046325684,3.141383528311353,0.0,True,0.01032876968383789,8.000000953674316,5.999999046325684,3.141591787338257,0.0,0.0,0.0
1759827971.2515833,1,8.000000953674316,5.999999046325684,3.1413951809744916,0.0,True,0.010113239288330078,8.000000953674316,5.999999046325684,3.141591787338257,0.0,0.0,0.0
1759827971.2630196,1,8.000000953674316,5.999999046325684,3.141399610597407,0.0,True,0.011436223983764648,8.000000953674316,5.999999046325684,3.141591787338257,0.0,0.0,0.0
1759827971.2731209,1,8.000000953674316,5.999999046325684,3.1414094785700026,0.0,True,0.010101318359375,8.000000953674316,5.999999046325684,3.141591787338257,0.0,0.0,0.0
1759827971.2842982,1,8.000000953674316,5.999999046325684,3.141414243037561,0.0,True,0.011177301406860352,8.000000953674316,5.999999046325684,3.141591787338257,0.0,0.0,0.0
1759827971.294981,1,8.000000953674316,5.999999046325684,3.1414208604574156,0.0,True,0.010682821273803711,8.000000953674316,5.999999046325684,3.141591787338257,0.0,0.0,0.0
1759827971.305255,1,8.000000953674316,5.999999046325684,3.1414286338782063,0.0,True,0.010273933410644531,8.000000953674316,5.999999046325684,3.141591787338257,0.0,0.0,0.0
1759827971.3172143,1,8.000000953674316,5.999999046325684,3.1414299026205867,0.0,True,0.011959314346313477,8.000000953674316,5.999999046325684,3.141591787338257,0.0,0.0,0.0
1759827971.3285735,1,8.000000953674316,5.999999046325684,3.141434165909452,0.0,True,0.011359214782714844,8.000000953674316,5.999999046325684,3.141591787338257,0.0,0.0,0.0
1759827971.3386695,1,8.000000953674316,5.999999046325684,3.1414428858188153,0.0,True,0.010096073150634766,8.000000953674316,5.999999046325684,3.141591787338257,0.0,0.0,0.0
1759827971.3500907,1,8.000000953674316,5.999999046325684,3.1414465156108893,0.0,True,0.01142120361328125,8.000000953674316,5.999999046325684,3.141591787338257,0.0,0.0,0.0
1759827971.3607833,1,8.000000953674316,5.999999046325684,3.141452387139566,0.0,True,0.010692596435546875,8.000000953674316,5.999999046325684,3.141591787338257,0.0,0.0,0.0
1759827971.3720315,1,8.000000953674316,5.999999046325684,3.141456363039296,0.0,True,0.011248111724853516,8.000000953674316,5.999999046325684,3.141591787338257,0.0,0.0,0.0
1759827971.382401,1,8.000000953674316,5.999999046325684,3.141462783982945,0.0,True,0.010369539260864258,8.000000953674316,5.999999046325684,3.141591787338257,0.0,0.0,0.0
1759827971.3935864,1,8.000000953674316,5.999999046325684,3.1414664249406634,0.0,True,0.011185407638549805,8.000000953674316,5.999999046325684,3.141591787338257,0.0,0.0,0.0
1759827971.4049106,1,8.000000953674316,5.999999046325684,3.1414697122529844,0.0,True,0.011324167251586914,8.000000953674316,5.999999046325684,3.141591787338257,0.0,0.0,0.0
1759827971.416963,1,8.000000953674316,5.999999046325684,3.141471462786427,0.0,True,0.012052536010742188,8.000000953674316,5.999999046325684,3.141591787338257,0.0,0.0,0.0
1759827971.4329174,1,8.000000953674316,5.999999046325684,3.141464988094395,0.0,True,0.015954256057739258,8.000000953674316,5.999999046325684,3.141591787338257,0.0,0.0,0.0
1759827971.4435675,1,8.000000953674316,5.999999046325684,3.141473833826616,0.0,True,0.010650157928466797,8.000000953674316,5.999999046325684,3.141591787338257,0.0,0.0,0.0
1759827971.4547508,1,8.000000953674316,5.999999046325684,3.1414807968228935,0.0,True,0.01118326187133789,8.000000953674316,5.999999046325684,3.141591787338257,0.0,0.0,0.0
1759827971.4661715,1,8.000000953674316,5.999999046325684,3.1414861521464026,0.0,True,0.011420726776123047,8.000000953674316,5.999999046325684,3.141591787338257,0.0,0.0,0.0
1759827971.4772549,1,8.000000953674316,5.999999046325684,3.141491531651342,0.0,True,0.011083364486694336,8.000000953674316,5.999999046325684,3.141591787338257,0.0,0.0,0.0
1759827971.488448,1,8.000000953674316,5.999999046325684,3.1414960491951653,0.0,True,0.011193037033081055,8.000000953674316,5.999999046325684,3.141591787338257,0.0,0.0,0.0
1759827971.4992208,1,8.000000953674316,5.999999046325684,3.1415008634616335,0.0,True,0.010772943496704102,8.000000953674316,5.999999046325684,3.141591787338257,0.0,0.0,0.0
1759827971.5100572,1,8.000000953674316,5.999999046325684,3.141504972907466,0.0,True,0.010836362838745117,8.000000953674316,5.999999046325684,3.141591787338257,0.0,0.0,0.0
1759827971.5201328,1,8.000000953674316,5.999999046325684,3.141509922490293,0.0,True,0.010075569152832031,8.000000953674316,5.999999046325684,3.141591787338257,0.0,0.0,0.0
1759827971.5314221,1,8.000000953674316,5.999999046325684,3.141512100090843,0.0,True,0.011289358139038086,8.000000953674316,5.999999046325684,3.141591787338257,0.0,0.0,0.0
1759827971.5424886,1,8.000000953674316,5.999999046325684,3.1415146070781006,0.0,True,0.011066436767578125,8.000000953674316,5.999999046325684,3.141591787338257,0.0,0.0,0.0
1759827971.5539632,1,8.000000953674316,5.999999046325684,3.1415164864297687,0.0,True,0.011474609375,8.000000953674316,5.999999046325684,3.141591787338257,0.0,0.0,0.0
1759827971.5640852,1,8.000000953674316,5.999999046325684,3.1415205481968016,0.0,True,0.010122060775756836,8.000000953674316,5.999999046325684,3.141591787338257,0.0,0.0,0.0
1759827971.5752666,1,8.000000953674316,5.999999046325684,3.1415225810064964,0.0,True,0.011181354522705078,8.000000953674316,5.999999046325684,3.141591787338257,0.0,0.0,0.0
1759827971.586662,1,8.000000953674316,5.999999046325684,3.1415242611885397,0.0,True,0.011395454406738281,8.000000953674316,5.999999046325684,3.141591787338257,0.0,0.0,0.0
1759827971.5978332,1,8.000000953674316,5.999999046325684,3.141526393994644,0.0,True,0.011171102523803711,8.000000953674316,5.999999046325684,3.141591787338257,0.0,0.0,0.0
1759827971.6092274,1,8.000000953674316,5.999999046325684,3.1415282580174644,0.0,True,0.011394262313842773,8.000000953674316,5.999999046325684,3.141591787338257,0.0,0.0,0.0
1759827971.6203804,1,8.000000953674316,5.999999046325684,3.141530485161873,0.0,True,0.011152982711791992,8.000000953674316,5.999999046325684,3.141591787338257,0.0,0.0,0.0
1759827971.631705,1,8.000000953674316,5.999999046325684,3.1415324513572465,0.0,True,0.011324644088745117,8.000000953674316,5.999999046325684,3.141591787338257,0.0,0.0,0.0
1759827971.6424153,1,8.000000953674316,5.999999046325684,3.141535116973728,0.0,True,0.01071023941040039,8.000000953674316,5.999999046325684,3.141591787338257,0.0,0.0,0.0
1759827971.6530674,1,8.000000953674316,5.999999046325684,3.14153760563358,0.0,True,0.01065206527709961,8.000000953674316,5.999999046325684,3.141591787338257,0.0,0.0,0.0
1759827971.6636822,1,8.000000953674316,5.999999046325684,3.141539869242866,0.0,True,0.010614871978759766,8.000000953674316,5.999999046325684,3.141591787338257,0.0,0.0,0.0
1759827971.6750886,1,8.000000953674316,5.999999046325684,3.141541073304598,0.0,True,0.011406421661376953,8.000000953674316,5.999999046325684,3.141591787338257,0.0,0.0,0.0
1759827971.6853065,1,8.000000953674316,5.999999046325684,3.1415435738558646,0.0,True,0.010217905044555664,8.000000953674316,5.999999046325684,3.141591787338257,0.0,0.0,0.0
1759827971.696478,1,8.000000953674316,5.999999046325684,3.14154486909122,0.0,True,0.011171340942382812,8.000000953674316,5.999999046325684,3.141591787338257,0.0,0.0,0.0
1759827971.7072845,1,8.000000953674316,5.999999046325684,3.1415465097697,0.0,True,0.010806560516357422,8.000000953674316,5.999999046325684,3.141591787338257,0.0,0.0,0.0
1759827971.7173588,1,8.000000953674316,5.999999046325684,3.1415487732067984,0.0,True,0.010074377059936523,8.000000953674316,5.999999046325684,3.141591787338257,0.0,0.0,0.0
1759827971.7281704,1,8.000000953674316,5.999999046325684,3.1415500955234066,0.0,True,0.010811567306518555,8.000000953674316,5.999999046325684,3.141591787338257,0.0,0.0,0.0
1759827971.7384717,1,8.000000953674316,5.999999046325684,3.1415517952625223,0.0,True,0.010301351547241211,8.000000953674316,5.999999046325684,3.141591787338257,0.0,0.0,0.0
1759827971.74978,1,8.000000953674316,5.999999046325684,3.141552510202878,0.0,True,0.01130819320678711,8.000000953674316,5.999999046325684,3.141591787338257,0.0,0.0,0.0
1759827971.760561,1,8.000000953674316,5.999999046325684,3.1415537686521926,0.0,True,0.010781049728393555,8.000000953674316,5.999999046325684,3.141591787338257,0.0,0.0,0.0
1759827971.7711608,1,8.000000953674316,5.999999046325684,3.141555174301578,0.0,True,0.010599851608276367,8.000000953674316,5.999999046325684,3.141591787338257,0.0,0.0,0.0
1759827971.7816823,1,8.000000953674316,5.999999046325684,3.141556557558081,0.0,True,0.010521411895751953,8.000000953674316,5.999999046325684,3.141591787338257,0.0,0.0,0.0
1759827971.7917843,1,8.000000953674316,5.999999046325684,3.1415581479610726,0.0,True,0.010102033615112305,8.000000953674316,5.999999046325684,3.141591787338257,0.0,0.0,0.0
1759827971.8031797,1,8.000000953674316,5.999999046325684,3.1415586411157026,0.0,True,0.011395454406738281,8.000000953674316,5.999999046325684,3.141591787338257,0.0,0.0,0.0
1759827971.8138547,1,8.000000953674316,5.999999046325684,3.141559748882294,0.0,True,0.01067495346069336,8.000000953674316,5.999999046325684,3.141591787338257,0.0,0.0,0.0
1759827971.8243377,1,8.000000953674316,5.999999046325684,3.141560980124229,0.0,True,0.010483026504516602,8.000000953674316,5.999999046325684,3.141591787338257,0.0,0.0,0.0
1759827971.839071,1,8.000000953674316,5.999999046325684,3.1415594315340307,0.0,True,0.014733314514160156,8.000000953674316,5.999999046325684,3.141591787338257,0.0,0.0,0.0
1759827971.8503966,1,8.000000953674316,5.999999046325684,3.141560738162868,0.0,True,0.011325597763061523,8.000000953674316,5.999999046325684,3.141591787338257,0.0,0.0,0.0
1759827971.8612556,1,8.000000953674316,5.999999046325684,3.141562395225831,0.0,True,0.010859012603759766,8.000000953674316,5.999999046325684,3.141591787338257,0.0,0.0,0.0
1759827971.8724046,1,8.000000953674316,5.999999046325684,3.141563686054626,0.0,True,0.011148929595947266,8.000000953674316,5.999999046325684,3.141591787338257,0.0,0.0,0.0
1759827971.883319,1,8.000000953674316,5.999999046325684,3.1415649692622925,0.0,True,0.010914325714111328,8.000000953674316,5.999999046325684,3.141591787338257,0.0,0.0,0.0
1759827971.8943195,1,8.000000953674316,5.999999046325684,3.141566074109212,0.0,True,0.011000633239746094,8.000000953674316,5.999999046325684,3.141591787338257,0.0,0.0,0.0
1759827971.9053571,1,8.000000953674316,5.999999046325684,3.141567063396929,0.0,True,0.011037588119506836,8.000000953674316,5.999999046325684,3.141591787338257,0.0,0.0,0.0
1759827971.915995,1,8.000000953674316,5.999999046325684,3.1415681814024765,0.0,True,0.010637760162353516,8.000000953674316,5.999999046325684,3.141591787338257,0.0,0.0,0.0
1759827971.9261794,1,8.000000953674316,5.999999046325684,3.1415694004707717,0.0,True,0.010184526443481445,8.000000953674316,5.999999046325684,3.141591787338257,0.0,0.0,0.0
1759827971.9371853,1,8.000000953674316,5.999999046325684,3.1415700734633525,0.0,True,0.011005878448486328,8.000000953674316,5.999999046325684,3.141591787338257,0.0,0.0,0.0
1759827971.947441,1,8.000000953674316,5.999999046325684,3.1415710528987795,0.0,True,0.010255813598632812,8.000000953674316,5.999999046325684,3.141591787338257,0.0,0.0,0.0
1759827971.9586012,1,8.000000953674316,5.999999046325684,3.1415715459166194,0.0,True,0.011160135269165039,8.000000953674316,5.999999046325684,3.141591787338257,0.0,0.0,0.0
1759827971.9686403,1,8.000000953674316,5.999999046325684,3.1415725254627596,0.0,True,0.010039091110229492,8.000000953674316,5.999999046325684,3.141591787338257,0.0,0.0,0.0
1759827971.9797893,1,8.000000953674316,5.999999046325684,3.1415729534896446,0.0,True,0.011148929595947266,8.000000953674316,5.999999046325684,3.141591787338257,0.0,0.0,0.0
1759827971.9908676,1,8.000000953674316,5.999999046325684,3.1415734317370685,0.0,True,0.011078357696533203,8.000000953674316,5.999999046325684,3.141591787338257,0.0,0.0,0.0
1759827972.0019512,1,8.000000953674316,5.999999046325684,3.1415739442727446,0.0,True,0.011083602905273438,8.000000953674316,5.999999046325684,3.141591787338257,0.0,0.0,0.0
1759827972.0124536,1,8.000000953674316,5.999999046325684,3.141574687739226,0.0,True,0.010502338409423828,8.000000953674316,5.999999046325684,3.141591787338257,0.0,0.0,0.0
1759827972.0237284,1,8.000000953674316,5.999999046325684,3.1415751038420723,0.0,True,0.01127481460571289,8.000000953674316,5.999999046325684,3.141591787338257,0.0,0.0,0.0
1759827972.0338094,1,8.000000953674316,5.999999046325684,3.1415759453652647,0.0,True,0.010081052780151367,8.000000953674316,5.999999046325684,3.141591787338257,0.0,0.0,0.0
1759827972.0443988,1,8.000000953674316,5.999999046325684,3.1415765260361788,0.0,True,0.010589361190795898,8.000000953674316,5.999999046325684,3.141591787338257,0.0,0.0,0.0
1759827972.055406,1,8.000000953674316,5.999999046325684,3.1415769232549344,0.0,True,0.011007308959960938,8.000000953674316,5.999999046325684,3.141591787338257,0.0,0.0,0.0
1759827972.0664055,1,8.000000953674316,5.999999046325684,3.141577335409975,0.0,True,0.010999441146850586,8.000000953674316,5.999999046325684,3.141591787338257,0.0,0.0,0.0
1759827972.0775783,1,8.000000953674316,5.999999046325684,3.1415777119234214,0.0,True,0.011172771453857422,8.000000953674316,5.999999046325684,3.141591787338257,0.0,0.0,0.0
1759827972.0876877,1,8.000000953674316,5.999999046325684,3.141578414845874,0.0,True,0.010109424591064453,8.000000953674316,5.999999046325684,3.141591787338257,0.0,0.0,0.0
1759827972.0989294,1,8.000000953674316,5.999999046325684,3.141578726276716,0.0,True,0.011241674423217773,8.000000953674316,5.999999046325684,3.141591787338257,0.0,0.0,0.0
1759827972.1093833,1,8.000000953674316,5.999999046325684,3.1415792611095075,0.0,True,0.010453939437866211,8.000000953674316,5.999999046325684,3.141591787338257,0.0,0.0,0.0
1759827972.1208081,1,8.000000953674316,5.999999046325684,3.1415795095579746,0.0,True,0.011424779891967773,8.000000953674316,5.999999046325684,3.141591787338257,0.0,0.0,0.0
1759827972.132079,1,8.000000953674316,5.999999046325684,3.141579829956246,0.0,True,0.011270761489868164,8.000000953674316,5.999999046325684,3.141591787338257,0.0,0.0,0.0
1759827972.1433866,1,8.000000953674316,5.999999046325684,3.14158016853621,0.0,True,0.011307716369628906,8.000000953674316,5.999999046325684,3.141591787338257,0.0,0.0,0.0
1759827972.1536584,1,8.000000953674316,5.999999046325684,3.141580762057309,0.0,True,0.010271787643432617,8.000000953674316,5.999999046325684,3.141591787338257,0.0,0.0,0.0
1759827972.165055,1,8.000000953674316,5.999999046325684,3.1415810363382413,0.0,True,0.011396646499633789,8.000000953674316,5.999999046325684,3.141591787338257,0.0,0.0,0.0
1759827972.1761754,1,8.000000953674316,5.999999046325684,3.1415813783018027,0.0,True,0.011120319366455078,8.000000953674316,5.999999046325684,3.141591787338257,0.0,0.0,0.0
1759827972.1876388,1,8.000000953674316,5.999999046325684,3.1415816517691155,0.0,True,0.011463403701782227,8.000000953674316,5.999999046325684,3.141591787338257,0.0,0.0,0.0
1759827972.198331,1,8.000000953674316,5.999999046325684,3.14158209690504,0.0,True,0.010692358016967773,8.000000953674316,5.999999046325684,3.141591787338257,0.0,0.0,0.0
1759827972.2092764,1,8.000000953674316,5.999999046325684,3.1415824583089638,0.0,True,0.010945320129394531,8.000000953674316,5.999999046325684,3.141591787338257,0.0,0.0,0.0
1759827972.2199128,1,8.000000953674316,5.999999046325684,3.1415828529697976,0.0,True,0.010636329650878906,8.000000953674316,5.999999046325684,3.141591787338257,0.0,0.0,0.0
1759827972.238194,1,8.000000953674316,5.999999046325684,3.141581857627809,0.0,True,0.018281221389770508,8.000000953674316,5.999999046325684,3.141591787338257,0.0,0.0,0.0
1759827972.2443986,1,8.000000953674316,5.999999046325684,3.1415833280143417,0.0,True,0.0062046051025390625,8.000000953674316,5.999999046325684,3.141591787338257,0.0,0.0,0.0
1759827972.2550213,1,8.000000953674316,5.999999046325684,3.1415837943056246,0.0,True,0.010622739791870117,8.000000953674316,5.999999046325684,3.141591787338257,0.0,0.0,0.0
1759827972.2653482,1,8.000000953674316,5.999999046325684,3.1415841836815357,0.0,True,0.010326862335205078,8.000000953674316,5.999999046325684,3.141591787338257,0.0,0.0,0.0
1759827972.276124,1,8.000000953674316,5.999999046325684,3.14158444791331,0.0,True,0.01077580451965332,8.000000953674316,5.999999046325684,3.141591787338257,0.0,0.0,0.0
1759827972.2863817,1,8.000000953674316,5.999999046325684,3.1415847715596676,0.0,True,0.010257720947265625,8.000000953674316,5.999999046325684,3.141591787338257,0.0,0.0,0.0
1759827972.297518,1,8.000000953674316,5.999999046325684,3.1415849335463992,0.0,True,0.011136293411254883,8.000000953674316,5.999999046325684,3.141591787338257,0.0,0.0,0.0
1759827972.3087487,1,8.000000953674316,5.999999046325684,3.1415850906326206,0.0,True,0.011230707168579102,8.000000953674316,5.999999046325684,3.141591787338257,0.0,0.0,0.0
1759827972.3202655,1,8.000000953674316,5.999999046325684,3.1415852271970905,0.0,True,0.011516809463500977,8.000000953674316,5.999999046325684,3.141591787338257,0.0,0.0,0.0
1759827972.330374,1,8.000000953674316,5.999999046325684,3.1415855731017643,0.0,True,0.010108470916748047,8.000000953674316,5.999999046325684,3.141591787338257,0.0,0.0,0.0
1759827972.341957,1,8.000000953674316,5.999999046325684,3.1415856925315886,0.0,True,0.011583089828491211,8.000000953674316,5.999999046325684,3.141591787338257,0.0,0.0,0.0
1759827972.3521605,1,8.000000953674316,5.999999046325684,3.14158599473069,0.0,True,0.010203361511230469,8.000000953674316,5.999999046325684,3.141591787338257,0.0,0.0,0.0
1759827972.363698,1,8.000000953674316,5.999999046325684,3.1415861082336445,0.0,True,0.011537551879882812,8.000000953674316,5.999999046325684,3.141591787338257,0.0,0.0,0.0
1759827972.3751185,1,8.000000953674316,5.999999046325684,3.141586248431757,0.0,True,0.011420488357543945,8.000000953674316,5.999999046325684,3.141591787338257,0.0,0.0,0.0
1759827972.3854501,1,8.000000953674316,5.999999046325684,3.1415865237788108,0.0,True,0.01033163070678711,8.000000953674316,5.999999046325684,3.141591787338257,0.0,0.0,0.0
1759827972.3964531,1,8.000000953674316,5.999999046325684,3.141586698563529,0.0,True,0.01100301742553711,8.000000953674316,5.999999046325684,3.141591787338257,0.0,0.0,0.0
1759827972.4073844,1,8.000000953674316,5.999999046325684,3.1415868711370756,0.0,True,0.010931253433227539,8.000000953674316,5.999999046325684,3.141591787338257,0.0,0.0,0.0
1759827972.417824,1,8.000000953674316,5.999999046325684,3.1415870872039875,0.0,True,0.010439634323120117,8.000000953674316,5.999999046325684,3.141591787338257,0.0,0.0,0.0
1759827972.4286757,1,8.000000953674316,5.999999046325684,3.1415872428877094,0.0,True,0.010851621627807617,8.000000953674316,5.999999046325684,3.141591787338257,0.0,0.0,0.0
1759827972.4422474,1,8.000000953674316,5.999999046325684,3.1415871397012225,0.0,True,0.013571739196777344,8.000000953674316,5.999999046325684,3.141591787338257,0.0,0.0,0.0
1759827972.4523692,1,8.000000953674316,5.999999046325684,3.141587419434968,0.0,True,0.010121822357177734,8.000000953674316,5.999999046325684,3.141591787338257,0.0,0.0,0.0
1759827972.4633331,1,8.000000953674316,5.999999046325684,3.141587601391416,0.0,True,0.010963916778564453,8.000000953674316,5.999999046325684,3.141591787338257,0.0,0.0,0.0
1759827972.4734359,1,8.000000953674316,5.999999046325684,3.1415878345308528,0.0,True,0.01010274887084961,8.000000953674316,5.999999046325684,3.141591787338257,0.0,0.0,0.0
1759827972.4847438,1,8.000000953674316,5.999999046325684,3.1415879370262765,0.0,True,0.011307954788208008,8.000000953674316,5.999999046325684,3.141591787338257,0.0,0.0,0.0
1759827972.4957438,1,8.000000953674316,5.999999046325684,3.1415880634017785,0.0,True,0.010999917984008789,8.000000953674316,5.999999046325684,3.141591787338257,0.0,0.0,0.0
1759827972.5070374,1,8.000000953674316,5.999999046325684,3.141588166725512,0.0,True,0.011293649673461914,8.000000953674316,5.999999046325684,3.141591787338257,0.0,0.0,0.0
1759827972.5182452,1,8.000000953674316,5.999999046325684,3.1415882798293957,0.0,True,0.011207818984985352,8.000000953674316,5.999999046325684,3.141591787338257,0.0,0.0,0.0
1759827972.5292819,1,8.000000953674316,5.999999046325684,3.1415884058608157,0.0,True,0.01103663444519043,8.000000953674316,5.999999046325684,3.141591787338257,0.0,-2.6109424045017704e-06,7.700003063202423
1759827972.5404875,1,8.000000953674316,5.999999046325684,3.1415885158540213,0.0,True,0.011205673217773438,8.000000953674316,5.999999046325684,3.141591787338257,0.0,-2.6109424045017704e-06,7.700003063202423
1759827972.5537934,1,8.000000953674316,5.999999046325684,3.141588488714193,0.0,True,0.013305902481079102,8.000000953674316,5.999999046325684,3.141591787338257,0.0,-2.6109424045017704e-06,7.700003063202423
1759827972.5642905,1,8.000000953674316,5.999999046325684,3.1415886776849753,0.0,True,0.010497093200683594,8.000000953674316,5.999999046325684,3.141591787338257,0.0,-2.6109424045017704e-06,7.700003063202423
1759827972.574577,1,8.000000953674316,5.999999046325684,3.141588862324925,0.0,True,0.010286569595336914,8.000000953674316,5.999999046325684,3.141591787338257,0.0,-2.6109424045017704e-06,7.700003063202423
1759827972.5847468,1,8.000000953674316,5.999999046325684,3.1415890233976693,0.0,True,0.010169744491577148,8.000000953674316,5.999999046325684,3.141591787338257,0.0,-2.6109424045017704e-06,7.700003063202423
1759827972.5971246,1,8.000000953674316,5.999999046325684,3.14158903421972,0.0,True,0.012377738952636719,8.000000953674316,5.999999046325684,3.141591787338257,0.0,-2.6109424045017704e-06,7.700003063202423
1759827972.6081736,1,8.000000953674316,5.999999046325684,3.1415891360785793,0.0,True,0.011049032211303711,8.000000953674316,5.999999046325684,3.141591787338257,0.0,-2.6109424045017704e-06,7.700003063202423
1759827972.6196783,1,8.000000953674316,5.999999046325684,3.14158921417102,0.0,True,0.011504650115966797,8.000000953674316,5.999999046325684,3.141591787338257,0.0,-2.6109424045017704e-06,7.700003063202423
1759827972.6302764,1,8.000000953674316,5.999999046325684,3.1415893391158995,0.0,True,0.010598182678222656,8.000000953674316,5.999999046325684,3.141591787338257,0.0,-2.6109424045017704e-06,7.700003063202423
1759827972.6469307,1,7.404312909992763,5.99999766597541,3.141589080012327,4.518872998633969,True,0.016654253005981445,7.082669734954834,5.999996662139893,3.141591787338257,4.518872998633969,-2.6109424045017704e-06,7.700003063202423
1759827972.6580465,1,7.18634002172941,5.999997112868778,3.141589270368769,4.518872998633969,True,0.011115789413452148,7.082669734954834,5.999996662139893,3.141591787338257,4.518872998633969,-2.0089752972296537e-06,5.199710633061237
1759827972.6717277,1,7.098653791016994,5.999996912818759,3.141589303960437,4.518872998633969,True,0.013681173324584961,7.082669734954834,5.999996662139893,3.141591787338257,4.518872998633969,-2.0089752972296537e-06,5.199710633061237
1759827972.6828835,1,7.069519491254633,5.9999968212434736,3.1415894719867303,4.518872998633969,True,0.011155843734741211,7.082669734954834,5.999996662139893,3.141591787338257,4.518872998633969,-2.0089752972296537e-06,5.199710633061237
1759827972.6965456,1,7.054065240862915,5.999996796611149,3.141589502077789,4.518872998633969,True,0.013662099838256836,7.082669734954834,5.999996662139893,3.141591787338257,4.518872998633969,-2.0089752972296537e-06,5.199710633061237
1759827972.7077382,1,7.05242480594059,5.999996773271439,3.141589654735066,4.518872998633969,True,0.011192560195922852,7.082669734954834,5.999996662139893,3.141591787338257,4.518872998633969,-2.0089752972296537e-06,5.199710633061237
1759827972.7192476,1,7.051251300434563,5.999996763067356,3.1415897686782337,4.518872998633969,True,0.011509418487548828,7.082669734954834,5.999996662139893,3.141591787338257,4.518872998633969,-2.0089752972296537e-06,5.199710633061237
1759827972.7297146,1,7.052602243243938,5.99999675184653,3.141589907634099,4.518872998633969,True,0.010467052459716797,7.082669734954834,5.999996662139893,3.141591787338257,4.518872998633969,-2.0089752972296537e-06,5.199710633061237
1759827972.740774,1,7.0520960323763395,5.9999967478456275,3.1415899965964424,4.518872998633969,True,0.011059284210205078,7.082669734954834,5.999996662139893,3.141591787338257,4.518872998633969,-2.0089752972296537e-06,5.199710633061237
1759827972.751306,1,7.052812556138583,5.999996742270576,3.141590093502902,4.518872998633969,True,0.010532140731811523,7.082669734954834,5.999996662139893,3.141591787338257,4.518872998633969,-2.0089752972296537e-06,5.199710633061237
1759827972.7627223,1,7.051560313634423,5.999996742226498,3.1415901427707027,4.518872998633969,True,0.011416196823120117,7.082669734954834,5.999996662139893,3.141591787338257,4.518872998633969,-2.0089752972296537e-06,5.199710633061237
1759827972.7740724,1,7.051195991650884,5.999996740956312,3.1415901947446745,4.518872998633969,True,0.011350154876708984,7.082669734954834,5.999996662139893,3.141591787338257,4.518872998633969,-2.0089752972296537e-06,5.199710633061237
1759827972.7887192,1,7.045366693538491,5.999996753091006,3.141590134976145,4.518872998633969,True,0.014646768569946289,7.082669734954834,5.999996662139893,3.141591787338257,4.518872998633969,-2.0089752972296537e-06,5.199710633061237
1759827972.798919,1,7.050815841592956,5.999996740307996,3.141590262409842,4.518872998633969,True,0.010199785232543945,7.082669734954834,5.999996662139893,3.141591787338257,4.518872998633969,-2.0089752972296537e-06,5.199710633061237
1759827972.8096986,1,7.051896405073389,5.9999967355675805,3.141590344653709,4.518872998633969,True,0.010779619216918945,7.082669734954834,5.999996662139893,3.141591787338257,4.518872998633969,-2.0089752972296537e-06,5.199710633061237
1759827972.823004,1,7.047949460523889,5.9999967420346625,3.141590336484988,4.518872998633969,True,0.013305425643920898,7.082669734954834,5.999996662139893,3.141591787338257,4.518872998633969,-2.0089752972296537e-06,5.199710633061237
1759827972.834378,1,7.04977561611165,5.999996737144122,3.141590406278386,4.518872998633969,True,0.01137399673461914,7.082669734954834,5.999996662139893,3.141591787338257,4.518872998633969,-2.0089752972296537e-06,5.199710633061237
1759827972.8493705,1,6.376906856810204,5.999991156531533,3.1415903581041125,5.2840275132139825,True,0.014992475509643555,6.010012149810791,5.999987602233887,3.141591787338257,5.2840275132139825,-2.0089752972296537e-06,5.199710633061237
1759827972.8598115,1,6.12908005896928,5.99998900826105,3.141590551803933,5.2840275132139825,True,0.010441064834594727,6.010012149810791,5.999987602233887,3.141591787338257,5.2840275132139825,1.2257264714321536e-06,3.767286299598109
1759827972.870547,1,6.033824357678866,5.999988185229126,3.141590642511975,5.2840275132139825,True,0.010735511779785156,6.010012149810791,5.999987602233887,3.141591787338257,5.2840275132139825,1.2257264714321536e-06,3.767286299598109
1759827972.8898616,1,5.980124727705522,5.999987905623356,3.141590548737165,5.2840275132139825,True,0.01931452751159668,6.010012149810791,5.999987602233887,3.141591787338257,5.2840275132139825,1.2257264714321536e-06,3.767286299598109
1759827972.901301,1,5.975507967586607,5.999987767300944,3.1415906244752456,5.2840275132139825,True,0.011439323425292969,6.010012149810791,5.999987602233887,3.141591787338257,5.2840275132139825,1.2257264714321536e-06,3.767286299598109
1759827972.9117646,1,5.975713611883214,5.999987708563243,3.141590728786758,5.2840275132139825,True,0.010463714599609375,6.010012149810791,5.999987602233887,3.141591787338257,5.2840275132139825,1.2257264714321536e-06,3.767286299598109
1759827972.9250026,1,5.970192862808001,5.999987695166862,3.141590768978263,5.2840275132139825,True,0.013237953186035156,6.010012149810791,5.999987602233887,3.141591787338257,5.2840275132139825,1.2257264714321536e-06,3.767286299598109
1759827972.9357078,1,5.973195962122788,5.999987678970001,3.1415908401703145,5.2840275132139825,True,0.010705232620239258,6.010012149810791,5.999987602233887,3.141591787338257,5.2840275132139825,1.2257264714321536e-06,3.767286299598109
1759827972.946691,1,5.973781959277405,5.9999876723102625,3.141590900634734,5.2840275132139825,True,0.01098322868347168,6.010012149810791,5.999987602233887,3.141591787338257,5.2840275132139825,1.2257264714321536e-06,3.767286299598109
1759827972.9599514,1,5.969409803922664,5.999987676867239,3.1415909176471555,5.2840275132139825,True,0.013260364532470703,6.010012149810791,5.999987602233887,3.141591787338257,5.2840275132139825,1.2257264714321536e-06,3.767286299598109
1759827972.970117,1,5.973985826541668,5.999987666845026,3.141590975894548,5.2840275132139825,True,0.010165691375732422,6.010012149810791,5.999987602233887,3.141591787338257,5.2840275132139825,1.2257264714321536e-06,3.767286299598109
1759827972.980178,1,5.9759449605241235,5.999987661454393,3.1415910328974608,5.2840275132139825,True,0.010061025619506836,6.010012149810791,5.999987602233887,3.141591787338257,5.2840275132139825,1.2257264714321536e-06,3.767286299598109
1759827972.9908419,1,5.9754767975662775,5.999987660306958,3.1415910715952613,5.2840275132139825,True,0.010663747787475586,6.010012149810791,5.999987602233887,3.141591787338257,5.2840275132139825,1.2257264714321536e-06,3.767286299598109
1759827973.002026,1,5.974247505308945,5.999987660785159,3.141591096685845,5.2840275132139825,True,0.011184215545654297,6.010012149810791,5.999987602233887,3.141591787338257,5.2840275132139825,1.2257264714321536e-06,3.767286299598109
1759827973.0154371,1,5.969283505295719,5.999987667761631,3.1415910933104794,5.2840275132139825,True,0.01341104507446289,6.010012149810791,5.999987602233887,3.141591787338257,5.2840275132139825,1.2257264714321536e-06,3.767286299598109
1759827973.0267668,1,5.971588343280197,5.99998766362547,3.141591117264575,5.2840275132139825,True,0.01132965087890625,6.010012149810791,5.999987602233887,3.141591787338257,5.2840275132139825,1.2257264714321536e-06,3.767286299598109
1759827973.0493927,1,5.487496592737907,5.999999174976133,3.141590266661348,3.786925612933353,True,0.02262592315673828,5.241266250610352,6.000006198883057,3.1415891647338867,3.786925612933353,1.2257264714321536e-06,3.767286299598109
1759827973.05947,1,5.3207413804283945,6.000003549103852,3.1415895488601784,3.786925612933353,True,0.010077238082885742,5.241266250610352,6.000006198883057,3.1415891647338867,3.786925612933353,-1.1384425759430883e-05,3.4157094375740136
1759827973.0704508,1,5.255739511347661,6.000005233419472,3.1415891592967924,3.786925612933353,True,0.010980844497680664,5.241266250610352,6.000006198883057,3.1415891647338867,3.786925612933353,-1.1384425759430883e-05,3.4157094375740136
1759827973.0810478,1,5.231466242497275,6.0000058809751105,3.141588918227743,3.786925612933353,True,0.010596990585327148,5.241266250610352,6.000006198883057,3.1415891647338867,3.786925612933353,-1.1384425759430883e-05,3.4157094375740136
1759827973.0952754,1,5.2169430447422895,6.000006149433318,3.141588624749808,3.786925612933353,True,0.014227628707885742,5.241266250610352,6.000006198883057,3.1415891647338867,3.786925612933353,-1.1384425759430883e-05,3.4157094375740136
1759827973.1067443,1,5.215386132423452,6.000006243362809,3.1415885496164684,3.786925612933353,True,0.011468887329101562,5.241266250610352,6.000006198883057,3.1415891647338867,3.786925612933353,-1.1384425759430883e-05,3.4157094375740136
1759827973.1169188,1,5.216663727562903,6.0000062735035,3.1415885178424556,3.786925612933353,True,0.01017451286315918,5.241266250610352,6.000006198883057,3.1415891647338867,3.786925612933353,-1.1384425759430883e-05,3.4157094375740136
1759827973.1274958,1,5.216569590053243,6.000006287703062,3.1415884699358454,3.786925612933353,True,0.010576963424682617,5.241266250610352,6.000006198883057,3.1415891647338867,3.786925612933353,-1.1384425759430883e-05,3.4157094375740136
1759827973.1424787,1,5.210160491296908,6.000006317782309,3.1415883018521704,3.786925612933353,True,0.014982938766479492,5.241266250610352,6.000006198883057,3.1415891647338867,3.786925612933353,-1.1384425759430883e-05,3.4157094375740136
1759827973.1531935,1,5.213886241733435,6.00000630850917,3.1415883711363026,3.786925612933353,True,0.01071476936340332,5.241266250610352,6.000006198883057,3.1415891647338867,3.786925612933353,-1.1384425759430883e-05,3.4157094375740136
1759827973.1640706,1,5.215074497366586,6.000006304924987,3.141588379918222,3.786925612933353,True,0.010877132415771484,5.241266250610352,6.000006198883057,3.1415891647338867,3.786925612933353,-1.1384425759430883e-05,3.4157094375740136
1759827973.1777828,1,5.211427557605608,6.000006319237014,3.1415883023350393,3.786925612933353,True,0.013712167739868164,5.241266250610352,6.000006198883057,3.1415891647338867,3.786925612933353,-1.1384425759430883e-05,3.4157094375740136
1759827973.1879861,1,5.215109957627308,6.000006306116754,3.141588389784328,3.786925612933353,True,0.010203361511230469,5.241266250610352,6.000006198883057,3.1415891647338867,3.786925612933353,-1.1384425759430883e-05,3.4157094375740136
1759827973.198845,1,5.215568470001418,6.0000063036150335,3.1415884023176,3.786925612933353,True,0.010858774185180664,5.241266250610352,6.000006198883057,3.1415891647338867,3.786925612933353,-1.1384425759430883e-05,3.4157094375740136
1759827973.2095878,1,5.215911211486795,6.000006301801152,3.141588422760819,3.786925612933353,True,0.010742902755737305,5.241266250610352,6.000006198883057,3.1415891647338867,3.786925612933353,-1.1384425759430883e-05,3.4157094375740136
1759827973.225186,1,5.20901891143733,6.000006327379313,3.1415883002002403,3.786925612933353,True,0.015598297119140625,5.241266250610352,6.000006198883057,3.1415891647338867,3.786925612933353,-1.1384425759430883e-05,3.4157094375740136
1759827973.2365062,1,5.212574579815621,6.000006315607235,3.141588395377198,3.786925612933353,True,0.011320114135742188,5.241266250610352,6.000006198883057,3.1415891647338867,3.786925612933353,-1.1384425759430883e-05,3.4157094375740136
1759827973.2530441,1,4.783066892876162,6.000025215132341,3.1415750538201976,3.378052340806341,True,0.016537904739379883,4.552143573760986,6.000036716461182,3.1415412425994873,3.378052340806341,-1.1384425759430883e-05,3.4157094375740136
1759827973.2638347,1,4.626425326429984,6.0000325559686765,3.1415629128074585,3.378052340806341,True,0.010790586471557617,4.552143573760986,6.000036716461182,3.1415412425994873,3.378052340806341,-0.0001230405463950035,2.7926026730295876
1759827973.2752216,1,4.565824185036837,6.000035544277868,3.1415549922445294,3.378052340806341,True,0.011386871337890625,4.552143573760986,6.000036716461182,3.1415412425994873,3.378052340806341,-0.0001230405463950035,2.7926026730295876
1759827973.2882025,1,4.5406197827484345,6.000036869174124,3.1415490155568726,3.378052340806341,True,0.012980937957763672,4.552143573760986,6.000036716461182,3.1415412425994873,3.378052340806341,-0.0001230405463950035,2.7926026730295876
1759827973.2989373,1,4.533890756680656,6.000037356568553,3.1415454587549725,3.378052340806341,True,0.010734796524047852,4.552143573760986,6.000036716461182,3.1415412425994873,3.378052340806341,-0.0001230405463950035,2.7926026730295876
1759827973.3097246,1,4.531252818445944,6.000037594164781,3.1415426759621443,3.378052340806341,True,0.010787248611450195,4.552143573760986,6.000036716461182,3.1415412425994873,3.378052340806341,-0.0001230405463950035,2.7926026730295876
1759827973.3200192,1,4.530880782945784,6.00003769307039,3.141540799181417,3.378052340806341,True,0.010294675827026367,4.552143573760986,6.000036716461182,3.1415412425994873,3.378052340806341,-0.0001230405463950035,2.7926026730295876
1759827973.3334076,1,4.526746848141684,6.0000379471795675,3.14153860777172,3.378052340806341,True,0.013388395309448242,4.552143573760986,6.000036716461182,3.1415412425994873,3.378052340806341,-0.0001230405463950035,2.7926026730295876
1759827973.343651,1,4.529225796275707,6.00003787674935,3.1415381842226076,3.378052340806341,True,0.010243415832519531,4.552143573760986,6.000036716461182,3.1415412425994873,3.378052340806341,-0.0001230405463950035,2.7926026730295876
1759827973.354583,1,4.529284229645949,6.000037901169989,3.141537421565314,3.378052340806341,True,0.010931968688964844,4.552143573760986,6.000036716461182,3.1415412425994873,3.378052340806341,-0.0001230405463950035,2.7926026730295876
1759827973.3683126,1,4.525696797981486,6.000038105713373,3.141536233795426,3.378052340806341,True,0.013729572296142578,4.552143573760986,6.000036716461182,3.1415412425994873,3.378052340806341,-0.0001230405463950035,2.7926026730295876
1759827973.3794105,1,4.527722160531082,6.000038025998158,3.1415363790683326,3.378052340806341,True,0.011097908020019531,4.552143573760986,6.000036716461182,3.1415412425994873,3.378052340806341,-0.0001230405463950035,2.7926026730295876
1759827973.390053,1,4.52908335687211,6.0000379630598975,3.141536373827339,3.378052340806341,True,0.010642528533935547,4.552143573760986,6.000036716461182,3.1415412425994873,3.378052340806341,-0.0001230405463950035,2.7926026730295876
1759827973.4007316,1,4.529556835211285,6.000037941634863,3.1415363153325906,3.378052340806341,True,0.010678529739379883,4.552143573760986,6.000036716461182,3.1415412425994873,3.378052340806341,-0.0001230405463950035,2.7926026730295876
1759827973.4146576,1,4.525547435461849,6.000038153278031,3.1415355023209433,3.378052340806341,True,0.013926029205322266,4.552143573760986,6.000036716461182,3.1415412425994873,3.378052340806341,-0.0001230405463950035,2.7926026730295876
1759827973.4250255,1,4.528607077615103,6.0000380037962495,3.1415361652855704,3.378052340806341,True,0.010367870330810547,4.552143573760986,6.000036716461182,3.1415412425994873,3.378052340806341,-0.0001230405463950035,2.7926026730295876
1759827973.43595,1,4.52905743673351,6.0000379767077545,3.1415361844447887,3.378052340806341,True,0.010924577713012695,4.552143573760986,6.000036716461182,3.1415412425994873,3.378052340806341,-0.0001230405463950035,2.7926026730295876
1759827973.4508326,1,4.186621752503173,6.00023692663057,3.1415673512200044,2.7199077999470047,True,0.014882564544677734,4.000002384185791,6.000358581542969,-3.141528367996216,2.7199077999470047,-0.0001230405463950035,2.7926026730295876
1759827973.4612827,1,4.060427876448886,6.000312353765123,-3.1415913036561776,2.7199077999470047,True,0.010450124740600586,4.000002384185791,6.000358581542969,-3.141528367996216,2.7199077999470047,-7.875962868908459e-05,2.402435080839968
1759827973.4838576,1,3.999629524767802,6.000340808360769,-3.1415722599218228,2.7199077999470047,True,0.022574901580810547,4.000002384185791,6.000358581542969,-3.141528367996216,2.7199077999470047,-7.875962868908459e-05,2.402435080839968
1759827973.4997485,1,3.983350778314858,6.000351410444194,-3.1415573736847016,2.7199077999470047,True,0.015890836715698242,4.000002384185791,6.000358581542969,-3.141528367996216,2.7199077999470047,-7.875962868908459e-05,2.402435080839968
1759827973.5098605,1,3.983136506171179,6.000355452458383,-3.1415472600464938,2.7199077999470047,True,0.01011204719543457,4.000002384185791,6.000358581542969,-3.141528367996216,2.7199077999470047,-7.875962868908459e-05,2.402435080839968
1759827973.5208426,1,3.9821508187880448,6.000356850146786,-3.1415404703070884,2.7199077999470047,True,0.010982036590576172,4.000002384185791,6.000358581542969,-3.141528367996216,2.7199077999470047,-7.875962868908459e-05,2.402435080839968
1759827973.5318563,1,3.981741376145519,6.000357306598954,-3.141535607372937,2.7199077999470047,True,0.01101374626159668,4.000002384185791,6.000358581542969,-3.141528367996216,2.7199077999470047,-7.875962868908459e-05,2.402435080839968
1759827973.5427725,1,3.9816862906403307,6.000357432689866,-3.141532139498352,2.7199077999470047,True,0.01091623306274414,4.000002384185791,6.000358581542969,-3.141528367996216,2.7199077999470047,-7.875962868908459e-05,2.402435080839968
1759827973.5562043,1,3.9790518093366423,6.000357277869609,-3.141529552734065,2.7199077999470047,True,0.013431787490844727,4.000002384185791,6.000358581542969,-3.141528367996216,2.7199077999470047,-7.875962868908459e-05,2.402435080839968
1759827973.5671031,1,3.9806770493466073,6.000357355710266,-3.1415276862044372,2.7199077999470047,True,0.010898828506469727,4.000002384185791,6.000358581542969,-3.141528367996216,2.7199077999470047,-7.875962868908459e-05,2.402435080839968
1759827973.5783422,1,3.98094437359735,6.000357341378243,-3.1415265229614757,2.7199077999470047,True,0.011239051818847656,4.000002384185791,6.000358581542969,-3.141528367996216,2.7199077999470047,-7.875962868908459e-05,2.402435080839968
1759827973.5939448,1,3.976513150060981,6.000358391588903,-3.1414347444424724,2.7199077999470047,True,0.015602588653564453,4.000002384185791,6.000358581542969,-3.141528367996216,2.7199077999470047,0.005020254083511588,2.591857727541383
1759827973.6053371,1,3.9791946370616813,6.000357463962628,-3.1414508698396997,2.7199077999470047,True,0.011392354965209961,4.000002384185791,6.000358581542969,-3.141528367996216,2.7199077999470047,0.005020254083511588,2.591857727541383
1759827973.616019,1,3.980957008032547,6.0003572897704,-3.141456206623925,2.7199077999470047,True,0.010681867599487305,4.000002384185791,6.000358581542969,-3.141528367996216,2.7199077999470047,0.005020254083511588,2.591857727541383
1759827973.6272392,1,3.9810708762618847,6.000357267850748,-3.1414534745170286,2.7199077999470047,True,0.011220216751098633,4.000002384185791,6.000358581542969,-3.141528367996216,2.7199077999470047,0.005020254083511588,2.591857727541383
1759827973.6426072,1,3.9768052026586505,6.000357263661259,-3.1414289800934565,2.7199077999470047,True,0.015367984771728516,4.000002384185791,6.000358581542969,-3.141528367996216,2.7199077999470047,0.005020254083511588,2.591857727541383
1759827973.666365,1,3.7872476902612524,6.017994011659969,-3.1415523946144575,1.4234922020884322,True,0.0237576961517334,3.690995931625366,6.028894901275635,3.141284465789795,1.4234922020884322,0.005020254083511588,2.591857727541383
1759827973.676777,1,3.7220995727027835,6.0247306215332435,3.141402803994586,1.4234922020884322,True,0.010411977767944336,3.690995931625366,6.028894901275635,3.141284465789795,1.4234922020884322,-0.012244899562553258,2.6798111958887834
1759827973.6869826,1,3.697327339777771,6.02730496153487,3.1413326590320008,1.4234922020884322,True,0.010205745697021484,3.690995931625366,6.028894901275635,3.141284465789795,1.4234922020884322,-0.012244899562553258,2.6798111958887834
1759827973.7024293,1,3.6850155677454706,6.0282888837396325,3.1412482452657873,1.4234922020884322,True,0.015446662902832031,3.690995931625366,6.028894901275635,3.141284465789795,1.4234922020884322,-0.012244899562553258,2.6798111958887834
1759827973.7124493,1,3.6832634955882964,6.02866487931125,3.141254630925607,1.4234922020884322,True,0.010020017623901367,3.690995931625366,6.028894901275635,3.141284465789795,1.4234922020884322,-0.012244899562553258,2.6798111958887834
1759827973.7397006,1,3.6732252039567292,6.028809257289762,3.1411010517442968,1.4234922020884322,True,0.027251243591308594,3.690995931625366,6.028894901275635,3.141284465789795,1.4234922020884322,-0.012244899562553258,2.6798111958887834
1759827973.7508292,1,3.6781571781642834,6.028864580439991,3.141194689389817,1.4234922020884322,True,0.011128664016723633,3.690995931625366,6.028894901275635,3.141284465789795,1.4234922020884322,-0.012244899562553258,2.6798111958887834
1759827973.7760773,1,3.6723639518064153,6.0288863393115575,3.1410840549634322,1.4234922020884322,True,0.025248050689697266,3.690995931625366,6.028894901275635,3.141284465789795,1.4234922020884322,-0.012244899562553258,2.6798111958887834
1759827973.7865112,1,3.6782059634727187,6.028893999891541,3.1411803013927635,1.4234922020884322,True,0.01043391227722168,3.690995931625366,6.028894901275635,3.141284465789795,1.4234922020884322,-0.012244899562553258,2.6798111958887834
1759827973.8851547,1,3.3934704786696197,6.052923106082066,-3.1395650488095814,1.6985827094921269,True,0.09864354133605957,3.3210484981536865,6.067820072174072,-3.1340982913970947,1.6985827094921269,-0.012244899562553258,2.6798111958887834
1759827973.8947036,1,3.3425159132532873,6.062115866050981,-3.1370110692593265,1.6985827094921269,True,0.00954890251159668,3.3210484981536865,6.067820072174072,-3.1340982913970947,1.6985827094921269,-0.010336924881027443,2.517071183503059
1759827973.9060895,1,3.3218612114182937,6.065606119682618,-3.135875912253665,1.6985827094921269,True,0.011385917663574219,3.3210484981536865,6.067820072174072,-3.1340982913970947,1.6985827094921269,-0.010336924881027443,2.517071183503059
1759827973.919172,1,3.3128711333380427,6.066924543201157,-3.135155235072517,1.6985827094921269,True,0.013082504272460938,3.3210484981536865,6.067820072174072,-3.1340982913970947,1.6985827094921269,-0.010336924881027443,2.517071183503059
1759827973.9293675,1,3.3113103197488374,6.0674346389624345,-3.134678399609001,1.6985827094921269,True,0.010195493698120117,3.3210484981536865,6.067820072174072,-3.1340982913970947,1.6985827094921269,-0.010336924881027443,2.517071183503059
1759827973.9401984,1,3.310301934518184,6.067623490898081,-3.1343569210490063,1.6985827094921269,True,0.010830879211425781,3.3210484981536865,6.067820072174072,-3.1340982913970947,1.6985827094921269,-0.010336924881027443,2.517071183503059
1759827973.952246,1,3.3091274397011263,6.067687552467114,-3.134117867483848,1.6985827094921269,True,0.012047529220581055,3.3210484981536865,6.067820072174072,-3.1340982913970947,1.6985827094921269,-0.010336924881027443,2.517071183503059
1759827973.9625714,1,3.309796101745168,6.067718755511054,-3.133954487044978,1.6985827094921269,True,0.010325431823730469,3.3210484981536865,6.067820072174072,-3.1340982913970947,1.6985827094921269,-0.010336924881027443,2.517071183503059
1759827973.9739277,1,3.30938267339843,6.06772438761584,-3.13384073761744,1.6985827094921269,True,0.011356353759765625,3.3210484981536865,6.067820072174072,-3.1340982913970947,1.6985827094921269,-0.010336924881027443,2.517071183503059
1759827973.9858315,1,3.308869615943924,6.067722897482504,-3.1337524103991825,1.6985827094921269,True,0.011903762817382812,3.3210484981536865,6.067820072174072,-3.1340982913970947,1.6985827094921269,-0.010336924881027443,2.517071183503059
1759827973.9966433,1,3.309382090617574,6.067727344947127,-3.1336962565987108,1.6985827094921269,True,0.010811805725097656,3.3210484981536865,6.067820072174072,-3.1340982913970947,1.6985827094921269,-0.010336924881027443,2.517071183503059
1759827974.00688,1,3.309950932468815,6.067731674980004,-3.1336687480408614,1.6985827094921269,True,0.010236740112304688,3.3210484981536865,6.067820072174072,-3.1340982913970947,1.6985827094921269,-0.010336924881027443,2.517071183503059
1759827974.0187747,1,3.309092548724734,6.067725825935597,-3.1334552961291067,1.6985827094921269,True,0.011894702911376953,3.3210484981536865,6.067820072174072,-3.1340982913970947,1.6985827094921269,0.012053654805384895,2.9148023376287555
1759827974.0292923,1,3.3096581264691523,6.067729181020718,-3.1334476324831684,1.6985827094921269,True,0.010517597198486328,3.3210484981536865,6.067820072174072,-3.1340982913970947,1.6985827094921269,0.012053654805384895,2.9148023376287555
1759827974.0397236,1,3.309930152952187,6.067730859955505,-3.1334506904860007,1.6985827094921269,True,0.010431289672851562,3.3210484981536865,6.067820072174072,-3.1340982913970947,1.6985827094921269,0.012053654805384895,2.9148023376287555
1759827974.0519483,1,3.3088705451058096,6.067722253924197,-3.133417906750072,1.6985827094921269,True,0.012224674224853516,3.3210484981536865,6.067820072174072,-3.1340982913970947,1.6985827094921269,0.012053654805384895,2.9148023376287555
1759827974.063259,1,3.309058860751759,6.067723464688537,-3.1334265168135254,1.6985827094921269,True,0.011310577392578125,3.3210484981536865,6.067820072174072,-3.1340982913970947,1.6985827094921269,0.012053654805384895,2.9148023376287555
1759827974.0833316,1,3.0538762329885443,6.0767945855160335,-3.131575221254426,2.1214930388622855,True,0.02007269859313965,2.9224822521209717,6.082613468170166,-3.128079414367676,2.1214930388622855,0.012053654805384895,2.9148023376287555
1759827974.0931468,1,2.964717038008924,6.080311496411991,-3.1304006551197645,2.1214930388622855,True,0.009815216064453125,2.9224822521209717,6.082613468170166,-3.128079414367676,2.1214930388622855,0.014659476057104825,2.3369017283316427
