timestamp,vehicle_id,x,y,theta,velocity,gps_available,dt,gps_x,gps_y,gps_theta,gps_velocity,control_steering,control_acceleration
1759827970.528266,0,0.0,6.0,-0.05483113549895435,0.0,False,0.01,nan,nan,nan,nan,0.0,0.0
1759827970.539438,0,0.0,6.0,-0.05483113549895435,0.0,False,0.011172056198120117,nan,nan,nan,nan,0.0,0.0
1759827970.5501049,0,0.0,6.0,-0.05483113549895435,0.0,False,0.010666847229003906,nan,nan,nan,nan,0.0,0.0
1759827970.5601184,0,0.0,6.0,-0.05483113549895435,0.0,False,0.010013580322265625,nan,nan,nan,nan,0.0,0.0
1759827970.571328,0,0.0,6.0,-0.05483113549895435,0.0,False,0.011209487915039062,nan,nan,nan,nan,0.0,0.0
1759827970.5814235,0,0.0,6.0,-0.05483113549895435,0.0,False,0.010095596313476562,nan,nan,nan,nan,0.0,0.0
1759827970.5918622,0,0.0,6.0,-0.05483113549895435,0.0,False,0.010438680648803711,nan,nan,nan,nan,0.0,0.0
1759827970.6026044,0,0.0,6.0,-0.05483113549895435,0.0,False,0.0107421875,nan,nan,nan,nan,0.0,0.0
1759827970.6133773,0,0.0,6.0,-0.05483113549895435,0.0,False,0.010772943496704102,nan,nan,nan,nan,0.0,0.0
1759827970.6238515,0,0.0,6.0,-0.05483113549895435,0.0,False,0.010474205017089844,nan,nan,nan,nan,0.0,0.0
1759827970.63511,0,0.0,6.0,-0.05483113549895435,0.0,False,0.011258363723754883,nan,nan,nan,nan,0.0,0.0
1759827970.6454248,0,0.0,6.0,-0.05483113549895435,0.0,False,0.01031494140625,nan,nan,nan,nan,0.0,0.0
1759827970.65646,0,0.0,6.0,-0.05483113549895435,0.0,False,0.01103520393371582,nan,nan,nan,nan,0.0,0.0
1759827970.667873,0,0.0,6.0,-0.05483113549895435,0.0,False,0.011412858963012695,nan,nan,nan,nan,0.0,0.0
1759827970.6786094,0,0.0,6.0,-0.05483113549895435,0.0,False,0.010736465454101562,nan,nan,nan,nan,0.0,0.0
1759827970.6893334,0,0.0,6.0,-0.05483113549895435,0.0,False,0.010724067687988281,nan,nan,nan,nan,0.0,0.0
1759827970.699893,0,0.0,6.0,-0.05483113549895435,0.0,False,0.010559558868408203,nan,nan,nan,nan,0.0,0.0
1759827970.7111714,0,0.0,6.0,-0.05483113549895435,0.0,False,0.011278390884399414,nan,nan,nan,nan,0.0,0.0
1759827970.7278836,0,-1.815795857851299e-06,5.999996217091878,-2.8798512453855984,0.0,True,0.016712188720703125,-1.8310546465727384e-06,5.999996185302734,3.141591787338257,0.0,0.0,0.0
1759827970.7389772,0,-1.8259542158023407e-06,5.999996195928632,-3.1212640315400897,0.0,True,0.011093616485595703,-1.8310546465727384e-06,5.999996185302734,3.141591787338257,0.0,0.0,0.0
1759827970.7490013,0,-1.829141318833373e-06,5.999996189288834,3.1393995835733843,0.0,True,0.010024070739746094,-1.8310546465727384e-06,5.999996185302734,3.141591787338257,0.0,0.0,0.0
1759827970.7594233,0,-1.8303257235446442e-06,5.999996186821324,3.136377062137374,0.0,True,0.010421991348266602,-1.8310546465727384e-06,5.999996185302734,3.141591787338257,0.0,0.0,0.0
1759827970.7706444,0,-1.830776328493004e-06,5.999996185882564,3.1358571897728673,0.0,True,0.011221170425415039,-1.8310546465727384e-06,5.999996185302734,3.141591787338257,0.0,0.0,0.0
1759827970.7818973,0,-1.8309483444161885e-06,5.999996185524197,3.136172510027773,0.0,True,0.011252880096435547,-1.8310546465727384e-06,5.999996185302734,3.141591787338257,0.0,0.0,0.0
1759827970.7927856,0,-1.8310140430902439e-06,5.999996185387325,3.1367908734500567,0.0,True,0.010888338088989258,-1.8310546465727384e-06,5.999996185302734,3.141591787338257,0.0,0.0,0.0
1759827970.803935,0,-1.8310391374407785e-06,5.999996185335045,3.137388071245489,0.0,True,0.011149406433105469,-1.8310546465727384e-06,5.999996185302734,3.141591787338257,0.0,0.0,0.0
1759827970.8143845,0,-1.8310487226124851e-06,5.9999961853150765,3.1379710229807625,0.0,True,0.010449409484863281,-1.8310546465727384e-06,5.999996185302734,3.141591787338257,0.0,0.0,0.0
1759827970.8253078,0,-1.8310523838213264e-06,5.999996185307449,3.138416360175171,0.0,True,0.010923385620117188,-1.8310546465727384e-06,5.999996185302734,3.141591787338257,0.0,0.0,0.0
1759827970.835697,0,-1.8310537822786103e-06,5.999996185304535,3.1388155499046135,0.0,True,0.010389089584350586,-1.8310546465727384e-06,5.999996185302734,3.141591787338257,0.0,0.0,0.0
1759827970.8468695,0,-1.831054316441758e-06,5.999996185303422,3.139102564163215,0.0,True,0.01117253303527832,-1.8310546465727384e-06,5.999996185302734,3.141591787338257,0.0,0.0,0.0
1759827970.8580058,0,-1.8310545204739246e-06,5.999996185302997,3.1393529571439593,0.0,True,0.011136293411254883,-1.8310546465727384e-06,5.999996185302734,3.141591787338257,0.0,0.0,0.0
1759827970.868692,0,-1.8310545984072776e-06,5.999996185302835,3.1395867722278243,0.0,True,0.010686159133911133,-1.8310546465727384e-06,5.999996185302734,3.141591787338257,0.0,0.0,0.0
1759827970.8790474,0,-1.8310546281751695e-06,5.999996185302773,3.1397930417705524,0.0,True,0.010355472564697266,-1.8310546465727384e-06,5.999996185302734,3.141591787338257,0.0,0.0,0.0
1759827970.8896632,0,-1.8310546395454924e-06,5.999996185302749,3.1399538514100875,0.0,True,0.010615825653076172,-1.8310546465727384e-06,5.999996185302734,3.141591787338257,0.0,0.0,0.0
1759827970.9000473,0,-1.8310546438885694e-06,5.99999618530274,3.140096777654433,0.0,True,0.010384082794189453,-1.8310546465727384e-06,5.999996185302734,3.141591787338257,0.0,0.0,0.0
1759827970.9104366,0,-1.831054645547477e-06,5.999996185302736,3.140217645393264,0.0,True,0.010389328002929688,-1.8310546465727384e-06,5.999996185302734,3.141591787338257,0.0,0.0,0.0
1759827970.925939,0,-1.8310546461811233e-06,5.999996185302735,3.140195153959171,0.0,True,0.015502452850341797,-1.8310546465727384e-06,5.999996185302734,3.141591787338257,0.0,0.0,0.0
1759827970.9372597,0,-1.8310546464231547e-06,5.999996185302734,3.140313966051446,0.0,True,0.01132059097290039,-1.8310546465727384e-06,5.999996185302734,3.141591787338257,0.0,0.0,0.0
1759827970.9480455,0,-1.8310546465156024e-06,5.999996185302734,3.1404337925825043,0.0,True,0.010785818099975586,-1.8310546465727384e-06,5.999996185302734,3.141591787338257,0.0,0.0,0.0
1759827970.9586127,0,-1.8310546465509144e-06,5.999996185302734,3.1405361134584098,0.0,True,0.010567188262939453,-1.8310546465727384e-06,5.999996185302734,3.141591787338257,0.0,0.0,0.0
1759827970.9686735,0,-1.8310546465644023e-06,5.999996185302734,3.1406288777688047,0.0,True,0.010060787200927734,-1.8310546465727384e-06,5.999996185302734,3.141591787338257,0.0,0.0,0.0
1759827970.9788835,0,-1.8310546465695544e-06,5.999996185302734,3.140701009582447,0.0,True,0.010210037231445312,-1.8310546465727384e-06,5.999996185302734,3.141591787338257,0.0,0.0,0.0
1759827970.9891024,0,-1.8310546465715223e-06,5.999996185302734,3.140760489411269,0.0,True,0.01021885871887207,-1.8310546465727384e-06,5.999996185302734,3.141591787338257,0.0,0.0,0.0
1759827970.9991138,0,-1.8310546465722738e-06,5.999996185302734,3.1408144901631943,0.0,True,0.010011434555053711,-1.8310546465727384e-06,5.999996185302734,3.141591787338257,0.0,0.0,0.0
1759827971.0105221,0,-1.831054646572561e-06,5.999996185302734,3.140838859838844,0.0,True,0.011408329010009766,-1.8310546465727384e-06,5.999996185302734,3.141591787338257,0.0,0.0,0.0
1759827971.0213542,0,-1.8310546465726707e-06,5.999996185302734,3.140873586860069,0.0,True,0.010832071304321289,-1.8310546465727384e-06,5.999996185302734,3.141591787338257,0.0,0.0,0.0
1759827971.0314536,0,-1.8310546465727126e-06,5.999996185302734,3.140917803063731,0.0,True,0.010099411010742188,-1.8310546465727384e-06,5.999996185302734,3.141591787338257,0.0,0.0,0.0
1759827971.0421083,0,-1.8310546465727285e-06,5.999996185302734,3.140948999184115,0.0,True,0.010654687881469727,-1.8310546465727384e-06,5.999996185302734,3.141591787338257,0.0,0.0,0.0
1759827971.0521615,0,-1.8310546465727346e-06,5.999996185302734,3.1409854723409616,0.0,True,0.010053157806396484,-1.8310546465727384e-06,5.999996185302734,3.141591787338257,0.0,0.0,0.0
1759827971.0629613,0,-1.831054646572737e-06,5.999996185302734,3.1410083700860145,0.0,True,0.010799884796142578,-1.8310546465727384e-06,5.999996185302734,3.141591787338257,0.0,0.0,0.0
1759827971.073325,0,-1.8310546465727378e-06,5.999996185302734,3.1410357105116375,0.0,True,0.010363578796386719,-1.8310546465727384e-06,5.999996185302734,3.141591787338257,0.0,0.0,0.0
1759827971.0843277,0,-1.8310546465727382e-06,5.999996185302734,3.141053841528924,0.0,True,0.011002779006958008,-1.8310546465727384e-06,5.999996185302734,3.141591787338257,0.0,0.0,0.0
1759827971.09552,0,-1.8310546465727384e-06,5.999996185302734,3.1410703678184557,0.0,True,0.01119232177734375,-1.8310546465727384e-06,5.999996185302734,3.141591787338257,0.0,0.0,0.0
1759827971.1067123,0,-1.8310546465727384e-06,5.999996185302734,3.141088148203359,0.0,True,0.01119232177734375,-1.8310546465727384e-06,5.999996185302734,3.141591787338257,0.0,0.0,0.0
1759827971.1170306,0,-1.8310546465727384e-06,5.999996185302734,3.1411153197792405,0.0,True,0.010318279266357422,-1.8310546465727384e-06,5.999996185302734,3.141591787338257,0.0,0.0,0.0
1759827971.131271,0,-1.8310546465727384e-06,5.999996185302734,3.1411026197627194,0.0,True,0.014240264892578125,-1.8310546465727384e-06,5.999996185302734,3.141591787338257,0.0,0.0,0.0
1759827971.1425147,0,-1.8310546465727384e-06,5.999996185302734,3.1411269498988474,0.0,True,0.011243820190429688,-1.8310546465727384e-06,5.999996185302734,3.141591787338257,0.0,0.0,0.0
1759827971.1539736,0,-1.8310546465727384e-06,5.999996185302734,3.1411494083684914,0.0,True,0.011458873748779297,-1.8310546465727384e-06,5.999996185302734,3.141591787338257,0.0,0.0,0.0
1759827971.1649115,0,-1.8310546465727384e-06,5.999996185302734,3.141174357427694,0.0,True,0.010937929153442383,-1.8310546465727384e-06,5.999996185302734,3.141591787338257,0.0,0.0,0.0
1759827971.1762443,0,-1.8310546465727384e-06,5.999996185302734,3.1411932159218985,0.0,True,0.01133275032043457,-1.8310546465727384e-06,5.999996185302734,3.141591787338257,0.0,0.0,0.0
1759827971.1868403,0,-1.8310546465727384e-06,5.999996185302734,3.1412160582622572,0.0,True,0.010596036911010742,-1.8310546465727384e-06,5.999996185302734,3.141591787338257,0.0,0.0,0.0
1759827971.1970854,0,-1.8310546465727384e-06,5.999996185302734,3.1412385228333353,0.0,True,0.010245084762573242,-1.8310546465727384e-06,5.999996185302734,3.141591787338257,0.0,0.0,0.0
1759827971.2077487,0,-1.8310546465727384e-06,5.999996185302734,3.1412545685746203,0.0,True,0.010663270950317383,-1.8310546465727384e-06,5.999996185302734,3.141591787338257,0.0,0.0,0.0
1759827971.2195163,0,-1.8310546465727384e-06,5.999996185302734,3.1412613148374824,0.0,True,0.01176762580871582,-1.8310546465727384e-06,5.999996185302734,3.141591787338257,0.0,0.0,0.0
1759827971.2305727,0,-1.8310546465727384e-06,5.999996185302734,3.1412739581214826,0.0,True,0.01105642318725586,-1.8310546465727384e-06,5.999996185302734,3.141591787338257,0.0,0.0,0.0
1759827971.24147,0,-1.8310546465727384e-06,5.999996185302734,3.1412874349486053,0.0,True,0.010897397994995117,-1.8310546465727384e-06,5.999996185302734,3.141591787338257,0.0,0.0,0.0
1759827971.2515833,0,-1.8310546465727384e-06,5.999996185302734,3.1413047124115696,0.0,True,0.010113239288330078,-1.8310546465727384e-06,5.999996185302734,3.141591787338257,0.0,0.0,0.0
1759827971.2630196,0,-1.8310546465727384e-06,5.999996185302734,3.1413118916277973,0.0,True,0.011436223983764648,-1.8310546465727384e-06,5.999996185302734,3.141591787338257,0.0,0.0,0.0
1759827971.274134,0,-1.8310546465727384e-06,5.999996185302734,3.1413211730771984,0.0,True,0.011114358901977539,-1.8310546465727384e-06,5.999996185302734,3.141591787338257,0.0,0.0,0.0
1759827971.2842982,0,-1.8310546465727384e-06,5.999996185302734,3.141335694540686,0.0,True,0.010164260864257812,-1.8310546465727384e-06,5.999996185302734,3.141591787338257,0.0,0.0,0.0
1759827971.294981,0,-1.8310546465727384e-06,5.999996185302734,3.141345741129193,0.0,True,0.010682821273803711,-1.8310546465727384e-06,5.999996185302734,3.141591787338257,0.0,0.0,0.0
1759827971.3063035,0,-1.8310546465727384e-06,5.999996185302734,3.1413516730152278,0.0,True,0.011322498321533203,-1.8310546465727384e-06,5.999996185302734,3.141591787338257,0.0,0.0,0.0
1759827971.3166866,0,-1.8310546465727384e-06,5.999996185302734,3.141362656121961,0.0,True,0.010383129119873047,-1.8310546465727384e-06,5.999996185302734,3.141591787338257,0.0,0.0,0.0
1759827971.3295906,0,-1.8310546465727384e-06,5.999996185302734,3.1413609949917536,0.0,True,0.012903928756713867,-1.8310546465727384e-06,5.999996185302734,3.141591787338257,0.0,0.0,0.0
1759827971.3371396,0,-1.8310546465727384e-06,5.999996185302734,3.1413860841728667,0.0,True,0.0075490474700927734,-1.8310546465727384e-06,5.999996185302734,3.141591787338257,0.0,0.0,0.0
1759827971.348565,0,-1.8310546465727384e-06,5.999996185302734,3.1413893633836665,0.0,True,0.011425495147705078,-1.8310546465727384e-06,5.999996185302734,3.141591787338257,0.0,0.0,0.0
1759827971.3597682,0,-1.8310546465727384e-06,5.999996185302734,3.141393474518285,0.0,True,0.01120305061340332,-1.8310546465727384e-06,5.999996185302734,3.141591787338257,0.0,0.0,0.0
1759827971.370419,0,-1.8310546465727384e-06,5.999996185302734,3.1414006590068446,0.0,True,0.010650873184204102,-1.8310546465727384e-06,5.999996185302734,3.141591787338257,0.0,0.0,0.0
1759827971.381878,0,-1.8310546465727384e-06,5.999996185302734,3.141404500622741,0.0,True,0.011458873748779297,-1.8310546465727384e-06,5.999996185302734,3.141591787338257,0.0,0.0,0.0
1759827971.3930786,0,-1.8310546465727384e-06,5.999996185302734,3.141409943524174,0.0,True,0.011200666427612305,-1.8310546465727384e-06,5.999996185302734,3.141591787338257,0.0,0.0,0.0
1759827971.4044032,0,-1.8310546465727384e-06,5.999996185302734,3.1414152396060118,0.0,True,0.011324644088745117,-1.8310546465727384e-06,5.999996185302734,3.141591787338257,0.0,0.0,0.0
1759827971.4144096,0,-1.8310546465727384e-06,5.999996185302734,3.1414253686366855,0.0,True,0.010006427764892578,-1.8310546465727384e-06,5.999996185302734,3.141591787338257,0.0,0.0,0.0
1759827971.4251146,0,-1.8310546465727384e-06,5.999996185302734,3.141431783802595,0.0,True,0.010704994201660156,-1.8310546465727384e-06,5.999996185302734,3.141591787338257,0.0,0.0,0.0
1759827971.4361966,0,-1.8310546465727384e-06,5.999996185302734,3.1414363352141663,0.0,True,0.011081933975219727,-1.8310546465727384e-06,5.999996185302734,3.141591787338257,0.0,0.0,0.0
1759827971.4471838,0,-1.8310546465727384e-06,5.999996185302734,3.1414412520198898,0.0,True,0.010987281799316406,-1.8310546465727384e-06,5.999996185302734,3.141591787338257,0.0,0.0,0.0
1759827971.4572937,0,-1.8310546465727384e-06,5.999996185302734,3.1414488604586897,0.0,True,0.010109901428222656,-1.8310546465727384e-06,5.999996185302734,3.141591787338257,0.0,0.0,0.0
1759827971.4687989,0,-1.8310546465727384e-06,5.999996185302734,3.141451457074398,0.0,True,0.011505126953125,-1.8310546465727384e-06,5.999996185302734,3.141591787338257,0.0,0.0,0.0
1759827971.4793653,0,-1.8310546465727384e-06,5.999996185302734,3.141457119169827,0.0,True,0.010566473007202148,-1.8310546465727384e-06,5.999996185302734,3.141591787338257,0.0,0.0,0.0
1759827971.490489,0,-1.8310546465727384e-06,5.999996185302734,3.1414609639200552,0.0,True,0.0111236572265625,-1.8310546465727384e-06,5.999996185302734,3.141591787338257,0.0,0.0,0.0
1759827971.5014343,0,-1.8310546465727384e-06,5.999996185302734,3.1414653194449933,0.0,True,0.010945320129394531,-1.8310546465727384e-06,5.999996185302734,3.141591787338257,0.0,0.0,0.0
1759827971.5117574,0,-1.8310546465727384e-06,5.999996185302734,3.1414712108969205,0.0,True,0.010323047637939453,-1.8310546465727384e-06,5.999996185302734,3.141591787338257,0.0,0.0,0.0
1759827971.5228772,0,-1.8310546465727384e-06,5.999996185302734,3.1414745189334425,0.0,True,0.011119842529296875,-1.8310546465727384e-06,5.999996185302734,3.141591787338257,0.0,0.0,0.0
1759827971.5344303,0,-1.8310546465727384e-06,5.999996185302734,3.141476813669602,0.0,True,0.011553049087524414,-1.8310546465727384e-06,5.999996185302734,3.141591787338257,0.0,0.0,0.0
1759827971.5456555,0,-1.8310546465727384e-06,5.999996185302734,3.141480316469746,0.0,True,0.011225223541259766,-1.8310546465727384e-06,5.999996185302734,3.141591787338257,0.0,0.0,0.0
1759827971.556054,0,-1.8310546465727384e-06,5.999996185302734,3.141485781002995,0.0,True,0.010398626327514648,-1.8310546465727384e-06,5.999996185302734,3.141591787338257,0.0,0.0,0.0
1759827971.5672197,0,-1.8310546465727384e-06,5.999996185302734,3.141489020737266,0.0,True,0.011165618896484375,-1.8310546465727384e-06,5.999996185302734,3.141591787338257,0.0,0.0,0.0
1759827971.577348,0,-1.8310546465727384e-06,5.999996185302734,3.1414943234158557,0.0,True,0.010128259658813477,-1.8310546465727384e-06,5.999996185302734,3.141591787338257,0.0,0.0,0.0
1759827971.588286,0,-1.8310546465727384e-06,5.999996185302734,3.141497367666437,0.0,True,0.010937929153442383,-1.8310546465727384e-06,5.999996185302734,3.141591787338257,0.0,0.0,0.0
1759827971.5993562,0,-1.8310546465727384e-06,5.999996185302734,3.1415000185693405,0.0,True,0.01107025146484375,-1.8310546465727384e-06,5.999996185302734,3.141591787338257,0.0,0.0,0.0
1759827971.6102407,0,-1.8310546465727384e-06,5.999996185302734,3.141503092323404,0.0,True,0.010884523391723633,-1.8310546465727384e-06,5.999996185302734,3.141591787338257,0.0,0.0,0.0
1759827971.6203804,0,-1.8310546465727384e-06,5.999996185302734,3.141507454939706,0.0,True,0.010139703750610352,-1.8310546465727384e-06,5.999996185302734,3.141591787338257,0.0,0.0,0.0
1759827971.6311808,0,-1.8310546465727384e-06,5.999996185302734,3.1415101527772578,0.0,True,0.010800361633300781,-1.8310546465727384e-06,5.999996185302734,3.141591787338257,0.0,0.0,0.0
1759827971.6424153,0,-1.8310546465727384e-06,5.999996185302734,3.141511980868051,0.0,True,0.011234521865844727,-1.8310546465727384e-06,5.999996185302734,3.141591787338257,0.0,0.0,0.0
1759827971.6535747,0,-1.8310546465727384e-06,5.999996185302734,3.141514127093494,0.0,True,0.011159420013427734,-1.8310546465727384e-06,5.999996185302734,3.141591787338257,0.0,0.0,0.0
1759827971.6641903,0,-1.8310546465727384e-06,5.999996185302734,3.141517265978816,0.0,True,0.01061558723449707,-1.8310546465727384e-06,5.999996185302734,3.141591787338257,0.0,0.0,0.0
1759827971.6745808,0,-1.8310546465727384e-06,5.999996185302734,3.141520544593668,0.0,True,0.010390520095825195,-1.8310546465727384e-06,5.999996185302734,3.141591787338257,0.0,0.0,0.0
1759827971.6858163,0,-1.8310546465727384e-06,5.999996185302734,3.1415222402508878,0.0,True,0.011235475540161133,-1.8310546465727384e-06,5.999996185302734,3.141591787338257,0.0,0.0,0.0
1759827971.6959682,0,-1.8310546465727384e-06,5.999996185302734,3.1415255637905446,0.0,True,0.010151863098144531,-1.8310546465727384e-06,5.999996185302734,3.141591787338257,0.0,0.0,0.0
1759827971.7062435,0,-1.8310546465727384e-06,5.999996185302734,3.141528383592366,0.0,True,0.01027536392211914,-1.8310546465727384e-06,5.999996185302734,3.141591787338257,0.0,0.0,0.0
1759827971.7173588,0,-1.8310546465727384e-06,5.999996185302734,3.1415297660692865,0.0,True,0.011115312576293945,-1.8310546465727384e-06,5.999996185302734,3.141591787338257,0.0,0.0,0.0
1759827971.736467,0,-1.8310546465727384e-06,5.999996185302734,3.1415212515890794,0.0,True,0.019108057022094727,-1.8310546465727384e-06,5.999996185302734,3.141591787338257,0.0,0.0,0.0
1759827971.7414837,0,-1.8310546465727384e-06,5.999996185302734,3.1415331395987156,0.0,True,0.005016803741455078,-1.8310546465727384e-06,5.999996185302734,3.141591787338257,0.0,0.0,0.0
1759827971.7518127,0,-1.8310546465727384e-06,5.999996185302734,3.141536504470798,0.0,True,0.010329008102416992,-1.8310546465727384e-06,5.999996185302734,3.141591787338257,0.0,0.0,0.0
1759827971.7631874,0,-1.8310546465727384e-06,5.999996185302734,3.1415376660722885,0.0,True,0.011374711990356445,-1.8310546465727384e-06,5.999996185302734,3.141591787338257,0.0,0.0,0.0
1759827971.7732103,0,-1.8310546465727384e-06,5.999996185302734,3.1415403866128653,0.0,True,0.010022878646850586,-1.8310546465727384e-06,5.999996185302734,3.141591787338257,0.0,0.0,0.0
1759827971.7838016,0,-1.8310546465727384e-06,5.999996185302734,3.1415422039540726,0.0,True,0.010591268539428711,-1.8310546465727384e-06,5.999996185302734,3.141591787338257,0.0,0.0,0.0
1759827971.795196,0,-1.8310546465727384e-06,5.999996185302734,3.141543044213835,0.0,True,0.011394500732421875,-1.8310546465727384e-06,5.999996185302734,3.141591787338257,0.0,0.0,0.0
1759827971.805213,0,-1.8310546465727384e-06,5.999996185302734,3.1415454413900115,0.0,True,0.010016918182373047,-1.8310546465727384e-06,5.999996185302734,3.141591787338257,0.0,0.0,0.0
1759827971.8164256,0,-1.8310546465727384e-06,5.999996185302734,3.1415464420614594,0.0,True,0.011212587356567383,-1.8310546465727384e-06,5.999996185302734,3.141591787338257,0.0,0.0,0.0
1759827971.8274717,0,-1.8310546465727384e-06,5.999996185302734,3.14154766472792,0.0,True,0.011046171188354492,-1.8310546465727384e-06,5.999996185302734,3.141591787338257,0.0,0.0,0.0
1759827971.8375525,0,-1.8310546465727384e-06,5.999996185302734,3.1415498289219865,0.0,True,0.010080814361572266,-1.8310546465727384e-06,5.999996185302734,3.141591787338257,0.0,0.0,0.0
1759827971.848297,0,-1.8310546465727384e-06,5.999996185302734,3.1415511743392113,0.0,True,0.010744571685791016,-1.8310546465727384e-06,5.999996185302734,3.141591787338257,0.0,0.0,0.0
1759827971.859027,0,-1.8310546465727384e-06,5.999996185302734,3.1415524586038384,0.0,True,0.010729789733886719,-1.8310546465727384e-06,5.999996185302734,3.141591787338257,0.0,0.0,0.0
1759827971.8692749,0,-1.8310546465727384e-06,5.999996185302734,3.1415541118762835,0.0,True,0.010247945785522461,-1.8310546465727384e-06,5.999996185302734,3.141591787338257,0.0,0.0,0.0
1759827971.880187,0,-1.8310546465727384e-06,5.999996185302734,3.1415550925491793,0.0,True,0.010912179946899414,-1.8310546465727384e-06,5.999996185302734,3.141591787338257,0.0,0.0,0.0
1759827971.8912642,0,-1.8310546465727384e-06,5.999996185302734,3.14155596306078,0.0,True,0.011077165603637695,-1.8310546465727384e-06,5.999996185302734,3.141591787338257,0.0,0.0,0.0
1759827971.901661,0,-1.8310546465727384e-06,5.999996185302734,3.1415574154312473,0.0,True,0.010396718978881836,-1.8310546465727384e-06,5.999996185302734,3.141591787338257,0.0,0.0,0.0
1759827971.91277,0,-1.8310546465727384e-06,5.999996185302734,3.1415582627206025,0.0,True,0.011109113693237305,-1.8310546465727384e-06,5.999996185302734,3.141591787338257,0.0,0.0,0.0
1759827971.9234548,0,-1.8310546465727384e-06,5.999996185302734,3.1415594405845724,0.0,True,0.010684728622436523,-1.8310546465727384e-06,5.999996185302734,3.141591787338257,0.0,0.0,0.0
1759827971.9336073,0,-1.8310546465727384e-06,5.999996185302734,3.141560937277056,0.0,True,0.010152578353881836,-1.8310546465727384e-06,5.999996185302734,3.141591787338257,0.0,0.0,0.0
1759827971.9449084,0,-1.8310546465727384e-06,5.999996185302734,3.1415615283492215,0.0,True,0.011301040649414062,-1.8310546465727384e-06,5.999996185302734,3.141591787338257,0.0,0.0,0.0
1759827971.9555495,0,-1.8310546465727384e-06,5.999996185302734,3.1415626033308968,0.0,True,0.010641098022460938,-1.8310546465727384e-06,5.999996185302734,3.141591787338257,0.0,0.0,0.0
1759827971.9658995,0,-1.8310546465727384e-06,5.999996185302734,3.141563826696771,0.0,True,0.01034998893737793,-1.8310546465727384e-06,5.999996185302734,3.141591787338257,0.0,0.0,0.0
1759827971.9770706,0,-1.8310546465727384e-06,5.999996185302734,3.1415644610592626,0.0,True,0.011171102523803711,-1.8310546465727384e-06,5.999996185302734,3.141591787338257,0.0,0.0,0.0
1759827971.988343,0,-1.8310546465727384e-06,5.999996185302734,3.1415650842691996,0.0,True,0.011272430419921875,-1.8310546465727384e-06,5.999996185302734,3.141591787338257,0.0,0.0,0.0
1759827971.9983923,0,-1.8310546465727384e-06,5.999996185302734,3.1415664488622905,0.0,True,0.01004934310913086,-1.8310546465727384e-06,5.999996185302734,3.141591787338257,0.0,0.0,0.0
1759827972.0091338,0,-1.8310546465727384e-06,5.999996185302734,3.141567298166901,0.0,True,0.010741472244262695,-1.8310546465727384e-06,5.999996185302734,3.141591787338257,0.0,0.0,0.0
1759827972.0198667,0,-1.8310546465727384e-06,5.999996185302734,3.141568095747852,0.0,True,0.010732889175415039,-1.8310546465727384e-06,5.999996185302734,3.141591787338257,0.0,0.0,0.0
1759827972.0310884,0,-1.8310546465727384e-06,5.999996185302734,3.141568632274925,0.0,True,0.011221647262573242,-1.8310546465727384e-06,5.999996185302734,3.141591787338257,0.0,0.0,0.0
1759827972.0413234,0,-1.8310546465727384e-06,5.999996185302734,3.1415696890861753,0.0,True,0.010235071182250977,-1.8310546465727384e-06,5.999996185302734,3.141591787338257,0.0,0.0,0.0
1759827972.0523636,0,-1.8310546465727384e-06,5.999996185302734,3.1415702824135536,0.0,True,0.011040210723876953,-1.8310546465727384e-06,5.999996185302734,3.141591787338257,0.0,0.0,0.0
1759827972.063366,0,-1.8310546465727384e-06,5.999996185302734,3.141570896566412,0.0,True,0.011002302169799805,-1.8310546465727384e-06,5.999996185302734,3.141591787338257,0.0,0.0,0.0
1759827972.0741665,0,-1.8310546465727384e-06,5.999996185302734,3.141571615198121,0.0,True,0.010800600051879883,-1.8310546465727384e-06,5.999996185302734,3.141591787338257,0.0,0.0,0.0
1759827972.0851612,0,-1.8310546465727384e-06,5.999996185302734,3.141572233885146,0.0,True,0.010994672775268555,-1.8310546465727384e-06,5.999996185302734,3.141591787338257,0.0,0.0,0.0
1759827972.0962443,0,-1.8310546465727384e-06,5.999996185302734,3.141572814740071,0.0,True,0.011083126068115234,-1.8310546465727384e-06,5.999996185302734,3.141591787338257,0.0,0.0,0.0
1759827972.1073442,0,-1.8310546465727384e-06,5.999996185302734,3.1415733979353426,0.0,True,0.011099815368652344,-1.8310546465727384e-06,5.999996185302734,3.141591787338257,0.0,0.0,0.0
1759827972.118169,0,-1.8310546465727384e-06,5.999996185302734,3.141574087657526,0.0,True,0.010824918746948242,-1.8310546465727384e-06,5.999996185302734,3.141591787338257,0.0,0.0,0.0
1759827972.128971,0,-1.8310546465727384e-06,5.999996185302734,3.1415747513615475,0.0,True,0.010802030563354492,-1.8310546465727384e-06,5.999996185302734,3.141591787338257,0.0,0.0,0.0
1759827972.1406012,0,-1.8310546465727384e-06,5.999996185302734,3.1415750892082706,0.0,True,0.011630058288574219,-1.8310546465727384e-06,5.999996185302734,3.141591787338257,0.0,0.0,0.0
1759827972.1519876,0,-1.8310546465727384e-06,5.999996185302734,3.1415755629304947,0.0,True,0.011386394500732422,-1.8310546465727384e-06,5.999996185302734,3.141591787338257,0.0,0.0,0.0
1759827972.1629786,0,-1.8310546465727384e-06,5.999996185302734,3.1415761929745436,0.0,True,0.010991096496582031,-1.8310546465727384e-06,5.999996185302734,3.141591787338257,0.0,0.0,0.0
1759827972.173645,0,-1.8310546465727384e-06,5.999996185302734,3.1415768928053325,0.0,True,0.010666370391845703,-1.8310546465727384e-06,5.999996185302734,3.141591787338257,0.0,0.0,0.0
1759827972.1844976,0,-1.8310546465727384e-06,5.999996185302734,3.1415774678585606,0.0,True,0.010852575302124023,-1.8310546465727384e-06,5.999996185302734,3.141591787338257,0.0,0.0,0.0
1759827972.1946316,0,-1.8310546465727384e-06,5.999996185302734,3.1415782055833503,0.0,True,0.010133981704711914,-1.8310546465727384e-06,5.999996185302734,3.141591787338257,0.0,0.0,0.0
1759827972.205184,0,-1.8310546465727384e-06,5.999996185302734,3.1415787302619194,0.0,True,0.010552406311035156,-1.8310546465727384e-06,5.999996185302734,3.141591787338257,0.0,0.0,0.0
1759827972.2155063,0,-1.8310546465727384e-06,5.999996185302734,3.1415792657344177,0.0,True,0.010322332382202148,-1.8310546465727384e-06,5.999996185302734,3.141591787338257,0.0,0.0,0.0
1759827972.226197,0,-1.8310546465727384e-06,5.999996185302734,3.141579654235846,0.0,True,0.010690689086914062,-1.8310546465727384e-06,5.999996185302734,3.141591787338257,0.0,0.0,0.0
1759827972.2366674,0,-1.8310546465727384e-06,5.999996185302734,3.1415800852495614,0.0,True,0.010470390319824219,-1.8310546465727384e-06,5.999996185302734,3.141591787338257,0.0,0.0,0.0
1759827972.2479632,0,-1.8310546465727384e-06,5.999996185302734,3.1415802915325877,0.0,True,0.011295795440673828,-1.8310546465727384e-06,5.999996185302734,3.141591787338257,0.0,0.0,0.0
1759827972.2580812,0,-1.8310546465727384e-06,5.999996185302734,3.141580816536921,0.0,True,0.01011800765991211,-1.8310546465727384e-06,5.999996185302734,3.141591787338257,0.0,0.0,0.0
1759827972.2689402,0,-1.8310546465727384e-06,5.999996185302734,3.1415811259051,0.0,True,0.010859012603759766,-1.8310546465727384e-06,5.999996185302734,3.141591787338257,0.0,0.0,0.0
1759827972.2804384,0,-1.8310546465727384e-06,5.999996185302734,3.141581289342888,0.0,True,0.011498212814331055,-1.8310546465727384e-06,5.999996185302734,3.141591787338257,0.0,0.0,0.0
1759827972.291131,0,-1.8310546465727384e-06,5.999996185302734,3.1415816749828327,0.0,True,0.010692596435546875,-1.8310546465727384e-06,5.999996185302734,3.141591787338257,0.0,0.0,0.0
1759827972.301559,0,-1.8310546465727384e-06,5.999996185302734,3.141582105698511,0.0,True,0.01042795181274414,-1.8310546465727384e-06,5.999996185302734,3.141591787338257,0.0,0.0,0.0
1759827972.312377,0,-1.8310546465727384e-06,5.999996185302734,3.1415824182627308,0.0,True,0.010818004608154297,-1.8310546465727384e-06,5.999996185302734,3.141591787338257,0.0,0.0,0.0
1759827972.3238528,0,-1.8310546465727384e-06,5.999996185302734,3.141582591707156,0.0,True,0.011475801467895508,-1.8310546465727384e-06,5.999996185302734,3.141591787338257,0.0,0.0,0.0
1759827972.3387392,0,-1.8310546465727384e-06,5.999996185302734,3.1415821747367616,0.0,True,0.01488637924194336,-1.8310546465727384e-06,5.999996185302734,3.141591787338257,0.0,0.0,0.0
1759827972.3443143,0,-1.8310546465727384e-06,5.999996185302734,3.1415836431775936,0.0,True,0.0055751800537109375,-1.8310546465727384e-06,5.999996185302734,3.141591787338257,0.0,0.0,0.0
1759827972.3558881,0,-1.8310546465727384e-06,5.999996185302734,3.1415837646239133,0.0,True,0.01157379150390625,-1.8310546465727384e-06,5.999996185302734,3.141591787338257,0.0,0.0,0.0
1759827972.3664927,0,-1.8310546465727384e-06,5.999996185302734,3.1415840176548393,0.0,True,0.010604619979858398,-1.8310546465727384e-06,5.999996185302734,3.141591787338257,0.0,0.0,0.0
1759827972.3766572,0,-1.8310546465727384e-06,5.999996185302734,3.1415843444528804,0.0,True,0.010164499282836914,-1.8310546465727384e-06,5.999996185302734,3.141591787338257,0.0,0.0,0.0
1759827972.3869705,0,-1.8310546465727384e-06,5.999996185302734,3.141584617970464,0.0,True,0.010313272476196289,-1.8310546465727384e-06,5.999996185302734,3.141591787338257,0.0,0.0,0.0
1759827972.398062,0,-1.8310546465727384e-06,5.999996185302734,3.141584750541316,0.0,True,0.011091470718383789,-1.8310546465727384e-06,5.999996185302734,3.141591787338257,0.0,0.0,0.0
1759827972.4095209,0,-1.8310546465727384e-06,5.999996185302734,3.141584849705499,0.0,True,0.011458873748779297,-1.8310546465727384e-06,5.999996185302734,3.141591787338257,0.0,0.0,0.0
1759827972.4203541,0,-1.8310546465727384e-06,5.999996185302734,3.141585076674703,0.0,True,0.010833263397216797,-1.8310546465727384e-06,5.999996185302734,3.141591787338257,0.0,0.0,0.0
1759827972.4318683,0,-1.8310546465727384e-06,5.999996185302734,3.1415852131862945,0.0,True,0.01151418685913086,-1.8310546465727384e-06,5.999996185302734,3.141591787338257,0.0,0.0,0.0
1759827972.4432583,0,-1.8310546465727384e-06,5.999996185302734,3.1415853879143363,0.0,True,0.011389970779418945,-1.8310546465727384e-06,5.999996185302734,3.141591787338257,0.0,0.0,0.0
1759827972.4544873,0,-1.8310546465727384e-06,5.999996185302734,3.1415855978358636,0.0,True,0.01122903823852539,-1.8310546465727384e-06,5.999996185302734,3.141591787338257,0.0,0.0,0.0
1759827972.4653723,0,-1.8310546465727384e-06,5.999996185302734,3.1415858502778278,0.0,True,0.010885000228881836,-1.8310546465727384e-06,5.999996185302734,3.141591787338257,0.0,0.0,0.0
1759827972.4760094,0,-1.8310546465727384e-06,5.999996185302734,3.1415861149044364,0.0,True,0.010637044906616211,-1.8310546465727384e-06,5.999996185302734,3.141591787338257,0.0,0.0,0.0
1759827972.4867742,0,-1.8310546465727384e-06,5.999996185302734,3.141586338181055,0.0,True,0.010764837265014648,-1.8310546465727384e-06,5.999996185302734,3.141591787338257,0.0,0.0,0.0
1759827972.497307,0,-1.8310546465727384e-06,5.999996185302734,3.141586568464689,0.0,True,0.010532855987548828,-1.8310546465727384e-06,5.999996185302734,3.141591787338257,0.0,0.0,0.0
1759827972.508048,0,-1.8310546465727384e-06,5.999996185302734,3.1415867549231944,0.0,True,0.010740995407104492,-1.8310546465727384e-06,5.999996185302734,3.141591787338257,0.0,0.0,0.0
1759827972.5182452,0,-1.8310546465727384e-06,5.999996185302734,3.1415869858327152,0.0,True,0.010197162628173828,-1.8310546465727384e-06,5.999996185302734,3.141591787338257,0.0,0.0,0.0
1759827972.543029,0,-1.8310546465727384e-06,5.999996185302734,3.141585787997858,0.0,True,0.024783849716186523,-1.8310546465727384e-06,5.999996185302734,3.141591787338257,0.0,0,0
1759827972.551172,0,-1.8310546465727384e-06,5.999996185302734,3.1415865665169562,0.0,True,0.008142948150634766,-1.8310546465727384e-06,5.999996185302734,3.141591787338257,0.0,0,0
1759827972.5620716,0,-1.8310546465727384e-06,5.999996185302734,3.141587003238726,0.0,True,0.010899543762207031,-1.8310546465727384e-06,5.999996185302734,3.141591787338257,0.0,0,0
1759827972.5730543,0,-1.8310546465727384e-06,5.999996185302734,3.1415873251650943,0.0,True,0.010982751846313477,-1.8310546465727384e-06,5.999996185302734,3.141591787338257,0.0,0,0
1759827972.583216,0,-1.8310546465727384e-06,5.999996185302734,3.1415876522143336,0.0,True,0.010161638259887695,-1.8310546465727384e-06,5.999996185302734,3.141591787338257,0.0,0,0
1759827972.5936103,0,-1.8310546465727384e-06,5.999996185302734,3.1415878973673035,0.0,True,0.01039433479309082,-1.8310546465727384e-06,5.999996185302734,3.141591787338257,0.0,0,0
1759827972.6051095,0,-1.8310546465727384e-06,5.999996185302734,3.1415880131382234,0.0,True,0.011499166488647461,-1.8310546465727384e-06,5.999996185302734,3.141591787338257,0.0,0,0
1759827972.616616,0,-1.8310546465727384e-06,5.999996185302734,3.1415881240012897,0.0,True,0.01150655746459961,-1.8310546465727384e-06,5.999996185302734,3.141591787338257,0.0,0,0
1759827972.627748,0,-1.8310546465727384e-06,5.999996185302734,3.14158826469936,0.0,True,0.011132001876831055,-1.8310546465727384e-06,5.999996185302734,3.141591787338257,0.0,0,0
1759827972.6380115,0,-1.8310546465727384e-06,5.999996185302734,3.1415884584200544,0.0,True,0.010263442993164062,-1.8310546465727384e-06,5.999996185302734,3.141591787338257,0.0,0,0
1759827972.6495602,0,-1.8310546465727384e-06,5.999996185302734,3.1415885395347054,0.0,True,0.011548757553100586,-1.8310546465727384e-06,5.999996185302734,3.141591787338257,0.0,0,0
1759827972.6601324,0,-1.8310546465727384e-06,5.999996185302734,3.1415886854736073,0.0,True,0.010572195053100586,-1.8310546465727384e-06,5.999996185302734,3.141591787338257,0.0,0,0
1759827972.6717277,0,-1.8310546465727384e-06,5.999996185302734,3.141588755110707,0.0,True,0.01159524917602539,-1.8310546465727384e-06,5.999996185302734,3.141591787338257,0.0,0,0
1759827972.6823661,0,-1.8310546465727384e-06,5.999996185302734,3.1415888877201255,0.0,True,0.01063847541809082,-1.8310546465727384e-06,5.999996185302734,3.141591787338257,0.0,0,0
1759827972.6924982,0,-1.8310546465727384e-06,5.999996185302734,3.1415890396746438,0.0,True,0.010132074356079102,-1.8310546465727384e-06,5.999996185302734,3.141591787338257,0.0,0,0
1759827972.7027736,0,-1.8310546465727384e-06,5.999996185302734,3.14158916217421,0.0,True,0.01027536392211914,-1.8310546465727384e-06,5.999996185302734,3.141591787338257,0.0,0,0
1759827972.7130725,0,-1.8310546465727384e-06,5.999996185302734,3.141589267447454,0.0,True,0.010298967361450195,-1.8310546465727384e-06,5.999996185302734,3.141591787338257,0.0,0,0
1759827972.7234018,0,-1.8310546465727384e-06,5.999996185302734,3.1415893601889717,0.0,True,0.010329246520996094,-1.8310546465727384e-06,5.999996185302734,3.141591787338257,0.0,0,0
1759827972.733699,0,-1.8310546465727384e-06,5.999996185302734,3.1415894469717536,0.0,True,0.010297298431396484,-1.8310546465727384e-06,5.999996185302734,3.141591787338257,0.0,0,0
1759827972.7464619,0,-1.8310546465727384e-06,5.999996185302734,3.1415894048565054,0.0,True,0.012762784957885742,-1.8310546465727384e-06,5.999996185302734,3.141591787338257,0.0,0,0
1759827972.7565858,0,-1.8310546465727384e-06,5.999996185302734,3.141589522044759,0.0,True,0.010123968124389648,-1.8310546465727384e-06,5.999996185302734,3.141591787338257,0.0,0,0
1759827972.7679641,0,-1.8310546465727384e-06,5.999996185302734,3.141589574165387,0.0,True,0.011378288269042969,-1.8310546465727384e-06,5.999996185302734,3.141591787338257,0.0,0,0
1759827972.7788026,0,-1.8310546465727384e-06,5.999996185302734,3.1415896531180802,0.0,True,0.010838508605957031,-1.8310546465727384e-06,5.999996185302734,3.141591787338257,0.0,0,0
1759827972.7903447,0,-1.8310546465727384e-06,5.999996185302734,3.1415896994500176,0.0,True,0.011542081832885742,-1.8310546465727384e-06,5.999996185302734,3.141591787338257,0.0,0,0
1759827972.8009477,0,-1.8310546465727384e-06,5.999996185302734,3.141589790363671,0.0,True,0.010602951049804688,-1.8310546465727384e-06,5.999996185302734,3.141591787338257,0.0,0,0
1759827972.811289,0,-1.8310546465727384e-06,5.999996185302734,3.1415898851049153,0.0,True,0.010341405868530273,-1.8310546465727384e-06,5.999996185302734,3.141591787338257,0.0,0,0
1759827972.8219926,0,-1.8310546465727384e-06,5.999996185302734,3.1415899541073955,0.0,True,0.010703563690185547,-1.8310546465727384e-06,5.999996185302734,3.141591787338257,0.0,0,0
1759827972.832789,0,-1.8310546465727384e-06,5.999996185302734,3.1415900142073276,0.0,True,0.010796308517456055,-1.8310546465727384e-06,5.999996185302734,3.141591787338257,0.0,0,0
1759827972.8442514,0,-1.8310546465727384e-06,5.999996185302734,3.1415900479416585,0.0,True,0.01146245002746582,-1.8310546465727384e-06,5.999996185302734,3.141591787338257,0.0,0,0
1759827972.855776,0,-1.8310546465727384e-06,5.999996185302734,3.1415900854885965,0.0,True,0.011524677276611328,-1.8310546465727384e-06,5.999996185302734,3.141591787338257,0.0,0,0
1759827972.8665009,0,-1.8310546465727384e-06,5.999996185302734,3.141590156404206,0.0,True,0.010724782943725586,-1.8310546465727384e-06,5.999996185302734,3.141591787338257,0.0,0,0
1759827972.8765466,0,-1.8310546465727384e-06,5.999996185302734,3.1415902451894713,0.0,True,0.010045766830444336,-1.8310546465727384e-06,5.999996185302734,3.141591787338257,0.0,0,0
1759827972.887071,0,-1.8310546465727384e-06,5.999996185302734,3.141590306125501,0.0,True,0.010524272918701172,-1.8310546465727384e-06,5.999996185302734,3.141591787338257,0.0,0,0
1759827972.8978214,0,-1.8310546465727384e-06,5.999996185302734,3.141590353497268,0.0,True,0.010750532150268555,-1.8310546465727384e-06,5.999996185302734,3.141591787338257,0.0,0,0
1759827972.9081757,0,-1.8310546465727384e-06,5.999996185302734,3.141590410882575,0.0,True,0.010354280471801758,-1.8310546465727384e-06,5.999996185302734,3.141591787338257,0.0,0,0
1759827972.9195225,0,-1.8310546465727384e-06,5.999996185302734,3.141590435134116,0.0,True,0.011346817016601562,-1.8310546465727384e-06,5.999996185302734,3.141591787338257,0.0,0,0
1759827972.9301724,0,-1.8310546465727384e-06,5.999996185302734,3.141590483028857,0.0,True,0.010649919509887695,-1.8310546465727384e-06,5.999996185302734,3.141591787338257,0.0,0,0
1759827972.9403193,0,-1.8310546465727384e-06,5.999996185302734,3.141590543331425,0.0,True,0.010146856307983398,-1.8310546465727384e-06,5.999996185302734,3.141591787338257,0.0,0,0
1759827972.9517486,0,-1.8310546465727384e-06,5.999996185302734,3.141590563535436,0.0,True,0.011429309844970703,-1.8310546465727384e-06,5.999996185302734,3.141591787338257,0.0,0,0
1759827972.9620523,0,-1.8310546465727384e-06,5.999996185302734,3.141590615971907,0.0,True,0.010303735733032227,-1.8310546465727384e-06,5.999996185302734,3.141591787338257,0.0,0,0
1759827972.9726505,0,-1.8310546465727384e-06,5.999996185302734,3.141590657590701,0.0,True,0.010598182678222656,-1.8310546465727384e-06,5.999996185302734,3.141591787338257,0.0,0,0
1759827972.9837334,0,-1.8310546465727384e-06,5.999996185302734,3.1415906849862996,0.0,True,0.011082887649536133,-1.8310546465727384e-06,5.999996185302734,3.141591787338257,0.0,0,0
1759827972.9948924,0,-1.8310546465727384e-06,5.999996185302734,3.141590712309716,0.0,True,0.011158943176269531,-1.8310546465727384e-06,5.999996185302734,3.141591787338257,0.0,0,0
1759827973.0060856,0,-1.8310546465727384e-06,5.999996185302734,3.1415907412217834,0.0,True,0.011193275451660156,-1.8310546465727384e-06,5.999996185302734,3.141591787338257,0.0,0,0
1759827973.0164447,0,-1.8310546465727384e-06,5.999996185302734,3.1415907894518185,0.0,True,0.010359048843383789,-1.8310546465727384e-06,5.999996185302734,3.141591787338257,0.0,0,0
1759827973.0277803,0,-1.8310546465727384e-06,5.999996185302734,3.14159081318137,0.0,True,0.011335611343383789,-1.8310546465727384e-06,5.999996185302734,3.141591787338257,0.0,0,0
1759827973.0378842,0,-1.8310546465727384e-06,5.999996185302734,3.141590862423506,0.0,True,0.010103940963745117,-1.8310546465727384e-06,5.999996185302734,3.141591787338257,0.0,0,0
1759827973.0483801,0,-1.8310546465727384e-06,5.999996185302734,3.141590898738915,0.0,True,0.010495901107788086,-1.8310546465727384e-06,5.999996185302734,3.141591787338257,0.0,0,0
1759827973.0584602,0,-1.8310546465727384e-06,5.999996185302734,3.1415909391017856,0.0,True,0.010080099105834961,-1.8310546465727384e-06,5.999996185302734,3.141591787338257,0.0,0,0
1759827973.0688455,0,-1.8310546465727384e-06,5.999996185302734,3.141590969320294,0.0,True,0.010385274887084961,-1.8310546465727384e-06,5.999996185302734,3.141591787338257,0.0,0,0
1759827973.0793507,0,-1.8310546465727384e-06,5.999996185302734,3.1415909950392322,0.0,True,0.010505199432373047,-1.8310546465727384e-06,5.999996185302734,3.141591787338257,0.0,0,0
1759827973.090553,0,-1.8310546465727384e-06,5.999996185302734,3.1415910081941902,0.0,True,0.011202335357666016,-1.8310546465727384e-06,5.999996185302734,3.141591787338257,0.0,0,0
1759827973.1021676,0,-1.8310546465727384e-06,5.999996185302734,3.141591017714889,0.0,True,0.011614561080932617,-1.8310546465727384e-06,5.999996185302734,3.141591787338257,0.0,0,0
1759827973.1129792,0,-1.8310546465727384e-06,5.999996185302734,3.141591044709525,0.0,True,0.010811567306518555,-1.8310546465727384e-06,5.999996185302734,3.141591787338257,0.0,0,0
1759827973.1244411,0,-1.8310546465727384e-06,5.999996185302734,3.1415910618156566,0.0,True,0.011461973190307617,-1.8310546465727384e-06,5.999996185302734,3.141591787338257,0.0,0,0
1759827973.1350732,0,-1.8310546465727384e-06,5.999996185302734,3.1415910926862676,0.0,True,0.010632038116455078,-1.8310546465727384e-06,5.999996185302734,3.141591787338257,0.0,0,0
1759827973.1455755,0,-1.8310546465727384e-06,5.999996185302734,3.14159112326789,0.0,True,0.010502338409423828,-1.8310546465727384e-06,5.999996185302734,3.141591787338257,0.0,0,0
1759827973.159265,0,-1.8310546465727384e-06,5.999996185302734,3.141591107738005,0.0,True,0.013689517974853516,-1.8310546465727384e-06,5.999996185302734,3.141591787338257,0.0,0,0
1759827973.1700375,0,-1.8310546465727384e-06,5.999996185302734,3.1415911409865735,0.0,True,0.010772466659545898,-1.8310546465727384e-06,5.999996185302734,3.141591787338257,0.0,0,0
1759827973.1809247,0,-1.8310546465727384e-06,5.999996185302734,3.141591171587576,0.0,True,0.01088714599609375,-1.8310546465727384e-06,5.999996185302734,3.141591787338257,0.0,0,0
1759827973.1916468,0,-1.8310546465727384e-06,5.999996185302734,3.1415912006523463,0.0,True,0.010722160339355469,-1.8310546465727384e-06,5.999996185302734,3.141591787338257,0.0,0,0
1759827973.2019742,0,-1.8310546465727384e-06,5.999996185302734,3.141591230922643,0.0,True,0.010327339172363281,-1.8310546465727384e-06,5.999996185302734,3.141591787338257,0.0,0,0
1759827973.2122204,0,-1.8310546465727384e-06,5.999996185302734,3.1415912579697896,0.0,True,0.01024627685546875,-1.8310546465727384e-06,5.999996185302734,3.141591787338257,0.0,0,0
1759827973.2232869,0,-1.8310546465727384e-06,5.999996185302734,3.1415912723384807,0.0,True,0.011066436767578125,-1.8310546465727384e-06,5.999996185302734,3.141591787338257,0.0,0,0
1759827973.233471,0,-1.8310546465727384e-06,5.999996185302734,3.141591295954351,0.0,True,0.010184049606323242,-1.8310546465727384e-06,5.999996185302734,3.141591787338257,0.0,0,0
1759827973.243579,0,-1.8310546465727384e-06,5.999996185302734,3.141591318019694,0.0,True,0.010107994079589844,-1.8310546465727384e-06,5.999996185302734,3.141591787338257,0.0,0,0
1759827973.254107,0,-1.8310546465727384e-06,5.999996185302734,3.14159133319707,0.0,True,0.010528087615966797,-1.8310546465727384e-06,5.999996185302734,3.141591787338257,0.0,0,0
1759827973.2648838,0,-1.8310546465727384e-06,5.999996185302734,3.14159134511441,0.0,True,0.010776758193969727,-1.8310546465727384e-06,5.999996185302734,3.141591787338257,0.0,0,0
1759827973.2752216,0,-1.8310546465727384e-06,5.999996185302734,3.1415913614535818,0.0,True,0.01033782958984375,-1.8310546465727384e-06,5.999996185302734,3.141591787338257,0.0,0,0
1759827973.286183,0,-1.8310546465727384e-06,5.999996185302734,3.1415913712724794,0.0,True,0.010961532592773438,-1.8310546465727384e-06,5.999996185302734,3.141591787338257,0.0,0,0
1759827973.29681,0,-1.8310546465727384e-06,5.999996185302734,3.1415913846470094,0.0,True,0.010626792907714844,-1.8310546465727384e-06,5.999996185302734,3.141591787338257,0.0,0,0
1759827973.3081746,0,-1.8310546465727384e-06,5.999996185302734,3.1415913917049565,0.0,True,0.01136469841003418,-1.8310546465727384e-06,5.999996185302734,3.141591787338257,0.0,0,0
1759827973.318423,0,-1.8310546465727384e-06,5.999996185302734,3.141591409309468,0.0,True,0.010248422622680664,-1.8310546465727384e-06,5.999996185302734,3.141591787338257,0.0,0,0
1759827973.3297951,0,-1.8310546465727384e-06,5.999996185302734,3.1415914167236316,0.0,True,0.011372089385986328,-1.8310546465727384e-06,5.999996185302734,3.141591787338257,0.0,0,0
1759827973.3411212,0,-1.8310546465727384e-06,5.999996185302734,3.1415914254313986,0.0,True,0.011326074600219727,-1.8310546465727384e-06,5.999996185302734,3.141591787338257,0.0,0,0
1759827973.3512778,0,-1.8310546465727384e-06,5.999996185302734,3.1415914437542547,0.0,True,0.010156631469726562,-1.8310546465727384e-06,5.999996185302734,3.141591787338257,0.0,0,0
1759827973.3627493,0,-1.8310546465727384e-06,5.999996185302734,3.141591450816218,0.0,True,0.01147150993347168,-1.8310546465727384e-06,5.999996185302734,3.141591787338257,0.0,0,0
1759827973.373649,0,-1.8310546465727384e-06,5.999996185302734,3.141591462447252,0.0,True,0.010899543762207031,-1.8310546465727384e-06,5.999996185302734,3.141591787338257,0.0,0,0
1759827973.3839474,0,-1.8310546465727384e-06,5.999996185302734,3.141591477880459,0.0,True,0.010298490524291992,-1.8310546465727384e-06,5.999996185302734,3.141591787338257,0.0,0,0
1759827973.3941286,0,-1.8310546465727384e-06,5.999996185302734,3.1415914923620782,0.0,True,0.010181188583374023,-1.8310546465727384e-06,5.999996185302734,3.141591787338257,0.0,0,0
1759827973.4044075,0,-1.8310546465727384e-06,5.999996185302734,3.1415915043900906,0.0,True,0.010278940200805664,-1.8310546465727384e-06,5.999996185302734,3.141591787338257,0.0,0,0
1759827973.4156666,0,-1.8310546465727384e-06,5.999996185302734,3.1415915092940274,0.0,True,0.011259078979492188,-1.8310546465727384e-06,5.999996185302734,3.141591787338257,0.0,0,0
1759827973.4270425,0,-1.8310546465727384e-06,5.999996185302734,3.1415915144141557,0.0,True,0.011375904083251953,-1.8310546465727384e-06,5.999996185302734,3.141591787338257,0.0,0,0
1759827973.438054,0,-1.8310546465727384e-06,5.999996185302734,3.141591522789792,0.0,True,0.011011600494384766,-1.8310546465727384e-06,5.999996185302734,3.141591787338257,0.0,0,0
1759827973.449221,0,-1.8310546465727384e-06,5.999996185302734,3.141591530564847,0.0,True,0.011166810989379883,-1.8310546465727384e-06,5.999996185302734,3.141591787338257,0.0,0,0
1759827973.4596741,0,-1.8310546465727384e-06,5.999996185302734,3.1415915421837575,0.0,True,0.010453224182128906,-1.8310546465727384e-06,5.999996185302734,3.141591787338257,0.0,0,0
1759827973.4701238,0,-1.8310546465727384e-06,5.999996185302734,3.141591552749011,0.0,True,0.010449647903442383,-1.8310546465727384e-06,5.999996185302734,3.141591787338257,0.0,0,0
1759827973.4807632,0,-1.8310546465727384e-06,5.999996185302734,3.1415915612664094,0.0,True,0.010639429092407227,-1.8310546465727384e-06,5.999996185302734,3.141591787338257,0.0,0,0
1759827973.4911168,0,-1.8310546465727384e-06,5.999996185302734,3.141591570522621,0.0,True,0.010353565216064453,-1.8310546465727384e-06,5.999996185302734,3.141591787338257,0.0,0,0
1759827973.5014863,0,-1.8310546465727384e-06,5.999996185302734,3.1415915788868354,0.0,True,0.010369539260864258,-1.8310546465727384e-06,5.999996185302734,3.141591787338257,0.0,0,0
1759827973.513105,0,-1.8310546465727384e-06,5.999996185302734,3.141591581067532,0.0,True,0.011618614196777344,-1.8310546465727384e-06,5.999996185302734,3.141591787338257,0.0,0,0
1759827973.5245254,0,-1.8310546465727384e-06,5.999996185302734,3.1415915852289853,0.0,True,0.011420488357543945,-1.8310546465727384e-06,5.999996185302734,3.141591787338257,0.0,0,0
1759827973.5351434,0,-1.8310546465727384e-06,5.999996185302734,3.14159159357183,0.0,True,0.010617971420288086,-1.8310546465727384e-06,5.999996185302734,3.141591787338257,0.0,0.20652197906667435,0.20012221699859054
1759827973.5464754,0,-1.8310546465727384e-06,5.999996185302734,3.1415915986243377,0.0,True,0.011332035064697266,-1.8310546465727384e-06,5.999996185302734,3.141591787338257,0.0,0.2956621128854975,0.20215742141863896
1759827973.557243,0,-1.8310546465727384e-06,5.999996185302734,3.1415916060082694,0.0,True,0.010767698287963867,-1.8310546465727384e-06,5.999996185302734,3.141591787338257,0.0,0.20948188231154763,0.20373346093805075
1759827973.575155,0,-0.11181017933825108,6.005818121120076,-3.1382040083486036,0.7874366958469728,True,0.017911911010742188,-0.1721944808959961,6.0093889236450195,3.1414952278137207,0.7874366958469728,0.5235987755982988,0.2085944681616279
1759827973.585233,0,-0.15216092038050735,6.008021221098048,-3.1394327026497244,0.7874366958469728,True,0.010077953338623047,-0.1721944808959961,6.0093889236450195,3.1414952278137207,0.7874366958469728,0.5235987755982988,0.21249953445799252
1759827973.595989,0,-0.16777747962554831,6.008866366740203,-3.1394201387732537,0.7874366958469728,True,0.01075601577758789,-0.1721944808959961,6.0093889236450195,3.1414952278137207,0.7874366958469728,0.5235987755982988,0.21121760091895106
1759827973.6063457,0,-0.1736223558863447,6.009187474172141,-3.14000382970303,0.7874366958469728,True,0.010356664657592773,-0.1721944808959961,6.0093889236450195,3.1414952278137207,0.7874366958469728,0.40744411994198426,0.21240825132323216
1759827973.6165242,0,-0.17580133500423623,6.009313149200665,-3.1395950583091015,0.7874366958469728,True,0.010178565979003906,-0.1721944808959961,6.0093889236450195,3.1414952278137207,0.7874366958469728,0.5235987755982988,0.2146631542262601
1759827973.6272392,0,-0.17679497988984233,6.009360300703191,-3.1394635726747993,0.7874366958469728,True,0.010715007781982422,-0.1721944808959961,6.0093889236450195,3.1414952278137207,0.7874366958469728,0.5235987755982988,0.21677166554210367
1759827973.6378968,0,-0.1771572249220139,6.009372508798733,-3.141244211301075,0.7874366958469728,True,0.010657548904418945,-0.1721944808959961,6.0093889236450195,3.1414952278137207,0.7874366958469728,0.07258072704489571,0.2133519261113055
1759827973.648812,0,-0.17737311326685506,6.009382003261109,-3.141530804147397,0.7874366958469728,True,0.010915279388427734,-0.1721944808959961,6.0093889236450195,3.1414952278137207,0.7874366958469728,0.033689845319623934,0.20802159714400398
1759827973.6588352,0,-0.17718723601699027,6.009386427455048,-3.1415750535540994,0.7874366958469728,True,0.010023117065429688,-0.1721944808959961,6.0093889236450195,3.1414952278137207,0.7874366958469728,0.031121748530019033,0.2082697086863303
1759827973.6689262,0,-0.17713667459526933,6.009388142403961,3.141570861428722,0.7874366958469728,True,0.010091066360473633,-0.1721944808959961,6.0093889236450195,3.1414952278137207,0.7874366958469728,0.020590322722618737,0.20367992219680445
1759827973.680426,0,-0.1775410252444009,6.009388969675404,3.1415736429627152,0.7874366958469728,True,0.011499643325805664,-0.1721944808959961,6.0093889236450195,3.1414952278137207,0.7874366958469728,0.01995424424094594,0.20388346936165558
1759827973.6916611,0,-0.1776159469254064,6.009389186456282,3.141546934453043,0.7874366958469728,True,0.011235237121582031,-0.1721944808959961,6.0093889236450195,3.1414952278137207,0.7874366958469728,0.013351757328647018,0.19841984884180816
1759827973.702961,0,-0.17766399789954437,6.009389295976349,3.1415261352380153,0.7874366958469728,True,0.011299848556518555,-0.1721944808959961,6.0093889236450195,3.1414952278137207,0.7874366958469728,0.00842507729330233,0.1977129780351191
1759827973.714113,0,-0.17763789143214917,6.00938977074656,-3.1415439856351153,0.7874366958469728,True,0.011152029037475586,-0.1721944808959961,6.0093889236450195,3.1414952278137207,0.7874366958469728,0.040315733406747434,0.19628914252095422
1759827973.7255595,0,-0.17771648170327584,6.009389477831431,-3.141573559466373,0.7874366958469728,True,0.011446475982666016,-0.1721944808959961,6.0093889236450195,3.1414952278137207,0.7874366958469728,0.02895980168461687,0.19036189219872612
1759827973.737069,0,-0.17776543197906233,6.0093893481393135,3.141574518027408,0.7874366958469728,True,0.011509418487548828,-0.1721944808959961,6.0093889236450195,3.1414952278137207,0.7874366958469728,0.019687966683020086,0.1875943901870024
1759827973.7481365,0,-0.1776512504554179,6.009389305632162,3.1415399913980817,0.7874366958469728,True,0.011067628860473633,-0.1721944808959961,6.0093889236450195,3.1414952278137207,0.7874366958469728,0.011871639582316185,0.18811045020812578
1759827973.7584493,0,-0.17738060274111536,6.009389313032328,3.1415168717143427,0.7874366958469728,True,0.010312795639038086,-0.1721944808959961,6.0093889236450195,3.1414952278137207,0.7874366958469728,0.006751650754160288,0.18707619197335046
1759827973.7760773,0,-0.3723653558431268,6.01846373203948,-3.1405713409390223,1.5008886727974586,True,0.017627954483032227,-0.4765208661556244,6.024072170257568,-3.1376144886016846,1.5008886727974586,-0.00037237332692185987,0.18306206774228456
1759827973.7870176,0,-0.4430089526066161,6.021922674288745,-3.1397297651827323,1.5008886727974586,True,0.010940313339233398,-0.4765208661556244,6.024072170257568,-3.1376144886016846,1.5008886727974586,-0.009229786453129663,0.1833079322283791
1759827973.7975426,0,-0.469754296236191,6.023238935695562,-3.1391209220741576,1.5008886727974586,True,0.010524988174438477,-0.4765208661556244,6.024072170257568,-3.1376144886016846,1.5008886727974586,-0.015688364840656277,0.18184226999576775
1759827973.808165,0,-0.4800260024427245,6.023737692954726,-3.138698107053422,1.5008886727974586,True,0.010622501373291016,-0.4765208661556244,6.024072170257568,-3.1376144886016846,1.5008886727974586,-0.022286715104213428,0.179064852019961
1759827973.8181763,0,-0.48359898485594793,6.023926619415493,-3.138390188166367,1.5008886727974586,True,0.01001119613647461,-0.4765208661556244,6.024072170257568,-3.1376144886016846,1.5008886727974586,-0.027408399283487483,0.17884289638102452
1759827973.8295329,0,-0.48573503150306785,6.023994074153266,-3.138199871123584,1.5008886727974586,True,0.011356592178344727,-0.4765208661556244,6.024072170257568,-3.1376144886016846,1.5008886727974586,-0.032209446148858234,0.17716872325971067
1759827973.8407762,0,-0.48648599988872304,6.024018656436752,-3.13805501793534,1.5008886727974586,True,0.011243343353271484,-0.4765208661556244,6.024072170257568,-3.1376144886016846,1.5008886727974586,-0.03675707165846198,0.17683794029640032
1759827973.851061,0,-0.48622338055418407,6.0240291866817515,-3.1379417572828974,1.5008886727974586,True,0.010284900665283203,-0.4765208661556244,6.024072170257568,-3.1376144886016846,1.5008886727974586,-0.04107814160914813,0.1744334480285923
1759827973.8624578,0,-0.4867604112155583,6.0240296948912695,-3.137907462427485,1.5008886727974586,True,0.011396646499633789,-0.4765208661556244,6.024072170257568,-3.1376144886016846,1.5008886727974586,-0.045197583537131436,0.17472816955984413
1759827973.872784,0,-0.4863518375772485,6.024032089598614,-3.137857121584183,1.5008886727974586,True,0.010326147079467773,-0.4765208661556244,6.024072170257568,-3.1376144886016846,1.5008886727974586,-0.050454672170568315,0.17323622781130327
1759827973.8831463,0,-0.486216550074483,6.024032450491364,-3.1378497937127676,1.5008886727974586,True,0.010362386703491211,-0.4765208661556244,6.024072170257568,-3.1376144886016846,1.5008886727974586,-0.055252139392766964,0.1732238843370549
1759827973.8941667,0,-0.48654211432730476,6.024030671667271,-3.1378734886365844,1.5008886727974586,True,0.011020421981811523,-0.4765208661556244,6.024072170257568,-3.1376144886016846,1.5008886727974586,-0.059493713557596806,0.1718565423256388
1759827973.9050505,0,-0.4865881500631047,6.0240302280993525,-3.137893778379169,1.5008886727974586,True,0.010883808135986328,-0.4765208661556244,6.024072170257568,-3.1376144886016846,1.5008886727974586,-0.0654332917763405,0.17193227766124114
1759827973.9164648,0,-0.48690984969317963,6.0240285917367915,-3.1379327905212335,1.5008886727974586,True,0.011414289474487305,-0.4765208661556244,6.024072170257568,-3.1376144886016846,1.5008886727974586,-0.06946146038410461,0.1731632652107631
1759827973.927882,0,-0.4870343842816912,6.024032317291917,-3.1372614958293763,1.5008886727974586,True,0.011417150497436523,-0.4765208661556244,6.024072170257568,-3.1376144886016846,1.5008886727974586,0.02320491810973646,0.17242746219726324
1759827973.9381342,0,-0.48641411106673016,6.024032446748996,-3.1372144746189434,1.5008886727974586,True,0.010252237319946289,-0.4765208661556244,6.024072170257568,-3.1376144886016846,1.5008886727974586,0.024883001075037825,0.17394844576962737
1759827973.948197,0,-0.48606852443553633,6.0240325662441725,-3.137239635208175,1.5008886727974586,True,0.010062694549560547,-0.4765208661556244,6.024072170257568,-3.1376144886016846,1.5008886727974586,0.021515276429713737,0.17041744286495195
1759827973.959392,0,-0.4865857594440901,6.02403003345086,-3.1372364420822567,1.5008886727974586,True,0.011195182800292969,-0.4765208661556244,6.024072170257568,-3.1376144886016846,1.5008886727974586,0.01996088869393997,0.17206967158890996
1759827973.9703617,0,-0.7121158461649193,6.044076895784107,-3.135106540587337,1.9425819912746698,True,0.01096963882446289,-0.8383312821388245,6.05652379989624,-3.1297404766082764,1.9425819912746698,0.017946107372367237,0.17274149637812206
1759827973.9811213,0,-0.7981047289640878,6.051717870433156,-3.133401714182634,1.9425819912746698,True,0.010759592056274414,-0.8383312821388245,6.05652379989624,-3.1297404766082764,1.9425819912746698,0.01712821024441613,0.17353164732028892
1759827973.991588,0,-0.8307322267864242,6.054624748596633,-3.1321656898318544,1.9425819912746698,True,0.010466814041137695,-0.8383312821388245,6.05652379989624,-3.1297404766082764,1.9425819912746698,0.015527007245140112,0.1721064707654329
1759827974.001597,0,-0.8428549157734669,6.055728745260681,-3.131282546337193,1.9425819912746698,True,0.010008811950683594,-0.8383312821388245,6.05652379989624,-3.1297404766082764,1.9425819912746698,0.014116621352393999,0.1720583033959826
1759827974.0116353,0,-0.8475072427847713,6.056143749331924,-3.1306391257786963,1.9425819912746698,True,0.010038375854492188,-0.8383312821388245,6.05652379989624,-3.1297404766082764,1.9425819912746698,0.013303451781138342,0.17018608701882484
1759827974.0218425,0,-0.849409466414923,6.0562962044789055,-3.130169795321173,1.9425819912746698,True,0.010207176208496094,-0.8383312821388245,6.05652379989624,-3.1297404766082764,1.9425819912746698,0.012828243883986623,0.1701543326182591
1759827974.0318544,0,-0.8499911356647883,6.056352633669438,-3.129831156330024,1.9425819912746698,True,0.010011911392211914,-0.8383312821388245,6.05652379989624,-3.1297404766082764,1.9425819912746698,0.01343325481509261,0.1726762003281853
