timestamp,observer_vehicle_id,vehicle_0_x,vehicle_0_y,vehicle_0_theta,vehicle_0_velocity,vehicle_1_x,vehicle_1_y,vehicle_1_theta,vehicle_1_velocity
1759501342.4002743,0,-1.205,-0.83,-0.7801621756414646,0.0,0.0,0.0,0.0,0.0
1759501342.4107687,0,-1.205,-0.83,-0.7801621756414646,0.0,0.0,0.0,0.0,0.0
1759501342.4213583,0,-1.205,-0.83,-0.7801621756414646,0.0,0.0,0.0,0.0,0.0
1759501342.4316907,0,-1.205,-0.83,-0.7801621756414646,0.0,0.0,0.0,0.0,0.0
1759501342.4420328,0,-1.205,-0.83,-0.7801621756414646,0.0,0.0,0.0,0.0,0.0
1759501342.45372,0,-1.205,-0.83,-0.7801621756414646,0.0,0.0,0.0,0.0,0.0
1759501342.4645643,0,-1.205,-0.83,-0.7801621756414646,0.0,0.0,0.0,0.0,0.0
1759501342.4761107,0,-1.205,-0.83,-0.7801621756414646,0.0,0.0,0.0,0.0,0.0
1759501342.486238,0,-1.205,-0.83,-0.7801621756414646,0.0,0.0,0.0,0.0,0.0
1759501342.497312,0,-1.205,-0.83,-0.7801621756414646,0.0,0.0,0.0,0.0,0.0
1759501342.5084717,0,-1.205,-0.83,-0.7801621756414646,0.0,0.0,0.0,0.0,0.0
1759501342.5189443,0,-1.205,-0.83,-0.7801621756414646,0.0,0.0,0.0,0.0,0.0
1759501342.5289693,0,-1.205,-0.83,-0.7801621756414646,0.0,0.0,0.0,0.0,0.0
1759501342.5390182,0,-1.205,-0.83,-0.7801621756414646,0.0,0.0,0.0,0.0,0.0
1759501342.549088,0,-1.205,-0.83,-0.7801621756414646,0.0,0.0,0.0,0.0,0.0
1759501342.560721,0,-1.205,-0.83,-0.7801621756414646,0.0,0.0,0.0,0.0,0.0
1759501342.571813,0,-1.205,-0.83,-0.7801621756414646,0.0,0.0,0.0,0.0,0.0
1759501342.583038,0,-1.205,-0.83,-0.7801621756414646,0.0,0.0,0.0,0.0,0.0
1759501342.5937114,0,-1.2049998061259588,-0.8299996288021405,-0.7229999519678021,0.0,0.0,0.0,0.0,0.0
1759501342.6046464,0,-1.2049998050413424,-0.829999626725497,-0.7181173994027857,0.0,0.0,0.0,0.0,0.0
1759501342.6154199,0,-1.2049998047010528,-0.8299996260739668,-0.717658783368554,0.0,0.0,0.0,0.0,0.0
1759501342.6267986,0,-1.2049998045745929,-0.8299996258318424,-0.717597024921842,0.0,0.0,0.0,0.0,0.0
1759501342.6380444,0,-1.2049998045264814,-0.8299996257397265,-0.7175907532860997,0.0,0.0,0.0,0.0,0.0
1759501342.6495097,0,-1.2049998045081152,-0.8299996257045619,-0.7175983831360835,0.0,0.0,0.0,0.0,0.0
1759501342.6596773,0,-1.2049998045011003,-0.8299996256911313,-0.7176123880678773,0.0,0.0,0.0,0.0,0.0
1759501342.6711583,0,-1.204999804498421,-0.8299996256860013,-0.7176227464387797,0.0,0.0,0.0,0.0,0.0
1759501342.6823654,0,-1.2049998044973975,-0.8299996256840418,-0.7176328789431796,0.0,0.0,0.0,0.0,0.0
1759501342.6930792,0,-1.2049998044970067,-0.8299996256832933,-0.7176421772187567,0.0,0.0,0.0,0.0,0.0
1759501342.7035253,0,-1.2049998044968575,-0.8299996256830074,-0.7176499667712655,0.0,0.0,0.0,0.0,0.0
1759501342.7140222,0,-1.2049998044968004,-0.8299996256828983,-0.7176561374738899,0.0,0.0,0.0,0.0,0.0
1759501342.725393,0,-1.2049998044967787,-0.8299996256828566,-0.7176604784303393,0.0,0.0,0.0,0.0,0.0
1759501342.7361453,0,-1.2049998044967702,-0.8299996256828407,-0.7176647984970259,0.0,0.0,0.0,0.0,0.0
1759501342.7468543,0,-1.2049998044967671,-0.8299996256828346,-0.717668496373328,0.0,0.0,0.0,0.0,0.0
1759501342.7578094,0,-1.2049998044967658,-0.8299996256828323,-0.7176714712714833,0.0,0.0,0.0,0.0,0.0
1759501342.7691255,0,-1.2049998044967654,-0.8299996256828314,-0.7176738624271835,0.0,0.0,0.0,0.0,0.0
1759501342.7794461,0,-1.2049998044967651,-0.829999625682831,-0.717676554688488,0.0,0.0,0.0,0.0,0.0
1759501342.7907786,0,-1.2049998044967651,-0.8299996256828309,-0.7176783212302631,0.0,0.0,0.0,0.0,0.0
1759501342.8006845,0,-1.2049998044967651,-0.8299996256828308,-0.7176805867178011,0.0,0.0,0.0,0.0,0.0
1759501342.8112369,0,-1.2049998044967651,-0.8299996256828308,-0.7176821850181767,0.0,0.0,0.0,0.0,0.0
1759501342.8212624,0,-1.2049998044967651,-0.8299996256828308,-0.7176837781582215,0.0,0.0,0.0,0.0,0.0
1759501342.8326766,0,-1.2049998044967651,-0.8299996256828308,-0.7176845966807779,0.0,0.0,0.0,0.0,0.0
1759501342.8428977,0,-1.2049998044967651,-0.8299996256828308,-0.7176858653539854,0.0,0.0,0.0,0.0,0.0
1759501342.8544078,0,-1.2049998044967651,-0.8299996256828308,-0.7176865478967471,0.0,0.0,0.0,0.0,0.0
1759501342.8660283,0,-1.2049998044967651,-0.8299996256828308,-0.7176872209942821,0.0,0.0,0.0,0.0,0.0
1759501342.8774257,0,-1.2049998044967651,-0.8299996256828308,-0.7176880076140204,0.0,0.0,0.0,0.0,0.0
1759501342.8889863,0,-1.2049998044967651,-0.8299996256828308,-0.7176887351186902,0.0,0.0,0.0,0.0,0.0
1759501342.8992834,0,-1.2049998044967651,-0.8299996256828308,-0.717689795795195,0.0,0.0,0.0,0.0,0.0
1759501342.9094102,0,-1.2049998044967651,-0.8299996256828308,-0.7176907492092449,0.0,0.0,0.0,0.0,0.0
1759501342.9194622,0,-1.2049998044967651,-0.8299996256828308,-0.7176915634698648,0.0,0.0,0.0,0.0,0.0
1759501342.9308279,0,-1.2049998044967651,-0.8299996256828308,-0.7176919307815233,0.0,0.0,0.0,0.0,0.0
1759501342.942491,0,-1.2049998044967651,-0.8299996256828308,-0.7176922456967924,0.0,0.0,0.0,0.0,0.0
1759501342.9538748,0,-1.2049998044967651,-0.8299996256828308,-0.7176926758118931,0.0,0.0,0.0,0.0,0.0
1759501342.9638946,0,-1.2049998044967651,-0.8299996256828308,-0.7176934055391087,0.0,0.0,0.0,0.0,0.0
1759501342.9754746,0,-1.2049998044967651,-0.8299996256828308,-0.7176937159579673,0.0,0.0,0.0,0.0,0.0
1759501342.986644,0,-1.2049998044967651,-0.8299996256828308,-0.7176941127354546,0.0,0.0,0.0,0.0,0.0
1759501342.9975579,0,-1.2049998044967651,-0.8299996256828308,-0.7176945520472131,0.0,0.0,0.0,0.0,0.0
1759501343.0091057,0,-1.2049998044967651,-0.8299996256828308,-0.7176948488892059,0.0,0.0,0.0,0.0,0.0
1759501343.0206165,0,-1.2049998044967651,-0.8299996256828308,-0.7176951599359676,0.0,0.0,0.0,0.0,0.0
1759501343.0310981,0,-1.2049998044967651,-0.8299996256828308,-0.7176956444803047,0.0,0.0,0.0,0.0,0.0
1759501343.0424714,0,-1.2049998044967651,-0.8299996256828308,-0.7176959327536654,0.0,0.0,0.0,0.0,0.0
1759501343.0538049,0,-1.2049998044967651,-0.8299996256828308,-0.7176962163247894,0.0,0.0,0.0,0.0,0.0
1759501343.0653584,0,-1.2049998044967651,-0.8299996256828308,-0.7176964654674105,0.0,0.0,0.0,0.0,0.0
1759501343.0766172,0,-1.2049998044967651,-0.8299996256828308,-0.7176967599414272,0.0,0.0,0.0,0.0,0.0
1759501343.087023,0,-1.2049998044967651,-0.8299996256828308,-0.7176971554702458,0.0,0.0,0.0,0.0,0.0
1759501343.0971932,0,-1.2049998044967651,-0.8299996256828308,-0.7176975291963075,0.0,0.0,0.0,0.0,0.0
1759501343.1075885,0,-1.2049998044967651,-0.8299996256828308,-0.7176978173015236,0.0,0.0,0.0,0.0,0.0
1759501343.1187112,0,-1.2049998044967651,-0.8299996256828308,-0.7176979820737337,0.0,0.0,0.0,0.0,0.0
1759501343.1288867,0,-1.2049998044967651,-0.8299996256828308,-0.7176982581030273,0.0,0.0,0.0,0.0,0.0
1759501343.140146,0,-1.2049998044967651,-0.8299996256828308,-0.7176983859423434,0.0,0.0,0.0,0.0,0.0
1759501343.1505208,0,-1.2049998044967651,-0.8299996256828308,-0.7176986168215826,0.0,0.0,0.0,0.0,0.0
1759501343.1606069,0,-1.2049998044967651,-0.8299996256828308,-0.7176988606872037,0.0,0.0,0.0,0.0,0.0
1759501343.1720686,0,-1.2049998044967651,-0.8299996256828308,-0.7176989370150615,0.0,0.0,0.0,0.0,0.0
1759501343.1820781,0,-1.2049998044967651,-0.8299996256828308,-0.7176991709707199,0.0,0.0,0.0,0.0,0.0
1759501343.198371,0,-1.2049998044967651,-0.8299996256828308,-0.717698805761847,0.0,0.0,0.0,0.0,0.0
1759501343.2093394,0,-1.2049998044967651,-0.8299996256828308,-0.7176990702126124,0.0,0.0,0.0,0.0,0.0
1759501343.2198985,0,-1.2049998044967651,-0.8299996256828308,-0.7176993692043503,0.0,0.0,0.0,0.0,0.0
1759501343.230477,0,-1.2049998044967651,-0.8299996256828308,-0.7176996178152066,0.0,0.0,0.0,0.0,0.0
1759501343.2409093,0,-1.2049998044967651,-0.8299996256828308,-0.7176998375199624,0.0,0.0,0.0,0.0,0.0
1759501343.251772,0,-1.2049998044967651,-0.8299996256828308,-0.7176999914358184,0.0,0.0,0.0,0.0,0.0
1759501343.2618473,0,-1.2049998044967651,-0.8299996256828308,-0.7177001881589398,0.0,0.0,0.0,0.0,0.0
1759501343.2721982,0,-1.2049998044967651,-0.8299996256828308,-0.7177003384612491,0.0,0.0,0.0,0.0,0.0
1759501343.2828555,0,-1.2049998044967651,-0.8299996256828308,-0.7177004494825514,0.0,0.0,0.0,0.0,0.0
1759501343.2928936,0,-1.2049998044967651,-0.8299996256828308,-0.7177005958273899,0.0,0.0,0.0,0.0,0.0
1759501343.3031547,0,-1.2049998044967651,-0.8299996256828308,-0.7177007119808732,0.0,0.0,0.0,0.0,0.0
1759501343.3134508,0,-1.2049998044967651,-0.8299996256828308,-0.7177008151795619,0.0,0.0,0.0,0.0,0.0
1759501343.324686,0,-1.2049998044967651,-0.8299996256828308,-0.7177008549493653,0.0,0.0,0.0,0.0,0.0
1759501343.3363128,0,-1.2049998044967651,-0.8299996256828308,-0.7177008843967911,0.0,0.0,0.0,0.0,0.0
1759501343.346615,0,-1.2049998044967651,-0.8299996256828308,-0.7177010077015068,0.0,0.0,0.0,0.0,0.0
1759501343.3570206,0,-1.2049998044967651,-0.8299996256828308,-0.7177011171096694,0.0,0.0,0.0,0.0,0.0
1759501343.3678381,0,-1.2049998044967651,-0.8299996256828308,-0.7177011939809539,0.0,0.0,0.0,0.0,0.0
1759501343.3791492,0,-1.2049998044967651,-0.8299996256828308,-0.7177012442108932,0.0,0.0,0.0,0.0,0.0
1759501343.3892815,0,-1.2049998044967651,-0.8299996256828308,-0.7177013596775375,0.0,0.0,0.0,0.0,0.0
1759501343.3996673,0,-1.2049998044967651,-0.8299996256828308,-0.7177014519581224,0.0,0.0,0.0,0.0,0.0
1759501343.4099824,0,-1.2049998044967651,-0.8299996256828308,-0.7177015380636576,0.0,0.0,0.0,0.0,0.0
1759501343.4200284,0,-1.2049998044967651,-0.8299996256828308,-0.7177016285823576,0.0,0.0,0.0,0.0,0.0
1759501343.4310555,0,-1.2049998044967651,-0.8299996256828308,-0.7177016671940137,0.0,0.0,0.0,0.0,0.0
1759501343.4427512,0,-1.2049998044967651,-0.8299996256828308,-0.7177016828181912,0.0,0.0,0.0,0.0,0.0
1759501343.4541428,0,-1.2049998044967651,-0.8299996256828308,-0.717701725432061,0.0,0.0,0.0,0.0,0.0
1759501343.4641583,0,-1.2049998044967651,-0.8299996256828308,-0.7177018292792603,0.0,0.0,0.0,0.0,0.0
1759501343.4756804,0,-1.2049998044967651,-0.8299996256828308,-0.7177018648297722,0.0,0.0,0.0,0.0,0.0
1759501343.4857483,0,-1.2049998044967651,-0.8299996256828308,-0.717701956396942,0.0,0.0,0.0,0.0,0.0
1759501343.4972856,0,-1.2049998044967651,-0.8299996256828308,-0.7177019871125232,0.0,0.0,0.0,0.0,0.0
1759501343.5074675,0,-1.2049998044967651,-0.8299996256828308,-0.7177020676459237,0.0,0.0,0.0,0.0,0.0
1759501343.5186508,0,-1.2049998044967651,-0.8299996256828308,-0.7177021080935369,0.0,0.0,0.0,0.0,0.0
1759501343.528928,0,-1.2049998044967651,-0.8299996256828308,-0.7177021776193104,0.0,0.0,0.0,0.0,0.0
1759501343.539194,0,-1.2049998044967651,-0.8299996256828308,-0.7177022411479648,0.0,0.0,0.0,0.0,0.0
1759501343.5493166,0,-1.2049998044967651,-0.8299996256828308,-0.7177023017802373,0.0,0.0,0.0,0.0,0.0
1759501343.5594668,0,-1.2049998044967651,-0.8299996256828308,-0.7177023548007712,0.0,0.0,0.0,0.0,0.0
1759501343.5700366,0,-1.2049998044967651,-0.8299996256828308,-0.7177023910091264,0.0,0.0,0.0,0.0,0.0
1759501343.5813096,0,-1.2049998044967651,-0.8299996256828308,-0.7177024080766312,0.0,0.0,0.0,0.0,0.0
1759501343.5952315,0,-1.2049998044967651,-0.8299996256828308,-0.7177023640236033,0.0,0.0,0.0,0.0,0.0
1759501343.6041763,0,-1.2049998044967651,-0.8299996256828308,-0.7177024689205744,0.0,0.0,0.0,0.0,0.0
1759501343.6153395,0,-1.2049998044967651,-0.8299996256828308,-0.7177025064568561,0.0,0.0,0.0,0.0,0.0
1759501343.626564,0,-1.2049998044967651,-0.8299996256828308,-0.717702538735475,0.0,0.0,0.0,0.0,0.0
1759501343.637874,0,-1.2049998044967651,-0.8299996256828308,-0.7177025701427482,0.0,0.0,0.0,0.0,0.0
1759501343.649016,0,-1.2049998044967651,-0.8299996256828308,-0.7177026064359922,0.0,0.0,0.0,0.0,0.0
1759501343.6604698,0,-1.2049998044967651,-0.8299996256828308,-0.7177026359238852,0.0,0.0,0.0,0.0,0.0
1759501343.6718633,0,-1.2049998044967651,-0.8299996256828308,-0.7177026676781537,0.0,0.0,0.0,0.0,0.0
1759501343.6833,0,-1.2049998044967651,-0.8299996256828308,-0.7177026991052369,0.0,0.0,0.0,0.0,0.0
1759501343.6942627,0,-1.2049998044967651,-0.8299996256828308,-0.7177027393517719,0.0,0.0,0.0,0.0,0.0
1759501343.7043052,0,-1.2049998044967651,-0.8299996256828308,-0.7177027929190185,0.0,0.0,0.0,0.0,0.0
1759501343.7155545,0,-1.2049998044967651,-0.8299996256828308,-0.7177028176180649,0.0,0.0,0.0,0.0,0.0
1759501343.7269886,0,-1.2049998044967651,-0.8299996256828308,-0.7177028383730484,0.0,0.0,0.0,0.0,0.0
1759501343.7378128,0,-1.2049998044967651,-0.8299996256828308,-0.7177028705221318,0.0,0.0,0.0,0.0,0.0
1759501343.748552,0,-1.2049998044967651,-0.8299996256828308,-0.7177029021847331,0.0,0.0,0.0,0.0,0.0
1759501343.7600873,0,-1.2049998044967651,-0.8299996256828308,-0.717702919330641,0.0,0.0,0.0,0.0,0.0
1759501343.770268,0,-1.2049998044967651,-0.8299996256828308,-0.7177029573173376,0.0,0.0,0.0,0.0,0.0
1759501343.7807257,0,-1.2049998044967651,-0.8299996256828308,-0.7177029871025306,0.0,0.0,0.0,0.0,0.0
1759501343.7921944,0,-1.2049998044967651,-0.8299996256828308,-0.717702999720693,0.0,0.0,0.0,0.0,0.0
1759501343.802424,0,-1.2049998044967651,-0.8299996256828308,-0.7177030301368212,0.0,0.0,0.0,0.0,0.0
1759501343.8138502,0,-1.2049998044967651,-0.8299996256828308,-0.7177030426962236,0.0,0.0,0.0,0.0,0.0
1759501343.8239844,0,-1.2049998044967651,-0.8299996256828308,-0.7177030721497353,0.0,0.0,0.0,0.0,0.0
1759501343.8351178,0,-1.2049998044967651,-0.8299996256828308,-0.7177030868537972,0.0,0.0,0.0,0.0,0.0
1759501343.8452444,0,-1.2049998044967651,-0.8299996256828308,-0.7177031131011429,0.0,0.0,0.0,0.0,0.0
1759501343.8559735,0,-1.2049998044967651,-0.8299996256828308,-0.7177031300101717,0.0,0.0,0.0,0.0,0.0
1759501343.866033,0,-1.2049998044967651,-0.8299996256828308,-0.7177031531452585,0.0,0.0,0.0,0.0,0.0
1759501343.8760896,0,-1.2049998044967651,-0.8299996256828308,-0.7177031738562238,0.0,0.0,0.0,0.0,0.0
1759501343.886404,0,-1.2049998044967651,-0.8299996256828308,-0.7177031895805719,0.0,0.0,0.0,0.0,0.0
1759501343.8975892,0,-1.2049998044967651,-0.8299996256828308,-0.7177031958115094,0.0,0.0,0.0,0.0,0.0
1759501343.9084427,0,-1.2049998044967651,-0.8299996256828308,-0.717703207080902,0.0,0.0,0.0,0.0,0.0
1759501343.9197524,0,-1.2049998044967651,-0.8299996256828308,-0.717703215235229,0.0,0.0,0.0,0.0,0.0
1759501343.9302936,0,-1.2049998044967651,-0.8299996256828308,-0.717703231707155,0.0,0.0,0.0,0.0,0.0
1759501343.9405599,0,-1.2049998044967651,-0.8299996256828308,-0.7177032497339475,0.0,0.0,0.0,0.0,0.0
1759501343.9505637,0,-1.2049998044967651,-0.8299996256828308,-0.7177032680055255,0.0,0.0,0.0,0.0,0.0
1759501343.9620779,0,-1.2049998044967651,-0.8299996256828308,-0.7177032720226002,0.0,0.0,0.0,0.0,0.0
1759501343.9732702,0,-1.2049998044967651,-0.8299996256828308,-0.7177032802590732,0.0,0.0,0.0,0.0,0.0
1759501343.9846392,0,-1.2049998044967651,-0.8299996256828308,-0.7177032885416388,0.0,0.0,0.0,0.0,0.0
1759501343.9991074,0,-1.2049998044967651,-0.8299996256828308,-0.7177032762929834,0.0,0.0,0.0,0.0,0.0
1759501344.00918,0,-1.2049998044967651,-0.8299996256828308,-0.7177033013204515,0.0,0.0,0.0,0.0,0.0
1759501344.0207014,0,-1.2049998044967651,-0.8299996256828308,-0.7177033143846216,0.0,0.0,0.0,0.0,0.0
1759501344.0319757,0,-1.2049998044967651,-0.8299996256828308,-0.7177033277437417,0.0,0.0,0.0,0.0,0.0
1759501344.0434012,0,-1.2049998044967651,-0.8299996256828308,-0.7177033393086383,0.0,0.0,0.0,0.0,0.0
1759501344.0534027,0,-1.2049998044967651,-0.8299996256828308,-0.7177033586026784,0.0,0.0,0.0,0.0,0.0
1759501344.0638537,0,-1.2049998044967651,-0.8299996256828308,-0.717703372364733,0.0,0.0,0.0,0.0,0.0
1759501344.0749688,0,-1.2049998044967651,-0.8299996256828308,-0.7177033804482882,0.0,0.0,0.0,0.0,0.0
1759501344.0862715,0,-1.2049998044967651,-0.8299996256828308,-0.7177033873169271,0.0,0.0,0.0,0.0,0.0
1759501344.0973265,0,-1.2049998044967651,-0.8299996256828308,-0.7177033958231434,0.0,0.0,0.0,0.0,0.0
1759501344.108713,0,-1.2049998044967651,-0.8299996256828308,-0.7177034026059985,0.0,0.0,0.0,0.0,0.0
1759501344.1187932,0,-1.2049998044967651,-0.8299996256828308,-0.7177034158035163,0.0,0.0,0.0,0.0,0.0
1759501344.1296084,0,-1.2049998044967651,-0.8299996256828308,-0.7177034239408133,0.0,0.0,0.0,0.0,0.0
1759501344.1410553,0,-1.2049998044967651,-0.8299996256828308,-0.7177034285757387,0.0,0.0,0.0,0.0,0.0
1759501344.152417,0,-1.2049998044967651,-0.8299996256828308,-0.7177034341268502,0.0,0.0,0.0,0.0,0.0
1759501344.1628735,0,-1.2049998044967651,-0.8299996256828308,-0.7177034438425309,0.0,0.0,0.0,0.0,0.0
1759501344.1743214,0,-1.2049998044967651,-0.8299996256828308,-0.717703448691104,0.0,0.0,0.0,0.0,0.0
1759501344.1858447,0,-1.2049998044967651,-0.8299996256828308,-0.7177034534632458,0.0,0.0,0.0,0.0,0.0
1759501344.2012448,0,-1.2049998044967651,-0.8299996256828308,-0.7177034446388539,0.0,0.0,0.0,0.0,0.0
1759501344.2125738,0,-1.2049998044967651,-0.8299996256828308,-0.7177034549743536,0.0,0.0,0.0,0.0,0.0
1759501344.2233305,0,-1.2049998044967651,-0.8299996256828308,-0.7177034670098442,0.0,0.0,0.0,0.0,0.0
1759501344.234551,0,-1.2049998044967651,-0.8299996256828308,-0.717703475598265,0.0,0.0,0.0,0.0,0.0
1759501344.2446136,0,-1.2049998044967651,-0.8299996256828308,-0.717703486628718,0.0,0.0,0.0,0.0,0.0
1759501344.2548792,0,-1.2049998044967651,-0.8299996256828308,-0.7177034951518095,0.0,0.0,0.0,0.0,0.0
1759501344.266198,0,-1.2049998044967651,-0.8299996256828308,-0.7177034991263316,0.0,0.0,0.0,0.0,0.0
1759501344.27744,0,-1.2049998044967651,-0.8299996256828308,-0.7177035032539401,0.0,0.0,0.0,0.0,0.0
1759501344.2887068,0,-1.2049998044967651,-0.8299996256828308,-0.7177035074210991,0.0,0.0,0.0,0.0,0.0
1759501344.3002067,0,-1.2049998044967651,-0.8299996256828308,-0.7177035110282102,0.0,0.0,0.0,0.0,0.0
1759501344.3117108,0,-1.2049998044967651,-0.8299996256828308,-0.7177035148171012,0.0,0.0,0.0,0.0,0.0
1759501344.322931,0,-1.2049998044967651,-0.8299996256828308,-0.7177035194423684,0.0,0.0,0.0,0.0,0.0
1759501344.3344457,0,-1.2049998044967651,-0.8299996256828308,-0.7177035232103997,0.0,0.0,0.0,0.0,0.0
1759501344.345831,0,-1.2049998044967651,-0.8299996256828308,-0.7177035272782852,0.0,0.0,0.0,0.0,0.0
1759501344.3569083,0,-1.2049998044967651,-0.8299996256828308,-0.7177035319404546,0.0,0.0,0.0,0.0,0.0
1759501344.3678346,0,-1.2049998044967651,-0.8299996256828308,-0.7177035365911877,0.0,0.0,0.0,0.0,0.0
1759501344.379136,0,-1.2049998044967651,-0.8299996256828308,-0.7177035400484028,0.0,0.0,0.0,0.0,0.0
1759501344.3893473,0,-1.2049998044967651,-0.8299996256828308,-0.7177035455397309,0.0,0.0,0.0,0.0,0.0
1759501344.4031026,0,-1.2049998044967651,-0.8299996256828308,-0.7177035435585868,0.0,0.0,0.0,0.0,0.0
1759501344.4132698,0,-1.2049998044967651,-0.8299996256828308,-0.7177035495678226,0.0,0.0,0.0,0.0,0.0
1759501344.424184,0,-1.2049998044967651,-0.8299996256828308,-0.7177035536669489,0.0,0.0,0.0,0.0,0.0
1759501344.4347098,0,-1.2049998044967651,-0.8299996256828308,-0.7177035579015207,0.0,0.0,0.0,0.0,0.0
1759501344.4453015,0,-1.2049998044967651,-0.8299996256828308,-0.7177035614950906,0.0,0.0,0.0,0.0,0.0
1759501344.4554691,0,-1.2049998044967651,-0.8299996256828308,-0.7177035653615675,0.0,0.0,0.0,0.0,0.0
1759501344.4661443,0,-1.2049998044967651,-0.8299996256828308,-0.7177035679284209,0.0,0.0,0.0,0.0,0.0
1759501344.4774196,0,-1.2049998044967651,-0.8299996256828308,-0.7177035694023921,0.0,0.0,0.0,0.0,0.0
1759501344.4874327,0,-1.2049998044967651,-0.8299996256828308,-0.7177035729012555,0.0,0.0,0.0,0.0,0.0
1759501344.4987135,0,-1.2049998044967651,-0.8299996256828308,-0.7177035742392306,0.0,0.0,0.0,0.0,0.0
1759501344.5090444,0,-1.2049998044967651,-0.8299996256828308,-0.7177035769936921,0.0,0.0,0.0,0.0,0.0
1759501344.5204673,0,-1.2049998044967651,-0.8299996256828308,-0.7177035781144223,0.0,0.0,0.0,0.0,0.0
1759501344.5316355,0,-1.2049998044967651,-0.8299996256828308,-0.7177035797531826,0.0,0.0,0.0,0.0,0.0
1759501344.5429506,0,-1.2049998044967651,-0.8299996256828308,-0.717703581339995,0.0,0.0,0.0,0.0,0.0
1759501344.553055,0,-1.2049998044967651,-0.8299996256828308,-0.7177035844661662,0.0,0.0,0.0,0.0,0.0
1759501344.564121,0,-1.2049998044967651,-0.8299996256828308,-0.7177035861122788,0.0,0.0,0.0,0.0,0.0
1759501344.5755024,0,-1.2049998044967651,-0.8299996256828308,-0.7177035873531565,0.0,0.0,0.0,0.0,0.0
1759501344.5856013,0,-1.2049998044967651,-0.8299996256828308,-0.7177035900992408,0.0,0.0,0.0,0.0,0.0
1759501344.596014,0,-1.2049998044967651,-0.8299996256828308,-0.7177035922081494,0.0,0.0,0.0,0.0,0.0
1759501344.6066818,0,-1.2049998044967651,-0.8299996256828308,-0.7177035938175464,0.0,0.0,0.0,0.0,0.0
1759501344.616693,0,-1.2049998044967651,-0.8299996256828308,-0.7177035959790032,0.0,0.0,0.0,0.0,0.0
1759501344.6282794,0,-1.2049998044967651,-0.8299996256828308,-0.7177035964135925,0.0,0.0,0.0,0.0,0.0
1759501344.6386824,0,-1.2049998044967651,-0.8299996256828308,-0.717703598143796,0.0,0.0,0.0,0.0,0.0
1759501344.6503391,0,-1.2049998044967651,-0.8299996256828308,-0.71770359870351,0.0,0.0,0.0,0.0,0.0
1759501344.6618452,0,-1.2049998044967651,-0.8299996256828308,-0.7177035995914576,0.0,0.0,0.0,0.0,0.0
1759501344.6737568,0,-1.2049998044967651,-0.8299996256828308,-0.7177036003230501,0.0,0.0,0.0,0.0,0.0
1759501344.6838493,0,-1.2049998044967651,-0.8299996256828308,-0.7177036026806132,0.0,0.0,0.0,0.0,0.0
1759501344.6939154,0,-1.2049998044967651,-0.8299996256828308,-0.7177036047633543,0.0,0.0,0.0,0.0,0.0
1759501344.7161202,0,-1.2049998044967651,-0.8299996256828308,-0.7177035978537525,0.0,0.0,0.0,0.0,0.0
1759501344.7268195,0,-1.2049998044967651,-0.8299996256828308,-0.7177036014186591,0.0,0.0,0.0,0.0,0.0
1759501344.7375317,0,-1.2049998044967651,-0.8299996256828308,-0.7177036048071113,0.0,0.0,0.0,0.0,0.0
1759501344.747646,0,-1.2049998044967651,-0.8299996256828308,-0.71770360784609,0.0,0.0,0.0,0.0,0.0
1759501344.7581928,0,-1.2049998044967651,-0.8299996256828308,-0.7177036099562208,0.0,0.0,0.0,0.0,0.0
1759501344.769797,0,-1.2049998044967651,-0.8299996256828308,-0.7177036110296591,0.0,0.0,0.0,0.0,0.0
1759501344.7806416,0,-1.2049998044967651,-0.8299996256828308,-0.7177036124477212,0.0,0.0,0.0,0.0,0.0
1759501344.7910016,0,-1.2049998044967651,-0.8299996256828308,-0.7177036139811258,0.0,0.0,0.0,0.0,0.0
1759501344.8011801,0,-1.2049998044967651,-0.8299996256828308,-0.717703615385691,0.0,0.0,0.0,0.0,0.0
1759501344.8119378,0,-1.2049998044967651,-0.8299996256828308,-0.7177036162752373,0.0,0.0,0.0,0.0,0.0
1759501344.8230035,0,-1.2049998044967651,-0.8299996256828308,-0.7177036169346103,0.0,0.0,0.0,0.0,0.0
1759501344.8338869,0,-1.2049998044967651,-0.8299996256828308,-0.7177036176924325,0.0,0.0,0.0,0.0,0.0
1759501344.84415,0,-1.2049998044967651,-0.8299996256828308,-0.7177036187270609,0.0,0.0,0.0,0.0,0.0
1759501344.8542297,0,-1.2049998044967651,-0.8299996256828308,-0.7177036197359534,0.0,0.0,0.0,0.0,0.0
1759501344.8654552,0,-1.2049998044967651,-0.8299996256828308,-0.7177036201128485,0.0,0.0,0.0,0.0,0.0
1759501344.8761652,0,-1.2049998044967651,-0.8299996256828308,-0.7177036207542642,0.0,0.0,0.0,0.0,0.0
1759501344.8869553,0,-1.2049998044967651,-0.8299996256828308,-0.7177036213644499,0.0,0.0,0.0,0.0,0.0
1759501344.8973327,0,-1.2049998044967651,-0.8299996256828308,-0.7177036221282549,0.0,0.0,0.0,0.0,0.0
1759501344.908025,0,-1.2049998044967651,-0.8299996256828308,-0.7177036227110705,0.0,0.0,0.0,0.0,0.0
1759501344.918899,0,-1.2049998044967651,-0.8299996256828308,-0.717703623202798,0.0,0.0,0.0,0.0,0.0
1759501344.930262,0,-1.2049998044967651,-0.8299996256828308,-0.7177036235280791,0.0,0.0,0.0,0.0,0.0
1759501344.9406188,0,-1.2049998044967651,-0.8299996256828308,-0.7177036242616328,0.0,0.0,0.0,0.0,0.0
1759501344.9509256,0,-1.2049998044967651,-0.8299996256828308,-0.7177036249567942,0.0,0.0,0.0,0.0,0.0
1759501344.9615521,0,-1.2049998044967651,-0.8299996256828308,-0.7177036254724509,0.0,0.0,0.0,0.0,0.0
1759501344.971844,0,-1.2049998044967651,-0.8299996256828308,-0.7177036260639156,0.0,0.0,0.0,0.0,0.0
1759501344.982651,0,-1.2049998044967651,-0.8299996256828308,-0.7177036264507741,0.0,0.0,0.0,0.0,0.0
1759501344.9927242,0,-1.2049998044967651,-0.8299996256828308,-0.7177036270555738,0.0,0.0,0.0,0.0,0.0
1759501345.003029,0,-1.2049998044967651,-0.8299996256828308,-0.7177036275387251,0.0,0.0,0.0,0.0,0.0
1759501345.013376,0,-1.2049998044967651,-0.8299996256828308,-0.7177036279710123,0.0,0.0,0.0,0.0,0.0
1759501345.0240035,0,-1.2049998044967651,-0.8299996256828308,-0.7177036283051095,0.0,0.0,0.0,0.0,0.0
1759501345.0355756,0,-1.2049998044967651,-0.8299996256828308,-0.7177036284003293,0.0,0.0,0.0,0.0,0.0
1759501345.0462098,0,-1.2049998044967651,-0.8299996256828308,-0.7177036288109679,0.0,0.0,0.0,0.0,0.0
1759501345.0571363,0,-1.2049998044967651,-0.8299996256828308,-0.7177036291529024,0.0,0.0,0.0,0.0,0.0
1759501345.0674102,0,-1.2049998044967651,-0.8299996256828308,-0.7177036296478096,0.0,0.0,0.0,0.0,0.0
1759501345.0778513,0,-1.2049998044967651,-0.8299996256828308,-0.7177036300599156,0.0,0.0,0.0,0.0,0.0
1759501345.088875,0,-1.2049998044967651,-0.8299996256828308,-0.7177036303097637,0.0,0.0,0.0,0.0,0.0
1759501345.0992904,0,-1.2049998044967651,-0.8299996256828308,-0.7177036307013012,0.0,0.0,0.0,0.0,0.0
1759501345.109612,0,-1.2049998044967651,-0.8299996256828308,-0.7177036310896074,0.0,0.0,0.0,0.0,0.0
1759501345.1200836,0,-1.2049998044967651,-0.8299996256828308,-0.7177036314142207,0.0,0.0,0.0,0.0,0.0
1759501345.1304488,0,-1.2049998044967651,-0.8299996256828308,-0.7177036317394005,0.0,0.0,0.0,0.0,0.0
1759501345.1405404,0,-1.2049998044967651,-0.8299996256828308,-0.717703632095045,0.0,0.0,0.0,0.0,0.0
1759501345.1507292,0,-1.2049998044967651,-0.8299996256828308,-0.7177036323998642,0.0,0.0,0.0,0.0,0.0
1759501345.161173,0,-1.2049998044967651,-0.8299996256828308,-0.7177036326357644,0.0,0.0,0.0,0.0,0.0
1759501345.1726797,0,-1.2049998044967651,-0.8299996256828308,-0.717703632688675,0.0,0.0,0.0,0.0,0.0
1759501345.1838279,0,-1.2049998044967651,-0.8299996256828308,-0.7177036328534001,0.0,0.0,0.0,0.0,0.0
1759501345.1944528,0,-1.2049998044967651,-0.8299996256828308,-0.7177036331319009,0.0,0.0,0.0,0.0,0.0
1759501345.2064443,0,-1.2049998044967651,-0.8299996256828308,-0.7177036331956774,0.0,0.0,0.0,0.0,0.0
1759501345.2170942,0,-1.2049998044967651,-0.8299996256828308,-0.717703633502321,0.0,0.0,0.0,0.0,0.0
1759501345.2275078,0,-1.2049998044967651,-0.8299996256828308,-0.717703633828167,0.0,0.0,0.0,0.0,0.0
1759501345.2375112,0,-1.2049998044967651,-0.8299996256828308,-0.7177036341724339,0.0,0.0,0.0,0.0,0.0
1759501345.2478912,0,-1.2049998044967651,-0.8299996256828308,-0.7177036344182426,0.0,0.0,0.0,0.0,0.0
1759501345.258675,0,-1.2049998044967651,-0.8299996256828308,-0.7177036345870995,0.0,0.0,0.0,0.0,0.0
1759501345.2691233,0,-1.2049998044967651,-0.8299996256828308,-0.7177036347972745,0.0,0.0,0.0,0.0,0.0
1759501345.2804337,0,-1.2049998044967651,-0.8299996256828308,-0.717703634895237,0.0,0.0,0.0,0.0,0.0
1759501345.2907486,0,-1.2049998044967651,-0.8299996256828308,-0.7177036351274921,0.0,0.0,0.0,0.0,0.0
1759501345.3011162,0,-1.2049998044967651,-0.8299996256828308,-0.7177036353390207,0.0,0.0,0.0,0.0,0.0
1759501345.3114583,0,-1.2049998044967651,-0.8299996256828308,-0.7177036355342494,0.0,0.0,0.0,0.0,0.0
1759501345.3216581,0,-1.2049998044967651,-0.8299996256828308,-0.7177036357285012,0.0,0.0,0.0,0.0,0.0
1759501345.332821,0,-1.2049998044967651,-0.8299996256828308,-0.7177036358085331,0.0,0.0,0.0,0.0,0.0
1759501345.343194,0,-1.2049998044967651,-0.8299996256828308,-0.7177036359807119,0.0,0.0,0.0,0.0,0.0
1759501345.3535533,0,-1.2049998044967651,-0.8299996256828308,-0.7177036361477356,0.0,0.0,0.0,0.0,0.0
1759501345.3638413,0,-1.2049998044967651,-0.8299996256828308,-0.7177036363092597,0.0,0.0,0.0,0.0,0.0
1759501345.3741663,0,-1.2049998044967651,-0.8299996256828308,-0.717703636455351,0.0,0.0,0.0,0.0,0.0
1759501345.3844311,0,-1.2049998044967651,-0.8299996256828308,-0.7177036365973546,0.0,0.0,0.0,0.0,0.0
1759501345.3949876,0,-1.2049998044967651,-0.8299996256828308,-0.7177036367063129,0.0,0.0,0.0,0.0,0.0
1759501345.4056847,0,-1.2049998044967651,-0.8299996256828308,-0.7177036368037228,0.0,0.0,0.0,0.0,0.0
1759501345.4158146,0,-1.2049998044967651,-0.8299996256828308,-0.7177036369492633,0.0,0.0,0.0,0.0,0.0
1759501345.4262023,0,-1.2049998044967651,-0.8299996256828308,-0.7177036370649326,0.0,0.0,0.0,0.0,0.0
1759501345.4366066,0,-1.2049998044967651,-0.8299996256828308,-0.7177036371733897,0.0,0.0,0.0,0.0,0.0
1759501345.4471974,0,-1.2049998044967651,-0.8299996256828308,-0.717703637265295,0.0,0.0,0.0,0.0,0.0
1759501345.4573004,0,-1.2049998044967651,-0.8299996256828308,-0.7177036373912831,0.0,0.0,0.0,0.0,0.0
1759501345.467949,0,-1.2049998044967651,-0.8299996256828308,-0.7177036374719883,0.0,0.0,0.0,0.0,0.0
1759501345.4788616,0,-1.2049998044967651,-0.8299996256828308,-0.7177036375368466,0.0,0.0,0.0,0.0,0.0
1759501345.489302,0,-1.2049998044967651,-0.8299996256828308,-0.7177036376385075,0.0,0.0,0.0,0.0,0.0
1759501345.4995484,0,-1.2049998044967651,-0.8299996256828308,-0.7177036377488548,0.0,0.0,0.0,0.0,0.0
1759501345.5105636,0,-1.2049998044967651,-0.8299996256828308,-0.7177036378063022,0.0,0.0,0.0,0.0,0.0
1759501345.521605,0,-1.2049998044967651,-0.8299996256828308,-0.7177036378679986,0.0,0.0,0.0,0.0,0.0
1759501345.5321128,0,-1.2049998044967651,-0.8299996256828308,-0.7177036379654425,0.0,0.0,0.0,0.0,0.0
1759501345.5425339,0,-1.2049998044967651,-0.8299996256828308,-0.7177036380630035,0.0,0.0,0.0,0.0,0.0
1759501345.5528498,0,-1.2049998044967651,-0.8299996256828308,-0.7177036381582376,0.0,0.0,0.0,0.0,0.0
1759501345.564128,0,-1.2049998044967651,-0.8299996256828308,-0.7177036381986461,0.0,0.0,0.0,0.0,0.0
1759501345.5744097,0,-1.2049998044967651,-0.8299996256828308,-0.7177036382932211,0.0,0.0,0.0,0.0,0.0
1759501345.5846446,0,-1.2049998044967651,-0.8299996256828308,-0.717703638383842,0.0,0.0,0.0,0.0,0.0
1759501345.5957384,0,-1.2049998044967651,-0.8299996256828308,-0.7177036384277073,0.0,0.0,0.0,0.0,0.0
1759501345.6059382,0,-1.2049998044967651,-0.8299996256828308,-0.7177036385135763,0.0,0.0,0.0,0.0,0.0
1759501345.6163263,0,-1.2049998044967651,-0.8299996256828308,-0.7177036385854141,0.0,0.0,0.0,0.0,0.0
1759501345.627346,0,-1.2049998044967651,-0.8299996256828308,-0.7177036386267268,0.0,0.0,0.0,0.0,0.0
1759501345.6375127,0,-1.2049998044967651,-0.8299996256828308,-0.7177036387044176,0.0,0.0,0.0,0.0,0.0
1759501345.648495,0,-1.2049998044967651,-0.8299996256828308,-0.7177036387459843,0.0,0.0,0.0,0.0,0.0
1759501345.658848,0,-1.2049998044967651,-0.8299996256828308,-0.7177036388121607,0.0,0.0,0.0,0.0,0.0
1759501345.669184,0,-1.2049998044967651,-0.8299996256828308,-0.7177036388752144,0.0,0.0,0.0,0.0,0.0
1759501345.6801198,0,-1.2049998044967651,-0.8299996256828308,-0.7177036389132248,0.0,0.0,0.0,0.0,0.0
1759501345.6902544,0,-1.2049998044967651,-0.8299996256828308,-0.7177036389792448,0.0,0.0,0.0,0.0,0.0
1759501345.7004158,0,-1.2049998044967651,-0.8299996256828308,-0.7177036390390814,0.0,0.0,0.0,0.0,0.0
1759501345.7112088,0,-1.2049998044967651,-0.8299996256828308,-0.717414891049909,0.005235987755982988,0.0,0.0,0.0,0.0
1759501345.7222195,0,-1.2049998044967651,-0.8299996256828308,-0.7173914102658475,0.005235987755982988,0.0,0.0,0.0,0.0
1759501345.732622,0,-1.2049998044967651,-0.8299996256828308,-0.7173714863457694,0.005235987755982988,0.0,0.0,0.0,0.0
1759501345.7429109,0,-1.2049998044967651,-0.8299996256828308,-0.7173841559121821,0.005235987755982988,0.0,0.0,0.0,0.0
1759501345.7531803,0,-1.2049998044967651,-0.8299996256828308,-0.7174100457248374,0.005235987755982988,0.0,0.0,0.0,0.0
1759501345.7644782,0,-1.2049998044967651,-0.8299996256828308,-0.7173705720465454,0.005235987755982988,0.0,0.0,0.0,0.0
1759501345.7750099,0,-1.2049998044967651,-0.8299996256828308,-0.7173665556539751,0.005235987755982988,0.0,0.0,0.0,0.0
1759501345.786113,0,-1.2049998044967651,-0.8299996256828308,-0.7173849198415422,0.005235987755982988,0.0,0.0,0.0,0.0
1759501345.7974913,0,-1.2049998044967651,-0.8299996256828308,-0.7173963564803646,0.005235987755982988,0.0,0.0,0.0,0.0
1759501345.811622,0,-1.20368900163524,-0.8312640332215796,-0.7167484620731106,0.0180928168739522,0.0,0.0,0.0,0.0
1759501345.822537,0,-1.203213950465118,-0.8316777028021176,-0.7162610147746185,0.0180928168739522,0.0,0.0,0.0,0.0
1759501345.832702,0,-1.2030352170392715,-0.8318332489778761,-0.715891430764111,0.0180928168739522,0.0,0.0,0.0,0.0
1759501345.843369,0,-1.202965045344541,-0.8318942511119833,-0.7156237734497477,0.0180928168739522,0.0,0.0,0.0,0.0
1759501345.8547919,0,-1.2029354106458336,-0.8319199651929805,-0.7154525935704574,0.0180928168739522,0.0,0.0,0.0,0.0
1759501345.86596,0,-1.2029250136067564,-0.8319289492647763,-0.7153196372877316,0.0180928168739522,0.0,0.0,0.0,0.0
1759501345.8762295,0,-1.2029243572280646,-0.8319294753320675,-0.7151956527612754,0.0180928168739522,0.0,0.0,0.0,0.0
1759501345.886465,0,-1.2029242222141183,-0.8319295586698138,-0.7151457714480659,0.0180928168739522,0.0,0.0,0.0,0.0
1759501345.898182,0,-1.202918670220892,-0.8319343556337114,-0.7151028241405588,0.0180928168739522,0.0,0.0,0.0,0.0
1759501345.9096549,0,-1.2029174480589493,-0.8319353978451712,-0.7150569890568207,0.0180928168739522,0.0,0.0,0.0,0.0
1759501345.9198496,0,-1.2029217172030395,-0.8319316768801301,-0.7150417941024895,0.0180928168739522,0.0,0.0,0.0,0.0
1759501345.9308236,0,-1.2029204561992048,-0.8319327630663795,-0.7150387679265006,0.0180928168739522,0.0,0.0,0.0,0.0
1759501345.9415658,0,-1.2029208324004101,-0.8319324304578596,-0.715017220665482,0.0180928168739522,0.0,0.0,0.0,0.0
1759501345.951648,0,-1.2029234226331127,-0.8319301776322382,-0.7149949592688981,0.0180928168739522,0.0,0.0,0.0,0.0
1759501345.962254,0,-1.2029224692235676,-0.8319310036765348,-0.7150063161435288,0.0180928168739522,0.0,0.0,0.0,0.0
1759501345.9727135,0,-1.2029226487403084,-0.8319308469029724,-0.7150215358946597,0.0180928168739522,0.0,0.0,0.0,0.0
1759501345.983128,0,-1.2029228836732955,-0.8319306427530846,-0.7150169410954546,0.0180928168739522,0.0,0.0,0.0,0.0
1759501345.9939415,0,-1.2029214945079176,-0.8319318494000533,-0.7150111088537402,0.0180928168739522,0.0,0.0,0.0,0.0
1759501346.0075788,0,-1.1954670761144515,-0.8388062738628691,-0.7072715573806508,0.07855388237539869,0.0,0.0,0.0,0.0
1759501346.0176005,0,-1.1927567363133973,-0.8410854796902766,-0.7012506794844607,0.07855388237539869,0.0,0.0,0.0,0.0
1759501346.0288916,0,-1.191690332560444,-0.8419759793774879,-0.6967508131658143,0.07855388237539869,0.0,0.0,0.0,0.0
1759501346.0400913,0,-1.1912820346542319,-0.8423121763886801,-0.6935083466933658,0.07855388237539869,0.0,0.0,0.0,0.0
1759501346.0503557,0,-1.1911441854092866,-0.8424222232282068,-0.6912117909664379,0.07855388237539869,0.0,0.0,0.0,0.0
1759501346.0609741,0,-1.191082418440762,-0.8424694316644448,-0.6895474181116373,0.07855388237539869,0.0,0.0,0.0,0.0
1759501346.0711324,0,-1.1910677477419922,-0.8424784499788779,-0.6883448510552214,0.07855388237539869,0.0,0.0,0.0,0.0
1759501346.0812342,0,-1.1910626411343832,-0.8424803178693817,-0.6874955601462962,0.07855388237539869,0.0,0.0,0.0,0.0
1759501346.0914128,0,-1.191058510153603,-0.84248198748879,-0.6869114605269111,0.07855388237539869,0.0,0.0,0.0,0.0
1759501346.10169,0,-1.191054425561139,-0.8424840866202381,-0.6865024550526809,0.07855388237539869,0.0,0.0,0.0,0.0
1759501346.1127489,0,-1.191035627527837,-0.8424985286176184,-0.6861404705241785,0.07855388237539869,0.0,0.0,0.0,0.0
1759501346.1236055,0,-1.1910326493587862,-0.842500306225072,-0.6859150736119161,0.07855388237539869,0.0,0.0,0.0,0.0
1759501346.1343842,0,-1.1910330885073988,-0.8424995076061452,-0.6857886385218247,0.07855388237539869,0.0,0.0,0.0,0.0
1759501346.1449687,0,-1.1910374080950397,-0.8424957105005836,-0.6857113981612816,0.07855388237539869,0.0,0.0,0.0,0.0
1759501346.1551495,0,-1.1910478095544248,-0.842487085862218,-0.6856774943433686,0.07855388237539869,0.0,0.0,0.0,0.0
1759501346.1657019,0,-1.1910437043494455,-0.8424903700975918,-0.6856851940764666,0.07855388237539869,0.0,0.0,0.0,0.0
1759501346.1763391,0,-1.1910402986056698,-0.8424931290703513,-0.6856581607556993,0.07855388237539869,0.0,0.0,0.0,0.0
1759501346.1871052,0,-1.1910362161216415,-0.8424964719248945,-0.685646164536655,0.07855388237539869,0.0,0.0,0.0,0.0
1759501346.1984873,0,-1.1910212904995823,-0.8425086703756887,-0.6856528088840788,0.07855388237539869,0.0,0.0,0.0,0.0
1759501346.2093842,0,-1.1806766498387078,-0.8508087545952954,-0.6722011076216851,0.10766272177151037,0.0,0.0,0.0,0.0
1759501346.2202387,0,-1.176750648168241,-0.8538373006924902,-0.6613627452016743,0.10766272177151037,0.0,0.0,0.0,0.0
1759501346.2317097,0,-1.1752223346956263,-0.8550005588031238,-0.6532850700762131,0.10766272177151037,0.0,0.0,0.0,0.0
1759501346.2425904,0,-1.174650025418443,-0.855424695726596,-0.6475503955753077,0.10766272177151037,0.0,0.0,0.0,0.0
1759501346.2543466,0,-1.1743990166145715,-0.8556028610515944,-0.6432523770063309,0.10766272177151037,0.0,0.0,0.0,0.0
1759501346.2647748,0,-1.1743413368399818,-0.8556366065354613,-0.6403321795847119,0.10766272177151037,0.0,0.0,0.0,0.0
1759501346.2752602,0,-1.1743151098435467,-0.8556486747032924,-0.6382606174516814,0.10766272177151037,0.0,0.0,0.0,0.0
1759501346.2864523,0,-1.1742810435428548,-0.8556681175739744,-0.6366770117845167,0.10766272177151037,0.0,0.0,0.0,0.0
1759501346.2979114,0,-1.1742583079990025,-0.8556805469392428,-0.635535167143445,0.10766272177151037,0.0,0.0,0.0,0.0
1759501346.309053,0,-1.1742587916942009,-0.8556771270946582,-0.634810035181604,0.10766272177151037,0.0,0.0,0.0,0.0
1759501346.3191905,0,-1.1742902397331172,-0.8556521355611446,-0.6344145256714135,0.10766272177151037,0.0,0.0,0.0,0.0
1759501346.3300164,0,-1.1742801567268497,-0.8556582081765477,-0.6341022260937673,0.10766272177151037,0.0,0.0,0.0,0.0
1759501346.3405719,0,-1.1742846669916513,-0.8556540907509163,-0.6339095093447694,0.10766272177151037,0.0,0.0,0.0,0.0
1759501346.3516905,0,-1.1742684469240323,-0.8556654091264352,-0.6337510590023655,0.10766272177151037,0.0,0.0,0.0,0.0
1759501346.3625019,0,-1.1742719348990625,-0.8556625809272633,-0.6337209043927227,0.10766272177151037,0.0,0.0,0.0,0.0
1759501346.37295,0,-1.174284801066964,-0.8556531419114082,-0.6337591011810911,0.10766272177151037,0.0,0.0,0.0,0.0
1759501346.3838298,0,-1.1742761201915974,-0.855659552706298,-0.6337605463110011,0.10766272177151037,0.0,0.0,0.0,0.0
1759501346.394933,0,-1.1742657986318557,-0.8556672090066535,-0.6337975766006351,0.10766272177151037,0.0,0.0,0.0,0.0
1759501346.4064763,0,-1.1622485387018222,-0.8641501140273363,-0.6177231243177123,0.12951199915350536,0.0,0.0,0.0,0.0
1759501346.4174633,0,-1.1576970721825242,-0.867264855922368,-0.6048260831790125,0.12951199915350536,0.0,0.0,0.0,0.0
1759501346.42812,0,-1.1559588090344037,-0.8684328410304027,-0.5954091724014836,0.12951199915350536,0.0,0.0,0.0,0.0
1759501346.4385061,0,-1.1552966180827289,-0.8688626459879523,-0.5886753060873792,0.12951199915350536,0.0,0.0,0.0,0.0
1759501346.4485064,0,-1.1550527637849317,-0.8690102197413444,-0.5839041386177347,0.12951199915350536,0.0,0.0,0.0,0.0
1759501346.459424,0,-1.154918575712396,-0.8690857552654878,-0.580264437858553,0.12951199915350536,0.0,0.0,0.0,0.0
1759501346.470311,0,-1.15486522321361,-0.8691102737934896,-0.5777226108044672,0.12951199915350536,0.0,0.0,0.0,0.0
1759501346.4815128,0,-1.1548298855997727,-0.8691252225311683,-0.5758188231463578,0.12951199915350536,0.0,0.0,0.0,0.0
1759501346.4919634,0,-1.1548448876336606,-0.8691099218564678,-0.5746788365749593,0.12951199915350536,0.0,0.0,0.0,0.0
1759501346.5023975,0,-1.154850283837989,-0.8691025847325988,-0.5738836618210754,0.12951199915350536,0.0,0.0,0.0,0.0
1759501346.5133147,0,-1.1548322890376823,-0.8691113982819533,-0.5732792392147905,0.12951199915350536,0.0,0.0,0.0,0.0
1759501346.5242827,0,-1.1548229120823499,-0.8691155422891177,-0.5728919810380183,0.12951199915350536,0.0,0.0,0.0,0.0
1759501346.5346704,0,-1.154842391463041,-0.8691020359675984,-0.5727435016375112,0.12951199915350536,0.0,0.0,0.0,0.0
1759501346.545114,0,-1.154847536260155,-0.8690982430803625,-0.5726748270855733,0.12951199915350536,0.0,0.0,0.0,0.0
1759501346.5552828,0,-1.1548605754076553,-0.8690898020004395,-0.5726946878277125,0.12951199915350536,0.0,0.0,0.0,0.0
1759501346.5666716,0,-1.1548166606562067,-0.8691177900463486,-0.5725979666960814,0.12951199915350536,0.0,0.0,0.0,0.0
1759501346.5772624,0,-1.1548319587264857,-0.8691081282860095,-0.5726997627021336,0.12951199915350536,0.0,0.0,0.0,0.0
1759501346.5877912,0,-1.1548404601678341,-0.8691030226670466,-0.572797535973798,0.12951199915350536,0.0,0.0,0.0,0.0
1759501346.5985923,0,-1.1548329691070633,-0.8691082114368955,-0.5729176980658588,0.12951199915350536,0.0,0.0,0.0,0.0
1759501346.6093993,0,-1.1408574753568814,-0.8775324299970274,-0.5546454208568601,0.13459238252905031,0.0,0.0,0.0,0.0
1759501346.61982,0,-1.1355259447909238,-0.8806976523905806,-0.5399365441830383,0.13459238252905031,0.0,0.0,0.0,0.0
1759501346.6299658,0,-1.1334877544148172,-0.8818836262425382,-0.529254448003192,0.13456419330894134,0.0,0.0,0.0,0.0
1759501346.640778,0,-1.1326710548229393,-0.8823414178660504,-0.5213414826363361,0.13459238252905031,0.0,0.0,0.0,0.0
1759501346.6512513,0,-1.1323667766201415,-0.8824993441521342,-0.5157072691801904,0.13459238252905031,0.0,0.0,0.0,0.0
1759501346.6615863,0,-1.1322518056937927,-0.8825503468741531,-0.5118222581499011,0.13364765851226665,0.0,0.0,0.0,0.0
1759501346.6720867,0,-1.1321971761717924,-0.8825693538860055,-0.5088418234973626,0.13459238252905031,0.0,0.0,0.0,0.0
1759501346.6830268,0,-1.1321548164675583,-0.8825839822203524,-0.5067423424919019,0.13424709037128602,0.0,0.0,0.0,0.0
1759501346.6933858,0,-1.132162160696541,-0.8825735543290917,-0.5053393175544051,0.13459238252905031,0.0,0.0,0.0,0.0
1759501346.7034917,0,-1.1321749769514766,-0.8825622631027072,-0.5045060515154423,0.1343874615665525,0.0,0.0,0.0,0.0
1759501346.7138786,0,-1.1321670256849226,-0.8825637752196913,-0.5039272966350736,0.13383108855127893,0.0,0.0,0.0,0.0
1759501346.7245157,0,-1.1321525791784446,-0.8825695925975132,-0.5034333704402361,0.13429065190517395,0.0,0.0,0.0,0.0
1759501346.734832,0,-1.1321608274490722,-0.882563955379464,-0.5032659862441015,0.1339418123042661,0.0,0.0,0.0,0.0
1759501346.7457108,0,-1.1321394391923874,-0.8825749650295526,-0.5031286685448567,0.13337837838384584,0.0,0.0,0.0,0.0
1759501346.7561007,0,-1.1321525256052831,-0.8825675838251826,-0.5031368222538416,0.13346086655514225,0.0,0.0,0.0,0.0
1759501346.7664397,0,-1.1321598790984586,-0.882563723195116,-0.5032324247134887,0.13324185436698965,0.0,0.0,0.0,0.0
1759501346.7769768,0,-1.1321541694175756,-0.8825670552804009,-0.503264920963616,0.13365777918090138,0.0,0.0,0.0,0.0
1759501346.7875268,0,-1.132151699267419,-0.8825689218994888,-0.5034561774981332,0.1327612074427809,0.0,0.0,0.0,0.0
1759501346.797802,0,-1.1321628845698537,-0.8825633600915318,-0.5036133732020033,0.13297108965415677,0.0,0.0,0.0,0.0
1759501346.8078806,0,-1.11622437706854,-0.8907111630562999,-0.4842179120664883,0.14519166609085268,0.0,0.0,0.0,0.0
1759501346.8185883,0,-1.1101137205736182,-0.8937710874868728,-0.46845049190414284,0.14495501495831348,0.0,0.0,0.0,0.0
1759501346.8297615,0,-1.1077432127839444,-0.8949305582535926,-0.45685267836575943,0.1439061397422564,0.0,0.0,0.0,0.0
1759501346.840467,0,-1.1068503473007159,-0.8953472864625056,-0.4484667881611464,0.14413242120466815,0.0,0.0,0.0,0.0
1759501346.8511133,0,-1.1065052187128603,-0.8954944578132528,-0.44247432321651586,0.14401638983504778,0.0,0.0,0.0,0.0
1759501346.8618832,0,-1.1063624578490767,-0.8955458869300438,-0.43819216652334453,0.1436202281707708,0.0,0.0,0.0,0.0
1759501346.8729246,0,-1.1062910501428542,-0.895566058510559,-0.43501558003210317,0.14404847252821423,0.0,0.0,0.0,0.0
1759501346.8831246,0,-1.1063026500649333,-0.8955512118000101,-0.4330122616703644,0.14412103928767864,0.0,0.0,0.0,0.0
1759501346.893426,0,-1.106300681704775,-0.8955455059864121,-0.431698192732508,0.14326845228009652,0.0,0.0,0.0,0.0
1759501346.9041293,0,-1.1062789901827084,-0.8955503801212514,-0.4305489166363558,0.1444022045379834,0.0,0.0,0.0,0.0
1759501346.9149423,0,-1.1062646892742245,-0.895553595378057,-0.4299215351557427,0.1435641493223186,0.0,0.0,0.0,0.0
1759501346.9249911,0,-1.1062963852636767,-0.8955373233527005,-0.4296593005321052,0.14353289623202783,0.0,0.0,0.0,0.0
1759501346.9363189,0,-1.1062454143168552,-0.8955589418725326,-0.4292356688291094,0.14376721748196888,0.0,0.0,0.0,0.0
1759501346.9467833,0,-1.1062683203175012,-0.8955480179749078,-0.42926973939008434,0.1430821904880947,0.0,0.0,0.0,0.0
1759501346.9571445,0,-1.1062822879349195,-0.8955417621363094,-0.4293956281073622,0.14252547624374615,0.0,0.0,0.0,0.0
1759501346.9674888,0,-1.1062885908309787,-0.8955392053783358,-0.42948874648999047,0.1427391143978264,0.0,0.0,0.0,0.0
1759501346.9776654,0,-1.1062993889279151,-0.8955347697779791,-0.42960456049419116,0.1433378453481332,0.0,0.0,0.0,0.0
1759501346.9888027,0,-1.1062565545606073,-0.895554601570503,-0.4296291094866277,0.1431505353224985,0.0,0.0,0.0,0.0
1759501346.9993565,0,-1.1062690246526223,-0.8955495367203232,-0.4298276644370161,0.14292566756888478,0.0,0.0,0.0,0.0
1759501347.0101545,0,-1.0881542663477293,-0.9032880769648002,-0.4129146664580158,0.15739316768391698,0.0,0.0,0.0,0.0
1759501347.0204933,0,-1.0812835458137073,-0.906159805448464,-0.3993257307481246,0.15746188000900516,0.0,0.0,0.0,0.0
1759501347.0315022,0,-1.0786109607102405,-0.9072516243740383,-0.3892352257074115,0.15735297729141848,0.0,0.0,0.0,0.0
1759501347.0417943,0,-1.0776215624886991,-0.9076379673165083,-0.38218437936355126,0.15666963074877005,0.0,0.0,0.0,0.0
1759501347.0527472,0,-1.0772014121970594,-0.9077893747361684,-0.376908310601283,0.156786284970469,0.0,0.0,0.0,0.0
1759501347.063202,0,-1.077064486249331,-0.9078288905273679,-0.3732842126413161,0.15661527872368683,0.0,0.0,0.0,0.0
1759501347.0734437,0,-1.0770212499368919,-0.9078342737263001,-0.37074166443492845,0.15685987310311034,0.0,0.0,0.0,0.0
1759501347.0849502,0,-1.0769325586618843,-0.9078592789380984,-0.3687378268898061,0.15643823966130233,0.0,0.0,0.0,0.0
1759501347.095888,0,-1.076928766314311,-0.9078539637342163,-0.3673933903434409,0.15701751770337918,0.0,0.0,0.0,0.0
1759501347.1062112,0,-1.0769607912157106,-0.9078376810812048,-0.366800651529968,0.155931354823173,0.0,0.0,0.0,0.0
1759501347.1169097,0,-1.0769516908189776,-0.9078383913284168,-0.3662982119920295,0.1558752807805568,0.0,0.0,0.0,0.0
1759501347.127614,0,-1.0769475698870048,-0.907838145216704,-0.3659490874720504,0.15626751882241513,0.0,0.0,0.0,0.0
1759501347.137692,0,-1.076980794762282,-0.9078248850044257,-0.36595275664446314,0.15598883645789607,0.0,0.0,0.0,0.0
1759501347.1487505,0,-1.076938914827077,-0.9078401870662475,-0.3657439908017251,0.15663238507170074,0.0,0.0,0.0,0.0
1759501347.1591854,0,-1.0769577150190943,-0.9078331844181193,-0.36588340454380186,0.1560684468428668,0.0,0.0,0.0,0.0
1759501347.1695142,0,-1.0769709513384895,-0.9078285847920283,-0.3660091616586477,0.15631071664404658,0.0,0.0,0.0,0.0
1759501347.180583,0,-1.0769350565657507,-0.9078426040880836,-0.3660602974601214,0.15625242218234586,0.0,0.0,0.0,0.0
1759501347.190717,0,-1.0769735274359002,-0.9078288148566339,-0.3663439995101123,0.15595889574805374,0.0,0.0,0.0,0.0
1759501347.200878,0,-1.0769870072790233,-0.9078246314371362,-0.3665726661041886,0.15607663162604893,0.0,0.0,0.0,0.0
1759501347.2111893,0,-1.0572568129975495,-0.9150360509363474,-0.35546947760558556,0.16745798003889234,0.0,0.0,0.0,0.0
1759501347.2214541,0,-1.049746525817082,-0.9177399254683247,-0.34659614470232974,0.1669162486322049,0.0,0.0,0.0,0.0
1759501347.2317195,0,-1.0468708067722592,-0.9187581605565321,-0.34005900174750675,0.16705880337346196,0.0,0.0,0.0,0.0
1759501347.242407,0,-1.0457420699391407,-0.9191453737153367,-0.33529560579449036,0.16684682452887697,0.0,0.0,0.0,0.0
1759501347.2531157,0,-1.0453061329685611,-0.9192860766400922,-0.3319342196574239,0.16626346383961446,0.0,0.0,0.0,0.0
1759501347.2642584,0,-1.0451108833205363,-0.9193430253587411,-0.32939415140928013,0.1664864664680293,0.0,0.0,0.0,0.0
1759501347.2743654,0,-1.0450970209101793,-0.9193401444550909,-0.3278615083494897,0.1662302880405078,0.0,0.0,0.0,0.0
1759501347.2845814,0,-1.0450841026491453,-0.9193389159188693,-0.3267853274807892,0.1662010355334354,0.0,0.0,0.0,0.0
1759501347.2947865,0,-1.0450790745279332,-0.9193365788045011,-0.32600747442584016,0.1666589238368764,0.0,0.0,0.0,0.0
1759501347.3055344,0,-1.0450439920551398,-0.9193455604269485,-0.3255103193547534,0.16604797762205126,0.0,0.0,0.0,0.0
1759501347.3164935,0,-1.0450174718699008,-0.9193523737286351,-0.3251013776420239,0.1662618037628533,0.0,0.0,0.0,0.0
1759501347.327042,0,-1.045031979736667,-0.919346459031834,-0.3249804701430615,0.1660501737236052,0.0,0.0,0.0,0.0
1759501347.3373394,0,-1.0450526581300432,-0.9193391302886016,-0.3249416115247219,0.16640413656726213,0.0,0.0,0.0,0.0
1759501347.3477654,0,-1.0450529558940653,-0.9193391952326332,-0.325061836681778,0.16571129843320764,0.0,0.0,0.0,0.0
1759501347.3591523,0,-1.044995113395886,-0.9193583986315698,-0.3249369737595166,0.16624230317221367,0.0,0.0,0.0,0.0
1759501347.3694222,0,-1.045040572659697,-0.9193437767172409,-0.3251911707776864,0.16557682384699957,0.0,0.0,0.0,0.0
1759501347.3804476,0,-1.0450125429883006,-0.919353644896016,-0.32526191237524804,0.1657514426863973,0.0,0.0,0.0,0.0
1759501347.3906932,0,-1.0450489897007293,-0.9193421082731041,-0.3254103580756162,0.1663333292403241,0.0,0.0,0.0,0.0
1759501347.400882,0,-1.0450666339590653,-0.9193371714809364,-0.32566689025973256,0.16599099587452795,0.0,0.0,0.0,0.0
1759501347.4126332,0,-1.0234002547905225,-0.9265281037191945,-0.3201266695356142,0.1791408149374287,0.0,0.0,0.0,0.0
1759501347.4229257,0,-1.0152579411484486,-0.9291996967379907,-0.3158561680731515,0.1789095429659108,0.0,0.0,0.0,0.0
1759501347.433729,0,-1.0121111028877665,-0.9302232108065193,-0.3126638525595088,0.1790326726349354,0.0,0.0,0.0,0.0
1759501347.4442837,0,-1.0109229947668557,-0.9306034463030227,-0.3104460917333362,0.1788964889357389,0.0,0.0,0.0,0.0
1759501347.454497,0,-1.0104898903524282,-0.9307377935797321,-0.3088881285682534,0.1791401857038597,0.0,0.0,0.0,0.0
1759501347.4654582,0,-1.0102743729347472,-0.9308019019376125,-0.3077598417598692,0.17888034863290503,0.0,0.0,0.0,0.0
1759501347.4759793,0,-1.0102200761030302,-0.9308154614251827,-0.30701864746354685,0.17887705332964113,0.0,0.0,0.0,0.0
1759501347.4861896,0,-1.0102192904655836,-0.9308132387804164,-0.3066158174440441,0.17856050342393276,0.0,0.0,0.0,0.0
1759501347.4971263,0,-1.010171001922208,-0.9308264047531828,-0.30618076855210247,0.17906386106126682,0.0,0.0,0.0,0.0
1759501347.507405,0,-1.0101955719017874,-0.9308176397882785,-0.306090624852673,0.17871533845394316,0.0,0.0,0.0,0.0
1759501347.5177827,0,-1.0101984159434698,-0.9308161773594128,-0.30600360682736294,0.17886935549616315,0.0,0.0,0.0,0.0
1759501347.5280025,0,-1.0102098872422969,-0.9308124558767124,-0.30602295720615924,0.17880360081675695,0.0,0.0,0.0,0.0
1759501347.5389004,0,-1.0101698780729367,-0.9308250026927569,-0.30601648185502694,0.1786857014257707,0.0,0.0,0.0,0.0
1759501347.549363,0,-1.0101831933907857,-0.9308210216600538,-0.3060797678667421,0.1787047620302735,0.0,0.0,0.0,0.0
1759501347.5596807,0,-1.010197872866952,-0.9308167827637815,-0.306154375955442,0.17894236311194317,0.0,0.0,0.0,0.0
1759501347.570389,0,-1.0101780196958405,-0.93082344818519,-0.3062269629152198,0.1789720062434818,0.0,0.0,0.0,0.0
1759501347.5814116,0,-1.0101499829493128,-0.9308327231747757,-0.3063410788661419,0.17872607232978982,0.0,0.0,0.0,0.0
1759501347.5916507,0,-1.0101907579144773,-0.9308205380884105,-0.3065086054591822,0.17866788404370176,0.0,0.0,0.0,0.0
1759501347.6026797,0,-1.0101547119249439,-0.9308323893498384,-0.3065584152362556,0.17890969180713753,0.0,0.0,0.0,0.0
1759501347.6127012,0,-0.9879609234691038,-0.9380046089998894,-0.30683462611930645,0.19900923471617663,0.0,0.0,0.0,0.0
1759501347.6233008,0,-0.9795082555892859,-0.9407120302363103,-0.3070103499411882,0.19906346541144074,0.0,0.0,0.0,0.0
1759501347.6338882,0,-0.9762807050787352,-0.9417463415771168,-0.30716337013996425,0.19918030346590948,0.0,0.0,0.0,0.0
1759501347.6450455,0,-0.9750065624326333,-0.9421548852161594,-0.307279150965615,0.19911214599836707,0.0,0.0,0.0,0.0
1759501347.6556368,0,-0.9745612899087186,-0.9422983413793247,-0.3074274396436848,0.19911431191600817,0.0,0.0,0.0,0.0
1759501347.6659317,0,-0.9744130297531327,-0.9423468416106605,-0.30761890279431686,0.19893897867075125,0.0,0.0,0.0,0.0
1759501347.6762924,0,-0.9743517846235515,-0.9423672866510623,-0.3077498315710817,0.19901994162082298,0.0,0.0,0.0,0.0
1759501347.6870582,0,-0.9742990662712121,-0.9423847941185326,-0.30787196325111793,0.19889337476807062,0.0,0.0,0.0,0.0
1759501347.697862,0,-0.9742762854208709,-0.9423926223224419,-0.3079644005789375,0.19899945792106116,0.0,0.0,0.0,0.0
1759501347.7084057,0,-0.9742866456548234,-0.942389938462382,-0.3080645390019196,0.19907153382241616,0.0,0.0,0.0,0.0
1759501347.7187002,0,-0.974308933089216,-0.9423835454064846,-0.3081996330891513,0.1989922769962757,0.0,0.0,0.0,0.0
1759501347.7293127,0,-0.974294472058965,-0.9423888246491275,-0.3083459598979481,0.19869855275657963,0.0,0.0,0.0,0.0
1759501347.7405655,0,-0.9742423985622525,-0.9424057840973544,-0.30837408465741656,0.1988683474490957,0.0,0.0,0.0,0.0
1759501347.751058,0,-0.9742779385827325,-0.9423949128143164,-0.30843099599337126,0.19912734419415382,0.0,0.0,0.0,0.0
1759501347.7617066,0,-0.9742803447187093,-0.9423947376920072,-0.3085805344053386,0.1988598110173043,0.0,0.0,0.0,0.0
1759501347.7718427,0,-0.9743186368084279,-0.9423830424722189,-0.308645184883307,0.19922033363070138,0.0,0.0,0.0,0.0
1759501347.7829509,0,-0.9742625799443319,-0.9424011882721932,-0.3086418751549992,0.19958573681406494,0.0,0.0,0.0,0.0
1759501347.7934618,0,-0.9742847937235695,-0.9423946376657641,-0.3087764286920403,0.19925806228027446,0.0,0.0,0.0,0.0
1759501347.8038528,0,-0.9743021609922329,-0.9423896974205928,-0.3089215595771921,0.19894601876886586,0.0,0.0,0.0,0.0
1759501347.8139148,0,-0.9516099135143808,-0.9498164247499861,-0.3120532920806008,0.1900913841702136,0.0,0.0,0.0,0.0
1759501347.8245842,0,-0.9428730525388245,-0.9526946828931372,-0.3146066884967999,0.19017164918185187,0.0,0.0,0.0,0.0
1759501347.83517,0,-0.939543919525389,-0.953797251995883,-0.3165244308665052,0.19012234341704945,0.0,0.0,0.0,0.0
1759501347.8461738,0,-0.9382449921058248,-0.9542314989279512,-0.3178920843352037,0.19030979817790297,0.0,0.0,0.0,0.0
1759501347.856687,0,-0.9377840173281511,-0.9543889751645096,-0.3189308186323957,0.19032637095713983,0.0,0.0,0.0,0.0
1759501347.8673403,0,-0.9375992072389637,-0.9544544028932146,-0.31976023575276846,0.19004066410708229,0.0,0.0,0.0,0.0
1759501347.8784056,0,-0.9375007485761927,-0.9544902229427887,-0.3202672951600216,0.19036297946436764,0.0,0.0,0.0,0.0
1759501347.8892784,0,-0.9374769820267375,-0.9545006731902304,-0.3207179884794582,0.19016546028204473,0.0,0.0,0.0,0.0
1759501347.9005365,0,-0.937441636021285,-0.9545143201714331,-0.3210171725500941,0.19023192229094113,0.0,0.0,0.0,0.0
1759501347.9114792,0,-0.9374502502073682,-0.9545129706576944,-0.32128615242744274,0.1900472518579761,0.0,0.0,0.0,0.0
1759501347.9219346,0,-0.9374874144757284,-0.9545016997829282,-0.3214563253705936,0.19023732246548272,0.0,0.0,0.0,0.0
1759501347.9325936,0,-0.9374877184339259,-0.9545024643065574,-0.32159706452587955,0.19024078489181273,0.0,0.0,0.0,0.0
1759501347.942881,0,-0.9375136267373658,-0.9544944859266715,-0.32169528270400793,0.19032847848321022,0.0,0.0,0.0,0.0
1759501347.9539292,0,-0.9374710733984749,-0.9545091696701343,-0.3217687311850215,0.19035253637993083,0.0,0.0,0.0,0.0
1759501347.9643798,0,-0.9374961819345311,-0.9545011954729192,-0.3218342118911678,0.19037230690043744,0.0,0.0,0.0,0.0
1759501347.9755857,0,-0.9374536819272533,-0.9545157410643088,-0.3219115263655331,0.19017034516368897,0.0,0.0,0.0,0.0
1759501347.9859672,0,-0.9374944285896949,-0.9545023629738439,-0.321932057789189,0.19040389410530092,0.0,0.0,0.0,0.0
1759501347.9965363,0,-0.9374970787927099,-0.9545016811255405,-0.3219558225949191,0.19047283524955194,0.0,0.0,0.0,0.0
1759501348.007431,0,-0.9374756584604104,-0.9545090599822647,-0.32201946761209227,0.19028907602147688,0.0,0.0,0.0,0.0
1759501348.0181088,0,-0.9134188531018319,-0.9627857479411248,-0.32526093436097375,0.20123431894246152,0.0,0.0,0.0,0.0
1759501348.0288324,0,-0.9042655314090227,-0.9659296190892737,-0.3278310197000177,0.20164821144659656,0.0,0.0,0.0,0.0
1759501348.0394752,0,-0.900777703974303,-0.9671338923130651,-0.32979533982396975,0.20149687176117728,0.0,0.0,0.0,0.0
1759501348.0498142,0,-0.8994694216299463,-0.967590196627973,-0.3312237534551134,0.20141942317489014,0.0,0.0,0.0,0.0
1759501348.0601451,0,-0.8989715876635541,-0.9677670513561002,-0.33223567948780375,0.2015042343716741,0.0,0.0,0.0,0.0
1759501348.0705864,0,-0.8987743897770437,-0.9678394702262285,-0.3330257928047071,0.2012678551855345,0.0,0.0,0.0,0.0
1759501348.0811477,0,-0.8986909724996789,-0.9678715293724074,-0.33351144591390924,0.2016483111962835,0.0,0.0,0.0,0.0
1759501348.0920076,0,-0.8986379098282421,-0.9678924337158267,-0.3339215124016566,0.2015617045742546,0.0,0.0,0.0,0.0
1759501348.103298,0,-0.8985867215817616,-0.9679121113078349,-0.3342226048907459,0.20150276887487578,0.0,0.0,0.0,0.0
1759501348.114053,0,-0.8986063437698172,-0.9679066184286303,-0.3344004460830624,0.20162862199162676,0.0,0.0,0.0,0.0
1759501348.1247244,0,-0.8986201269862897,-0.9679028216579572,-0.33455956200700104,0.20153749910736454,0.0,0.0,0.0,0.0
1759501348.1357324,0,-0.8986010102469363,-0.9679101291390733,-0.33464460912172816,0.20172260629112498,0.0,0.0,0.0,0.0
1759501348.1466715,0,-0.8985988331708203,-0.9679114053951356,-0.334736636267846,0.20161768658849075,0.0,0.0,0.0,0.0
1759501348.157436,0,-0.8986107668029865,-0.967907589956979,-0.33477990582756123,0.20162125490910404,0.0,0.0,0.0,0.0
1759501348.1682448,0,-0.8986121120701166,-0.9679073305174176,-0.3347978542400998,0.2016814299007055,0.0,0.0,0.0,0.0
1759501348.1792254,0,-0.8986001810777529,-0.9679116576007323,-0.3348196148297267,0.20160993591165335,0.0,0.0,0.0,0.0
1759501348.1904733,0,-0.8985761697390426,-0.9679200636861435,-0.33480911284645837,0.2018153859838172,0.0,0.0,0.0,0.0
1759501348.2013264,0,-0.8985957391422184,-0.9679133172343605,-0.3348344879004757,0.2016938484946286,0.0,0.0,0.0,0.0
1759501348.215109,0,-0.8734287978425631,-0.9768233307472076,-0.3366490794073597,0.21022010144560863,0.0,0.0,0.0,0.0
1759501348.2258973,0,-0.8640717036932258,-0.9801311420160289,-0.3381398519170811,0.21005730979448448,0.0,0.0,0.0,0.0
1759501348.2369652,0,-0.8604778541566944,-0.9814050287879201,-0.33914270837371013,0.21036324476406207,0.0,0.0,0.0,0.0
1759501348.2475224,0,-0.8591448425952071,-0.9818802080061105,-0.3399543490043853,0.21019132440220228,0.0,0.0,0.0,0.0
1759501348.2578957,0,-0.8586502297037655,-0.9820581820989875,-0.34040447179432015,0.21067432299531688,0.0,0.0,0.0,0.0
1759501348.2687263,0,-0.8584273752424184,-0.9821397127459006,-0.34090595385012246,0.21012828906795686,0.0,0.0,0.0,0.0
1759501348.2797163,0,-0.8583305566310925,-0.9821758807836434,-0.34115556125221896,0.21031143360939233,0.0,0.0,0.0,0.0
1759501348.2901087,0,-0.8583389658853002,-0.9821741242315005,-0.3413181077083677,0.2105400489705333,0.0,0.0,0.0,0.0
1759501348.3010323,0,-0.8583022573604825,-0.9821881956696865,-0.3414940511491378,0.21035272261972107,0.0,0.0,0.0,0.0
1759501348.3110468,0,-0.8583570391349646,-0.9821693199071343,-0.34156582643462075,0.21042805344092927,0.0,0.0,0.0,0.0
1759501348.3218465,0,-0.8583187169092442,-0.9821834261058501,-0.34163237580712164,0.21041336143374845,0.0,0.0,0.0,0.0
1759501348.3328671,0,-0.8582874432630854,-0.9821949032173902,-0.34168244747429094,0.21038360851162544,0.0,0.0,0.0,0.0
1759501348.3439555,0,-0.8582704054065056,-0.982201170949912,-0.3417174323576157,0.21044840873347917,0.0,0.0,0.0,0.0
1759501348.3545396,0,-0.8583020474624028,-0.982190061554263,-0.34177311407546485,0.21026751702378038,0.0,0.0,0.0,0.0
1759501348.3656669,0,-0.8582730480901988,-0.9822003863675338,-0.3417222457120784,0.21049732717435976,0.0,0.0,0.0,0.0
1759501348.3758605,0,-0.8583325563730184,-0.9821792234147512,-0.34173939598911535,0.21028201772929142,0.0,0.0,0.0,0.0
1759501348.3862743,0,-0.8583385482181047,-0.9821769245130912,-0.34166378331582675,0.21065716001504975,0.0,0.0,0.0,0.0
1759501348.397324,0,-0.8582927966901877,-0.982193181379077,-0.34167030466969783,0.2105695507698214,0.0,0.0,0.0,0.0
1759501348.4074328,0,-0.8583464205951408,-0.9821740147128089,-0.34166443937210933,0.21053012089117235,0.0,0.0,0.0,0.0
1759501348.4187727,0,-0.8325118767932318,-0.9913858764917747,-0.34133189517365753,0.21771704398681227,0.0,0.0,0.0,0.0
