timestamp,vehicle_id,x,y,theta,velocity,gps_available,dt,gps_x,gps_y,gps_theta,gps_velocity,control_steering,control_acceleration
1759501342.4002743,0,-1.205,-0.83,-0.7801621756414647,0.0,False,0.01,nan,nan,nan,nan,0.0,0.0
1759501342.4107687,0,-1.205,-0.83,-0.7801621756414647,0.0,False,0.010494470596313477,nan,nan,nan,nan,0.0,0.0
1759501342.4213583,0,-1.205,-0.83,-0.7801621756414647,0.0,False,0.010589599609375,nan,nan,nan,nan,0.0,0.0
1759501342.4316907,0,-1.205,-0.83,-0.7801621756414647,0.0,False,0.010332345962524414,nan,nan,nan,nan,0.0,0.0
1759501342.4420328,0,-1.205,-0.83,-0.7801621756414647,0.0,False,0.010342121124267578,nan,nan,nan,nan,0.0,0.0
1759501342.45372,0,-1.205,-0.83,-0.7801621756414647,0.0,False,0.011687278747558594,nan,nan,nan,nan,0.0,0.0
1759501342.4645643,0,-1.205,-0.83,-0.7801621756414647,0.0,False,0.010844230651855469,nan,nan,nan,nan,0.0,0.0
1759501342.4761107,0,-1.205,-0.83,-0.7801621756414647,0.0,False,0.01154637336730957,nan,nan,nan,nan,0.0,0.0
1759501342.486238,0,-1.205,-0.83,-0.7801621756414647,0.0,False,0.01012730598449707,nan,nan,nan,nan,0.0,0.0
1759501342.497312,0,-1.205,-0.83,-0.7801621756414647,0.0,False,0.011074066162109375,nan,nan,nan,nan,0.0,0.0
1759501342.5084717,0,-1.205,-0.83,-0.7801621756414647,0.0,False,0.011159658432006836,nan,nan,nan,nan,0.0,0.0
1759501342.5189443,0,-1.205,-0.83,-0.7801621756414647,0.0,False,0.010472536087036133,nan,nan,nan,nan,0.0,0.0
1759501342.5289693,0,-1.205,-0.83,-0.7801621756414647,0.0,False,0.0100250244140625,nan,nan,nan,nan,0.0,0.0
1759501342.5390182,0,-1.205,-0.83,-0.7801621756414647,0.0,False,0.010048866271972656,nan,nan,nan,nan,0.0,0.0
1759501342.549088,0,-1.205,-0.83,-0.7801621756414647,0.0,False,0.010069847106933594,nan,nan,nan,nan,0.0,0.0
1759501342.560721,0,-1.205,-0.83,-0.7801621756414647,0.0,False,0.011632919311523438,nan,nan,nan,nan,0.0,0.0
1759501342.571813,0,-1.205,-0.83,-0.7801621756414647,0.0,False,0.011092185974121094,nan,nan,nan,nan,0.0,0.0
1759501342.583038,0,-1.205,-0.83,-0.7801621756414647,0.0,False,0.011224985122680664,nan,nan,nan,nan,0.0,0.0
1759501342.5937114,0,-1.2049998061259588,-0.8299996288021405,-0.7229999519678021,0.0,True,0.010673284530639648,-1.2049998044967651,-0.8299996256828308,-0.717703640460968,0.0,0.0,0.0
1759501342.6046464,0,-1.2049998050413424,-0.829999626725497,-0.7181173994027858,0.0,True,0.010935068130493164,-1.2049998044967651,-0.8299996256828308,-0.717703640460968,0.0,0.0,0.0
1759501342.6154199,0,-1.2049998047010528,-0.8299996260739668,-0.7176587833685542,0.0,True,0.010773420333862305,-1.2049998044967651,-0.8299996256828308,-0.717703640460968,0.0,0.0,0.0
1759501342.6267986,0,-1.2049998045745929,-0.8299996258318424,-0.717597024921842,0.0,True,0.011378765106201172,-1.2049998044967651,-0.8299996256828308,-0.717703640460968,0.0,0.0,0.0
1759501342.6380444,0,-1.2049998045264814,-0.8299996257397265,-0.7175907532860997,0.0,True,0.0112457275390625,-1.2049998044967651,-0.8299996256828308,-0.717703640460968,0.0,0.0,0.0
1759501342.6495097,0,-1.2049998045081152,-0.8299996257045619,-0.7175983831360835,0.0,True,0.011465311050415039,-1.2049998044967651,-0.8299996256828308,-0.717703640460968,0.0,0.0,0.0
1759501342.6596773,0,-1.2049998045011003,-0.8299996256911313,-0.7176123880678773,0.0,True,0.010167598724365234,-1.2049998044967651,-0.8299996256828308,-0.717703640460968,0.0,0.0,0.0
1759501342.6711583,0,-1.204999804498421,-0.8299996256860013,-0.7176227464387797,0.0,True,0.011481046676635742,-1.2049998044967651,-0.8299996256828308,-0.717703640460968,0.0,0.0,0.0
1759501342.6823654,0,-1.2049998044973975,-0.8299996256840418,-0.7176328789431796,0.0,True,0.011207103729248047,-1.2049998044967651,-0.8299996256828308,-0.717703640460968,0.0,0.0,0.0
1759501342.6930792,0,-1.2049998044970067,-0.8299996256832933,-0.7176421772187567,0.0,True,0.010713815689086914,-1.2049998044967651,-0.8299996256828308,-0.717703640460968,0.0,0.0,0.0
1759501342.7035253,0,-1.2049998044968575,-0.8299996256830074,-0.7176499667712655,0.0,True,0.01044607162475586,-1.2049998044967651,-0.8299996256828308,-0.717703640460968,0.0,0.0,0.0
1759501342.7140222,0,-1.2049998044968004,-0.8299996256828983,-0.7176561374738899,0.0,True,0.010496854782104492,-1.2049998044967651,-0.8299996256828308,-0.717703640460968,0.0,0.0,0.0
1759501342.725393,0,-1.2049998044967787,-0.8299996256828566,-0.7176604784303393,0.0,True,0.01137089729309082,-1.2049998044967651,-0.8299996256828308,-0.717703640460968,0.0,0.0,0.0
1759501342.7361453,0,-1.2049998044967702,-0.8299996256828407,-0.7176647984970259,0.0,True,0.010752201080322266,-1.2049998044967651,-0.8299996256828308,-0.717703640460968,0.0,0.0,0.0
1759501342.7468543,0,-1.2049998044967671,-0.8299996256828346,-0.717668496373328,0.0,True,0.010709047317504883,-1.2049998044967651,-0.8299996256828308,-0.717703640460968,0.0,0.0,0.0
1759501342.7578094,0,-1.2049998044967658,-0.8299996256828323,-0.7176714712714833,0.0,True,0.010955095291137695,-1.2049998044967651,-0.8299996256828308,-0.717703640460968,0.0,0.0,0.0
1759501342.7691255,0,-1.2049998044967654,-0.8299996256828314,-0.7176738624271835,0.0,True,0.011316061019897461,-1.2049998044967651,-0.8299996256828308,-0.717703640460968,0.0,0.0,0.0
1759501342.7794461,0,-1.2049998044967651,-0.829999625682831,-0.717676554688488,0.0,True,0.010320663452148438,-1.2049998044967651,-0.8299996256828308,-0.717703640460968,0.0,0.0,0.0
1759501342.7907786,0,-1.2049998044967651,-0.8299996256828309,-0.7176783212302631,0.0,True,0.011332511901855469,-1.2049998044967651,-0.8299996256828308,-0.717703640460968,0.0,0.0,0.0
1759501342.8006845,0,-1.2049998044967651,-0.8299996256828308,-0.7176805867178011,0.0,True,0.009905815124511719,-1.2049998044967651,-0.8299996256828308,-0.717703640460968,0.0,0.0,0.0
1759501342.8112369,0,-1.2049998044967651,-0.8299996256828308,-0.7176821850181767,0.0,True,0.010552406311035156,-1.2049998044967651,-0.8299996256828308,-0.717703640460968,0.0,0.0,0.0
1759501342.8212624,0,-1.2049998044967651,-0.8299996256828308,-0.7176837781582215,0.0,True,0.010025501251220703,-1.2049998044967651,-0.8299996256828308,-0.717703640460968,0.0,0.0,0.0
1759501342.8326766,0,-1.2049998044967651,-0.8299996256828308,-0.7176845966807779,0.0,True,0.011414289474487305,-1.2049998044967651,-0.8299996256828308,-0.717703640460968,0.0,0.0,0.0
1759501342.8428977,0,-1.2049998044967651,-0.8299996256828308,-0.7176858653539853,0.0,True,0.010221004486083984,-1.2049998044967651,-0.8299996256828308,-0.717703640460968,0.0,0.0,0.0
1759501342.8544078,0,-1.2049998044967651,-0.8299996256828308,-0.7176865478967471,0.0,True,0.011510133743286133,-1.2049998044967651,-0.8299996256828308,-0.717703640460968,0.0,0.0,0.0
1759501342.8660283,0,-1.2049998044967651,-0.8299996256828308,-0.7176872209942822,0.0,True,0.011620521545410156,-1.2049998044967651,-0.8299996256828308,-0.717703640460968,0.0,0.0,0.0
1759501342.8774257,0,-1.2049998044967651,-0.8299996256828308,-0.7176880076140204,0.0,True,0.011397361755371094,-1.2049998044967651,-0.8299996256828308,-0.717703640460968,0.0,0.0,0.0
1759501342.8889863,0,-1.2049998044967651,-0.8299996256828308,-0.7176887351186902,0.0,True,0.011560678482055664,-1.2049998044967651,-0.8299996256828308,-0.717703640460968,0.0,0.0,0.0
1759501342.8992834,0,-1.2049998044967651,-0.8299996256828308,-0.7176897957951951,0.0,True,0.010297060012817383,-1.2049998044967651,-0.8299996256828308,-0.717703640460968,0.0,0.0,0.0
1759501342.9094102,0,-1.2049998044967651,-0.8299996256828308,-0.717690749209245,0.0,True,0.010126829147338867,-1.2049998044967651,-0.8299996256828308,-0.717703640460968,0.0,0.0,0.0
1759501342.9194622,0,-1.2049998044967651,-0.8299996256828308,-0.7176915634698648,0.0,True,0.010051965713500977,-1.2049998044967651,-0.8299996256828308,-0.717703640460968,0.0,0.0,0.0
1759501342.9308279,0,-1.2049998044967651,-0.8299996256828308,-0.7176919307815233,0.0,True,0.011365652084350586,-1.2049998044967651,-0.8299996256828308,-0.717703640460968,0.0,0.0,0.0
1759501342.942491,0,-1.2049998044967651,-0.8299996256828308,-0.7176922456967922,0.0,True,0.011663198471069336,-1.2049998044967651,-0.8299996256828308,-0.717703640460968,0.0,0.0,0.0
1759501342.9538748,0,-1.2049998044967651,-0.8299996256828308,-0.7176926758118931,0.0,True,0.011383771896362305,-1.2049998044967651,-0.8299996256828308,-0.717703640460968,0.0,0.0,0.0
1759501342.9638946,0,-1.2049998044967651,-0.8299996256828308,-0.7176934055391087,0.0,True,0.010019779205322266,-1.2049998044967651,-0.8299996256828308,-0.717703640460968,0.0,0.0,0.0
1759501342.9754746,0,-1.2049998044967651,-0.8299996256828308,-0.7176937159579673,0.0,True,0.01157999038696289,-1.2049998044967651,-0.8299996256828308,-0.717703640460968,0.0,0.0,0.0
1759501342.986644,0,-1.2049998044967651,-0.8299996256828308,-0.7176941127354546,0.0,True,0.01116943359375,-1.2049998044967651,-0.8299996256828308,-0.717703640460968,0.0,0.0,0.0
1759501342.9975579,0,-1.2049998044967651,-0.8299996256828308,-0.7176945520472131,0.0,True,0.010913848876953125,-1.2049998044967651,-0.8299996256828308,-0.717703640460968,0.0,0.0,0.0
1759501343.0091057,0,-1.2049998044967651,-0.8299996256828308,-0.7176948488892059,0.0,True,0.01154780387878418,-1.2049998044967651,-0.8299996256828308,-0.717703640460968,0.0,0.0,0.0
1759501343.0206165,0,-1.2049998044967651,-0.8299996256828308,-0.7176951599359676,0.0,True,0.011510848999023438,-1.2049998044967651,-0.8299996256828308,-0.717703640460968,0.0,0.0,0.0
1759501343.0310981,0,-1.2049998044967651,-0.8299996256828308,-0.7176956444803047,0.0,True,0.010481595993041992,-1.2049998044967651,-0.8299996256828308,-0.717703640460968,0.0,0.0,0.0
1759501343.0424714,0,-1.2049998044967651,-0.8299996256828308,-0.7176959327536654,0.0,True,0.011373281478881836,-1.2049998044967651,-0.8299996256828308,-0.717703640460968,0.0,0.0,0.0
1759501343.0538049,0,-1.2049998044967651,-0.8299996256828308,-0.7176962163247893,0.0,True,0.011333465576171875,-1.2049998044967651,-0.8299996256828308,-0.717703640460968,0.0,0.0,0.0
1759501343.0653584,0,-1.2049998044967651,-0.8299996256828308,-0.7176964654674105,0.0,True,0.011553525924682617,-1.2049998044967651,-0.8299996256828308,-0.717703640460968,0.0,0.0,0.0
1759501343.0766172,0,-1.2049998044967651,-0.8299996256828308,-0.7176967599414272,0.0,True,0.011258840560913086,-1.2049998044967651,-0.8299996256828308,-0.717703640460968,0.0,0.0,0.0
1759501343.087023,0,-1.2049998044967651,-0.8299996256828308,-0.7176971554702458,0.0,True,0.010405778884887695,-1.2049998044967651,-0.8299996256828308,-0.717703640460968,0.0,0.0,0.0
1759501343.0971932,0,-1.2049998044967651,-0.8299996256828308,-0.7176975291963075,0.0,True,0.010170221328735352,-1.2049998044967651,-0.8299996256828308,-0.717703640460968,0.0,0.0,0.0
1759501343.1075885,0,-1.2049998044967651,-0.8299996256828308,-0.7176978173015236,0.0,True,0.010395288467407227,-1.2049998044967651,-0.8299996256828308,-0.717703640460968,0.0,0.0,0.0
1759501343.1187112,0,-1.2049998044967651,-0.8299996256828308,-0.7176979820737337,0.0,True,0.011122703552246094,-1.2049998044967651,-0.8299996256828308,-0.717703640460968,0.0,0.0,0.0
1759501343.1288867,0,-1.2049998044967651,-0.8299996256828308,-0.7176982581030273,0.0,True,0.010175466537475586,-1.2049998044967651,-0.8299996256828308,-0.717703640460968,0.0,0.0,0.0
1759501343.140146,0,-1.2049998044967651,-0.8299996256828308,-0.7176983859423434,0.0,True,0.011259317398071289,-1.2049998044967651,-0.8299996256828308,-0.717703640460968,0.0,0.0,0.0
1759501343.1505208,0,-1.2049998044967651,-0.8299996256828308,-0.7176986168215826,0.0,True,0.010374784469604492,-1.2049998044967651,-0.8299996256828308,-0.717703640460968,0.0,0.0,0.0
1759501343.1606069,0,-1.2049998044967651,-0.8299996256828308,-0.7176988606872037,0.0,True,0.0100860595703125,-1.2049998044967651,-0.8299996256828308,-0.717703640460968,0.0,0.0,0.0
1759501343.1720686,0,-1.2049998044967651,-0.8299996256828308,-0.7176989370150615,0.0,True,0.011461734771728516,-1.2049998044967651,-0.8299996256828308,-0.717703640460968,0.0,0.0,0.0
1759501343.1820781,0,-1.2049998044967651,-0.8299996256828308,-0.7176991709707199,0.0,True,0.010009527206420898,-1.2049998044967651,-0.8299996256828308,-0.717703640460968,0.0,0.0,0.0
1759501343.198371,0,-1.2049998044967651,-0.8299996256828308,-0.717698805761847,0.0,True,0.016292810440063477,-1.2049998044967651,-0.8299996256828308,-0.717703640460968,0.0,0.0,0.0
1759501343.2093394,0,-1.2049998044967651,-0.8299996256828308,-0.7176990702126123,0.0,True,0.010968446731567383,-1.2049998044967651,-0.8299996256828308,-0.717703640460968,0.0,0.0,0.0
1759501343.2198985,0,-1.2049998044967651,-0.8299996256828308,-0.7176993692043503,0.0,True,0.01055908203125,-1.2049998044967651,-0.8299996256828308,-0.717703640460968,0.0,0.0,0.0
1759501343.230477,0,-1.2049998044967651,-0.8299996256828308,-0.7176996178152066,0.0,True,0.010578632354736328,-1.2049998044967651,-0.8299996256828308,-0.717703640460968,0.0,0.0,0.0
1759501343.2409093,0,-1.2049998044967651,-0.8299996256828308,-0.7176998375199624,0.0,True,0.010432243347167969,-1.2049998044967651,-0.8299996256828308,-0.717703640460968,0.0,0.0,0.0
1759501343.251772,0,-1.2049998044967651,-0.8299996256828308,-0.7176999914358184,0.0,True,0.010862588882446289,-1.2049998044967651,-0.8299996256828308,-0.717703640460968,0.0,0.0,0.0
1759501343.2618473,0,-1.2049998044967651,-0.8299996256828308,-0.7177001881589398,0.0,True,0.01007533073425293,-1.2049998044967651,-0.8299996256828308,-0.717703640460968,0.0,0.0,0.0
1759501343.2721982,0,-1.2049998044967651,-0.8299996256828308,-0.717700338461249,0.0,True,0.010350942611694336,-1.2049998044967651,-0.8299996256828308,-0.717703640460968,0.0,0.0,0.0
1759501343.2828555,0,-1.2049998044967651,-0.8299996256828308,-0.7177004494825514,0.0,True,0.010657310485839844,-1.2049998044967651,-0.8299996256828308,-0.717703640460968,0.0,0.0,0.0
1759501343.2928936,0,-1.2049998044967651,-0.8299996256828308,-0.7177005958273899,0.0,True,0.010038137435913086,-1.2049998044967651,-0.8299996256828308,-0.717703640460968,0.0,0.0,0.0
1759501343.3031547,0,-1.2049998044967651,-0.8299996256828308,-0.7177007119808732,0.0,True,0.010261058807373047,-1.2049998044967651,-0.8299996256828308,-0.717703640460968,0.0,0.0,0.0
1759501343.3134508,0,-1.2049998044967651,-0.8299996256828308,-0.7177008151795619,0.0,True,0.010296106338500977,-1.2049998044967651,-0.8299996256828308,-0.717703640460968,0.0,0.0,0.0
1759501343.324686,0,-1.2049998044967651,-0.8299996256828308,-0.7177008549493653,0.0,True,0.011235237121582031,-1.2049998044967651,-0.8299996256828308,-0.717703640460968,0.0,0.0,0.0
1759501343.3363128,0,-1.2049998044967651,-0.8299996256828308,-0.7177008843967911,0.0,True,0.011626720428466797,-1.2049998044967651,-0.8299996256828308,-0.717703640460968,0.0,0.0,0.0
1759501343.346615,0,-1.2049998044967651,-0.8299996256828308,-0.7177010077015069,0.0,True,0.010302305221557617,-1.2049998044967651,-0.8299996256828308,-0.717703640460968,0.0,0.0,0.0
1759501343.3570206,0,-1.2049998044967651,-0.8299996256828308,-0.7177011171096694,0.0,True,0.010405540466308594,-1.2049998044967651,-0.8299996256828308,-0.717703640460968,0.0,0.0,0.0
1759501343.3678381,0,-1.2049998044967651,-0.8299996256828308,-0.7177011939809539,0.0,True,0.010817527770996094,-1.2049998044967651,-0.8299996256828308,-0.717703640460968,0.0,0.0,0.0
1759501343.3791492,0,-1.2049998044967651,-0.8299996256828308,-0.7177012442108932,0.0,True,0.011311054229736328,-1.2049998044967651,-0.8299996256828308,-0.717703640460968,0.0,0.0,0.0
1759501343.3892815,0,-1.2049998044967651,-0.8299996256828308,-0.7177013596775375,0.0,True,0.010132312774658203,-1.2049998044967651,-0.8299996256828308,-0.717703640460968,0.0,0.0,0.0
1759501343.3996673,0,-1.2049998044967651,-0.8299996256828308,-0.7177014519581224,0.0,True,0.010385751724243164,-1.2049998044967651,-0.8299996256828308,-0.717703640460968,0.0,0.0,0.0
1759501343.4099824,0,-1.2049998044967651,-0.8299996256828308,-0.7177015380636576,0.0,True,0.010315179824829102,-1.2049998044967651,-0.8299996256828308,-0.717703640460968,0.0,0.0,0.0
1759501343.4200284,0,-1.2049998044967651,-0.8299996256828308,-0.7177016285823576,0.0,True,0.010046005249023438,-1.2049998044967651,-0.8299996256828308,-0.717703640460968,0.0,0.0,0.0
1759501343.4310555,0,-1.2049998044967651,-0.8299996256828308,-0.7177016671940137,0.0,True,0.011027097702026367,-1.2049998044967651,-0.8299996256828308,-0.717703640460968,0.0,0.0,0.0
1759501343.4427512,0,-1.2049998044967651,-0.8299996256828308,-0.7177016828181912,0.0,True,0.011695623397827148,-1.2049998044967651,-0.8299996256828308,-0.717703640460968,0.0,0.0,0.0
1759501343.4541428,0,-1.2049998044967651,-0.8299996256828308,-0.717701725432061,0.0,True,0.011391639709472656,-1.2049998044967651,-0.8299996256828308,-0.717703640460968,0.0,0.0,0.0
1759501343.4641583,0,-1.2049998044967651,-0.8299996256828308,-0.7177018292792603,0.0,True,0.010015487670898438,-1.2049998044967651,-0.8299996256828308,-0.717703640460968,0.0,0.0,0.0
1759501343.4756804,0,-1.2049998044967651,-0.8299996256828308,-0.7177018648297722,0.0,True,0.011522054672241211,-1.2049998044967651,-0.8299996256828308,-0.717703640460968,0.0,0.0,0.0
1759501343.4857483,0,-1.2049998044967651,-0.8299996256828308,-0.717701956396942,0.0,True,0.010067939758300781,-1.2049998044967651,-0.8299996256828308,-0.717703640460968,0.0,0.0,0.0
1759501343.4972856,0,-1.2049998044967651,-0.8299996256828308,-0.7177019871125232,0.0,True,0.011537313461303711,-1.2049998044967651,-0.8299996256828308,-0.717703640460968,0.0,0.0,0.0
1759501343.5074675,0,-1.2049998044967651,-0.8299996256828308,-0.7177020676459236,0.0,True,0.010181903839111328,-1.2049998044967651,-0.8299996256828308,-0.717703640460968,0.0,0.0,0.0
1759501343.5186508,0,-1.2049998044967651,-0.8299996256828308,-0.7177021080935369,0.0,True,0.01118326187133789,-1.2049998044967651,-0.8299996256828308,-0.717703640460968,0.0,0.0,0.0
1759501343.528928,0,-1.2049998044967651,-0.8299996256828308,-0.7177021776193104,0.0,True,0.010277271270751953,-1.2049998044967651,-0.8299996256828308,-0.717703640460968,0.0,0.0,0.0
1759501343.539194,0,-1.2049998044967651,-0.8299996256828308,-0.7177022411479648,0.0,True,0.01026606559753418,-1.2049998044967651,-0.8299996256828308,-0.717703640460968,0.0,0.0,0.0
1759501343.5493166,0,-1.2049998044967651,-0.8299996256828308,-0.7177023017802373,0.0,True,0.010122537612915039,-1.2049998044967651,-0.8299996256828308,-0.717703640460968,0.0,0.0,0.0
1759501343.5594668,0,-1.2049998044967651,-0.8299996256828308,-0.717702354800771,0.0,True,0.01015019416809082,-1.2049998044967651,-0.8299996256828308,-0.717703640460968,0.0,0.0,0.0
1759501343.5700366,0,-1.2049998044967651,-0.8299996256828308,-0.7177023910091265,0.0,True,0.01056981086730957,-1.2049998044967651,-0.8299996256828308,-0.717703640460968,0.0,0.0,0.0
1759501343.5813096,0,-1.2049998044967651,-0.8299996256828308,-0.7177024080766312,0.0,True,0.011272907257080078,-1.2049998044967651,-0.8299996256828308,-0.717703640460968,0.0,0.0,0.0
1759501343.5952315,0,-1.2049998044967651,-0.8299996256828308,-0.7177023640236033,0.0,True,0.013921976089477539,-1.2049998044967651,-0.8299996256828308,-0.717703640460968,0.0,0.0,0.0
1759501343.6041763,0,-1.2049998044967651,-0.8299996256828308,-0.7177024689205744,0.0,True,0.00894474983215332,-1.2049998044967651,-0.8299996256828308,-0.717703640460968,0.0,0.0,0.0
1759501343.6153395,0,-1.2049998044967651,-0.8299996256828308,-0.7177025064568561,0.0,True,0.01116323471069336,-1.2049998044967651,-0.8299996256828308,-0.717703640460968,0.0,0.0,0.0
1759501343.626564,0,-1.2049998044967651,-0.8299996256828308,-0.717702538735475,0.0,True,0.011224508285522461,-1.2049998044967651,-0.8299996256828308,-0.717703640460968,0.0,0.0,0.0
1759501343.637874,0,-1.2049998044967651,-0.8299996256828308,-0.7177025701427482,0.0,True,0.01130986213684082,-1.2049998044967651,-0.8299996256828308,-0.717703640460968,0.0,0.0,0.0
1759501343.649016,0,-1.2049998044967651,-0.8299996256828308,-0.7177026064359922,0.0,True,0.01114201545715332,-1.2049998044967651,-0.8299996256828308,-0.717703640460968,0.0,0.0,0.0
1759501343.6604698,0,-1.2049998044967651,-0.8299996256828308,-0.7177026359238852,0.0,True,0.011453866958618164,-1.2049998044967651,-0.8299996256828308,-0.717703640460968,0.0,0.0,0.0
1759501343.6718633,0,-1.2049998044967651,-0.8299996256828308,-0.7177026676781537,0.0,True,0.011393547058105469,-1.2049998044967651,-0.8299996256828308,-0.717703640460968,0.0,0.0,0.0
1759501343.6833,0,-1.2049998044967651,-0.8299996256828308,-0.7177026991052369,0.0,True,0.011436700820922852,-1.2049998044967651,-0.8299996256828308,-0.717703640460968,0.0,0.0,0.0
1759501343.6942627,0,-1.2049998044967651,-0.8299996256828308,-0.7177027393517719,0.0,True,0.010962724685668945,-1.2049998044967651,-0.8299996256828308,-0.717703640460968,0.0,0.0,0.0
1759501343.7043052,0,-1.2049998044967651,-0.8299996256828308,-0.7177027929190185,0.0,True,0.010042428970336914,-1.2049998044967651,-0.8299996256828308,-0.717703640460968,0.0,0.0,0.0
1759501343.7155545,0,-1.2049998044967651,-0.8299996256828308,-0.7177028176180649,0.0,True,0.011249303817749023,-1.2049998044967651,-0.8299996256828308,-0.717703640460968,0.0,0.0,0.0
1759501343.7269886,0,-1.2049998044967651,-0.8299996256828308,-0.7177028383730484,0.0,True,0.011434078216552734,-1.2049998044967651,-0.8299996256828308,-0.717703640460968,0.0,0.0,0.0
1759501343.7378128,0,-1.2049998044967651,-0.8299996256828308,-0.7177028705221318,0.0,True,0.010824203491210938,-1.2049998044967651,-0.8299996256828308,-0.717703640460968,0.0,0.0,0.0
1759501343.748552,0,-1.2049998044967651,-0.8299996256828308,-0.7177029021847332,0.0,True,0.010739326477050781,-1.2049998044967651,-0.8299996256828308,-0.717703640460968,0.0,0.0,0.0
1759501343.7600873,0,-1.2049998044967651,-0.8299996256828308,-0.717702919330641,0.0,True,0.011535167694091797,-1.2049998044967651,-0.8299996256828308,-0.717703640460968,0.0,0.0,0.0
1759501343.770268,0,-1.2049998044967651,-0.8299996256828308,-0.7177029573173375,0.0,True,0.01018071174621582,-1.2049998044967651,-0.8299996256828308,-0.717703640460968,0.0,0.0,0.0
1759501343.7807257,0,-1.2049998044967651,-0.8299996256828308,-0.7177029871025304,0.0,True,0.010457754135131836,-1.2049998044967651,-0.8299996256828308,-0.717703640460968,0.0,0.0,0.0
1759501343.7921944,0,-1.2049998044967651,-0.8299996256828308,-0.717702999720693,0.0,True,0.011468648910522461,-1.2049998044967651,-0.8299996256828308,-0.717703640460968,0.0,0.0,0.0
1759501343.802424,0,-1.2049998044967651,-0.8299996256828308,-0.7177030301368212,0.0,True,0.01022958755493164,-1.2049998044967651,-0.8299996256828308,-0.717703640460968,0.0,0.0,0.0
1759501343.8138502,0,-1.2049998044967651,-0.8299996256828308,-0.7177030426962236,0.0,True,0.011426210403442383,-1.2049998044967651,-0.8299996256828308,-0.717703640460968,0.0,0.0,0.0
1759501343.8239844,0,-1.2049998044967651,-0.8299996256828308,-0.7177030721497353,0.0,True,0.010134220123291016,-1.2049998044967651,-0.8299996256828308,-0.717703640460968,0.0,0.0,0.0
1759501343.8351178,0,-1.2049998044967651,-0.8299996256828308,-0.7177030868537972,0.0,True,0.011133432388305664,-1.2049998044967651,-0.8299996256828308,-0.717703640460968,0.0,0.0,0.0
1759501343.8452444,0,-1.2049998044967651,-0.8299996256828308,-0.7177031131011429,0.0,True,0.010126590728759766,-1.2049998044967651,-0.8299996256828308,-0.717703640460968,0.0,0.0,0.0
1759501343.8559735,0,-1.2049998044967651,-0.8299996256828308,-0.7177031300101717,0.0,True,0.010729074478149414,-1.2049998044967651,-0.8299996256828308,-0.717703640460968,0.0,0.0,0.0
1759501343.866033,0,-1.2049998044967651,-0.8299996256828308,-0.7177031531452585,0.0,True,0.010059595108032227,-1.2049998044967651,-0.8299996256828308,-0.717703640460968,0.0,0.0,0.0
1759501343.8760896,0,-1.2049998044967651,-0.8299996256828308,-0.7177031738562238,0.0,True,0.010056495666503906,-1.2049998044967651,-0.8299996256828308,-0.717703640460968,0.0,0.0,0.0
1759501343.886404,0,-1.2049998044967651,-0.8299996256828308,-0.7177031895805719,0.0,True,0.010314464569091797,-1.2049998044967651,-0.8299996256828308,-0.717703640460968,0.0,0.0,0.0
1759501343.8975892,0,-1.2049998044967651,-0.8299996256828308,-0.7177031958115094,0.0,True,0.011185169219970703,-1.2049998044967651,-0.8299996256828308,-0.717703640460968,0.0,0.0,0.0
1759501343.9084427,0,-1.2049998044967651,-0.8299996256828308,-0.717703207080902,0.0,True,0.01085352897644043,-1.2049998044967651,-0.8299996256828308,-0.717703640460968,0.0,0.0,0.0
1759501343.9197524,0,-1.2049998044967651,-0.8299996256828308,-0.717703215235229,0.0,True,0.011309623718261719,-1.2049998044967651,-0.8299996256828308,-0.717703640460968,0.0,0.0,0.0
1759501343.9302936,0,-1.2049998044967651,-0.8299996256828308,-0.717703231707155,0.0,True,0.010541200637817383,-1.2049998044967651,-0.8299996256828308,-0.717703640460968,0.0,0.0,0.0
1759501343.9405599,0,-1.2049998044967651,-0.8299996256828308,-0.7177032497339475,0.0,True,0.010266304016113281,-1.2049998044967651,-0.8299996256828308,-0.717703640460968,0.0,0.0,0.0
1759501343.9505637,0,-1.2049998044967651,-0.8299996256828308,-0.7177032680055255,0.0,True,0.010003805160522461,-1.2049998044967651,-0.8299996256828308,-0.717703640460968,0.0,0.0,0.0
1759501343.9620779,0,-1.2049998044967651,-0.8299996256828308,-0.7177032720226002,0.0,True,0.01151418685913086,-1.2049998044967651,-0.8299996256828308,-0.717703640460968,0.0,0.0,0.0
1759501343.9732702,0,-1.2049998044967651,-0.8299996256828308,-0.717703280259073,0.0,True,0.01119232177734375,-1.2049998044967651,-0.8299996256828308,-0.717703640460968,0.0,0.0,0.0
1759501343.9846392,0,-1.2049998044967651,-0.8299996256828308,-0.7177032885416388,0.0,True,0.011368989944458008,-1.2049998044967651,-0.8299996256828308,-0.717703640460968,0.0,0.0,0.0
1759501343.9991074,0,-1.2049998044967651,-0.8299996256828308,-0.7177032762929834,0.0,True,0.014468193054199219,-1.2049998044967651,-0.8299996256828308,-0.717703640460968,0.0,0.0,0.0
1759501344.00918,0,-1.2049998044967651,-0.8299996256828308,-0.7177033013204515,0.0,True,0.010072708129882812,-1.2049998044967651,-0.8299996256828308,-0.717703640460968,0.0,0.0,0.0
1759501344.0207014,0,-1.2049998044967651,-0.8299996256828308,-0.7177033143846216,0.0,True,0.011521339416503906,-1.2049998044967651,-0.8299996256828308,-0.717703640460968,0.0,0.0,0.0
1759501344.0319757,0,-1.2049998044967651,-0.8299996256828308,-0.7177033277437417,0.0,True,0.011274337768554688,-1.2049998044967651,-0.8299996256828308,-0.717703640460968,0.0,0.0,0.0
1759501344.0434012,0,-1.2049998044967651,-0.8299996256828308,-0.7177033393086383,0.0,True,0.011425495147705078,-1.2049998044967651,-0.8299996256828308,-0.717703640460968,0.0,0.0,0.0
1759501344.0534027,0,-1.2049998044967651,-0.8299996256828308,-0.7177033586026784,0.0,True,0.010001420974731445,-1.2049998044967651,-0.8299996256828308,-0.717703640460968,0.0,0.0,0.0
1759501344.0638537,0,-1.2049998044967651,-0.8299996256828308,-0.717703372364733,0.0,True,0.010451078414916992,-1.2049998044967651,-0.8299996256828308,-0.717703640460968,0.0,0.0,0.0
1759501344.0749688,0,-1.2049998044967651,-0.8299996256828308,-0.7177033804482882,0.0,True,0.011115074157714844,-1.2049998044967651,-0.8299996256828308,-0.717703640460968,0.0,0.0,0.0
1759501344.0862715,0,-1.2049998044967651,-0.8299996256828308,-0.7177033873169272,0.0,True,0.011302709579467773,-1.2049998044967651,-0.8299996256828308,-0.717703640460968,0.0,0.0,0.0
1759501344.0973265,0,-1.2049998044967651,-0.8299996256828308,-0.7177033958231434,0.0,True,0.01105499267578125,-1.2049998044967651,-0.8299996256828308,-0.717703640460968,0.0,0.0,0.0
1759501344.108713,0,-1.2049998044967651,-0.8299996256828308,-0.7177034026059985,0.0,True,0.011386394500732422,-1.2049998044967651,-0.8299996256828308,-0.717703640460968,0.0,0.0,0.0
1759501344.1187932,0,-1.2049998044967651,-0.8299996256828308,-0.7177034158035163,0.0,True,0.010080337524414062,-1.2049998044967651,-0.8299996256828308,-0.717703640460968,0.0,0.0,0.0
1759501344.1296084,0,-1.2049998044967651,-0.8299996256828308,-0.7177034239408133,0.0,True,0.010815143585205078,-1.2049998044967651,-0.8299996256828308,-0.717703640460968,0.0,0.0,0.0
1759501344.1410553,0,-1.2049998044967651,-0.8299996256828308,-0.7177034285757387,0.0,True,0.011446952819824219,-1.2049998044967651,-0.8299996256828308,-0.717703640460968,0.0,0.0,0.0
1759501344.152417,0,-1.2049998044967651,-0.8299996256828308,-0.7177034341268502,0.0,True,0.01136159896850586,-1.2049998044967651,-0.8299996256828308,-0.717703640460968,0.0,0.0,0.0
1759501344.1628735,0,-1.2049998044967651,-0.8299996256828308,-0.7177034438425309,0.0,True,0.010456562042236328,-1.2049998044967651,-0.8299996256828308,-0.717703640460968,0.0,0.0,0.0
1759501344.1743214,0,-1.2049998044967651,-0.8299996256828308,-0.717703448691104,0.0,True,0.011447906494140625,-1.2049998044967651,-0.8299996256828308,-0.717703640460968,0.0,0.0,0.0
1759501344.1858447,0,-1.2049998044967651,-0.8299996256828308,-0.7177034534632458,0.0,True,0.011523246765136719,-1.2049998044967651,-0.8299996256828308,-0.717703640460968,0.0,0.0,0.0
1759501344.2012448,0,-1.2049998044967651,-0.8299996256828308,-0.7177034446388539,0.0,True,0.015400171279907227,-1.2049998044967651,-0.8299996256828308,-0.717703640460968,0.0,0.0,0.0
1759501344.2125738,0,-1.2049998044967651,-0.8299996256828308,-0.7177034549743535,0.0,True,0.011328935623168945,-1.2049998044967651,-0.8299996256828308,-0.717703640460968,0.0,0.0,0.0
1759501344.2233305,0,-1.2049998044967651,-0.8299996256828308,-0.7177034670098443,0.0,True,0.010756731033325195,-1.2049998044967651,-0.8299996256828308,-0.717703640460968,0.0,0.0,0.0
1759501344.234551,0,-1.2049998044967651,-0.8299996256828308,-0.717703475598265,0.0,True,0.011220455169677734,-1.2049998044967651,-0.8299996256828308,-0.717703640460968,0.0,0.0,0.0
1759501344.2446136,0,-1.2049998044967651,-0.8299996256828308,-0.717703486628718,0.0,True,0.010062694549560547,-1.2049998044967651,-0.8299996256828308,-0.717703640460968,0.0,0.0,0.0
1759501344.2548792,0,-1.2049998044967651,-0.8299996256828308,-0.7177034951518095,0.0,True,0.010265588760375977,-1.2049998044967651,-0.8299996256828308,-0.717703640460968,0.0,0.0,0.0
1759501344.266198,0,-1.2049998044967651,-0.8299996256828308,-0.7177034991263316,0.0,True,0.011318683624267578,-1.2049998044967651,-0.8299996256828308,-0.717703640460968,0.0,0.0,0.0
1759501344.27744,0,-1.2049998044967651,-0.8299996256828308,-0.7177035032539401,0.0,True,0.011242151260375977,-1.2049998044967651,-0.8299996256828308,-0.717703640460968,0.0,0.0,0.0
1759501344.2887068,0,-1.2049998044967651,-0.8299996256828308,-0.7177035074210991,0.0,True,0.011266708374023438,-1.2049998044967651,-0.8299996256828308,-0.717703640460968,0.0,0.0,0.0
1759501344.3002067,0,-1.2049998044967651,-0.8299996256828308,-0.7177035110282102,0.0,True,0.011499881744384766,-1.2049998044967651,-0.8299996256828308,-0.717703640460968,0.0,0.0,0.0
1759501344.3117108,0,-1.2049998044967651,-0.8299996256828308,-0.7177035148171012,0.0,True,0.011504173278808594,-1.2049998044967651,-0.8299996256828308,-0.717703640460968,0.0,0.0,0.0
1759501344.322931,0,-1.2049998044967651,-0.8299996256828308,-0.7177035194423684,0.0,True,0.011220216751098633,-1.2049998044967651,-0.8299996256828308,-0.717703640460968,0.0,0.0,0.0
1759501344.3344457,0,-1.2049998044967651,-0.8299996256828308,-0.7177035232103997,0.0,True,0.011514663696289062,-1.2049998044967651,-0.8299996256828308,-0.717703640460968,0.0,0.0,0.0
1759501344.345831,0,-1.2049998044967651,-0.8299996256828308,-0.7177035272782852,0.0,True,0.011385202407836914,-1.2049998044967651,-0.8299996256828308,-0.717703640460968,0.0,0.0,0.0
1759501344.3569083,0,-1.2049998044967651,-0.8299996256828308,-0.7177035319404546,0.0,True,0.011077404022216797,-1.2049998044967651,-0.8299996256828308,-0.717703640460968,0.0,0.0,0.0
1759501344.3678346,0,-1.2049998044967651,-0.8299996256828308,-0.7177035365911877,0.0,True,0.010926246643066406,-1.2049998044967651,-0.8299996256828308,-0.717703640460968,0.0,0.0,0.0
1759501344.379136,0,-1.2049998044967651,-0.8299996256828308,-0.7177035400484026,0.0,True,0.011301517486572266,-1.2049998044967651,-0.8299996256828308,-0.717703640460968,0.0,0.0,0.0
1759501344.3893473,0,-1.2049998044967651,-0.8299996256828308,-0.7177035455397309,0.0,True,0.01021122932434082,-1.2049998044967651,-0.8299996256828308,-0.717703640460968,0.0,0.0,0.0
1759501344.4031026,0,-1.2049998044967651,-0.8299996256828308,-0.7177035435585868,0.0,True,0.013755321502685547,-1.2049998044967651,-0.8299996256828308,-0.717703640460968,0.0,0.0,0.0
1759501344.4132698,0,-1.2049998044967651,-0.8299996256828308,-0.7177035495678226,0.0,True,0.010167121887207031,-1.2049998044967651,-0.8299996256828308,-0.717703640460968,0.0,0.0,0.0
1759501344.424184,0,-1.2049998044967651,-0.8299996256828308,-0.7177035536669489,0.0,True,0.010914325714111328,-1.2049998044967651,-0.8299996256828308,-0.717703640460968,0.0,0.0,0.0
1759501344.4347098,0,-1.2049998044967651,-0.8299996256828308,-0.7177035579015207,0.0,True,0.010525703430175781,-1.2049998044967651,-0.8299996256828308,-0.717703640460968,0.0,0.0,0.0
1759501344.4453015,0,-1.2049998044967651,-0.8299996256828308,-0.7177035614950906,0.0,True,0.010591745376586914,-1.2049998044967651,-0.8299996256828308,-0.717703640460968,0.0,0.0,0.0
1759501344.4554691,0,-1.2049998044967651,-0.8299996256828308,-0.7177035653615675,0.0,True,0.010167598724365234,-1.2049998044967651,-0.8299996256828308,-0.717703640460968,0.0,0.0,0.0
1759501344.4661443,0,-1.2049998044967651,-0.8299996256828308,-0.7177035679284209,0.0,True,0.010675191879272461,-1.2049998044967651,-0.8299996256828308,-0.717703640460968,0.0,0.0,0.0
1759501344.4774196,0,-1.2049998044967651,-0.8299996256828308,-0.7177035694023921,0.0,True,0.011275291442871094,-1.2049998044967651,-0.8299996256828308,-0.717703640460968,0.0,0.0,0.0
1759501344.4874327,0,-1.2049998044967651,-0.8299996256828308,-0.7177035729012555,0.0,True,0.010013103485107422,-1.2049998044967651,-0.8299996256828308,-0.717703640460968,0.0,0.0,0.0
1759501344.4987135,0,-1.2049998044967651,-0.8299996256828308,-0.7177035742392306,0.0,True,0.01128077507019043,-1.2049998044967651,-0.8299996256828308,-0.717703640460968,0.0,0.0,0.0
1759501344.5090444,0,-1.2049998044967651,-0.8299996256828308,-0.7177035769936921,0.0,True,0.010330915451049805,-1.2049998044967651,-0.8299996256828308,-0.717703640460968,0.0,0.0,0.0
1759501344.5204673,0,-1.2049998044967651,-0.8299996256828308,-0.7177035781144223,0.0,True,0.011422872543334961,-1.2049998044967651,-0.8299996256828308,-0.717703640460968,0.0,0.0,0.0
1759501344.5316355,0,-1.2049998044967651,-0.8299996256828308,-0.7177035797531826,0.0,True,0.011168241500854492,-1.2049998044967651,-0.8299996256828308,-0.717703640460968,0.0,0.0,0.0
1759501344.5429506,0,-1.2049998044967651,-0.8299996256828308,-0.717703581339995,0.0,True,0.011315107345581055,-1.2049998044967651,-0.8299996256828308,-0.717703640460968,0.0,0.0,0.0
1759501344.553055,0,-1.2049998044967651,-0.8299996256828308,-0.7177035844661663,0.0,True,0.01010441780090332,-1.2049998044967651,-0.8299996256828308,-0.717703640460968,0.0,0.0,0.0
1759501344.564121,0,-1.2049998044967651,-0.8299996256828308,-0.7177035861122789,0.0,True,0.011065959930419922,-1.2049998044967651,-0.8299996256828308,-0.717703640460968,0.0,0.0,0.0
1759501344.5755024,0,-1.2049998044967651,-0.8299996256828308,-0.7177035873531565,0.0,True,0.011381387710571289,-1.2049998044967651,-0.8299996256828308,-0.717703640460968,0.0,0.0,0.0
1759501344.5856013,0,-1.2049998044967651,-0.8299996256828308,-0.7177035900992408,0.0,True,0.010098934173583984,-1.2049998044967651,-0.8299996256828308,-0.717703640460968,0.0,0.0,0.0
1759501344.596014,0,-1.2049998044967651,-0.8299996256828308,-0.7177035922081494,0.0,True,0.01041269302368164,-1.2049998044967651,-0.8299996256828308,-0.717703640460968,0.0,0.0,0.0
1759501344.6066818,0,-1.2049998044967651,-0.8299996256828308,-0.7177035938175464,0.0,True,0.010667800903320312,-1.2049998044967651,-0.8299996256828308,-0.717703640460968,0.0,0.0,0.0
1759501344.616693,0,-1.2049998044967651,-0.8299996256828308,-0.7177035959790032,0.0,True,0.01001119613647461,-1.2049998044967651,-0.8299996256828308,-0.717703640460968,0.0,0.0,0.0
1759501344.6282794,0,-1.2049998044967651,-0.8299996256828308,-0.7177035964135925,0.0,True,0.011586427688598633,-1.2049998044967651,-0.8299996256828308,-0.717703640460968,0.0,0.0,0.0
1759501344.6386824,0,-1.2049998044967651,-0.8299996256828308,-0.717703598143796,0.0,True,0.010402917861938477,-1.2049998044967651,-0.8299996256828308,-0.717703640460968,0.0,0.0,0.0
1759501344.6503391,0,-1.2049998044967651,-0.8299996256828308,-0.7177035987035101,0.0,True,0.011656761169433594,-1.2049998044967651,-0.8299996256828308,-0.717703640460968,0.0,0.0,0.0
1759501344.6618452,0,-1.2049998044967651,-0.8299996256828308,-0.7177035995914576,0.0,True,0.011506080627441406,-1.2049998044967651,-0.8299996256828308,-0.717703640460968,0.0,0.0,0.0
1759501344.6737568,0,-1.2049998044967651,-0.8299996256828308,-0.7177036003230501,0.0,True,0.011911630630493164,-1.2049998044967651,-0.8299996256828308,-0.717703640460968,0.0,0.0,0.0
1759501344.6838493,0,-1.2049998044967651,-0.8299996256828308,-0.7177036026806132,0.0,True,0.010092496871948242,-1.2049998044967651,-0.8299996256828308,-0.717703640460968,0.0,0.0,0.0
1759501344.6939154,0,-1.2049998044967651,-0.8299996256828308,-0.7177036047633543,0.0,True,0.010066032409667969,-1.2049998044967651,-0.8299996256828308,-0.717703640460968,0.0,0.0,0.0
1759501344.7161202,0,-1.2049998044967651,-0.8299996256828308,-0.7177035978537525,0.0,True,0.022204875946044922,-1.2049998044967651,-0.8299996256828308,-0.717703640460968,0.0,0,0
1759501344.7268195,0,-1.2049998044967651,-0.8299996256828308,-0.7177036014186591,0.0,True,0.010699272155761719,-1.2049998044967651,-0.8299996256828308,-0.717703640460968,0.0,0,0
1759501344.7375317,0,-1.2049998044967651,-0.8299996256828308,-0.7177036048071113,0.0,True,0.010712146759033203,-1.2049998044967651,-0.8299996256828308,-0.717703640460968,0.0,0,0
1759501344.747646,0,-1.2049998044967651,-0.8299996256828308,-0.7177036078460901,0.0,True,0.010114431381225586,-1.2049998044967651,-0.8299996256828308,-0.717703640460968,0.0,0,0
1759501344.7581928,0,-1.2049998044967651,-0.8299996256828308,-0.7177036099562208,0.0,True,0.010546684265136719,-1.2049998044967651,-0.8299996256828308,-0.717703640460968,0.0,0,0
1759501344.769797,0,-1.2049998044967651,-0.8299996256828308,-0.7177036110296591,0.0,True,0.01160430908203125,-1.2049998044967651,-0.8299996256828308,-0.717703640460968,0.0,0,0
1759501344.7806416,0,-1.2049998044967651,-0.8299996256828308,-0.7177036124477212,0.0,True,0.01084446907043457,-1.2049998044967651,-0.8299996256828308,-0.717703640460968,0.0,0,0
1759501344.7910016,0,-1.2049998044967651,-0.8299996256828308,-0.7177036139811257,0.0,True,0.010360002517700195,-1.2049998044967651,-0.8299996256828308,-0.717703640460968,0.0,0,0
1759501344.8011801,0,-1.2049998044967651,-0.8299996256828308,-0.717703615385691,0.0,True,0.010178565979003906,-1.2049998044967651,-0.8299996256828308,-0.717703640460968,0.0,0,0
1759501344.8119378,0,-1.2049998044967651,-0.8299996256828308,-0.7177036162752373,0.0,True,0.010757684707641602,-1.2049998044967651,-0.8299996256828308,-0.717703640460968,0.0,0,0
1759501344.8230035,0,-1.2049998044967651,-0.8299996256828308,-0.7177036169346103,0.0,True,0.01106572151184082,-1.2049998044967651,-0.8299996256828308,-0.717703640460968,0.0,0,0
1759501344.8338869,0,-1.2049998044967651,-0.8299996256828308,-0.7177036176924325,0.0,True,0.010883331298828125,-1.2049998044967651,-0.8299996256828308,-0.717703640460968,0.0,0,0
1759501344.84415,0,-1.2049998044967651,-0.8299996256828308,-0.7177036187270609,0.0,True,0.010263204574584961,-1.2049998044967651,-0.8299996256828308,-0.717703640460968,0.0,0,0
1759501344.8542297,0,-1.2049998044967651,-0.8299996256828308,-0.7177036197359534,0.0,True,0.010079622268676758,-1.2049998044967651,-0.8299996256828308,-0.717703640460968,0.0,0,0
1759501344.8654552,0,-1.2049998044967651,-0.8299996256828308,-0.7177036201128484,0.0,True,0.011225461959838867,-1.2049998044967651,-0.8299996256828308,-0.717703640460968,0.0,0,0
1759501344.8761652,0,-1.2049998044967651,-0.8299996256828308,-0.7177036207542642,0.0,True,0.010710000991821289,-1.2049998044967651,-0.8299996256828308,-0.717703640460968,0.0,0,0
1759501344.8869553,0,-1.2049998044967651,-0.8299996256828308,-0.7177036213644499,0.0,True,0.010790109634399414,-1.2049998044967651,-0.8299996256828308,-0.717703640460968,0.0,0,0
1759501344.8973327,0,-1.2049998044967651,-0.8299996256828308,-0.7177036221282549,0.0,True,0.01037740707397461,-1.2049998044967651,-0.8299996256828308,-0.717703640460968,0.0,0,0
1759501344.908025,0,-1.2049998044967651,-0.8299996256828308,-0.7177036227110705,0.0,True,0.010692358016967773,-1.2049998044967651,-0.8299996256828308,-0.717703640460968,0.0,0,0
1759501344.918899,0,-1.2049998044967651,-0.8299996256828308,-0.717703623202798,0.0,True,0.010874032974243164,-1.2049998044967651,-0.8299996256828308,-0.717703640460968,0.0,0,0
1759501344.930262,0,-1.2049998044967651,-0.8299996256828308,-0.7177036235280791,0.0,True,0.011363029479980469,-1.2049998044967651,-0.8299996256828308,-0.717703640460968,0.0,0,0
1759501344.9406188,0,-1.2049998044967651,-0.8299996256828308,-0.7177036242616328,0.0,True,0.010356664657592773,-1.2049998044967651,-0.8299996256828308,-0.717703640460968,0.0,0,0
1759501344.9509256,0,-1.2049998044967651,-0.8299996256828308,-0.7177036249567941,0.0,True,0.010306835174560547,-1.2049998044967651,-0.8299996256828308,-0.717703640460968,0.0,0,0
1759501344.9615521,0,-1.2049998044967651,-0.8299996256828308,-0.7177036254724509,0.0,True,0.010626554489135742,-1.2049998044967651,-0.8299996256828308,-0.717703640460968,0.0,0,0
1759501344.971844,0,-1.2049998044967651,-0.8299996256828308,-0.7177036260639156,0.0,True,0.010291814804077148,-1.2049998044967651,-0.8299996256828308,-0.717703640460968,0.0,0,0
1759501344.982651,0,-1.2049998044967651,-0.8299996256828308,-0.7177036264507741,0.0,True,0.010807037353515625,-1.2049998044967651,-0.8299996256828308,-0.717703640460968,0.0,0,0
1759501344.9927242,0,-1.2049998044967651,-0.8299996256828308,-0.7177036270555739,0.0,True,0.010073184967041016,-1.2049998044967651,-0.8299996256828308,-0.717703640460968,0.0,0,0
1759501345.003029,0,-1.2049998044967651,-0.8299996256828308,-0.7177036275387252,0.0,True,0.010304927825927734,-1.2049998044967651,-0.8299996256828308,-0.717703640460968,0.0,0,0
1759501345.013376,0,-1.2049998044967651,-0.8299996256828308,-0.7177036279710123,0.0,True,0.01034688949584961,-1.2049998044967651,-0.8299996256828308,-0.717703640460968,0.0,0,0
1759501345.0240035,0,-1.2049998044967651,-0.8299996256828308,-0.7177036283051095,0.0,True,0.010627508163452148,-1.2049998044967651,-0.8299996256828308,-0.717703640460968,0.0,0,0
1759501345.0355756,0,-1.2049998044967651,-0.8299996256828308,-0.7177036284003293,0.0,True,0.011572122573852539,-1.2049998044967651,-0.8299996256828308,-0.717703640460968,0.0,0,0
1759501345.0462098,0,-1.2049998044967651,-0.8299996256828308,-0.7177036288109679,0.0,True,0.010634183883666992,-1.2049998044967651,-0.8299996256828308,-0.717703640460968,0.0,0,0
1759501345.0571363,0,-1.2049998044967651,-0.8299996256828308,-0.7177036291529024,0.0,True,0.010926485061645508,-1.2049998044967651,-0.8299996256828308,-0.717703640460968,0.0,0,0
1759501345.0674102,0,-1.2049998044967651,-0.8299996256828308,-0.7177036296478096,0.0,True,0.010273933410644531,-1.2049998044967651,-0.8299996256828308,-0.717703640460968,0.0,0,0
1759501345.0778513,0,-1.2049998044967651,-0.8299996256828308,-0.7177036300599156,0.0,True,0.010441064834594727,-1.2049998044967651,-0.8299996256828308,-0.717703640460968,0.0,0,0
1759501345.088875,0,-1.2049998044967651,-0.8299996256828308,-0.7177036303097637,0.0,True,0.011023759841918945,-1.2049998044967651,-0.8299996256828308,-0.717703640460968,0.0,0,0
1759501345.0992904,0,-1.2049998044967651,-0.8299996256828308,-0.7177036307013012,0.0,True,0.010415315628051758,-1.2049998044967651,-0.8299996256828308,-0.717703640460968,0.0,0,0
1759501345.109612,0,-1.2049998044967651,-0.8299996256828308,-0.7177036310896074,0.0,True,0.010321617126464844,-1.2049998044967651,-0.8299996256828308,-0.717703640460968,0.0,0,0
1759501345.1200836,0,-1.2049998044967651,-0.8299996256828308,-0.7177036314142207,0.0,True,0.010471582412719727,-1.2049998044967651,-0.8299996256828308,-0.717703640460968,0.0,0,0
1759501345.1304488,0,-1.2049998044967651,-0.8299996256828308,-0.7177036317394005,0.0,True,0.01036524772644043,-1.2049998044967651,-0.8299996256828308,-0.717703640460968,0.0,0,0
1759501345.1405404,0,-1.2049998044967651,-0.8299996256828308,-0.717703632095045,0.0,True,0.010091543197631836,-1.2049998044967651,-0.8299996256828308,-0.717703640460968,0.0,0,0
1759501345.1507292,0,-1.2049998044967651,-0.8299996256828308,-0.7177036323998642,0.0,True,0.010188817977905273,-1.2049998044967651,-0.8299996256828308,-0.717703640460968,0.0,0,0
1759501345.161173,0,-1.2049998044967651,-0.8299996256828308,-0.7177036326357644,0.0,True,0.010443925857543945,-1.2049998044967651,-0.8299996256828308,-0.717703640460968,0.0,0,0
1759501345.1726797,0,-1.2049998044967651,-0.8299996256828308,-0.717703632688675,0.0,True,0.01150655746459961,-1.2049998044967651,-0.8299996256828308,-0.717703640460968,0.0,0,0
1759501345.1838279,0,-1.2049998044967651,-0.8299996256828308,-0.7177036328534001,0.0,True,0.011148214340209961,-1.2049998044967651,-0.8299996256828308,-0.717703640460968,0.0,0,0
1759501345.1944528,0,-1.2049998044967651,-0.8299996256828308,-0.7177036331319009,0.0,True,0.010624885559082031,-1.2049998044967651,-0.8299996256828308,-0.717703640460968,0.0,0,0
1759501345.2064443,0,-1.2049998044967651,-0.8299996256828308,-0.7177036331956774,0.0,True,0.011991500854492188,-1.2049998044967651,-0.8299996256828308,-0.717703640460968,0.0,0,0
1759501345.2170942,0,-1.2049998044967651,-0.8299996256828308,-0.717703633502321,0.0,True,0.010649919509887695,-1.2049998044967651,-0.8299996256828308,-0.717703640460968,0.0,0,0
1759501345.2275078,0,-1.2049998044967651,-0.8299996256828308,-0.717703633828167,0.0,True,0.010413646697998047,-1.2049998044967651,-0.8299996256828308,-0.717703640460968,0.0,0,0
1759501345.2375112,0,-1.2049998044967651,-0.8299996256828308,-0.7177036341724339,0.0,True,0.010003328323364258,-1.2049998044967651,-0.8299996256828308,-0.717703640460968,0.0,0,0
1759501345.2478912,0,-1.2049998044967651,-0.8299996256828308,-0.7177036344182426,0.0,True,0.010380029678344727,-1.2049998044967651,-0.8299996256828308,-0.717703640460968,0.0,0,0
1759501345.258675,0,-1.2049998044967651,-0.8299996256828308,-0.7177036345870995,0.0,True,0.010783910751342773,-1.2049998044967651,-0.8299996256828308,-0.717703640460968,0.0,0,0
1759501345.2691233,0,-1.2049998044967651,-0.8299996256828308,-0.7177036347972745,0.0,True,0.010448217391967773,-1.2049998044967651,-0.8299996256828308,-0.717703640460968,0.0,0,0
1759501345.2804337,0,-1.2049998044967651,-0.8299996256828308,-0.717703634895237,0.0,True,0.011310338973999023,-1.2049998044967651,-0.8299996256828308,-0.717703640460968,0.0,0,0
1759501345.2907486,0,-1.2049998044967651,-0.8299996256828308,-0.7177036351274921,0.0,True,0.01031494140625,-1.2049998044967651,-0.8299996256828308,-0.717703640460968,0.0,0,0
1759501345.3011162,0,-1.2049998044967651,-0.8299996256828308,-0.7177036353390207,0.0,True,0.010367631912231445,-1.2049998044967651,-0.8299996256828308,-0.717703640460968,0.0,0,0
1759501345.3114583,0,-1.2049998044967651,-0.8299996256828308,-0.7177036355342494,0.0,True,0.010342121124267578,-1.2049998044967651,-0.8299996256828308,-0.717703640460968,0.0,0,0
1759501345.3216581,0,-1.2049998044967651,-0.8299996256828308,-0.7177036357285012,0.0,True,0.010199785232543945,-1.2049998044967651,-0.8299996256828308,-0.717703640460968,0.0,0,0
1759501345.332821,0,-1.2049998044967651,-0.8299996256828308,-0.7177036358085331,0.0,True,0.011162757873535156,-1.2049998044967651,-0.8299996256828308,-0.717703640460968,0.0,0,0
1759501345.343194,0,-1.2049998044967651,-0.8299996256828308,-0.7177036359807119,0.0,True,0.010373115539550781,-1.2049998044967651,-0.8299996256828308,-0.717703640460968,0.0,0,0
1759501345.3535533,0,-1.2049998044967651,-0.8299996256828308,-0.7177036361477356,0.0,True,0.01035928726196289,-1.2049998044967651,-0.8299996256828308,-0.717703640460968,0.0,0,0
1759501345.3638413,0,-1.2049998044967651,-0.8299996256828308,-0.7177036363092597,0.0,True,0.010288000106811523,-1.2049998044967651,-0.8299996256828308,-0.717703640460968,0.0,0,0
1759501345.3741663,0,-1.2049998044967651,-0.8299996256828308,-0.7177036364553508,0.0,True,0.010324954986572266,-1.2049998044967651,-0.8299996256828308,-0.717703640460968,0.0,0,0
1759501345.3844311,0,-1.2049998044967651,-0.8299996256828308,-0.7177036365973546,0.0,True,0.010264873504638672,-1.2049998044967651,-0.8299996256828308,-0.717703640460968,0.0,0,0
1759501345.3949876,0,-1.2049998044967651,-0.8299996256828308,-0.7177036367063128,0.0,True,0.010556459426879883,-1.2049998044967651,-0.8299996256828308,-0.717703640460968,0.0,0,0
1759501345.4056847,0,-1.2049998044967651,-0.8299996256828308,-0.7177036368037228,0.0,True,0.010697126388549805,-1.2049998044967651,-0.8299996256828308,-0.717703640460968,0.0,0,0
1759501345.4158146,0,-1.2049998044967651,-0.8299996256828308,-0.7177036369492633,0.0,True,0.010129928588867188,-1.2049998044967651,-0.8299996256828308,-0.717703640460968,0.0,0,0
1759501345.4262023,0,-1.2049998044967651,-0.8299996256828308,-0.7177036370649326,0.0,True,0.010387659072875977,-1.2049998044967651,-0.8299996256828308,-0.717703640460968,0.0,0,0
1759501345.4366066,0,-1.2049998044967651,-0.8299996256828308,-0.7177036371733898,0.0,True,0.010404348373413086,-1.2049998044967651,-0.8299996256828308,-0.717703640460968,0.0,0,0
1759501345.4471974,0,-1.2049998044967651,-0.8299996256828308,-0.717703637265295,0.0,True,0.010590791702270508,-1.2049998044967651,-0.8299996256828308,-0.717703640460968,0.0,0,0
1759501345.4573004,0,-1.2049998044967651,-0.8299996256828308,-0.7177036373912831,0.0,True,0.010102987289428711,-1.2049998044967651,-0.8299996256828308,-0.717703640460968,0.0,0,0
1759501345.467949,0,-1.2049998044967651,-0.8299996256828308,-0.7177036374719883,0.0,True,0.010648488998413086,-1.2049998044967651,-0.8299996256828308,-0.717703640460968,0.0,0,0
1759501345.4788616,0,-1.2049998044967651,-0.8299996256828308,-0.7177036375368466,0.0,True,0.010912656784057617,-1.2049998044967651,-0.8299996256828308,-0.717703640460968,0.0,0,0
1759501345.489302,0,-1.2049998044967651,-0.8299996256828308,-0.7177036376385075,0.0,True,0.010440349578857422,-1.2049998044967651,-0.8299996256828308,-0.717703640460968,0.0,0,0
1759501345.4995484,0,-1.2049998044967651,-0.8299996256828308,-0.7177036377488548,0.0,True,0.010246515274047852,-1.2049998044967651,-0.8299996256828308,-0.717703640460968,0.0,0,0
1759501345.5105636,0,-1.2049998044967651,-0.8299996256828308,-0.7177036378063022,0.0,True,0.011015176773071289,-1.2049998044967651,-0.8299996256828308,-0.717703640460968,0.0,0,0
1759501345.521605,0,-1.2049998044967651,-0.8299996256828308,-0.7177036378679986,0.0,True,0.011041402816772461,-1.2049998044967651,-0.8299996256828308,-0.717703640460968,0.0,0,0
1759501345.5321128,0,-1.2049998044967651,-0.8299996256828308,-0.7177036379654425,0.0,True,0.010507822036743164,-1.2049998044967651,-0.8299996256828308,-0.717703640460968,0.0,0,0
1759501345.5425339,0,-1.2049998044967651,-0.8299996256828308,-0.7177036380630035,0.0,True,0.010421037673950195,-1.2049998044967651,-0.8299996256828308,-0.717703640460968,0.0,0,0
1759501345.5528498,0,-1.2049998044967651,-0.8299996256828308,-0.7177036381582376,0.0,True,0.010315895080566406,-1.2049998044967651,-0.8299996256828308,-0.717703640460968,0.0,0,0
1759501345.564128,0,-1.2049998044967651,-0.8299996256828308,-0.7177036381986461,0.0,True,0.011278152465820312,-1.2049998044967651,-0.8299996256828308,-0.717703640460968,0.0,0,0
1759501345.5744097,0,-1.2049998044967651,-0.8299996256828308,-0.7177036382932211,0.0,True,0.010281801223754883,-1.2049998044967651,-0.8299996256828308,-0.717703640460968,0.0,0,0
1759501345.5846446,0,-1.2049998044967651,-0.8299996256828308,-0.717703638383842,0.0,True,0.010234832763671875,-1.2049998044967651,-0.8299996256828308,-0.717703640460968,0.0,0,0
1759501345.5957384,0,-1.2049998044967651,-0.8299996256828308,-0.7177036384277073,0.0,True,0.011093854904174805,-1.2049998044967651,-0.8299996256828308,-0.717703640460968,0.0,0,0
1759501345.6059382,0,-1.2049998044967651,-0.8299996256828308,-0.7177036385135764,0.0,True,0.010199785232543945,-1.2049998044967651,-0.8299996256828308,-0.717703640460968,0.0,0,0
1759501345.6163263,0,-1.2049998044967651,-0.8299996256828308,-0.7177036385854141,0.0,True,0.01038813591003418,-1.2049998044967651,-0.8299996256828308,-0.717703640460968,0.0,0,0
1759501345.627346,0,-1.2049998044967651,-0.8299996256828308,-0.7177036386267268,0.0,True,0.011019706726074219,-1.2049998044967651,-0.8299996256828308,-0.717703640460968,0.0,0,0
1759501345.6375127,0,-1.2049998044967651,-0.8299996256828308,-0.7177036387044176,0.0,True,0.010166645050048828,-1.2049998044967651,-0.8299996256828308,-0.717703640460968,0.0,0,0
1759501345.648495,0,-1.2049998044967651,-0.8299996256828308,-0.7177036387459843,0.0,True,0.010982275009155273,-1.2049998044967651,-0.8299996256828308,-0.717703640460968,0.0,0,0
1759501345.658848,0,-1.2049998044967651,-0.8299996256828308,-0.7177036388121607,0.0,True,0.01035308837890625,-1.2049998044967651,-0.8299996256828308,-0.717703640460968,0.0,0,0
1759501345.669184,0,-1.2049998044967651,-0.8299996256828308,-0.7177036388752143,0.0,True,0.010335922241210938,-1.2049998044967651,-0.8299996256828308,-0.717703640460968,0.0,0,0
1759501345.6801198,0,-1.2049998044967651,-0.8299996256828308,-0.7177036389132248,0.0,True,0.010935783386230469,-1.2049998044967651,-0.8299996256828308,-0.717703640460968,0.0,0,0
1759501345.6902544,0,-1.2049998044967651,-0.8299996256828308,-0.7177036389792448,0.0,True,0.010134696960449219,-1.2049998044967651,-0.8299996256828308,-0.717703640460968,0.0,0,0
1759501345.7004158,0,-1.2049998044967651,-0.8299996256828308,-0.7177036390390814,0.0,True,0.010161399841308594,-1.2049998044967651,-0.8299996256828308,-0.717703640460968,0.0,0,0
1759501345.7112088,0,-1.2049998044967651,-0.8299996256828308,-0.7177036390738163,0.0,True,0.010792970657348633,-1.2049998044967651,-0.8299996256828308,-0.717703640460968,0.0,0.5235987755982988,0.028874802390733346
1759501345.7222195,0,-1.2049998044967651,-0.8299996256828308,-0.7177036391034477,0.0,True,0.01101064682006836,-1.2049998044967651,-0.8299996256828308,-0.717703640460968,0.0,0.5235987755982988,0.03122288376002736
1759501345.732622,0,-1.2049998044967651,-0.8299996256828308,-0.7177036391543332,0.0,True,0.010402441024780273,-1.2049998044967651,-0.8299996256828308,-0.717703640460968,0.0,0.5235987755982988,0.03321528085638051
1759501345.7429109,0,-1.2049998044967651,-0.8299996256828308,-0.7177036392060359,0.0,True,0.01028895378112793,-1.2049998044967651,-0.8299996256828308,-0.717703640460968,0.0,0.5235987755982988,0.031948329385375604
1759501345.7531803,0,-1.2049998044967651,-0.8299996256828308,-0.7177036392539193,0.0,True,0.010269403457641602,-1.2049998044967651,-0.8299996256828308,-0.717703640460968,0.0,0.5235987755982988,0.029359352908201197
1759501345.7644782,0,-1.2049998044967651,-0.8299996256828308,-0.7177036392715159,0.0,True,0.011297941207885742,-1.2049998044967651,-0.8299996256828308,-0.717703640460968,0.0,0.5235987755982988,0.03330672249704714
1759501345.7750099,0,-1.2049998044967651,-0.8299996256828308,-0.7177036393130756,0.0,True,0.01053166389465332,-1.2049998044967651,-0.8299996256828308,-0.717703640460968,0.0,0.5235987755982988,0.03370836591004108
1759501345.786113,0,-1.2049998044967651,-0.8299996256828308,-0.717703639340403,0.0,True,0.011103153228759766,-1.2049998044967651,-0.8299996256828308,-0.717703640460968,0.0,0.5235987755982988,0.03187194988608421
1759501345.7974913,0,-1.2049998044967651,-0.8299996256828308,-0.7177036393634939,0.0,True,0.011378288269042969,-1.2049998044967651,-0.8299996256828308,-0.717703640460968,0.0,0.5235987755982988,0.030728288312930504
1759501345.811622,0,-1.2037253274971864,-0.8311100558032164,-0.7170429006787522,0.012856829117969213,True,0.014130592346191406,-1.2030222415924072,-0.8317224979400635,-0.7154491543769836,0.012856829117969213,0.5235987755982988,0.02944386056415808
1759501345.822537,0,-1.2032503933400858,-0.8315237908147332,-0.7165520962468506,0.012856829117969213,True,0.010915040969848633,-1.2030222415924072,-0.8317224979400635,-0.7154491543769836,0.012856829117969213,0.5235987755982988,0.029108147223208713
1759501345.832702,0,-1.2030717452822297,-0.8316793847949745,-0.7161938781783981,0.012856829117969213,True,0.010164976119995117,-1.2030222415924072,-0.8317224979400635,-0.7154491543769836,0.012856829117969213,0.5235987755982988,0.030244741428706524
1759501345.843369,0,-1.203001636419088,-0.8317404221506496,-0.7159301472254782,0.012856829117969213,True,0.010667085647583008,-1.2030222415924072,-0.8317224979400635,-0.7154491543769836,0.012856829117969213,0.5235987755982988,0.030637377573051502
1759501345.8547919,0,-1.202972048164582,-0.8317661622871285,-0.7157351578350202,0.012856829117969213,True,0.011422872543334961,-1.2030222415924072,-0.8317224979400635,-0.7154491543769836,0.012856829117969213,0.5235987755982988,0.028256426456275796
1759501345.86596,0,-1.20296168390871,-0.8317751647608511,-0.7155975000253942,0.012856829117969213,True,0.01116800308227539,-1.2030222415924072,-0.8317224979400635,-0.7154491543769836,0.012856829117969213,0.5235987755982988,0.027786273766257773
1759501345.8762295,0,-1.2029610496700665,-0.8317757032606795,-0.7155045228129815,0.012856829117969213,True,0.010269641876220703,-1.2030222415924072,-0.8317224979400635,-0.7154491543769836,0.012856829117969213,0.5235987755982988,0.030887005170606482
1759501345.886465,0,-1.2029609307702513,-0.831775795649623,-0.7154368461921408,0.012856829117969213,True,0.01023554801940918,-1.2030222415924072,-0.8317224979400635,-0.7154491543769836,0.012856829117969213,0.5235987755982988,0.0291074744074856
1759501345.898182,0,-1.2029553926551086,-0.8317806004104049,-0.7153785570333664,0.012856829117969213,True,0.011716842651367188,-1.2030222415924072,-0.8317224979400635,-0.7154491543769836,0.012856829117969213,0.5235987755982988,0.027573289280766723
1759501345.9096549,0,-1.2029541792359952,-0.8317816475344864,-0.7153418346984459,0.012856829117969213,True,0.011472940444946289,-1.2030222415924072,-0.8317224979400635,-0.7154491543769836,0.012856829117969213,0.5235987755982988,0.028484564162528068
1759501345.9198496,0,-1.2029584524098795,-0.8317779288340038,-0.7153249079923683,0.012856829117969213,True,0.010194778442382812,-1.2030222415924072,-0.8317224979400635,-0.7154491543769836,0.012856829117969213,0.5235987755982988,0.028311388987878123
1759501345.9308236,0,-1.2029571958075094,-0.8317790174938214,-0.715306419808293,0.012856829117969213,True,0.010973930358886719,-1.2030222415924072,-0.8317224979400635,-0.7154491543769836,0.012856829117969213,0.5235987755982988,0.026765188179245135
1759501345.9415658,0,-1.202957574266301,-0.8317786861540968,-0.7152969367749087,0.012856829117969213,True,0.0107421875,-1.2030222415924072,-0.8317224979400635,-0.7154491543769836,0.012856829117969213,0.5235987755982988,0.027971610942672268
1759501345.951648,0,-1.2029601649248787,-0.8317764335678278,-0.715295147868396,0.012856829117969213,True,0.010082244873046875,-1.2030222415924072,-0.8317224979400635,-0.7154491543769836,0.012856829117969213,0.5235987755982988,0.030018859949783372
1759501345.962254,0,-1.2029592126492068,-0.8317772602493962,-0.7152903849719738,0.012856829117969213,True,0.010606050491333008,-1.2030222415924072,-0.8317224979400635,-0.7154491543769836,0.012856829117969213,0.5235987755982988,0.028406882844501463
1759501345.9727135,0,-1.20295939231378,-0.8317771035589209,-0.7152897639922795,0.012856829117969213,True,0.010459423065185547,-1.2030222415924072,-0.8317224979400635,-0.7154491543769836,0.012856829117969213,0.5235987755982988,0.026822809761983455
1759501345.983128,0,-1.2029596270806484,-0.8317768993156684,-0.715290461785079,0.012856829117969213,True,0.010414600372314453,-1.2030222415924072,-0.8317224979400635,-0.7154491543769836,0.012856829117969213,0.5235987755982988,0.02735206896244411
