timestamp,observer_vehicle_id,vehicle_0_x,vehicle_0_y,vehicle_0_theta,vehicle_0_velocity,vehicle_1_x,vehicle_1_y,vehicle_1_theta,vehicle_1_velocity,vehicle_2_x,vehicle_2_y,vehicle_2_theta,vehicle_2_velocity,vehicle_3_x,vehicle_3_y,vehicle_3_theta,vehicle_3_velocity
1759830037.9334307,2,0.0,0.0,0.0,0.0,0.0,0.0,0.0,0.0,16.0,6.0,-0.05483113549895436,0.0,0.0,0.0,0.0,0.0
1759830037.9449022,2,0.0,0.0,0.0,0.0,0.0,0.0,0.0,0.0,16.0,6.0,-0.05483113549895436,0.0,0.0,0.0,0.0,0.0
1759830037.9557776,2,0.0,0.0,0.0,0.0,1.9738991229413616,1.4804239304186242,0.7751480668034959,0.0,16.0,6.0,-0.05483113549895436,0.0,0.0,0.0,0.0,0.0
1759830037.9662266,2,0.0,0.0,0.0,0.0,3.4418736858509322,2.58140454635748,1.351620101939946,0.0,16.0,6.0,-0.05483113549895436,0.0,0.0,0.0,0.0,0.0
1759830037.9767342,2,0.0,1.444657285006315,0.7564209978202826,0.0,4.537877238338425,3.403406982078969,1.78201952055587,0.0,16.0,6.0,-0.05483113549895436,0.0,0.0,0.0,0.0,0.0
1759830037.9873142,2,0.0,2.527016531556404,1.3231431330787142,0.0,5.359357445603524,4.019516966153688,2.1046139161752415,0.0,16.0,6.0,-0.05483113549895436,0.0,0.0,0.0,0.0,0.0
1759830037.9977014,2,0.0,3.3413823567812053,1.74954420169243,0.0,5.97769114351904,4.48326711059588,2.3474328956296984,0.0,16.0,6.0,-0.05483113549895436,0.0,0.0,0.0,0.0,0.0
1759830038.0079236,2,0.0,3.9566375915204417,2.071691179668297,0.0,6.445033944414,4.833774113771805,2.53095791189722,0.0,16.0,6.0,-0.05483113549895436,0.0,0.0,0.0,0.0,0.0
1759830038.0183809,2,0.0,4.423100366133728,2.315930585845144,0.0,6.799498611006301,5.099622539768949,2.670155805987034,0.0,16.0,6.0,-0.05483113549895436,0.0,0.0,0.0,0.0,0.0
1759830038.0298038,2,0.0,4.777674124950024,2.50158502391039,0.0,7.069046836110186,5.301783652364726,2.776007104653322,0.0,16.0,6.0,-0.05483113549895436,0.0,0.0,0.0,0.0,0.0
1759830038.0402606,2,0.0,5.04868555948389,2.643486319019228,0.0,7.275153084858052,5.456363295928517,2.8569448073029697,0.0,16.0,6.0,-0.05483113549895436,0.0,0.0,0.0,0.0,0.0
1759830038.0509443,2,0.0,5.272401065843158,2.7606235170969073,0.0,7.433305724853812,5.57497774293213,2.9190511792688816,0.0,16.0,6.0,-0.05483113549895436,0.0,0.0,0.0,0.0,0.0
1759830038.0619571,2,0.0,5.4411025559990795,2.8489554355677664,0.0,7.56540494136372,5.674052127756519,2.970926399797541,0.0,16.0,6.0,-0.05483113549895436,0.0,0.0,0.0,0.0,0.0
1759830038.0725322,2,0.0,5.568915545210109,2.9158781790009796,0.0,7.665332470907025,5.748997754067491,3.0101678333873783,0.0,16.0,6.0,-0.05483113549895436,0.0,0.0,0.0,0.0,0.0
1759830038.0826218,2,0.0,5.666194261712647,2.9668132101445113,0.0,7.7412704589655865,5.805951229269516,3.039988599786437,0.0,16.0,6.0,-0.05483113549895436,0.0,0.0,0.0,0.0,0.0
1759830038.0941572,2,0.0,5.740365684421298,3.005649287155525,0.0,7.799082361281466,5.8493101439459245,3.062691271770814,0.0,16.0,6.0,-0.05483113549895436,0.0,0.0,0.0,0.0,0.0
1759830038.1045632,2,0.0,5.797245582051299,3.035431540266866,0.0,7.843349284114387,5.882510326835817,3.0800748448513606,0.0,16.0,6.0,-0.05483113549895436,0.0,0.0,0.0,0.0,0.0
1759830038.1157846,2,0.0,5.840981698360214,3.0583317236408276,0.0,7.877335844123385,5.908000239752417,3.093421330485854,0.0,16.0,6.0,-0.05483113549895436,0.0,0.0,0.0,0.0,0.0
1759830038.1327686,2,0.0,5.876957469837227,3.0771685988225266,0.0,7.903323804509308,5.92749120462035,3.103626774634031,0.0,16.000034046173095,5.999996217091878,-2.8798349506099328,0.0,0.0,0.0,0.0,0.0
1759830038.1432922,2,0.0,5.904405588618042,3.0915404042409884,0.0,7.923500711741181,5.942623880835025,3.1115502244461744,0.0,16.00003423664231,5.999996195928632,-3.1211049235776187,0.0,0.0,0.0,0.0,0.0
1759830038.153726,2,0.0,5.925431244878444,3.1025494152039244,0.0,7.940411836213423,5.95530722066127,3.118191204874089,0.0,16.000034296400493,5.999996189288834,3.1393844070507058,0.0,0.0,0.0,0.0,0.0
1759830038.1651275,2,0.0,5.94157717476487,3.11100340669532,0.0,7.953380771637071,5.965033919523476,3.1232840918941513,0.0,16.000034318608083,5.999996186821324,3.1362009897758245,0.0,0.0,0.0,0.0,0.0
1759830038.1764743,2,0.0,5.954028103234705,3.1175226994263294,0.0,7.9633684594801135,5.972524683322165,3.127206246189369,0.0,16.000034327056927,5.999996185882564,3.1358336341942543,0.0,0.0,0.0,0.0,0.0
1759830038.187254,2,0.0,5.963676711847917,3.1225747004998925,0.0,7.971097966900617,5.978321812275041,3.130241615456578,0.0,16.000034330282226,5.999996185524197,3.136292064366909,0.0,0.0,0.0,0.0,0.0
1759830038.1975484,2,0.0,5.971187949755944,3.1265075765752246,0.0,7.977107275467138,5.982828792446293,3.132601464480283,0.0,16.000034331514076,5.999996185387325,3.136946471722874,0.0,0.0,0.0,0.0,0.0
1759830038.209109,2,0.0,5.977045892895739,3.129574789291326,0.0,7.981787770335417,5.986339162621075,3.1344394897910313,0.0,16.000034331984594,5.999996185335045,3.137453908256102,0.0,0.0,0.0,0.0,0.0
1759830038.219541,2,0.0,5.98203015030466,3.132184541100132,0.0,7.9854543620735035,5.989089105659729,3.1358793564308725,0.0,16.000034332164315,5.9999961853150765,3.1380215916986867,0.0,0.0,0.0,0.0,0.0
1759830038.2302482,2,0.0,5.985874257107404,3.1341973112800474,0.0,7.988336087225065,5.991250398922226,3.1370110068046584,0.0,16.000034332232964,5.999996185307449,3.13847056636833,0.0,0.0,0.0,0.0,0.0
1759830038.2404408,2,0.0,5.988852697199087,3.135756819302803,0.0,7.990799789048863,5.993098174776106,3.1379784998663363,0.0,16.000034332259187,5.999996185304535,3.1388665835582845,0.0,0.0,0.0,0.0,0.0
1759830038.2512188,2,0.0,5.991166946300199,3.136968557638556,0.0,7.992713388813748,5.994533374200562,3.138729968439956,0.0,16.000034332269202,5.999996185303422,3.1391569136533697,0.0,0.0,0.0,0.0,0.0
1759830038.2622275,2,0.0,5.99297143783651,3.1379133874626404,0.0,7.994204942185527,5.995652038918234,3.139315699848026,0.0,16.000034332273028,5.999996185302997,3.1393939119641328,0.0,0.0,0.0,0.0,0.0
1759830038.273053,2,0.0,5.9943843378495405,3.138653180387072,0.0,7.995372394564297,5.996527627958762,3.13977415714403,0.0,16.00003433227449,5.999996185302835,3.1396083259324,0.0,0.0,0.0,0.0,0.0
1759830038.283921,2,0.0,5.995494779502169,3.1392346064398944,0.0,7.996289603653085,5.997215534584007,3.140134344168668,0.0,16.000034332275046,5.999996185302773,3.139791461147393,0.0,0.0,0.0,0.0,0.0
1759830038.2943861,2,0.0,5.996371377851689,3.139693592391174,0.0,7.997013403906149,5.997758384622808,3.140418579751122,0.0,16.00003433227526,5.999996185302749,3.139962170646694,0.0,0.0,0.0,0.0,0.0
1759830038.3058589,2,0.0,5.9970648090327,3.1400566722103838,0.0,7.997585763562553,5.998187654245707,3.1406433447738227,0.0,16.00003433227534,5.99999618530274,3.1400765729873683,0.0,0.0,0.0,0.0,0.0
1759830038.3161614,2,0.0,5.9976613583327,3.140369024781086,0.0,7.9980410048421735,5.9985290851104525,3.1408221175356754,0.0,16.000034332275373,5.999996185302736,3.140214397270274,0.0,0.0,0.0,0.0,0.0
1759830038.3289561,2,0.0,5.998127562822461,3.140613128949592,0.0,7.998436758568451,5.9988259003226,3.140977529599184,0.0,16.000034332275384,5.999996185302735,3.1402689557467003,0.0,0.0,0.0,0.0,0.0
1759830038.3403723,2,0.0,5.998494295952934,3.140805150021555,0.0,7.998747244381292,5.999058764617459,3.141099457044613,0.0,16.000034332275387,5.999996185302734,3.1403651149974507,0.0,0.0,0.0,0.0,0.0
1759830038.3518026,2,0.0,5.998783921201978,3.1409567974898853,0.0,7.998991801064736,5.9992421820790245,3.1411954941916953,0.0,16.00003433227539,5.999996185302734,3.1404541057620072,0.0,0.0,0.0,0.0,0.0
1759830038.3629,2,0.0,5.999013675177146,3.141077096423725,0.0,7.999185293231469,5.999387301163709,3.1412714783578775,0.0,16.00003433227539,5.999996185302734,3.1405403704450237,0.0,0.0,0.0,0.0,0.0
1759830038.3733559,2,0.0,5.9991968188346565,3.1411729902454617,0.0,7.9993391272121315,5.999502676617113,3.141331888796959,0.0,16.00003433227539,5.999996185302734,3.1406275232931353,0.0,0.0,0.0,0.0,0.0
1759830038.384237,2,0.0,5.999343229398958,3.141249650659174,0.0,7.999461787587656,5.999594671873168,3.141380057394764,0.0,16.00003433227539,5.999996185302734,3.1406925710160873,0.0,0.0,0.0,0.0,0.0
1759830038.3950133,2,0.0,5.999460727174731,3.1413111723679648,0.0,7.99955997149848,5.999668309785804,3.1414186141111546,0.0,16.00003433227539,5.999996185302734,3.1407507244796147,0.0,0.0,0.0,0.0,0.0
1759830038.4059658,2,0.0,5.999563819302959,3.141365151295224,0.0,7.999638826843898,5.9997274512784164,3.141449580520657,0.0,16.00003433227539,5.999996185302734,3.140799122117919,0.0,0.0,0.0,0.0,0.0
1759830038.417469,2,0.0,5.999645586965415,3.141407964755182,0.0,7.999708230552271,5.999779504045217,3.1414768352824374,0.0,16.00003433227539,5.999996185302734,3.140834585339501,0.0,0.0,0.0,0.0,0.0
1759830038.4286335,2,0.0,5.999710732160885,3.1414420747093366,0.0,7.999763352211442,5.999820845278097,3.141498481498827,0.0,16.00003433227539,5.999996185302734,3.1408745368738504,0.0,0.0,0.0,0.0,0.0
1759830038.439287,2,0.0,5.999762875225984,3.1414693767620383,0.0,7.999807334719441,5.99985383214992,3.141515753382507,0.0,16.00003433227539,5.999996185302734,3.140919256884862,0.0,0.0,0.0,0.0,0.0
1759830038.450795,2,0.0,5.999804702197224,3.1414912773191115,0.0,7.999842507157269,5.999880211470953,3.141529565561088,0.0,16.00003433227539,5.999996185302734,3.1409475257879187,0.0,0.0,0.0,0.0,0.0
1759830038.4621017,2,0.0,5.9998383947437475,3.141508918700168,0.0,7.9998707527841955,5.999901395685255,3.1415406575884637,0.0,16.00003433227539,5.999996185302734,3.1409777044062146,0.0,0.0,0.0,0.0,0.0
1759830038.4721797,2,0.0,5.999865695117169,3.141523213146275,0.0,7.999893569528623,5.999918508238815,3.141549617699509,0.0,16.00003433227539,5.999996185302734,3.141021513251369,0.0,0.0,0.0,0.0,0.0
1759830038.4827833,2,0.0,5.999887869686781,3.141534823727031,0.0,7.999912046207402,5.999932365744044,3.141556873471433,0.0,16.00003433227539,5.999996185302734,3.141052701257262,0.0,0.0,0.0,0.0,0.0
1759830038.4931638,2,0.0,5.999907731510421,3.1415452233564882,0.0,7.999927066889479,5.999943631252469,3.1415627720771617,0.0,16.00003433227539,5.999996185302734,3.1410823580688287,0.0,0.0,0.0,0.0,0.0
1759830038.503961,2,0.0,5.9999236791744,3.141553573536164,0.0,7.999939310534435,5.999952813983631,3.141567580143393,0.0,16.00003433227539,5.999996185302734,3.1411041176599994,0.0,0.0,0.0,0.0,0.0
1759830038.514255,2,0.0,5.999936541606333,3.1415603082916648,0.0,7.999950374928851,5.999961112277135,3.141571925119204,0.0,16.00003433227539,5.999996185302734,3.1411296312321433,0.0,0.0,0.0,0.0,0.0
1759830038.527114,2,0.0,5.999946905253807,3.1415657346863153,0.0,7.999959258247427,5.9999677747642135,3.141575413588873,0.0,16.00003429721434,5.999996406237014,3.1411276604193805,2.3489515182475517e-06,0.0,0.0,0.0,0.0
1759830038.5373554,2,0.0,5.999955329528008,3.14157014562721,0.0,7.999966453251066,5.9999731710154425,3.141578239059079,0.0,16.000034295157953,5.99999651880261,3.141156039182057,2.3489515182475517e-06,0.0,0.0,0.0,0.0
1759830038.5474834,2,0.0,5.99996220191394,3.1415737440010787,0.0,7.9999723018515345,5.999977557464574,3.1415805357982056,0.0,16.000034294475494,5.99999656179778,3.1411830119974695,2.3489515182475517e-06,0.0,0.0,0.0,0.0
1759830038.5582044,2,0.0,5.999967820792079,3.141576686039618,0.0,7.9999770668296275,5.99998113119715,3.141582406999988,0.0,16.000034293683367,5.999996578220102,3.141200762448653,2.3489515182475517e-06,0.0,0.0,0.0,0.0
1759830038.5690594,2,0.0,5.999972429568089,3.141579099189771,0.0,7.999980961574715,5.9999840522551535,3.1415839364622036,0.0,16.00003429326119,5.999996584492361,3.141215824400282,2.3489515182475517e-06,0.0,0.0,0.0,0.0
1759830038.5805955,2,0.0,5.999976218008131,3.141581082812895,0.0,7.9999841520930355,5.999986445143228,3.141585189375323,0.0,16.000034292489033,5.999996586888079,3.141224981683724,2.3489515182475517e-06,0.0,0.0,0.0,0.0
1759830038.5907526,2,0.0,5.999979691505844,3.1415829015325554,0.0,7.999986782243221,5.999988417755318,3.141586222232478,0.0,16.000034293432666,5.999996587801779,3.1412460237806528,2.3489515182475517e-06,0.0,0.0,0.0,0.0
1759830038.6021569,2,0.0,5.999982516788208,3.141584380847357,0.0,7.999989170112724,5.999990208656947,3.1415871599462686,0.0,16.000034292674236,5.999996588150911,3.1412556486953154,2.3489515182475517e-06,0.0,0.0,0.0,0.0
1759830038.6134992,2,0.0,5.999984823583507,3.14158558868289,0.0,7.999991115533257,5.999991667721941,3.1415879239108238,0.0,16.000034292440663,5.999996588283828,3.141266153258247,2.3489515182475517e-06,0.0,0.0,0.0,0.0
1759830038.6247866,2,0.0,5.999986714103164,3.1415865785569457,0.0,7.99999270645811,5.999992860915249,3.1415885486653057,0.0,16.000034292401203,5.9999965883341195,3.1412777164928514,2.3489515182475517e-06,0.0,0.0,0.0,0.0
1759830038.6358383,2,0.0,5.999988269739769,3.141587393086596,0.0,7.99999401277104,5.999993840649674,3.1415890616529913,0.0,16.000034292598347,5.999996588352728,3.141291000162763,2.3489515182475517e-06,0.0,0.0,0.0,0.0
1759830038.64706,2,0.0,5.999989553858802,3.1415880654499375,0.0,7.999995088804797,5.999994647674767,3.141589484210292,0.0,16.00003429252161,5.9999965883594415,3.141302648605361,2.3489515182475517e-06,0.0,0.0,0.0,0.0
1759830038.657918,2,0.0,5.999990618340463,3.141588622811388,0.0,7.999995978918955,5.9999953152602,3.141589833757166,0.0,16.000034292819187,5.999996588361367,3.1413161433699237,2.3489515182475517e-06,0.0,0.0,0.0,0.0
1759830038.6688783,2,0.0,5.999991503540885,3.1415890863013747,0.0,7.999996717582542,5.999995869257736,3.141590123829564,0.0,16.000034292841576,5.9999965883616815,3.141328033276613,2.3489515182475517e-06,0.0,0.0,0.0,0.0
1759830038.6801581,2,0.0,5.999992241634686,3.141589472766494,0.0,7.999997332232883,5.999996330245365,3.1415903652020933,0.0,16.000034292563836,5.999996588361539,3.141337332765204,2.3489515182475517e-06,0.0,0.0,0.0,0.0
1759830038.6912882,2,0.0,5.999992859361626,3.141589796207654,0.0,7.999997845606318,5.999996715275334,3.1415905668032904,0.0,16.000034292592563,5.999996588361052,3.1413473639672986,2.3489515182475517e-06,0.0,0.0,0.0,0.0
1759830038.702597,2,0.0,5.999993439806674,3.1415901001280555,0.0,7.999998275659799,5.999997037815355,3.1415907356848303,0.0,16.000034292443686,5.9999965883605695,3.1413561983387392,2.3489515182475517e-06,0.0,0.0,0.0,0.0
1759830038.7131498,2,0.0,5.9999939214528,3.1415903523174484,0.0,7.99999868132667,5.999997342065424,3.141590894989775,0.0,16.0000342930656,5.999996588359704,3.1413687134819046,2.3489515182475517e-06,0.0,0.0,0.0,0.0
1759830038.732557,2,0.0,5.999994315149907,3.1415905584568296,0.0,7.999999012312916,5.999997590305039,3.141591024967719,0.0,16.00003534139999,5.999996367026909,3.1413385880027462,9.395806072948111e-06,0.0,0.0,0.0,0.0
1759830038.7387862,2,0.0,5.999994647906863,3.1415907326880133,0.0,7.999999291460359,5.999997799665564,3.1415911345886203,0.0,16.000035816073865,5.999996367014081,3.1413799844718486,9.395806072948111e-06,0.0,0.0,0.0,0.0
1759830038.750197,2,0.0,5.999994926590285,3.141590878606353,0.0,7.999999524779208,5.999997974654652,3.141591226212682,0.0,16.000035978785828,5.999996367013128,3.1413911563961534,9.395806072948111e-06,0.0,0.0,0.0,0.0
1759830038.7609608,2,0.0,5.999995161111504,3.14159100140141,0.0,7.999999720733812,5.999998121620564,3.1415913031638447,0.0,16.000036043259666,5.999996367010564,3.1414022256617926,9.395806072948111e-06,0.0,0.0,0.0,0.0
1759830038.771303,2,0.0,5.9999953592852115,3.14159110516495,0.0,7.999999885990394,5.999998245562966,3.141591368059927,0.0,16.000036069402245,5.99999636700752,3.1414136272691966,9.395806072948111e-06,0.0,0.0,0.0,0.0
1759830038.7827082,2,0.0,5.9999955268371705,3.1415911928949756,0.0,8.000000025443736,5.999998350152944,3.141591422823105,0.0,16.000036075572822,5.9999963670064025,3.1414192078820307,9.395806072948111e-06,0.0,0.0,0.0,0.0
1759830038.7931561,2,0.0,5.999995687400729,3.1415912769658823,0.0,8.000000143773226,5.999998438900036,3.1415914692909688,0.0,16.000036081367295,5.999996367003826,3.1414283451989427,9.395806072948111e-06,0.0,0.0,0.0,0.0
1759830038.8036957,2,0.0,5.999995822174122,3.1415913475330854,0.0,8.00000024445745,5.999998514413184,3.1415915088295554,0.0,16.000036083253313,5.999996367001729,3.1414362402957607,9.395806072948111e-06,0.0,0.0,0.0,0.0
1759830038.8149266,2,0.0,5.999995935482839,3.1415914068614073,0.0,8.000000342170221,5.999998587697741,3.1415915472012554,0.0,16.000036081492777,5.99999636700073,3.141440836598676,9.395806072948111e-06,0.0,0.0,0.0,0.0
1759830038.825216,2,0.0,5.999996031263503,3.1415914570120598,0.0,8.000000424532947,5.999998649469769,3.1415915795450102,0.0,16.000036084201113,5.999996366998483,3.1414487540330533,9.395806072948111e-06,0.0,0.0,0.0,0.0
1759830038.8358037,2,0.0,5.999996112415461,3.1415914995031375,0.0,8.000000494121625,5.999998701661264,3.1415916068724092,0.0,16.000036084166105,5.999996366996901,3.14145491528447,9.395806072948111e-06,0.0,0.0,0.0,0.0
1759830038.847101,2,0.0,5.999996181265435,3.1415915355529096,0.0,8.000000553001026,5.999998745820801,3.141591629994286,0.0,16.000036081606602,5.999996366996232,3.1414582830966857,9.395806072948111e-06,0.0,0.0,0.0,0.0
1759830038.8580086,2,0.0,5.999996239918763,3.1415915662637293,0.0,8.000000603025482,5.999998783339133,3.141591649638836,0.0,16.00003608202817,5.999996366994965,3.1414631956305534,9.395806072948111e-06,0.0,0.0,0.0,0.0
1759830038.8694203,2,0.0,5.9999962899725405,3.141591592471833,0.0,8.00000064560389,5.999998815272929,3.141591666359331,0.0,16.0000360803808,5.999996366994234,3.141466627208679,9.395806072948111e-06,0.0,0.0,0.0,0.0
1759830038.8801088,2,0.0,5.999996332899128,3.141591614948148,0.0,8.000000682024261,5.9999988425882,3.141591680661571,0.0,16.0000360823481,5.99999636699263,3.1414724653119332,9.395806072948111e-06,0.0,0.0,0.0,0.0
1759830038.8909612,2,0.0,5.999996370761816,3.1415916347730106,0.0,8.000000713264019,5.99999886601801,3.14159169292939,0.0,16.000036082512533,5.999996366991338,3.1414775045304797,9.395806072948111e-06,0.0,0.0,0.0,0.0
1759830038.9018955,2,0.0,5.999996404270295,3.141591652318014,0.0,8.000000740911203,5.999998886753392,3.1415917037864096,0.0,16.00003608228176,5.999996366990199,3.141482015558946,9.395806072948111e-06,0.0,0.0,0.0,0.0
1759830038.9131532,2,0.0,5.999996433925299,3.1415916678453417,0.0,8.000000765378962,5.9999989051042055,3.141591713394872,0.0,16.000036081033873,5.9999963669893805,3.14148552994906,9.395806072948111e-06,0.0,0.0,0.0,0.0
1759830038.9293382,2,0.0,5.999996460169977,3.141591681587027,0.0,8.000000787032928,5.999998921344676,3.1415917218983616,0.0,16.00003487938382,5.999996063207475,3.1414771518340707,9.684975219189626e-06,0.0,0.0,0.0,0.0
1759830038.9415967,2,0.0,5.999996460169977,3.141591681587027,0.0,8.000000787032928,5.999998921344676,3.1415917218983616,0.0,16.000034436027192,5.999995950640037,3.1414820896395224,9.684975219189626e-06,0.0,0.0,0.0,0.0
1759830038.9530013,2,0.0,5.999996460169977,3.141591681587027,0.0,8.000000787032928,5.999998921344676,3.1415917218983616,0.0,16.000034269841038,5.999995907641429,3.1414896127851897,9.684975219189626e-06,0.0,0.0,0.0,0.0
1759830038.9640565,2,0.0,5.999996460169977,3.141591681587027,0.0,8.000000787032928,5.999998921344676,3.1415917218983616,0.0,16.000034207657045,5.999995891216108,3.1414969505089907,9.684975219189626e-06,0.0,0.0,0.0,0.0
1759830038.9741216,2,0.0,5.999996460169977,3.141591681587027,0.0,8.000000787032928,5.999998921344676,3.1415917218983616,0.0,16.000034187569426,5.99999588494049,3.14150518729223,9.684975219189626e-06,0.0,0.0,0.0,0.0
1759830038.984431,2,0.0,5.999996460169977,3.141591681587027,0.0,8.000000787032928,5.999998921344676,3.1415917218983616,0.0,16.000034178993527,5.999995882542606,3.141511374377645,9.684975219189626e-06,0.0,0.0,0.0,0.0
1759830038.9959562,2,0.0,5.999996460169977,3.141591681587027,0.0,8.000000787032928,5.999998921344676,3.1415917218983616,0.0,16.000034171220662,5.999995881626773,3.1415140672082007,9.684975219189626e-06,0.0,0.0,0.0,0.0
1759830039.0061736,2,0.0,5.999996460169977,3.141591681587027,0.0,8.000000787032928,5.999998921344676,3.1415917218983616,0.0,16.000034173090643,5.999995881275664,3.1415191725070937,9.684975219189626e-06,0.0,0.0,0.0,0.0
1759830039.0168064,2,0.0,5.999996460169977,3.141591681587027,0.0,8.000000787032928,5.999998921344676,3.1415917218983616,0.0,16.000034172269025,5.999995881141133,3.1415228960033,9.684975219189626e-06,0.0,0.0,0.0,0.0
1759830039.0271297,2,0.0,5.999996460169977,3.141591681587027,0.0,8.000000787032928,5.999998921344676,3.1415917218983616,0.0,16.000034173100758,5.999995881089048,3.141526749129943,9.684975219189626e-06,0.0,0.0,0.0,0.0
1759830039.0379164,2,0.0,5.999996460169977,3.141591681587027,0.0,8.000000787032928,5.999998921344676,3.1415917218983616,0.0,16.000034171704215,5.9999958810689,3.1415293764345016,9.684975219189626e-06,0.0,0.0,0.0,0.0
1759830039.0489805,2,0.0,5.999996460169977,3.141591681587027,0.0,8.000000787032928,5.999998921344676,3.1415917218983616,0.0,16.000034170145348,5.999995881060964,3.141531422262405,9.684975219189626e-06,0.0,0.0,0.0,0.0
1759830039.0598245,2,0.0,5.999996460169977,3.141591681587027,0.0,8.000000787032928,5.999998921344676,3.1415917218983616,0.0,16.00003417036451,5.999995881057466,3.1415339147953105,9.684975219189626e-06,0.0,0.0,0.0,0.0
1759830039.0710118,2,0.0,5.999996460169977,3.141591681587027,0.0,8.000000787032928,5.999998921344676,3.1415917218983616,0.0,16.00003416917846,5.999995881055915,3.1415358564807647,9.684975219189626e-06,0.0,0.0,0.0,0.0
1759830039.0821116,2,0.0,5.999996460169977,3.141591681587027,0.0,8.000000787032928,5.999998921344676,3.1415917218983616,0.0,16.000034169049552,5.999995881054945,3.1415380286764965,9.684975219189626e-06,0.0,0.0,0.0,0.0
1759830039.0934606,2,0.0,5.999996460169977,3.141591681587027,0.0,8.000000787032928,5.999998921344676,3.1415917218983616,0.0,16.000034168078948,5.999995881054337,3.1415398917068664,9.684975219189626e-06,0.0,0.0,0.0,0.0
1759830039.104558,2,0.0,5.999996460169977,3.141591681587027,0.0,8.000000787032928,5.999998921344676,3.1415917218983616,0.0,16.000034168639203,5.999995881053664,3.141542216949677,9.684975219189626e-06,0.0,0.0,0.0,0.0
1759830039.115103,2,0.0,5.999996460169977,3.141591681587027,0.0,8.000000787032928,5.999998921344676,3.1415917218983616,0.0,16.000034170897425,5.999995881052789,3.141545254953744,9.684975219189626e-06,0.0,0.0,0.0,0.0
1759830039.1302207,2,0.0,5.999996460169977,3.141591681587027,0.0,8.000000787032928,5.999998921344676,3.1415917218983616,0.0,16.000034147578223,5.99999704539395,3.1415421489447013,1.0145471451124822e-05,0.0,0.0,0.0,0.0
1759830039.1368427,2,0.0,5.999996460169977,3.141591681587027,0.0,8.000000787032928,5.999998921344676,3.1415917218983616,0.0,16.000034173355754,5.999997495654829,3.141551091934188,1.0145471451124822e-05,0.0,0.0,0.0,0.0
1759830039.1469884,2,0.0,5.999996460169977,3.141591681587027,0.0,8.000000787032928,5.999998921344676,3.1415917218983616,0.0,16.000034169547057,5.9999976676396205,3.141554060924033,1.0145471451124822e-05,0.0,0.0,0.0,0.0
1759830039.1578693,2,0.0,5.999996460169977,3.141591681587027,0.0,8.000000787032928,5.999998921344676,3.1415917218983616,0.0,16.00003416524294,5.999997733331922,3.141555405998723,1.0145471451124822e-05,0.0,0.0,0.0,0.0
1759830039.1693456,2,0.0,5.999996460169977,3.141591681587027,0.0,8.000000787032928,5.999998921344676,3.1415917218983616,0.0,16.000034161291925,5.999997758424146,3.141556082693164,1.0145471451124822e-05,0.0,0.0,0.0,0.0
1759830039.180705,2,0.0,5.999996460169977,3.141591681587027,0.0,8.000000787032928,5.999998921344676,3.1415917218983616,0.0,16.000034160235764,5.999997768008304,3.1415571816329955,1.0145471451124822e-05,0.0,0.0,0.0,0.0
1759830039.1910877,2,0.0,5.999996460169977,3.141591681587027,0.0,8.000000787032928,5.999998921344676,3.1415917218983616,0.0,16.00003416361828,5.999997771668551,3.1415595206615556,1.0145471451124822e-05,0.0,0.0,0.0,0.0
1759830039.2013173,2,0.0,5.999996460169977,3.141591681587027,0.0,8.000000787032928,5.999998921344676,3.1415917218983616,0.0,16.000034165503894,5.999997773066241,3.1415618220619237,1.0145471451124822e-05,0.0,0.0,0.0,0.0
1759830039.2114167,2,0.0,5.999996460169977,3.141591681587027,0.0,8.000000787032928,5.999998921344676,3.1415917218983616,0.0,16.000034166729005,5.999997773599748,3.1415639689290327,1.0145471451124822e-05,0.0,0.0,0.0,0.0
1759830039.2228858,2,0.0,5.999996460169977,3.141591681587027,0.0,8.000000787032928,5.999998921344676,3.1415917218983616,0.0,16.00003416188892,5.9999977738036545,3.141564535697391,1.0145471451124822e-05,0.0,0.0,0.0,0.0
1759830039.2340279,2,0.0,5.999996460169977,3.141591681587027,0.0,8.000000787032928,5.999998921344676,3.1415917218983616,0.0,16.00003416130807,5.999997773881306,3.141565595660575,1.0145471451124822e-05,0.0,0.0,0.0,0.0
1759830039.2449028,2,0.0,5.999996460169977,3.141591681587027,0.0,8.000000787032928,5.999998921344676,3.1415917218983616,0.0,16.000034162121327,5.999997773910683,3.141567027997551,1.0145471451124822e-05,0.0,0.0,0.0,0.0
1759830039.255253,2,0.0,5.999996460169977,3.141591681587027,0.0,8.000000787032928,5.999998921344676,3.1415917218983616,0.0,16.000034164465948,5.999997773921521,3.14156890058932,1.0145471451124822e-05,0.0,0.0,0.0,0.0
1759830039.2661126,2,0.0,5.999996460169977,3.141591681587027,0.0,8.000000787032928,5.999998921344676,3.1415917218983616,0.0,16.000034163388186,5.999997773925522,3.1415701667037172,1.0145471451124822e-05,0.0,0.0,0.0,0.0
1759830039.2762294,2,0.0,5.999996460169977,3.141591681587027,0.0,8.000000787032928,5.999998921344676,3.1415917218983616,0.0,16.00003416585497,5.99999777392666,3.14157198373775,1.0145471451124822e-05,0.0,0.0,0.0,0.0
1759830039.2864397,2,0.0,5.999996460169977,3.141591681587027,0.0,8.000000787032928,5.999998921344676,3.1415917218983616,0.0,16.00003416643529,5.999997773926859,3.141573531881317,1.0145471451124822e-05,0.0,0.0,0.0,0.0
1759830039.2969086,2,0.0,5.999996460169977,3.141591681587027,0.0,8.000000787032928,5.999998921344676,3.1415917218983616,0.0,16.00003416565468,5.999997773926775,3.1415747124173556,1.0145471451124822e-05,0.0,0.0,0.0,0.0
1759830039.3083663,2,0.0,5.999996460169977,3.141591681587027,0.0,8.000000787032928,5.999998921344676,3.1415917218983616,0.0,16.000034161524972,5.999997773926778,3.141575102341198,1.0145471451124822e-05,0.0,0.0,0.0,0.0
1759830039.3196461,2,0.0,5.999996460169977,3.141591681587027,0.0,8.000000787032928,5.999998921344676,3.1415917218983616,0.0,16.00003416063699,5.999997773926637,3.141575802601805,1.0145471451124822e-05,0.0,0.0,0.0,0.0
1759830039.3406425,2,0.0,5.999996460169977,3.141591681587027,0.0,8.000000787032928,5.999998921344676,3.1415917218983616,0.0,16.000035321755856,5.999998104031727,3.1415702428391636,9.018577841707437e-06,0.0,0.0,0.0,0.0
1759830039.3519459,2,0.0,5.999996460169977,3.141591681587027,0.0,8.000000787032928,5.999998921344676,3.1415917218983616,0.0,16.000035794350648,5.999998216597,3.141573058164944,9.018577841707437e-06,0.0,0.0,0.0,0.0
1759830039.363195,2,0.0,5.999996460169977,3.141591681587027,0.0,8.000000787032928,5.999998921344676,3.1415917218983616,0.0,16.000035975053546,5.999998259592682,3.1415758587713913,9.018577841707437e-06,0.0,0.0,0.0,0.0
1759830039.3745368,2,0.0,5.999996460169977,3.141591681587027,0.0,8.000000787032928,5.999998921344676,3.1415917218983616,0.0,16.000036043756747,5.999998276015265,3.141578074497863,9.018577841707437e-06,0.0,0.0,0.0,0.0
1759830039.385999,2,0.0,5.999996460169977,3.141591681587027,0.0,8.000000787032928,5.999998921344676,3.1415917218983616,0.0,16.000036069584535,5.999998282287891,3.141579824901733,9.018577841707437e-06,0.0,0.0,0.0,0.0
1759830039.3964164,2,0.0,5.999996460169977,3.141591681587027,0.0,8.000000787032928,5.999998921344676,3.1415917218983616,0.0,16.000036083049206,5.999998284683457,3.1415818714867854,9.018577841707437e-06,0.0,0.0,0.0,0.0
1759830039.4066374,2,0.0,5.999996460169977,3.141591681587027,0.0,8.000000787032928,5.999998921344676,3.1415917218983616,0.0,16.00003608886929,5.9999982855982195,3.141583657937545,9.018577841707437e-06,0.0,0.0,0.0,0.0
1759830039.417956,2,0.0,5.999996460169977,3.141591681587027,0.0,8.000000787032928,5.999998921344676,3.1415917218983616,0.0,16.00003608731115,5.999998285947563,3.141584557922487,9.018577841707437e-06,0.0,0.0,0.0,0.0
1759830039.4282207,2,0.0,5.999996460169977,3.141591681587027,0.0,8.000000787032928,5.999998921344676,3.1415917218983616,0.0,16.00003609034725,5.999998286080757,3.141585889684663,9.018577841707437e-06,0.0,0.0,0.0,0.0
1759830039.4410834,2,0.0,5.999996460169977,3.141591681587027,0.0,8.000000787032928,5.999998921344676,3.1415917218983616,0.0,16.000036082557052,5.999998286131753,3.1415858276180764,9.018577841707437e-06,0.0,0.0,0.0,0.0
1759830039.4520466,2,0.0,5.999996460169977,3.141591681587027,0.0,8.000000787032928,5.999998921344676,3.1415917218983616,0.0,16.000036086125064,5.999998286151,3.141586835421034,9.018577841707437e-06,0.0,0.0,0.0,0.0
1759830039.462778,2,0.0,5.999996460169977,3.141591681587027,0.0,8.000000787032928,5.999998921344676,3.1415917218983616,0.0,16.000036088286425,5.999998286158184,3.1415879113756287,9.018577841707437e-06,0.0,0.0,0.0,0.0
1759830039.4734788,2,0.0,5.999996460169977,3.141591681587027,0.0,8.000000787032928,5.999998921344676,3.1415917218983616,0.0,16.000036089218096,5.999998286160789,3.141588874534044,9.018577841707437e-06,0.0,0.0,0.0,0.0
1759830039.4847,2,0.0,5.999996460169977,3.141591681587027,0.0,8.000000787032928,5.999998921344676,3.1415917218983616,0.0,16.000036087781137,5.999998286161707,3.1415895140495067,9.018577841707437e-06,0.0,0.0,0.0,0.0
1759830039.4953094,2,0.0,5.999996460169977,3.141591681587027,0.0,8.000000787032928,5.999998921344676,3.1415917218983616,0.0,16.0000360893399,5.999998286161913,3.1415903742734255,9.018577841707437e-06,0.0,0.0,0.0,0.0
1759830039.506066,2,0.0,5.999996460169977,3.141591681587027,0.0,8.000000787032928,5.999998921344676,3.1415917218983616,0.0,16.000036089427844,5.999998286161892,3.141591101209068,9.018577841707437e-06,0.0,0.0,0.0,0.0
1759830039.5165477,2,0.0,5.999996460169977,3.141591681587027,0.0,8.000000787032928,5.999998921344676,3.1415917218983616,0.0,16.000036090409356,5.999998286161767,3.1415918690648645,9.018577841707437e-06,0.0,0.0,0.0,0.0
1759830039.5265915,2,0.0,5.999996460169977,3.141591681587027,0.0,8.000000787032928,5.999998921344676,3.1415917218983616,0.0,16.000036092292294,5.999998852815548,-3.1415925887459224,9.018577841707437e-06,0.0,0.0,0.0,0.0
1759830039.5419037,2,0.0,5.999996460169977,3.141591681587027,0.0,8.000000787032928,5.999998921344676,3.1415917218983616,0.0,16.000036217796218,5.999998569488547,3.141591645944626,0.0,0.0,0.0,0.0,0.0
1759830039.5522654,2,0.0,5.999996460169977,3.141591681587027,0.0,8.000000787032928,5.999998921344676,3.1415917218983616,0.0,16.000036231286543,5.999998569488533,-3.1415926275750277,0.0,0.0,0.0,0.0,0.0
1759830039.5634928,2,0.0,5.999996460169977,3.141591681587027,0.0,8.000000787032928,5.999998921344676,3.1415917218983616,0.0,16.00003623643939,5.999998569488528,-3.1415919171418505,0.0,0.0,0.0,0.0,0.0
1759830039.5746994,2,0.0,5.999996460169977,3.141591681587027,0.0,8.000000787032928,5.999998921344676,3.1415917218983616,0.0,16.000036238407603,5.999998569488526,-3.1415912779942605,0.0,0.0,0.0,0.0,0.0
1759830039.585084,2,0.0,5.999996460169977,3.141591681587027,0.0,8.000000787032928,5.999998921344676,3.1415917218983616,0.0,16.000036239159392,5.999998569488525,-3.141590444564123,0.0,0.0,0.0,0.0,0.0
1759830039.595677,2,0.0,5.999996460169977,3.141591681587027,0.0,8.000000787032928,5.999998921344676,3.1415917218983616,0.0,16.00003623944655,5.999998569488525,-3.141589785005401,0.0,0.0,0.0,0.0,0.0
1759830039.6069272,2,0.0,5.999996460169977,3.141591681587027,0.0,8.000000787032928,5.999998921344676,3.1415917218983616,0.0,16.000036239556234,5.999998569488525,-3.141589392853998,0.0,0.0,0.0,0.0,0.0
1759830039.6170683,2,0.0,5.999996460169977,3.141591681587027,0.0,8.000000787032928,5.999998921344676,3.1415917218983616,0.0,16.00003623959813,5.999998569488525,-3.1415887069644644,0.0,0.0,0.0,0.0,0.0
1759830039.6283047,2,0.0,5.999996460169977,3.141591681587027,0.0,8.000000787032928,5.999998921344676,3.1415917218983616,0.0,16.000036239614133,5.999998569488525,-3.1415883879508417,0.0,0.0,0.0,0.0,0.0
1759830039.6387053,2,0.0,5.999996460169977,3.141591681587027,0.0,8.000000787032928,5.999998921344676,3.1415917218983616,0.0,16.000036239620247,5.999998569488525,-3.1415878563765194,0.0,0.0,0.0,0.0,0.0
1759830039.6496303,2,0.0,5.999996460169977,3.141591681587027,0.0,8.000000787032928,5.999998921344676,3.1415917218983616,0.0,16.00003623962258,5.999998569488525,-3.1415874965940596,0.0,0.0,0.0,0.0,0.0
1759830039.6596606,2,0.0,5.999996460169977,3.141591681587027,0.0,8.000000787032928,5.999998921344676,3.1415917218983616,0.0,16.000036239623473,5.999998569488525,-3.14158693730281,0.0,0.0,0.0,0.0,0.0
1759830039.6710207,2,0.0,5.999996460169977,3.141591681587027,0.0,8.000000787032928,5.999998921344676,3.1415917218983616,0.0,16.000036239623814,5.999998569488525,-3.141586746722057,0.0,0.0,0.0,0.0,0.0
1759830039.6825142,2,0.0,5.999996460169977,3.141591681587027,0.0,8.000000787032928,5.999998921344676,3.1415917218983616,0.0,16.00003623962394,5.999998569488525,-3.1415865577692372,0.0,0.0,0.0,0.0,0.0
1759830039.693151,2,0.0,5.999996460169977,3.141591681587027,0.0,8.000000787032928,5.999998921344676,3.1415917218983616,0.0,16.00003623962399,5.999998569488525,-3.1415861383527,0.0,0.0,0.0,0.0,0.0
1759830039.7041845,2,0.0,5.999996460169977,3.141591681587027,0.0,8.000000787032928,5.999998921344676,3.1415917218983616,0.0,16.000036239624013,5.999998569488525,-3.141585821585858,0.0,0.0,0.0,0.0,0.0
1759830039.7148366,2,0.0,5.999996460169977,3.141591681587027,0.0,8.000000787032928,5.999998921344676,3.1415917218983616,0.0,16.00003623962402,5.999998569488525,-3.1415854371187883,0.0,0.0,0.0,0.0,0.0
1759830039.7253683,2,0.0,5.999996460169977,3.141591681587027,0.0,8.000000787032928,5.999998921344676,3.1415917218983616,0.0,16.000036239624023,5.999998569488525,-3.1415850559084717,0.0,0.0,0.0,0.0,0.0
1759830039.7433286,2,0.0,5.999996460169977,3.141591681587027,0.0,8.000000787032928,5.999998921344676,3.1415917218983616,0.0,16.000036239624023,5.999998569488525,-3.1415860586185644,0.0,0.0,0.0,0.0,0.0
1759830039.7542138,2,0.0,5.999996460169977,3.141591681587027,0.0,8.000000787032928,5.999998921344676,3.1415917218983616,0.0,16.000036239624023,5.999998569488525,-3.1415854165134363,0.0,0.0,0.0,0.0,0.0
1759830039.7648046,2,0.0,5.999996460169977,3.141591681587027,0.0,8.000000787032928,5.999998921344676,3.1415917218983616,0.0,16.000036239624023,5.999998569488525,-3.1415847412996936,0.0,0.0,0.0,0.0,0.0
1759830039.7755861,2,0.0,5.999996460169977,3.141591681587027,0.0,8.000000787032928,5.999998921344676,3.1415917218983616,0.0,16.000036239624023,5.999998569488525,-3.1415842214268554,0.0,0.0,0.0,0.0,0.0
1759830039.7858777,2,0.0,5.999996460169977,3.141591681587027,0.0,8.000000787032928,5.999998921344676,3.1415917218983616,0.0,16.000036239624023,5.999998569488525,-3.141583715701751,0.0,0.0,0.0,0.0,0.0
1759830039.7961562,2,0.0,5.999996460169977,3.141591681587027,0.0,8.000000787032928,5.999998921344676,3.1415917218983616,0.0,16.000036239624023,5.999998569488525,-3.1415832948975293,0.0,0.0,0.0,0.0,0.0
1759830039.8066638,2,0.0,5.999996460169977,3.141591681587027,0.0,8.000000787032928,5.999998921344676,3.1415917218983616,0.0,16.000036239624023,5.999998569488525,-3.141582976655034,0.0,0.0,0.0,0.0,0.0
1759830039.817039,2,0.0,5.999996460169977,3.141591681587027,0.0,8.000000787032928,5.999998921344676,3.1415917218983616,0.0,16.000036239624023,5.999998569488525,-3.141582679793988,0.0,0.0,0.0,0.0,0.0
1759830039.8280354,2,0.0,5.999996460169977,3.141591681587027,0.0,8.000000787032928,5.999998921344676,3.1415917218983616,0.0,16.000036239624023,5.999998569488525,-3.1415825010828193,0.0,0.0,0.0,0.0,0.0
1759830039.8388994,2,0.0,5.999996460169977,3.141591681587027,0.0,8.000000787032928,5.999998921344676,3.1415917218983616,0.0,16.000036239624023,5.999998569488525,-3.1415823045732,0.0,0.0,0.0,0.0,0.0
1759830039.850178,2,0.0,5.999996460169977,3.141591681587027,0.0,8.000000787032928,5.999998921344676,3.1415917218983616,0.0,16.000036239624023,5.999998569488525,-3.141582161262786,0.0,0.0,0.0,0.0,0.0
1759830039.8606305,2,0.0,5.999996460169977,3.141591681587027,0.0,8.000000787032928,5.999998921344676,3.1415917218983616,0.0,16.000036239624023,5.999998569488525,-3.141581901876478,0.0,0.0,0.0,0.0,0.0
1759830039.8716044,2,0.0,5.999996460169977,3.141591681587027,0.0,8.000000787032928,5.999998921344676,3.1415917218983616,0.0,16.000036239624023,5.999998569488525,-3.141581724709038,0.0,0.0,0.0,0.0,0.0
1759830039.8817654,2,0.0,5.999996460169977,3.141591681587027,0.0,8.000000787032928,5.999998921344676,3.1415917218983616,0.0,16.000036239624023,5.999998569488525,-3.1415814575561374,0.0,0.0,0.0,0.0,0.0
1759830039.8919911,2,0.0,5.999996460169977,3.141591681587027,0.0,8.000000787032928,5.999998921344676,3.1415917218983616,0.0,16.000036239624023,5.999998569488525,-3.1415812267529724,0.0,0.0,0.0,0.0,0.0
1759830039.9027991,2,0.0,5.999996460169977,3.141591681587027,0.0,8.000000787032928,5.999998921344676,3.1415917218983616,0.0,16.000036239624023,5.999998569488525,-3.1415810864608567,0.0,0.0,0.0,0.0,0.0
1759830039.913732,2,0.0,5.999996460169977,3.141591681587027,0.0,8.000000787032928,5.999998921344676,3.1415917218983616,0.0,16.000036239624023,5.999998569488525,-3.141580960138068,0.0,0.0,0.0,0.0,0.0
1759830039.924985,2,0.0,5.999996460169977,3.141591681587027,0.0,8.000000787032928,5.999998921344676,3.1415917218983616,0.0,16.000036239624023,5.999998569488525,-3.14158085889132,0.0,0.0,0.0,0.0,0.0
1759830039.9371722,2,0.0,5.999996460169977,3.141591681587027,0.0,8.000000787032928,5.999998921344676,3.1415917218983616,0.0,16.000036239624023,5.999998569488525,-3.1415808334500532,0.0,0.0,0.0,0.0,0.0
1759830039.947391,2,0.0,5.999996460169977,3.141591681587027,0.0,8.000000787032928,5.999998921344676,3.1415917218983616,0.0,16.000036239624023,5.999998569488525,-3.1415805814269717,0.0,0.0,0.0,0.0,0.0
1759830039.9574344,2,0.0,5.999996460169977,3.141591681587027,0.0,8.000000787032928,5.999998921344676,3.1415917218983616,0.0,16.000036239624023,5.999998569488525,-3.141580337096169,0.0,0.0,0.0,0.0,0.0
1759830039.9680202,2,0.0,5.999996460169977,3.141591681587027,0.0,8.000000787032928,5.999998921344676,3.1415917218983616,0.0,16.000036239624023,5.999998569488525,-3.141580178579197,0.0,0.0,0.0,0.0,0.0
1759830039.979506,2,0.0,5.999996460169977,3.141591681587027,0.0,8.000000787032928,5.999998921344676,3.1415917218983616,0.0,16.000036239624023,5.999998569488525,-3.1415801123817992,0.0,0.0,0.0,0.0,0.0
1759830039.9902954,2,0.0,5.999996460169977,3.141591681587027,0.0,8.000000787032928,5.999998921344676,3.1415917218983616,0.0,16.000036239624023,5.999998569488525,-3.141579972608435,0.0,0.0,0.0,0.0,0.0
1759830040.0012832,2,0.0,5.999996460169977,3.141591681587027,0.0,8.000000787032928,5.999998921344676,3.1415917218983616,0.0,16.000036239624023,5.999998569488525,-3.141579849989837,0.0,0.0,0.0,0.0,0.0
1759830040.0121825,2,0.0,5.999996460169977,3.141591681587027,0.0,8.000000787032928,5.999998921344676,3.1415917218983616,0.0,16.000036239624023,5.999998569488525,-3.1415797220755906,0.0,0.0,0.0,0.0,0.0
1759830040.023376,2,0.0,5.999996460169977,3.141591681587027,0.0,8.000000787032928,5.999998921344676,3.1415917218983616,0.0,16.000036239624023,5.999998569488525,-3.1415796194910897,0.0,0.0,0.0,0.0,0.0
1759830040.034188,2,0.0,5.999996460169977,3.141591681587027,0.0,8.000000787032928,5.999998921344676,3.1415917218983616,0.0,16.000036239624023,5.999998569488525,-3.1415794867398343,0.0,0.0,0.0,0.0,0.0
1759830040.0443552,2,0.0,5.999996460169977,3.141591681587027,0.0,8.000000787032928,5.999998921344676,3.1415917218983616,0.0,16.000036239624023,5.999998569488525,-3.141579315213532,0.0,0.0,0.0,0.0,0.0
1759830040.0558944,2,0.0,5.999996460169977,3.141591681587027,0.0,8.000000787032928,5.999998921344676,3.1415917218983616,0.0,16.000036239624023,5.999998569488525,-3.141579257283693,0.0,0.0,0.0,0.0,0.0
1759830040.0664115,2,0.0,5.999996460169977,3.141591681587027,0.0,8.000000787032928,5.999998921344676,3.1415917218983616,0.0,16.000036239624023,5.999998569488525,-3.1415791241295103,0.0,0.0,0.0,0.0,0.0
1759830040.0773473,2,0.0,5.999996460169977,3.141591681587027,0.0,8.000000787032928,5.999998921344676,3.1415917218983616,0.0,16.000036239624023,5.999998569488525,-3.1415790253373164,0.0,0.0,0.0,0.0,0.0
1759830040.0883505,2,0.0,5.999996460169977,3.141591681587027,0.0,8.000000787032928,5.999998921344676,3.1415917218983616,0.0,16.000036239624023,5.999998569488525,-3.141578934014383,0.0,0.0,0.0,0.0,0.0
1759830040.0983703,2,0.0,5.999996460169977,3.141591681587027,0.0,8.000000787032928,5.999998921344676,3.1415917218983616,0.0,16.000036239624023,5.999998569488525,-3.1415787853102977,0.0,0.0,0.0,0.0,0.0
1759830040.1085868,2,0.0,5.999996460169977,3.141591681587027,0.0,8.000000787032928,5.999998921344676,3.1415917218983616,0.0,16.000036239624023,5.999998569488525,-3.1415786661190737,0.0,0.0,0.0,0.0,0.0
1759830040.1188447,2,0.0,5.999996460169977,3.141591681587027,0.0,8.000000787032928,5.999998921344676,3.1415917218983616,0.0,16.000036239624023,5.999998569488525,-3.1415785640763474,0.0,0.0,0.0,0.0,0.0
1759830040.1291835,2,0.0,5.999996460169977,3.141591681587027,0.0,8.000000787032928,5.999998921344676,3.1415917218983616,0.0,16.000036239624023,5.999998569488525,-3.141578476153928,0.0,0.0,0.0,0.0,0.0
1759830040.1412475,2,0.0,5.999996460169977,3.141591681587027,0.0,8.000000787032928,5.999998921344676,3.1415917218983616,0.0,16.00003620530942,5.999998937983766,-3.1415784831267572,2.3489515182370277e-06,0.0,0.0,0.0,0.0
1759830040.1519492,2,0.0,5.999996460169977,3.141591681587027,0.0,8.000000787032928,5.999998921344676,3.1415917218983616,0.0,16.000036202397304,5.999999050549705,-3.141578399236524,2.3489515182370277e-06,0.0,0.0,0.0,0.0
1759830040.1623788,2,0.0,5.999996460169977,3.141591681587027,0.0,8.000000787032928,5.999998921344676,3.1415917218983616,0.0,16.000036201529046,5.999999093546066,-3.1415783005948192,2.3489515182370277e-06,0.0,0.0,0.0,0.0
1759830040.172661,2,0.0,5.999996460169977,3.141591681587027,0.0,8.000000787032928,5.999998921344676,3.1415917218983616,0.0,16.000036201329593,5.999999109969213,-3.141578203793017,2.3489515182370277e-06,0.0,0.0,0.0,0.0
1759830040.1835463,2,0.0,5.999996460169977,3.141591681587027,0.0,8.000000787032928,5.999998921344676,3.1415917218983616,0.0,16.000036200712422,5.999999116242287,-3.141578144466255,2.3489515182370277e-06,0.0,0.0,0.0,0.0
1759830040.1945994,2,0.0,5.999996460169977,3.141591681587027,0.0,8.000000787032928,5.999998921344676,3.1415917218983616,0.0,16.000036200326086,5.999999118638383,-3.141578092568178,2.3489515182370277e-06,0.0,0.0,0.0,0.0
1759830040.205679,2,0.0,5.999996460169977,3.141591681587027,0.0,8.000000787032928,5.999998921344676,3.1415917218983616,0.0,16.000036200154767,5.999999119553609,-3.1415780380062213,2.3489515182370277e-06,0.0,0.0,0.0,0.0
1759830040.215764,2,0.0,5.999996460169977,3.141591681587027,0.0,8.000000787032928,5.999998921344676,3.1415917218983616,0.0,16.00003620098156,5.999999119903203,-3.1415779400650123,2.3489515182370277e-06,0.0,0.0,0.0,0.0
1759830040.225962,2,0.0,5.999996460169977,3.141591681587027,0.0,8.000000787032928,5.999998921344676,3.1415917218983616,0.0,16.000036201196185,5.9999991200367315,-3.1415778573511393,2.3489515182370277e-06,0.0,0.0,0.0,0.0
1759830040.2368581,2,0.0,5.999996460169977,3.141591681587027,0.0,8.000000787032928,5.999998921344676,3.1415917218983616,0.0,16.000036200651607,5.999999120087724,-3.1415778112674246,2.3489515182370277e-06,0.0,0.0,0.0,0.0
1759830040.2484028,2,0.0,5.999996460169977,3.141591681587027,0.0,8.000000787032928,5.999998921344676,3.1415917218983616,0.0,16.00003619986175,5.999999120107192,-3.1415777881827758,2.3489515182370277e-06,0.0,0.0,0.0,0.0
1759830040.2590346,2,0.0,5.999996460169977,3.141591681587027,0.0,8.000000787032928,5.999998921344676,3.1415917218983616,0.0,16.000036200379125,5.999999120114637,-3.141577723126453,2.3489515182370277e-06,0.0,0.0,0.0,0.0
1759830040.2700813,2,0.0,5.999996460169977,3.141591681587027,0.0,8.000000787032928,5.999998921344676,3.1415917218983616,0.0,16.000036200204534,5.999999120117474,-3.141577674021704,2.3489515182370277e-06,0.0,0.0,0.0,0.0
1759830040.2815366,2,0.0,5.999996460169977,3.141591681587027,0.0,8.000000787032928,5.999998921344676,3.1415917218983616,0.0,16.000036199771195,5.9999991201185505,-3.1415776382454563,2.3489515182370277e-06,0.0,0.0,0.0,0.0
1759830040.292989,2,0.0,5.999996460169977,3.141591681587027,0.0,8.000000787032928,5.999998921344676,3.1415917218983616,0.0,16.00003619960824,5.99999912011896,-3.1415775975857834,2.3489515182370277e-06,0.0,0.0,0.0,0.0
1759830040.3045957,2,0.0,5.999996460169977,3.141591681587027,0.0,8.000000787032928,5.999998921344676,3.1415917218983616,0.0,16.00003619940759,5.999999120119114,-3.141577557681426,2.3489515182370277e-06,0.0,0.0,0.0,0.0
1759830040.314947,2,0.0,5.999996460169977,3.141591681587027,0.0,8.000000787032928,5.999998921344676,3.1415917218983616,0.0,16.00003620045742,5.999999120119186,-3.1415774771609595,2.3489515182370277e-06,0.0,0.0,0.0,0.0
1759830040.3262556,2,0.0,5.999996460169977,3.141591681587027,0.0,8.000000787032928,5.999998921344676,3.1415917218983616,0.0,16.000036199999336,5.999999120119198,-3.14157743319603,2.3489515182370277e-06,0.0,0.0,0.0,0.0
1759830040.3406582,2,0.0,5.999996460169977,3.141591681587027,0.0,8.000000787032928,5.999998921344676,3.1415917218983616,0.0,16.000036233461365,5.999999046325585,-3.1415774745735714,0.0,0.0,0.0,0.0,0.0
1759830040.34754,2,0.0,5.999996460169977,3.141591681587027,0.0,8.000000787032928,5.999998921344676,3.1415917218983616,0.0,16.0000362372701,5.999999046325646,-3.141577291157816,0.0,0.0,0.0,0.0,0.0
1759830040.3579297,2,0.0,5.999996460169977,3.141591681587027,0.0,8.000000787032928,5.999998921344676,3.1415917218983616,0.0,16.000036238724903,5.999999046325669,-3.1415772338539636,0.0,0.0,0.0,0.0,0.0
1759830040.368261,2,0.0,5.999996460169977,3.141591681587027,0.0,8.000000787032928,5.999998921344676,3.1415917218983616,0.0,16.00003623928059,5.999999046325678,-3.14157718903369,0.0,0.0,0.0,0.0,0.0
1759830040.379351,2,0.0,5.999996460169977,3.141591681587027,0.0,8.000000787032928,5.999998921344676,3.1415917218983616,0.0,16.000036239492843,5.999999046325682,-3.141577166704838,0.0,0.0,0.0,0.0,0.0
1759830040.3895729,2,0.0,5.999996460169977,3.141591681587027,0.0,8.000000787032928,5.999998921344676,3.1415917218983616,0.0,16.000036239573916,5.999999046325683,-3.1415771214218378,0.0,0.0,0.0,0.0,0.0
1759830040.400931,2,0.0,5.999996460169977,3.141591681587027,0.0,8.000000787032928,5.999998921344676,3.1415917218983616,0.0,16.000036239604885,5.999999046325684,-3.141577104756484,0.0,0.0,0.0,0.0,0.0
1759830040.412207,2,0.0,5.999996460169977,3.141591681587027,0.0,8.000000787032928,5.999998921344676,3.1415917218983616,0.0,16.000036239616712,5.999999046325684,-3.1415770823777773,0.0,0.0,0.0,0.0,0.0
1759830040.4230273,2,0.0,5.999996460169977,3.141591681587027,0.0,8.000000787032928,5.999998921344676,3.1415917218983616,0.0,16.00003623962123,5.999999046325684,-3.1415770466002986,0.0,0.0,0.0,0.0,0.0
1759830040.4345021,2,0.0,5.999996460169977,3.141591681587027,0.0,8.000000787032928,5.999998921344676,3.1415917218983616,0.0,16.000036239622958,5.999999046325684,-3.1415770246608545,0.0,0.0,0.0,0.0,0.0
1759830040.4469304,2,0.0,5.999996460169977,3.141591681587027,0.0,8.000000787032928,5.999998921344676,3.1415917218983616,0.0,16.000036239623615,5.999999046325684,-3.14157701855412,0.0,0.0,0.0,0.0,0.0
1759830040.457471,2,0.0,5.999996460169977,3.141591681587027,0.0,8.000000787032928,5.999998921344676,3.1415917218983616,0.0,16.000036239623867,5.999999046325684,-3.141576968834501,0.0,0.0,0.0,0.0,0.0
1759830040.4689908,2,0.0,5.999996460169977,3.141591681587027,0.0,8.000000787032928,5.999998921344676,3.1415917218983616,0.0,16.000036239623963,5.999999046325684,-3.141576940948342,0.0,0.0,0.0,0.0,0.0
1759830040.4804115,2,0.0,5.999996460169977,3.141591681587027,0.0,8.000000787032928,5.999998921344676,3.1415917218983616,0.0,16.000036239624002,5.999999046325684,-3.1415769118067267,0.0,0.0,0.0,0.0,0.0
1759830040.49184,2,0.0,5.999996460169977,3.141591681587027,0.0,8.000000787032928,5.999998921344676,3.1415917218983616,0.0,16.000036239624016,5.999999046325684,-3.141576882751501,0.0,0.0,0.0,0.0,0.0
1759830040.5018682,2,0.0,5.999996460169977,3.141591681587027,0.0,8.000000787032928,5.999998921344676,3.1415917218983616,0.0,16.00003623962402,5.999999046325684,-3.1415768314481465,0.0,0.0,0.0,0.0,0.0
1759830040.512241,2,0.0,5.999996460169977,3.141591681587027,0.0,8.000000787032928,5.999998921344676,3.1415917218983616,0.0,16.000036239624023,5.999999046325684,-3.141576793131481,0.0,0.0,0.0,0.0,0.0
1759830040.5231311,2,0.0,5.999996460169977,3.141591681587027,0.0,8.000000787032928,5.999998921344676,3.1415917218983616,0.0,16.000036239624023,5.999999046325684,-3.141576768376762,0.0,0.0,0.0,0.0,0.0
1759830040.534383,2,0.0,5.999996460169977,3.141591681587027,0.0,8.000000787032928,5.999998921344676,3.1415917218983616,0.0,16.000036239624023,5.999999046325684,-3.1415767503729555,0.0,0.0,0.0,0.0,0.0
1759830040.5453286,2,0.0,5.999996460169977,3.141591681587027,0.0,8.000000787032928,5.999998921344676,3.1415917218983616,0.0,16.00003607306772,5.999997941785749,-3.141576726948383,1.1744757591185138e-05,0.0,0.0,0.0,0.0
1759830040.556233,2,0.0,5.999996460169977,3.141591681587027,0.0,8.000000787032928,5.999998921344676,3.1415917218983616,0.0,16.000036054497123,5.999997378955529,-3.141576703280805,1.1744757591185138e-05,0.0,0.0,0.0,0.0
1759830040.5674798,2,0.0,5.999996460169977,3.141591681587027,0.0,8.000000787032928,5.999998921344676,3.1415917218983616,0.0,16.000036045866818,5.999997163973487,-3.141576685059963,1.1744757591185138e-05,0.0,0.0,0.0,0.0
1759830040.57809,2,0.0,5.999996460169977,3.141591681587027,0.0,8.000000787032928,5.999998921344676,3.1415917218983616,0.0,16.000036045427144,5.999997081857695,-3.141576658285649,1.1744757591185138e-05,0.0,0.0,0.0,0.0
1759830040.5888932,2,0.0,5.999996460169977,3.141591681587027,0.0,8.000000787032928,5.999998921344676,3.1415917218983616,0.0,16.000036044392846,5.999997050492235,-3.141576635928809,1.1744757591185138e-05,0.0,0.0,0.0,0.0
1759830040.600181,2,0.0,5.999996460169977,3.141591681587027,0.0,8.000000787032928,5.999998921344676,3.1415917218983616,0.0,16.000036041823346,5.999997038511657,-3.1415766208429403,1.1744757591185138e-05,0.0,0.0,0.0,0.0
1759830040.6109753,2,0.0,5.999996460169977,3.141591681587027,0.0,8.000000787032928,5.999998921344676,3.1415917218983616,0.0,16.000036043056955,5.999997033935515,-3.14157659940636,1.1744757591185138e-05,0.0,0.0,0.0,0.0
1759830040.6223407,2,0.0,5.999996460169977,3.141591681587027,0.0,8.000000787032928,5.999998921344676,3.1415917218983616,0.0,16.000036040965462,5.99999703218754,-3.1415765852596635,1.1744757591185138e-05,0.0,0.0,0.0,0.0
1759830040.6330607,2,0.0,5.999996460169977,3.141591681587027,0.0,8.000000787032928,5.999998921344676,3.1415917218983616,0.0,16.0000360430619,5.999997031519915,-3.141576563548435,1.1744757591185138e-05,0.0,0.0,0.0,0.0
1759830040.6444757,2,0.0,5.999996460169977,3.141591681587027,0.0,8.000000787032928,5.999998921344676,3.1415917218983616,0.0,16.000036040744874,5.999997031264853,-3.1415765503642845,1.1744757591185138e-05,0.0,0.0,0.0,0.0
1759830040.6558878,2,0.0,5.999996460169977,3.141591681587027,0.0,8.000000787032928,5.999998921344676,3.1415917218983616,0.0,16.000036039872676,5.9999970311674256,-3.1415765365571744,1.1744757591185138e-05,0.0,0.0,0.0,0.0
1759830040.6671457,2,0.0,5.999996460169977,3.141591681587027,0.0,8.000000787032928,5.999998921344676,3.1415917218983616,0.0,16.000036040231535,5.99999703113022,-3.1415765204910926,1.1744757591185138e-05,0.0,0.0,0.0,0.0
1759830040.678337,2,0.0,5.999996460169977,3.141591681587027,0.0,8.000000787032928,5.999998921344676,3.1415917218983616,0.0,16.000036040667016,5.999997031116009,-3.14157650387223,1.1744757591185138e-05,0.0,0.0,0.0,0.0
1759830040.68863,2,0.0,5.999996460169977,3.141591681587027,0.0,8.000000787032928,5.999998921344676,3.1415917218983616,0.0,16.00003604486348,5.999997031110642,-3.1415764797875703,1.1744757591185138e-05,0.0,0.0,0.0,0.0
1759830040.6990695,2,0.0,5.999996460169977,3.141591681587027,0.0,8.000000787032928,5.999998921344676,3.1415917218983616,0.0,16.000036045809672,5.9999970311085775,-3.1415764600529634,1.1744757591185138e-05,0.0,0.0,0.0,0.0
1759830040.7093542,2,0.0,5.999996460169977,3.141591681587027,0.0,8.000000787032928,5.999998921344676,3.1415917218983616,0.0,16.00003604686523,5.999997031107797,-3.1415764415752054,1.1744757591185138e-05,0.0,0.0,0.0,0.0
1759830040.720672,2,0.0,5.999996460169977,3.141591681587027,0.0,8.000000787032928,5.999998921344676,3.1415917218983616,0.0,16.000036042633972,5.999997031107423,-3.141576433693908,1.1744757591185138e-05,0.0,0.0,0.0,0.0
1759830040.7320585,2,0.0,5.999996460169977,3.141591681587027,0.0,8.000000787032928,5.999998921344676,3.1415917218983616,0.0,16.00003604070867,5.999997031107274,-3.1415764255279583,1.1744757591185138e-05,0.0,0.0,0.0,0.0
1759830040.7444155,2,0.0,5.999996460169977,3.141591681587027,0.0,8.000000787032928,5.999998921344676,3.1415917218983616,0.0,16.00003607087577,5.99999813467295,-3.1415764232979004,9.349748200073947e-06,0.0,0.0,0.0,0.0
1759830040.7558963,2,0.0,5.999996460169977,3.141591681587027,0.0,8.000000787032928,5.999998921344676,3.1415917218983616,0.0,16.000036076379104,5.999998584936955,-3.1415764115318954,9.349748200073947e-06,0.0,0.0,0.0,0.0
1759830040.7661397,2,0.0,5.999996460169977,3.141591681587027,0.0,8.000000787032928,5.999998921344676,3.1415917218983616,0.0,16.000036082900266,5.999998756922568,-3.141576390506085,9.349748200073947e-06,0.0,0.0,0.0,0.0
1759830040.7762916,2,0.0,5.999996460169977,3.141591681587027,0.0,8.000000787032928,5.999998921344676,3.1415917218983616,0.0,16.000036085718087,5.999998822615229,-3.1415763717289025,9.349748200073947e-06,0.0,0.0,0.0,0.0
1759830040.786998,2,0.0,5.999996460169977,3.141591681587027,0.0,8.000000787032928,5.999998921344676,3.1415917218983616,0.0,16.0000360848139,5.99999884770756,-3.141576359610518,9.349748200073947e-06,0.0,0.0,0.0,0.0
1759830040.7979846,2,0.0,5.999996460169977,3.141591681587027,0.0,8.000000787032928,5.999998921344676,3.1415917218983616,0.0,16.00003608346806,5.99999885729196,-3.1415763504568375,9.349748200073947e-06,0.0,0.0,0.0,0.0
1759830040.8086503,2,0.0,5.999996460169977,3.141591681587027,0.0,8.000000787032928,5.999998921344676,3.1415917218983616,0.0,16.00003608410006,5.999998860952892,-3.1415763394244838,9.349748200073947e-06,0.0,0.0,0.0,0.0
1759830040.8189251,2,0.0,5.999996460169977,3.141591681587027,0.0,8.000000787032928,5.999998921344676,3.1415917218983616,0.0,16.00003608573701,5.999998862351263,-3.141576326663092,9.349748200073947e-06,0.0,0.0,0.0,0.0
1759830040.8300436,2,0.0,5.999996460169977,3.141591681587027,0.0,8.000000787032928,5.999998921344676,3.1415917218983616,0.0,16.000036083349798,5.999998862885344,-3.1415763200726996,9.349748200073947e-06,0.0,0.0,0.0,0.0
1759830040.8409853,2,0.0,5.999996460169977,3.141591681587027,0.0,8.000000787032928,5.999998921344676,3.1415917218983616,0.0,16.000036083068892,5.9999988630893535,-3.141576312242071,9.349748200073947e-06,0.0,0.0,0.0,0.0
1759830040.8516011,2,0.0,5.999996460169977,3.141591681587027,0.0,8.000000787032928,5.999998921344676,3.1415917218983616,0.0,16.000036084125544,5.999998863167296,-3.1415763024862997,9.349748200073947e-06,0.0,0.0,0.0,0.0
1759830040.8624654,2,0.0,5.999996460169977,3.141591681587027,0.0,8.000000787032928,5.999998921344676,3.1415917218983616,0.0,16.000036083641923,5.999998863197051,-3.1415762945517525,9.349748200073947e-06,0.0,0.0,0.0,0.0
1759830040.8738005,2,0.0,5.999996460169977,3.141591681587027,0.0,8.000000787032928,5.999998921344676,3.1415917218983616,0.0,16.000036081775562,5.999998863208389,-3.1415762891647105,9.349748200073947e-06,0.0,0.0,0.0,0.0
1759830040.8844004,2,0.0,5.999996460169977,3.141591681587027,0.0,8.000000787032928,5.999998921344676,3.1415917218983616,0.0,16.000036083688578,5.9999988632127605,-3.1415762796378175,9.349748200073947e-06,0.0,0.0,0.0,0.0
1759830040.8947334,2,0.0,5.999996460169977,3.141591681587027,0.0,8.000000787032928,5.999998921344676,3.1415917218983616,0.0,16.000036085372066,5.9999988632144445,-3.1415762694235774,9.349748200073947e-06,0.0,0.0,0.0,0.0
1759830040.905444,2,0.0,5.999996460169977,3.141591681587027,0.0,8.000000787032928,5.999998921344676,3.1415917218983616,0.0,16.00003608466724,5.9999988632150645,-3.1415762620266534,9.349748200073947e-06,0.0,0.0,0.0,0.0
1759830040.916227,2,0.0,5.999996460169977,3.141591681587027,0.0,8.000000787032928,5.999998921344676,3.1415917218983616,0.0,16.000036084138323,5.999998863215296,-3.14157625539049,9.349748200073947e-06,0.0,0.0,0.0,0.0
1759830040.9266293,2,0.0,5.999996460169977,3.141591681587027,0.0,8.000000787032928,5.999998921344676,3.1415917218983616,0.0,16.00003608529693,5.9999988632154055,-3.141576247291221,9.349748200073947e-06,0.0,0.0,0.0,0.0
1759830040.937093,2,0.0,5.999996460169977,3.141591681587027,0.0,8.000000787032928,5.999998921344676,3.1415917218983616,0.0,16.0000360855198,5.999998863215443,-3.1415762400582548,9.349748200073947e-06,0.0,0.0,0.0,0.0
1759830040.951107,2,0.0,5.999996460169977,3.141591681587027,0.0,8.000000787032928,5.999998921344676,3.1415917218983616,0.0,16.00003621647615,5.999998569488137,-3.141576247257726,0.0,0.0,0.0,0.0,0.0
1759830040.9613934,2,0.0,5.999996460169977,3.141591681587027,0.0,8.000000787032928,5.999998921344676,3.1415917218983616,0.0,16.000036230782325,5.999998569488377,-3.141576236449371,0.0,0.0,0.0,0.0,0.0
1759830040.9721205,2,0.0,5.999996460169977,3.141591681587027,0.0,8.000000787032928,5.999998921344676,3.1415917218983616,0.0,16.000036236246796,5.9999985694884685,-3.1415762278620853,0.0,0.0,0.0,0.0,0.0
1759830040.9833648,2,0.0,5.999996460169977,3.141591681587027,0.0,8.000000787032928,5.999998921344676,3.1415917218983616,0.0,16.000036238334037,5.999998569488504,-3.1415762221618504,0.0,0.0,0.0,0.0,0.0
1759830040.9933794,2,0.0,5.999996460169977,3.141591681587027,0.0,8.000000787032928,5.999998921344676,3.1415917218983616,0.0,16.000036239131294,5.999998569488517,-3.141576212485571,0.0,0.0,0.0,0.0,0.0
1759830041.0036125,2,0.0,5.999996460169977,3.141591681587027,0.0,8.000000787032928,5.999998921344676,3.1415917218983616,0.0,16.00003623943582,5.999998569488523,-3.1415762048545997,0.0,0.0,0.0,0.0,0.0
1759830041.0144796,2,0.0,5.999996460169977,3.141591681587027,0.0,8.000000787032928,5.999998921344676,3.1415917218983616,0.0,16.000036239552134,5.9999985694885245,-3.1415762003242236,0.0,0.0,0.0,0.0,0.0
1759830041.0260155,2,0.0,5.999996460169977,3.141591681587027,0.0,8.000000787032928,5.999998921344676,3.1415917218983616,0.0,16.000036239596565,5.999998569488525,-3.141576197987339,0.0,0.0,0.0,0.0,0.0
1759830041.0364516,2,0.0,5.999996460169977,3.141591681587027,0.0,8.000000787032928,5.999998921344676,3.1415917218983616,0.0,16.000036239613536,5.999998569488525,-3.1415761917212564,0.0,0.0,0.0,0.0,0.0
1759830041.0470467,2,0.0,5.999996460169977,3.141591681587027,0.0,8.000000787032928,5.999998921344676,3.1415917218983616,0.0,16.000036239620016,5.999998569488525,-3.1415761863227942,0.0,0.0,0.0,0.0,0.0
1759830041.0579417,2,0.0,5.999996460169977,3.141591681587027,0.0,8.000000787032928,5.999998921344676,3.1415917218983616,0.0,16.000036239622492,5.999998569488525,-3.141576182202865,0.0,0.0,0.0,0.0,0.0
1759830041.0691109,2,0.0,5.999996460169977,3.141591681587027,0.0,8.000000787032928,5.999998921344676,3.1415917218983616,0.0,16.000036239623437,5.999998569488525,-3.1415761788929792,0.0,0.0,0.0,0.0,0.0
1759830041.0802581,2,0.0,5.999996460169977,3.141591681587027,0.0,8.000000787032928,5.999998921344676,3.1415917218983616,0.0,16.0000362396238,5.999998569488525,-3.1415761753189173,0.0,0.0,0.0,0.0,0.0
1759830041.0910108,2,0.0,5.999996460169977,3.141591681587027,0.0,8.000000787032928,5.999998921344676,3.1415917218983616,0.0,16.000036239623938,5.999998569488525,-3.1415761706102323,0.0,0.0,0.0,0.0,0.0
1759830041.1026273,2,0.0,5.999996460169977,3.141591681587027,0.0,8.000000787032928,5.999998921344676,3.1415917218983616,0.0,16.00003623962399,5.999998569488525,-3.1415761682224446,0.0,0.0,0.0,0.0,0.0
