timestamp,vehicle_id,x,y,theta,velocity,gps_available,dt,gps_x,gps_y,gps_theta,gps_velocity,control_steering,control_acceleration
1759830037.9334307,2,16.0,6.0,-0.05483113549895435,0.0,False,0.01,nan,nan,nan,nan,0.0,0.0
1759830037.9449022,2,16.0,6.0,-0.05483113549895435,0.0,False,0.01147150993347168,nan,nan,nan,nan,0.0,0.0
1759830037.9557776,2,16.0,6.0,-0.05483113549895435,0.0,False,0.010875463485717773,nan,nan,nan,nan,0.0,0.0
1759830037.9662266,2,16.0,6.0,-0.05483113549895435,0.0,False,0.010448932647705078,nan,nan,nan,nan,0.0,0.0
1759830037.9767342,2,16.0,6.0,-0.05483113549895435,0.0,False,0.010507583618164062,nan,nan,nan,nan,0.0,0.0
1759830037.9873142,2,16.0,6.0,-0.05483113549895435,0.0,False,0.010580062866210938,nan,nan,nan,nan,0.0,0.0
1759830037.9977014,2,16.0,6.0,-0.05483113549895435,0.0,False,0.010387182235717773,nan,nan,nan,nan,0.0,0.0
1759830038.0079236,2,16.0,6.0,-0.05483113549895435,0.0,False,0.010222196578979492,nan,nan,nan,nan,0.0,0.0
1759830038.0183809,2,16.0,6.0,-0.05483113549895435,0.0,False,0.010457277297973633,nan,nan,nan,nan,0.0,0.0
1759830038.0298038,2,16.0,6.0,-0.05483113549895435,0.0,False,0.011422872543334961,nan,nan,nan,nan,0.0,0.0
1759830038.0402606,2,16.0,6.0,-0.05483113549895435,0.0,False,0.01045680046081543,nan,nan,nan,nan,0.0,0.0
1759830038.0509443,2,16.0,6.0,-0.05483113549895435,0.0,False,0.010683774948120117,nan,nan,nan,nan,0.0,0.0
1759830038.0619571,2,16.0,6.0,-0.05483113549895435,0.0,False,0.011012792587280273,nan,nan,nan,nan,0.0,0.0
1759830038.0725322,2,16.0,6.0,-0.05483113549895435,0.0,False,0.010575056076049805,nan,nan,nan,nan,0.0,0.0
1759830038.0826218,2,16.0,6.0,-0.05483113549895435,0.0,False,0.010089635848999023,nan,nan,nan,nan,0.0,0.0
1759830038.0941572,2,16.0,6.0,-0.05483113549895435,0.0,False,0.011535406112670898,nan,nan,nan,nan,0.0,0.0
1759830038.1045632,2,16.0,6.0,-0.05483113549895435,0.0,False,0.010406017303466797,nan,nan,nan,nan,0.0,0.0
1759830038.1157846,2,16.0,6.0,-0.05483113549895435,0.0,False,0.01122140884399414,nan,nan,nan,nan,0.0,0.0
1759830038.1327686,2,16.000034046173095,5.999996217091878,-2.8798349506099328,0.0,True,0.016983985900878906,16.00003433227539,5.999996185302734,-3.141576051712036,0.0,0.0,0.0
1759830038.1432922,2,16.00003423664231,5.999996195928632,-3.1211049235776187,0.0,True,0.010523557662963867,16.00003433227539,5.999996185302734,-3.141576051712036,0.0,0.0,0.0
1759830038.153726,2,16.000034296400493,5.999996189288834,3.1393844070507058,0.0,True,0.01043391227722168,16.00003433227539,5.999996185302734,-3.141576051712036,0.0,0.0,0.0
1759830038.1651275,2,16.000034318608083,5.999996186821324,3.1362009897758245,0.0,True,0.01140141487121582,16.00003433227539,5.999996185302734,-3.141576051712036,0.0,0.0,0.0
1759830038.1764743,2,16.000034327056927,5.999996185882564,3.1358336341942543,0.0,True,0.011346817016601562,16.00003433227539,5.999996185302734,-3.141576051712036,0.0,0.0,0.0
1759830038.187254,2,16.000034330282226,5.999996185524197,3.136292064366909,0.0,True,0.010779619216918945,16.00003433227539,5.999996185302734,-3.141576051712036,0.0,0.0,0.0
1759830038.1975484,2,16.000034331514076,5.999996185387325,3.136946471722874,0.0,True,0.010294437408447266,16.00003433227539,5.999996185302734,-3.141576051712036,0.0,0.0,0.0
1759830038.209109,2,16.000034331984594,5.999996185335045,3.137453908256102,0.0,True,0.011560678482055664,16.00003433227539,5.999996185302734,-3.141576051712036,0.0,0.0,0.0
1759830038.219541,2,16.000034332164315,5.9999961853150765,3.1380215916986867,0.0,True,0.010432004928588867,16.00003433227539,5.999996185302734,-3.141576051712036,0.0,0.0,0.0
1759830038.2302482,2,16.000034332232964,5.999996185307449,3.13847056636833,0.0,True,0.01070713996887207,16.00003433227539,5.999996185302734,-3.141576051712036,0.0,0.0,0.0
1759830038.2404408,2,16.000034332259187,5.999996185304535,3.1388665835582845,0.0,True,0.010192632675170898,16.00003433227539,5.999996185302734,-3.141576051712036,0.0,0.0,0.0
1759830038.2512188,2,16.000034332269202,5.999996185303422,3.1391569136533697,0.0,True,0.010777950286865234,16.00003433227539,5.999996185302734,-3.141576051712036,0.0,0.0,0.0
1759830038.2622275,2,16.000034332273028,5.999996185302997,3.1393939119641328,0.0,True,0.011008739471435547,16.00003433227539,5.999996185302734,-3.141576051712036,0.0,0.0,0.0
1759830038.273053,2,16.00003433227449,5.999996185302835,3.1396083259324,0.0,True,0.010825395584106445,16.00003433227539,5.999996185302734,-3.141576051712036,0.0,0.0,0.0
1759830038.283921,2,16.000034332275046,5.999996185302773,3.139791461147393,0.0,True,0.010868072509765625,16.00003433227539,5.999996185302734,-3.141576051712036,0.0,0.0,0.0
1759830038.2943861,2,16.00003433227526,5.999996185302749,3.139962170646694,0.0,True,0.010465145111083984,16.00003433227539,5.999996185302734,-3.141576051712036,0.0,0.0,0.0
1759830038.3058589,2,16.00003433227534,5.99999618530274,3.1400765729873683,0.0,True,0.011472702026367188,16.00003433227539,5.999996185302734,-3.141576051712036,0.0,0.0,0.0
1759830038.3161614,2,16.000034332275373,5.999996185302736,3.140214397270274,0.0,True,0.010302543640136719,16.00003433227539,5.999996185302734,-3.141576051712036,0.0,0.0,0.0
1759830038.3289561,2,16.000034332275384,5.999996185302735,3.1402689557467003,0.0,True,0.012794733047485352,16.00003433227539,5.999996185302734,-3.141576051712036,0.0,0.0,0.0
1759830038.3403723,2,16.000034332275387,5.999996185302734,3.1403651149974507,0.0,True,0.011416196823120117,16.00003433227539,5.999996185302734,-3.141576051712036,0.0,0.0,0.0
1759830038.3518026,2,16.00003433227539,5.999996185302734,3.1404541057620072,0.0,True,0.01143026351928711,16.00003433227539,5.999996185302734,-3.141576051712036,0.0,0.0,0.0
1759830038.3629,2,16.00003433227539,5.999996185302734,3.1405403704450237,0.0,True,0.011097431182861328,16.00003433227539,5.999996185302734,-3.141576051712036,0.0,0.0,0.0
1759830038.3733559,2,16.00003433227539,5.999996185302734,3.1406275232931353,0.0,True,0.010455846786499023,16.00003433227539,5.999996185302734,-3.141576051712036,0.0,0.0,0.0
1759830038.384237,2,16.00003433227539,5.999996185302734,3.1406925710160873,0.0,True,0.010881185531616211,16.00003433227539,5.999996185302734,-3.141576051712036,0.0,0.0,0.0
1759830038.3950133,2,16.00003433227539,5.999996185302734,3.1407507244796147,0.0,True,0.010776281356811523,16.00003433227539,5.999996185302734,-3.141576051712036,0.0,0.0,0.0
1759830038.4059658,2,16.00003433227539,5.999996185302734,3.140799122117919,0.0,True,0.010952472686767578,16.00003433227539,5.999996185302734,-3.141576051712036,0.0,0.0,0.0
1759830038.417469,2,16.00003433227539,5.999996185302734,3.140834585339501,0.0,True,0.011503219604492188,16.00003433227539,5.999996185302734,-3.141576051712036,0.0,0.0,0.0
1759830038.4286335,2,16.00003433227539,5.999996185302734,3.1408745368738504,0.0,True,0.011164426803588867,16.00003433227539,5.999996185302734,-3.141576051712036,0.0,0.0,0.0
1759830038.439287,2,16.00003433227539,5.999996185302734,3.140919256884862,0.0,True,0.010653495788574219,16.00003433227539,5.999996185302734,-3.141576051712036,0.0,0.0,0.0
1759830038.450795,2,16.00003433227539,5.999996185302734,3.1409475257879187,0.0,True,0.011507987976074219,16.00003433227539,5.999996185302734,-3.141576051712036,0.0,0.0,0.0
1759830038.4621017,2,16.00003433227539,5.999996185302734,3.1409777044062146,0.0,True,0.0113067626953125,16.00003433227539,5.999996185302734,-3.141576051712036,0.0,0.0,0.0
1759830038.4721797,2,16.00003433227539,5.999996185302734,3.141021513251369,0.0,True,0.010077953338623047,16.00003433227539,5.999996185302734,-3.141576051712036,0.0,0.0,0.0
1759830038.4827833,2,16.00003433227539,5.999996185302734,3.141052701257262,0.0,True,0.010603666305541992,16.00003433227539,5.999996185302734,-3.141576051712036,0.0,0.0,0.0
1759830038.4931638,2,16.00003433227539,5.999996185302734,3.1410823580688287,0.0,True,0.01038050651550293,16.00003433227539,5.999996185302734,-3.141576051712036,0.0,0.0,0.0
1759830038.503961,2,16.00003433227539,5.999996185302734,3.1411041176599994,0.0,True,0.010797262191772461,16.00003433227539,5.999996185302734,-3.141576051712036,0.0,0.0,0.0
1759830038.514255,2,16.00003433227539,5.999996185302734,3.1411296312321433,0.0,True,0.010293960571289062,16.00003433227539,5.999996185302734,-3.141576051712036,0.0,0.0,0.0
1759830038.527114,2,16.000034320738163,5.999996480009649,3.1411276604193805,2.3489515182475517e-06,True,0.012858867645263672,16.00003433227539,5.999996662139893,-3.141576051712036,2.3489515182475517e-06,0.0,0.0
1759830038.5373554,2,16.00003431867968,5.99999659257658,3.141156039182057,2.3489515182475517e-06,True,0.010241508483886719,16.00003433227539,5.999996662139893,-3.141576051712036,2.3489515182475517e-06,0.0,0.0
1759830038.5474834,2,16.000034317995233,5.999996635573018,3.1411830119974695,2.3489515182475517e-06,True,0.010128021240234375,16.00003433227539,5.999996662139893,-3.141576051712036,2.3489515182475517e-06,0.0,0.0
1759830038.5582044,2,16.000034317201795,5.999996651996175,3.141200762448653,2.3489515182475517e-06,True,0.010720968246459961,16.00003433227539,5.999996662139893,-3.141576051712036,2.3489515182475517e-06,0.0,0.0
1759830038.5690594,2,16.000034316778507,5.999996658269141,3.141215824400282,2.3489515182475517e-06,True,0.010854959487915039,16.00003433227539,5.999996662139893,-3.141576051712036,2.3489515182475517e-06,0.0,0.0
1759830038.5805955,2,16.000034316005674,5.999996660665289,3.141224981683724,2.3489515182475517e-06,True,0.011536121368408203,16.00003433227539,5.999996662139893,-3.141576051712036,2.3489515182475517e-06,0.0,0.0
1759830038.5907526,2,16.000034316947755,5.999996661579979,3.1412460237806528,2.3489515182475517e-06,True,0.010157108306884766,16.00003433227539,5.999996662139893,-3.141576051712036,2.3489515182475517e-06,0.0,0.0
1759830038.6021569,2,16.000034316188614,5.999996661929563,3.1412556486953154,2.3489515182475517e-06,True,0.011404275894165039,16.00003433227539,5.999996662139893,-3.141576051712036,2.3489515182475517e-06,0.0,0.0
1759830038.6134992,2,16.000034315954267,5.999996662062974,3.141266153258247,2.3489515182475517e-06,True,0.011342287063598633,16.00003433227539,5.999996662139893,-3.141576051712036,2.3489515182475517e-06,0.0,0.0
1759830038.6247866,2,16.000034315913954,5.9999966621138086,3.1412777164928514,2.3489515182475517e-06,True,0.011287450790405273,16.00003433227539,5.999996662139893,-3.141576051712036,2.3489515182475517e-06,0.0,0.0
1759830038.6358383,2,16.000034316110117,5.999996662133041,3.141291000162763,2.3489515182475517e-06,True,0.011051654815673828,16.00003433227539,5.999996662139893,-3.141576051712036,2.3489515182475517e-06,0.0,0.0
1759830038.64706,2,16.000034316032522,5.999996662140302,3.141302648605361,2.3489515182475517e-06,True,0.011221647262573242,16.00003433227539,5.999996662139893,-3.141576051712036,2.3489515182475517e-06,0.0,0.0
1759830038.657918,2,16.000034316329103,5.999996662142863,3.1413161433699237,2.3489515182475517e-06,True,0.01085805892944336,16.00003433227539,5.999996662139893,-3.141576051712036,2.3489515182475517e-06,0.0,0.0
1759830038.6688783,2,16.000034316350618,5.999996662143736,3.141328033276613,2.3489515182475517e-06,True,0.01096034049987793,16.00003433227539,5.999996662139893,-3.141576051712036,2.3489515182475517e-06,0.0,0.0
1759830038.6801581,2,16.000034316072192,5.999996662144031,3.141337332765204,2.3489515182475517e-06,True,0.011279821395874023,16.00003433227539,5.999996662139893,-3.141576051712036,2.3489515182475517e-06,0.0,0.0
1759830038.6912882,2,16.00003431610018,5.999996662144015,3.1413473639672986,2.3489515182475517e-06,True,0.011130094528198242,16.00003433227539,5.999996662139893,-3.141576051712036,2.3489515182475517e-06,0.0,0.0
1759830038.702597,2,16.00003431595065,5.999996662143948,3.1413561983387392,2.3489515182475517e-06,True,0.011308670043945312,16.00003433227539,5.999996662139893,-3.141576051712036,2.3489515182475517e-06,0.0,0.0
1759830038.7131498,2,16.00003431657164,5.99999666214367,3.1413687134819046,2.3489515182475517e-06,True,0.01055288314819336,16.00003433227539,5.999996662139893,-3.141576051712036,2.3489515182475517e-06,0.0,0.0
1759830038.732557,2,16.000035435433034,5.99999666215711,3.1413385880027462,9.395806072948111e-06,True,0.019407272338867188,16.000036239624023,5.999996662139893,-3.141576051712036,9.395806072948111e-06,0.0,0.0
1759830038.7387862,2,16.00003591009469,5.999996662152063,3.1413799844718486,9.395806072948111e-06,True,0.0062291622161865234,16.000036239624023,5.999996662139893,-3.141576051712036,9.395806072948111e-06,0.0,0.0
1759830038.750197,2,16.000036072803358,5.999996662153211,3.1413911563961534,9.395806072948111e-06,True,0.011410713195800781,16.000036239624023,5.999996662139893,-3.141576051712036,9.395806072948111e-06,0.0,0.0
1759830038.7609608,2,16.00003613727393,5.999996662152727,3.1414022256617926,9.395806072948111e-06,True,0.010763883590698242,16.000036239624023,5.999996662139893,-3.141576051712036,9.395806072948111e-06,0.0,0.0
1759830038.771303,2,16.00003616341315,5.999996662151826,3.1414136272691966,9.395806072948111e-06,True,0.010342121124267578,16.000036239624023,5.999996662139893,-3.141576051712036,9.395806072948111e-06,0.0,0.0
1759830038.7827082,2,16.000036169582078,5.999996662151759,3.1414192078820307,9.395806072948111e-06,True,0.011405229568481445,16.000036239624023,5.999996662139893,-3.141576051712036,9.395806072948111e-06,0.0,0.0
1759830038.7931561,2,16.000036175373854,5.999996662150899,3.1414283451989427,9.395806072948111e-06,True,0.010447978973388672,16.000036239624023,5.999996662139893,-3.141576051712036,9.395806072948111e-06,0.0,0.0
1759830038.8036957,2,16.00003617725754,5.999996662150286,3.1414362402957607,9.395806072948111e-06,True,0.010539531707763672,16.000036239624023,5.999996662139893,-3.141576051712036,9.395806072948111e-06,0.0,0.0
1759830038.8149266,2,16.000036175495648,5.999996662150151,3.141440836598676,9.395806072948111e-06,True,0.011230945587158203,16.000036239624023,5.999996662139893,-3.141576051712036,9.395806072948111e-06,0.0,0.0
1759830038.825216,2,16.000036178201647,5.999996662149392,3.1414487540330533,9.395806072948111e-06,True,0.010289430618286133,16.000036239624023,5.999996662139893,-3.141576051712036,9.395806072948111e-06,0.0,0.0
1759830038.8358037,2,16.000036178164823,5.999996662148968,3.14145491528447,9.395806072948111e-06,True,0.010587692260742188,16.000036239624023,5.999996662139893,-3.141576051712036,9.395806072948111e-06,0.0,0.0
1759830038.847101,2,16.000036175604325,5.999996662148932,3.1414582830966857,9.395806072948111e-06,True,0.011297225952148438,16.000036239624023,5.999996662139893,-3.141576051712036,9.395806072948111e-06,0.0,0.0
1759830038.8580086,2,16.000036176024445,5.999996662148589,3.1414631956305534,9.395806072948111e-06,True,0.010907649993896484,16.000036239624023,5.999996662139893,-3.141576051712036,9.395806072948111e-06,0.0,0.0
1759830038.8694203,2,16.00003617437606,5.9999966621485035,3.141466627208679,9.395806072948111e-06,True,0.011411666870117188,16.000036239624023,5.999996662139893,-3.141576051712036,9.395806072948111e-06,0.0,0.0
1759830038.8801088,2,16.000036176341634,5.999996662147996,3.1414724653119332,9.395806072948111e-06,True,0.010688543319702148,16.000036239624023,5.999996662139893,-3.141576051712036,9.395806072948111e-06,0.0,0.0
1759830038.8909612,2,16.000036176504583,5.999996662147652,3.1414775045304797,9.395806072948111e-06,True,0.010852336883544922,16.000036239624023,5.999996662139893,-3.141576051712036,9.395806072948111e-06,0.0,0.0
1759830038.9018955,2,16.000036176272477,5.9999966621473595,3.141482015558946,9.395806072948111e-06,True,0.01093435287475586,16.000036239624023,5.999996662139893,-3.141576051712036,9.395806072948111e-06,0.0,0.0
1759830038.9131532,2,16.000036175023553,5.999996662147202,3.14148552994906,9.395806072948111e-06,True,0.011257648468017578,16.000036239624023,5.999996662139893,-3.141576051712036,9.395806072948111e-06,0.0,0.0
1759830038.9293382,2,16.00003497626871,5.9999963674475705,3.1414771518340707,9.684975219189626e-06,True,0.01618504524230957,16.00003433227539,5.999996185302734,-3.141576051712036,9.684975219189626e-06,0.0,0.0
1759830038.9415967,2,16.000034532910586,5.999996254881089,3.1414820896395224,9.684975219189626e-06,True,0.012258529663085938,16.00003433227539,5.999996185302734,-3.141576051712036,9.684975219189626e-06,0.0,0.0
1759830038.9530013,2,16.00003436672214,5.999996211883938,3.1414896127851897,9.684975219189626e-06,True,0.01140451431274414,16.00003433227539,5.999996185302734,-3.141576051712036,9.684975219189626e-06,0.0,0.0
1759830038.9640565,2,16.000034304535916,5.999996195460039,3.1414969505089907,9.684975219189626e-06,True,0.011055231094360352,16.00003433227539,5.999996185302734,-3.141576051712036,9.684975219189626e-06,0.0,0.0
1759830038.9741216,2,16.000034284445793,5.9999961891860165,3.14150518729223,9.684975219189626e-06,True,0.010065078735351562,16.00003433227539,5.999996185302734,-3.141576051712036,9.684975219189626e-06,0.0,0.0
1759830038.984431,2,16.00003427586801,5.999996186789332,3.141511374377645,9.684975219189626e-06,True,0.010309457778930664,16.00003433227539,5.999996185302734,-3.141576051712036,9.684975219189626e-06,0.0,0.0
1759830038.9959562,2,16.000034268094325,5.99999618587402,3.1415140672082007,9.684975219189626e-06,True,0.011525154113769531,16.00003433227539,5.999996185302734,-3.141576051712036,9.684975219189626e-06,0.0,0.0
1759830039.0061736,2,16.000034269962754,5.9999961855239,3.1415191725070937,9.684975219189626e-06,True,0.010217428207397461,16.00003433227539,5.999996185302734,-3.141576051712036,9.684975219189626e-06,0.0,0.0
1759830039.0168064,2,16.000034269140002,5.999996185390089,3.1415228960033,9.684975219189626e-06,True,0.010632753372192383,16.00003433227539,5.999996185302734,-3.141576051712036,9.684975219189626e-06,0.0,0.0
1759830039.0271297,2,16.000034269970563,5.999996185338752,3.141526749129943,9.684975219189626e-06,True,0.010323286056518555,16.00003433227539,5.999996185302734,-3.141576051712036,9.684975219189626e-06,0.0,0.0
1759830039.0379164,2,16.00003426857322,5.999996185319112,3.1415293764345016,9.684975219189626e-06,True,0.010786771774291992,16.00003433227539,5.999996185302734,-3.141576051712036,9.684975219189626e-06,0.0,0.0
1759830039.0489805,2,16.00003426701373,5.999996185311573,3.141531422262405,9.684975219189626e-06,True,0.01106405258178711,16.00003433227539,5.999996185302734,-3.141576051712036,9.684975219189626e-06,0.0,0.0
1759830039.0598245,2,16.000034267232135,5.999996185308558,3.1415339147953105,9.684975219189626e-06,True,0.010843992233276367,16.00003433227539,5.999996185302734,-3.141576051712036,9.684975219189626e-06,0.0,0.0
1759830039.0710118,2,16.000034266045493,5.999996185307383,3.1415358564807647,9.684975219189626e-06,True,0.011187314987182617,16.00003433227539,5.999996185302734,-3.141576051712036,9.684975219189626e-06,0.0,0.0
1759830039.0821116,2,16.000034265915925,5.999996185306834,3.1415380286764965,9.684975219189626e-06,True,0.011099815368652344,16.00003433227539,5.999996185302734,-3.141576051712036,9.684975219189626e-06,0.0,0.0
1759830039.0934606,2,16.000034264944755,5.999996185306587,3.1415398917068664,9.684975219189626e-06,True,0.011348962783813477,16.00003433227539,5.999996185302734,-3.141576051712036,9.684975219189626e-06,0.0,0.0
1759830039.104558,2,16.0000342655043,5.9999961853063635,3.141542216949677,9.684975219189626e-06,True,0.011097431182861328,16.00003433227539,5.999996185302734,-3.141576051712036,9.684975219189626e-06,0.0,0.0
1759830039.115103,2,16.0000342677616,5.999996185306078,3.141545254953744,9.684975219189626e-06,True,0.010545015335083008,16.00003433227539,5.999996185302734,-3.141576051712036,9.684975219189626e-06,0.0,0.0
1759830039.1302207,2,16.000034249049033,5.999997364113088,3.1415421489447013,1.0145471451124822e-05,True,0.015117645263671875,16.00003433227539,5.999998092651367,-3.141576051712036,1.0145471451124822e-05,0.0,0.0
1759830039.1368427,2,16.000034274823715,5.9999978143757815,3.141551091934188,1.0145471451124822e-05,True,0.0066220760345458984,16.00003433227539,5.999998092651367,-3.141576051712036,1.0145471451124822e-05,0.0,0.0
1759830039.1469884,2,16.00003427101407,5.999997986361175,3.141554060924033,1.0145471451124822e-05,True,0.01014566421508789,16.00003433227539,5.999998092651367,-3.141576051712036,1.0145471451124822e-05,0.0,0.0
1759830039.1578693,2,16.000034266709527,5.9999980520537495,3.141555405998723,1.0145471451124822e-05,True,0.01088094711303711,16.00003433227539,5.999998092651367,-3.141576051712036,1.0145471451124822e-05,0.0,0.0
1759830039.1693456,2,16.000034262758295,5.999998077146111,3.141556082693164,1.0145471451124822e-05,True,0.011476278305053711,16.00003433227539,5.999998092651367,-3.141576051712036,1.0145471451124822e-05,0.0,0.0
1759830039.180705,2,16.00003426170178,5.999998086730492,3.1415571816329955,1.0145471451124822e-05,True,0.011359453201293945,16.00003433227539,5.999998092651367,-3.141576051712036,1.0145471451124822e-05,0.0,0.0
1759830039.1910877,2,16.000034265083553,5.999998090391213,3.1415595206615556,1.0145471451124822e-05,True,0.010382652282714844,16.00003433227539,5.999998092651367,-3.141576051712036,1.0145471451124822e-05,0.0,0.0
1759830039.2013173,2,16.000034266968434,5.9999980917893705,3.1415618220619237,1.0145471451124822e-05,True,0.01022958755493164,16.00003433227539,5.999998092651367,-3.141576051712036,1.0145471451124822e-05,0.0,0.0
1759830039.2114167,2,16.00003426819286,5.999998092323313,3.1415639689290327,1.0145471451124822e-05,True,0.010099411010742188,16.00003433227539,5.999998092651367,-3.141576051712036,1.0145471451124822e-05,0.0,0.0
1759830039.2228858,2,16.000034263352596,5.999998092527335,3.141564535697391,1.0145471451124822e-05,True,0.011469125747680664,16.00003433227539,5.999998092651367,-3.141576051712036,1.0145471451124822e-05,0.0,0.0
1759830039.2340279,2,16.000034262771404,5.9999980926052014,3.141565595660575,1.0145471451124822e-05,True,0.01114201545715332,16.00003433227539,5.999998092651367,-3.141576051712036,1.0145471451124822e-05,0.0,0.0
1759830039.2449028,2,16.000034263584208,5.999998092634868,3.141567027997551,1.0145471451124822e-05,True,0.01087498664855957,16.00003433227539,5.999998092651367,-3.141576051712036,1.0145471451124822e-05,0.0,0.0
1759830039.255253,2,16.00003426592823,5.999998092646087,3.14156890058932,1.0145471451124822e-05,True,0.010350227355957031,16.00003433227539,5.999998092651367,-3.141576051712036,1.0145471451124822e-05,0.0,0.0
1759830039.2661126,2,16.000034264850065,5.999998092650345,3.1415701667037172,1.0145471451124822e-05,True,0.010859489440917969,16.00003433227539,5.999998092651367,-3.141576051712036,1.0145471451124822e-05,0.0,0.0
1759830039.2762294,2,16.00003426731627,5.999998092651852,3.14157198373775,1.0145471451124822e-05,True,0.010116815567016602,16.00003433227539,5.999998092651367,-3.141576051712036,1.0145471451124822e-05,0.0,0.0
1759830039.2864397,2,16.000034267896098,5.999998092652365,3.141573531881317,1.0145471451124822e-05,True,0.010210275650024414,16.00003433227539,5.999998092651367,-3.141576051712036,1.0145471451124822e-05,0.0,0.0
1759830039.2969086,2,16.00003426711511,5.99999809265252,3.1415747124173556,1.0145471451124822e-05,True,0.01046895980834961,16.00003433227539,5.999998092651367,-3.141576051712036,1.0145471451124822e-05,0.0,0.0
1759830039.3083663,2,16.00003426298528,5.999998092652603,3.141575102341198,1.0145471451124822e-05,True,0.011457681655883789,16.00003433227539,5.999998092651367,-3.141576051712036,1.0145471451124822e-05,0.0,0.0
1759830039.3196461,2,16.000034262097074,5.9999980926526035,3.141575802601805,1.0145471451124822e-05,True,0.011279821395874023,16.00003433227539,5.999998092651367,-3.141576051712036,1.0145471451124822e-05,0.0,0.0
1759830039.3406425,2,16.000035411947984,5.999998387354664,3.1415702428391636,9.018577841707437e-06,True,0.0209963321685791,16.000036239624023,5.999998569488525,-3.141576051712036,9.018577841707437e-06,0.0,0.0
1759830039.3519459,2,16.00003588454198,5.999998499920443,3.141573058164944,9.018577841707437e-06,True,0.011303424835205078,16.000036239624023,5.999998569488525,-3.141576051712036,9.018577841707437e-06,0.0,0.0
1759830039.363195,2,16.000036065244082,5.999998542916632,3.1415758587713913,9.018577841707437e-06,True,0.011249065399169922,16.000036239624023,5.999998569488525,-3.141576051712036,9.018577841707437e-06,0.0,0.0
1759830039.3745368,2,16.000036133946658,5.999998559339614,3.141578074497863,9.018577841707437e-06,True,0.01134181022644043,16.000036239624023,5.999998569488525,-3.141576051712036,9.018577841707437e-06,0.0,0.0
1759830039.385999,2,16.00003615977395,5.999998565612556,3.141579824901733,9.018577841707437e-06,True,0.011462211608886719,16.000036239624023,5.999998569488525,-3.141576051712036,9.018577841707437e-06,0.0,0.0
1759830039.3964164,2,16.00003617323804,5.999998568008491,3.1415818714867854,9.018577841707437e-06,True,0.010417461395263672,16.000036239624023,5.999998569488525,-3.141576051712036,9.018577841707437e-06,0.0,0.0
1759830039.4066374,2,16.000036179057616,5.999998568923576,3.141583657937545,9.018577841707437e-06,True,0.010221004486083984,16.000036239624023,5.999998569488525,-3.141576051712036,9.018577841707437e-06,0.0,0.0
1759830039.417956,2,16.000036177499222,5.999998569273082,3.141584557922487,9.018577841707437e-06,True,0.011318683624267578,16.000036239624023,5.999998569488525,-3.141576051712036,9.018577841707437e-06,0.0,0.0
1759830039.4282207,2,16.000036180534945,5.999998569406515,3.141585889684663,9.018577841707437e-06,True,0.01026463508605957,16.000036239624023,5.999998569488525,-3.141576051712036,9.018577841707437e-06,0.0,0.0
1759830039.4410834,2,16.000036172744764,5.9999985694575,3.1415858276180764,9.018577841707437e-06,True,0.012862682342529297,16.000036239624023,5.999998569488525,-3.141576051712036,9.018577841707437e-06,0.0,0.0
1759830039.4520466,2,16.00003617631249,5.999998569476929,3.141586835421034,9.018577841707437e-06,True,0.010963201522827148,16.000036239624023,5.999998569488525,-3.141576051712036,9.018577841707437e-06,0.0,0.0
1759830039.462778,2,16.000036178473547,5.999998569484307,3.1415879113756287,9.018577841707437e-06,True,0.01073145866394043,16.000036239624023,5.999998569488525,-3.141576051712036,9.018577841707437e-06,0.0,0.0
1759830039.4734788,2,16.000036179404944,5.999998569487086,3.141588874534044,9.018577841707437e-06,True,0.010700702667236328,16.000036239624023,5.999998569488525,-3.141576051712036,9.018577841707437e-06,0.0,0.0
1759830039.4847,2,16.000036177967804,5.9999985694881195,3.1415895140495067,9.018577841707437e-06,True,0.011221170425415039,16.000036239624023,5.999998569488525,-3.141576051712036,9.018577841707437e-06,0.0,0.0
1759830039.4953094,2,16.000036179526326,5.999998569488482,3.1415903742734255,9.018577841707437e-06,True,0.01060938835144043,16.000036239624023,5.999998569488525,-3.141576051712036,9.018577841707437e-06,0.0,0.0
1759830039.506066,2,16.000036179614064,5.999998569488591,3.141591101209068,9.018577841707437e-06,True,0.010756731033325195,16.000036239624023,5.999998569488525,-3.141576051712036,9.018577841707437e-06,0.0,0.0
1759830039.5165477,2,16.00003618059536,5.999998569488604,3.1415918690648645,9.018577841707437e-06,True,0.010481595993041992,16.000036239624023,5.999998569488525,-3.141576051712036,9.018577841707437e-06,0.0,0.0
1759830039.5265915,2,16.00003618247809,5.9999985694885805,-3.1415925887459224,9.018577841707437e-06,True,0.010043859481811523,16.000036239624023,5.999998569488525,-3.141576051712036,9.018577841707437e-06,0.0,0.0
1759830039.5419037,2,16.000036217796218,5.999998569488547,3.141591645944626,0.0,True,0.01531219482421875,16.000036239624023,5.999998569488525,-3.141576051712036,0.0,0.0,0.0
1759830039.5522654,2,16.000036231286543,5.999998569488533,-3.1415926275750277,0.0,True,0.010361671447753906,16.000036239624023,5.999998569488525,-3.141576051712036,0.0,0.0,0.0
1759830039.5634928,2,16.00003623643939,5.999998569488528,-3.1415919171418505,0.0,True,0.01122736930847168,16.000036239624023,5.999998569488525,-3.141576051712036,0.0,0.0,0.0
1759830039.5746994,2,16.000036238407603,5.999998569488526,-3.1415912779942605,0.0,True,0.011206626892089844,16.000036239624023,5.999998569488525,-3.141576051712036,0.0,0.0,0.0
1759830039.585084,2,16.000036239159392,5.999998569488525,-3.141590444564123,0.0,True,0.010384559631347656,16.000036239624023,5.999998569488525,-3.141576051712036,0.0,0.0,0.0
1759830039.595677,2,16.00003623944655,5.999998569488525,-3.141589785005401,0.0,True,0.010592937469482422,16.000036239624023,5.999998569488525,-3.141576051712036,0.0,0.0,0.0
1759830039.6069272,2,16.000036239556234,5.999998569488525,-3.141589392853998,0.0,True,0.01125025749206543,16.000036239624023,5.999998569488525,-3.141576051712036,0.0,0.0,0.0
1759830039.6170683,2,16.00003623959813,5.999998569488525,-3.1415887069644644,0.0,True,0.010141134262084961,16.000036239624023,5.999998569488525,-3.141576051712036,0.0,0.0,0.0
1759830039.6283047,2,16.000036239614133,5.999998569488525,-3.1415883879508417,0.0,True,0.011236429214477539,16.000036239624023,5.999998569488525,-3.141576051712036,0.0,0.0,0.0
1759830039.6387053,2,16.000036239620247,5.999998569488525,-3.1415878563765194,0.0,True,0.010400533676147461,16.000036239624023,5.999998569488525,-3.141576051712036,0.0,0.0,0.0
1759830039.6496303,2,16.00003623962258,5.999998569488525,-3.1415874965940596,0.0,True,0.010925054550170898,16.000036239624023,5.999998569488525,-3.141576051712036,0.0,0.0,0.0
1759830039.6596606,2,16.000036239623473,5.999998569488525,-3.14158693730281,0.0,True,0.010030269622802734,16.000036239624023,5.999998569488525,-3.141576051712036,0.0,0.0,0.0
1759830039.6710207,2,16.000036239623814,5.999998569488525,-3.141586746722057,0.0,True,0.01136016845703125,16.000036239624023,5.999998569488525,-3.141576051712036,0.0,0.0,0.0
1759830039.6825142,2,16.00003623962394,5.999998569488525,-3.1415865577692372,0.0,True,0.011493444442749023,16.000036239624023,5.999998569488525,-3.141576051712036,0.0,0.0,0.0
1759830039.693151,2,16.00003623962399,5.999998569488525,-3.1415861383527,0.0,True,0.01063680648803711,16.000036239624023,5.999998569488525,-3.141576051712036,0.0,0.0,0.0
1759830039.7041845,2,16.000036239624013,5.999998569488525,-3.141585821585858,0.0,True,0.01103353500366211,16.000036239624023,5.999998569488525,-3.141576051712036,0.0,0.0,0.0
1759830039.7148366,2,16.00003623962402,5.999998569488525,-3.1415854371187883,0.0,True,0.01065206527709961,16.000036239624023,5.999998569488525,-3.141576051712036,0.0,0.0,0.0
1759830039.7253683,2,16.000036239624023,5.999998569488525,-3.1415850559084717,0.0,True,0.01053166389465332,16.000036239624023,5.999998569488525,-3.141576051712036,0.0,0.0,0.0
1759830039.7433286,2,16.000036239624023,5.999998569488525,-3.1415860586185644,0.0,True,0.017960309982299805,16.000036239624023,5.999998569488525,-3.141576051712036,0.0,0.0,0.0
1759830039.7542138,2,16.000036239624023,5.999998569488525,-3.1415854165134363,0.0,True,0.010885238647460938,16.000036239624023,5.999998569488525,-3.141576051712036,0.0,0.0,0.0
1759830039.7648046,2,16.000036239624023,5.999998569488525,-3.1415847412996936,0.0,True,0.010590791702270508,16.000036239624023,5.999998569488525,-3.141576051712036,0.0,0.0,0.0
1759830039.7755861,2,16.000036239624023,5.999998569488525,-3.1415842214268554,0.0,True,0.010781526565551758,16.000036239624023,5.999998569488525,-3.141576051712036,0.0,0.0,0.0
1759830039.7858777,2,16.000036239624023,5.999998569488525,-3.141583715701751,0.0,True,0.010291576385498047,16.000036239624023,5.999998569488525,-3.141576051712036,0.0,0.0,0.0
1759830039.7961562,2,16.000036239624023,5.999998569488525,-3.1415832948975293,0.0,True,0.010278463363647461,16.000036239624023,5.999998569488525,-3.141576051712036,0.0,0.0,0.0
1759830039.8066638,2,16.000036239624023,5.999998569488525,-3.141582976655034,0.0,True,0.010507583618164062,16.000036239624023,5.999998569488525,-3.141576051712036,0.0,0.0,0.0
1759830039.817039,2,16.000036239624023,5.999998569488525,-3.141582679793988,0.0,True,0.010375261306762695,16.000036239624023,5.999998569488525,-3.141576051712036,0.0,0.0,0.0
1759830039.8280354,2,16.000036239624023,5.999998569488525,-3.1415825010828193,0.0,True,0.010996341705322266,16.000036239624023,5.999998569488525,-3.141576051712036,0.0,0.0,0.0
1759830039.8388994,2,16.000036239624023,5.999998569488525,-3.1415823045732,0.0,True,0.010864019393920898,16.000036239624023,5.999998569488525,-3.141576051712036,0.0,0.0,0.0
1759830039.850178,2,16.000036239624023,5.999998569488525,-3.141582161262786,0.0,True,0.011278629302978516,16.000036239624023,5.999998569488525,-3.141576051712036,0.0,0.0,0.0
1759830039.8606305,2,16.000036239624023,5.999998569488525,-3.141581901876478,0.0,True,0.010452508926391602,16.000036239624023,5.999998569488525,-3.141576051712036,0.0,0.0,0.0
1759830039.8716044,2,16.000036239624023,5.999998569488525,-3.141581724709038,0.0,True,0.010973930358886719,16.000036239624023,5.999998569488525,-3.141576051712036,0.0,0.0,0.0
1759830039.8817654,2,16.000036239624023,5.999998569488525,-3.1415814575561374,0.0,True,0.01016092300415039,16.000036239624023,5.999998569488525,-3.141576051712036,0.0,0.0,0.0
1759830039.8919911,2,16.000036239624023,5.999998569488525,-3.1415812267529724,0.0,True,0.010225772857666016,16.000036239624023,5.999998569488525,-3.141576051712036,0.0,0.0,0.0
1759830039.9027991,2,16.000036239624023,5.999998569488525,-3.1415810864608567,0.0,True,0.010807991027832031,16.000036239624023,5.999998569488525,-3.141576051712036,0.0,0.0,0.0
1759830039.913732,2,16.000036239624023,5.999998569488525,-3.141580960138068,0.0,True,0.01093292236328125,16.000036239624023,5.999998569488525,-3.141576051712036,0.0,0.0,0.0
1759830039.924985,2,16.000036239624023,5.999998569488525,-3.14158085889132,0.0,True,0.011252880096435547,16.000036239624023,5.999998569488525,-3.141576051712036,0.0,0.0,0.0
1759830039.9371722,2,16.000036239624023,5.999998569488525,-3.1415808334500532,0.0,True,0.01218724250793457,16.000036239624023,5.999998569488525,-3.141576051712036,0.0,0.0,0.0
1759830039.947391,2,16.000036239624023,5.999998569488525,-3.1415805814269717,0.0,True,0.01021885871887207,16.000036239624023,5.999998569488525,-3.141576051712036,0.0,0.0,0.0
1759830039.9574344,2,16.000036239624023,5.999998569488525,-3.141580337096169,0.0,True,0.01004338264465332,16.000036239624023,5.999998569488525,-3.141576051712036,0.0,0.0,0.0
1759830039.9680202,2,16.000036239624023,5.999998569488525,-3.141580178579197,0.0,True,0.010585784912109375,16.000036239624023,5.999998569488525,-3.141576051712036,0.0,0.0,0.0
1759830039.979506,2,16.000036239624023,5.999998569488525,-3.1415801123817992,0.0,True,0.011485815048217773,16.000036239624023,5.999998569488525,-3.141576051712036,0.0,0.0,0.0
1759830039.9902954,2,16.000036239624023,5.999998569488525,-3.141579972608435,0.0,True,0.01078939437866211,16.000036239624023,5.999998569488525,-3.141576051712036,0.0,0.0,0.0
1759830040.0012832,2,16.000036239624023,5.999998569488525,-3.141579849989837,0.0,True,0.01098775863647461,16.000036239624023,5.999998569488525,-3.141576051712036,0.0,0.0,0.0
1759830040.0121825,2,16.000036239624023,5.999998569488525,-3.1415797220755906,0.0,True,0.01089930534362793,16.000036239624023,5.999998569488525,-3.141576051712036,0.0,0.0,0.0
1759830040.023376,2,16.000036239624023,5.999998569488525,-3.1415796194910897,0.0,True,0.011193513870239258,16.000036239624023,5.999998569488525,-3.141576051712036,0.0,0.0,0.0
1759830040.034188,2,16.000036239624023,5.999998569488525,-3.1415794867398343,0.0,True,0.010812044143676758,16.000036239624023,5.999998569488525,-3.141576051712036,0.0,0.0,0.0
1759830040.0443552,2,16.000036239624023,5.999998569488525,-3.141579315213532,0.0,True,0.010167121887207031,16.000036239624023,5.999998569488525,-3.141576051712036,0.0,0.0,0.0
1759830040.0558944,2,16.000036239624023,5.999998569488525,-3.141579257283693,0.0,True,0.011539220809936523,16.000036239624023,5.999998569488525,-3.141576051712036,0.0,0.0,0.0
1759830040.0664115,2,16.000036239624023,5.999998569488525,-3.1415791241295103,0.0,True,0.010517120361328125,16.000036239624023,5.999998569488525,-3.141576051712036,0.0,0.0,0.0
1759830040.0773473,2,16.000036239624023,5.999998569488525,-3.1415790253373164,0.0,True,0.010935783386230469,16.000036239624023,5.999998569488525,-3.141576051712036,0.0,0.0,0.0
1759830040.0883505,2,16.000036239624023,5.999998569488525,-3.141578934014383,0.0,True,0.011003255844116211,16.000036239624023,5.999998569488525,-3.141576051712036,0.0,0.0,0.0
1759830040.0983703,2,16.000036239624023,5.999998569488525,-3.1415787853102977,0.0,True,0.010019779205322266,16.000036239624023,5.999998569488525,-3.141576051712036,0.0,0.0,0.0
1759830040.1085868,2,16.000036239624023,5.999998569488525,-3.1415786661190737,0.0,True,0.010216474533081055,16.000036239624023,5.999998569488525,-3.141576051712036,0.0,0.0,0.0
1759830040.1188447,2,16.000036239624023,5.999998569488525,-3.1415785640763474,0.0,True,0.010257959365844727,16.000036239624023,5.999998569488525,-3.141576051712036,0.0,0.0,0.0
1759830040.1291835,2,16.000036239624023,5.999998569488525,-3.141578476153928,0.0,True,0.010338783264160156,16.000036239624023,5.999998569488525,-3.141576051712036,0.0,0.0,0.0
1759830040.1412475,2,16.00003622879998,5.999998864189943,-3.1415784831267572,2.3489515182370277e-06,True,0.012063980102539062,16.000036239624023,5.999999046325684,-3.141576051712036,2.3489515182370277e-06,0.0,0.0
1759830040.1519492,2,16.00003622588787,5.999998976755886,-3.141578399236524,2.3489515182370277e-06,True,0.010701656341552734,16.000036239624023,5.999999046325684,-3.141576051712036,2.3489515182370277e-06,0.0,0.0
1759830040.1623788,2,16.00003622501962,5.999999019752252,-3.1415783005948192,2.3489515182370277e-06,True,0.010429620742797852,16.000036239624023,5.999999046325684,-3.141576051712036,2.3489515182370277e-06,0.0,0.0
1759830040.172661,2,16.000036224820175,5.999999036175404,-3.141578203793017,2.3489515182370277e-06,True,0.010282278060913086,16.000036239624023,5.999999046325684,-3.141576051712036,2.3489515182370277e-06,0.0,0.0
1759830040.1835463,2,16.000036224203008,5.99999904244848,-3.141578144466255,2.3489515182370277e-06,True,0.010885238647460938,16.000036239624023,5.999999046325684,-3.141576051712036,2.3489515182370277e-06,0.0,0.0
1759830040.1945994,2,16.000036223816675,5.9999990448445795,-3.141578092568178,2.3489515182370277e-06,True,0.011053085327148438,16.000036239624023,5.999999046325684,-3.141576051712036,2.3489515182370277e-06,0.0,0.0
1759830040.205679,2,16.000036223645363,5.999999045759807,-3.1415780380062213,2.3489515182370277e-06,True,0.011079549789428711,16.000036239624023,5.999999046325684,-3.141576051712036,2.3489515182370277e-06,0.0,0.0
1759830040.215764,2,16.000036224472165,5.999999046109406,-3.1415779400650123,2.3489515182370277e-06,True,0.010085105895996094,16.000036239624023,5.999999046325684,-3.141576051712036,2.3489515182370277e-06,0.0,0.0
1759830040.225962,2,16.00003622468679,5.999999046242938,-3.1415778573511393,2.3489515182370277e-06,True,0.010197877883911133,16.000036239624023,5.999999046325684,-3.141576051712036,2.3489515182370277e-06,0.0,0.0
1759830040.2368581,2,16.000036224142217,5.999999046293933,-3.1415778112674246,2.3489515182370277e-06,True,0.01089620590209961,16.000036239624023,5.999999046325684,-3.141576051712036,2.3489515182370277e-06,0.0,0.0
1759830040.2484028,2,16.000036223352364,5.999999046313402,-3.1415777881827758,2.3489515182370277e-06,True,0.01154470443725586,16.000036239624023,5.999999046325684,-3.141576051712036,2.3489515182370277e-06,0.0,0.0
1759830040.2590346,2,16.000036223869742,5.99999904632085,-3.141577723126453,2.3489515182370277e-06,True,0.010631799697875977,16.000036239624023,5.999999046325684,-3.141576051712036,2.3489515182370277e-06,0.0,0.0
1759830040.2700813,2,16.000036223695155,5.99999904632369,-3.141577674021704,2.3489515182370277e-06,True,0.011046648025512695,16.000036239624023,5.999999046325684,-3.141576051712036,2.3489515182370277e-06,0.0,0.0
1759830040.2815366,2,16.00003622326182,5.999999046324768,-3.1415776382454563,2.3489515182370277e-06,True,0.011455297470092773,16.000036239624023,5.999999046325684,-3.141576051712036,2.3489515182370277e-06,0.0,0.0
1759830040.292989,2,16.000036223098867,5.999999046325179,-3.1415775975857834,2.3489515182370277e-06,True,0.011452436447143555,16.000036239624023,5.999999046325684,-3.141576051712036,2.3489515182370277e-06,0.0,0.0
1759830040.3045957,2,16.00003622289822,5.9999990463253345,-3.141577557681426,2.3489515182370277e-06,True,0.011606693267822266,16.000036239624023,5.999999046325684,-3.141576051712036,2.3489515182370277e-06,0.0,0.0
1759830040.314947,2,16.000036223948054,5.99999904632541,-3.1415774771609595,2.3489515182370277e-06,True,0.010351181030273438,16.000036239624023,5.999999046325684,-3.141576051712036,2.3489515182370277e-06,0.0,0.0
1759830040.3262556,2,16.000036223489975,5.999999046325425,-3.14157743319603,2.3489515182370277e-06,True,0.011308670043945312,16.000036239624023,5.999999046325684,-3.141576051712036,2.3489515182370277e-06,0.0,0.0
1759830040.3406582,2,16.000036233461365,5.999999046325585,-3.1415774745735714,0.0,True,0.014402627944946289,16.000036239624023,5.999999046325684,-3.141576051712036,0.0,0.0,0.0
1759830040.34754,2,16.0000362372701,5.999999046325646,-3.141577291157816,0.0,True,0.0068817138671875,16.000036239624023,5.999999046325684,-3.141576051712036,0.0,0.0,0.0
1759830040.3579297,2,16.000036238724903,5.999999046325669,-3.1415772338539636,0.0,True,0.01038980484008789,16.000036239624023,5.999999046325684,-3.141576051712036,0.0,0.0,0.0
1759830040.368261,2,16.00003623928059,5.999999046325678,-3.14157718903369,0.0,True,0.010331392288208008,16.000036239624023,5.999999046325684,-3.141576051712036,0.0,0.0,0.0
1759830040.379351,2,16.000036239492843,5.999999046325682,-3.141577166704838,0.0,True,0.011089801788330078,16.000036239624023,5.999999046325684,-3.141576051712036,0.0,0.0,0.0
1759830040.3895729,2,16.000036239573916,5.999999046325683,-3.1415771214218378,0.0,True,0.01022195816040039,16.000036239624023,5.999999046325684,-3.141576051712036,0.0,0.0,0.0
1759830040.400931,2,16.000036239604885,5.999999046325684,-3.141577104756484,0.0,True,0.011358022689819336,16.000036239624023,5.999999046325684,-3.141576051712036,0.0,0.0,0.0
1759830040.412207,2,16.000036239616712,5.999999046325684,-3.1415770823777773,0.0,True,0.011276006698608398,16.000036239624023,5.999999046325684,-3.141576051712036,0.0,0.0,0.0
1759830040.4230273,2,16.00003623962123,5.999999046325684,-3.1415770466002986,0.0,True,0.010820388793945312,16.000036239624023,5.999999046325684,-3.141576051712036,0.0,0.0,0.0
1759830040.4345021,2,16.000036239622958,5.999999046325684,-3.1415770246608545,0.0,True,0.011474847793579102,16.000036239624023,5.999999046325684,-3.141576051712036,0.0,0.0,0.0
1759830040.4469304,2,16.000036239623615,5.999999046325684,-3.14157701855412,0.0,True,0.01242828369140625,16.000036239624023,5.999999046325684,-3.141576051712036,0.0,0.0,0.0
1759830040.457471,2,16.000036239623867,5.999999046325684,-3.141576968834501,0.0,True,0.010540485382080078,16.000036239624023,5.999999046325684,-3.141576051712036,0.0,0.0,0.0
1759830040.4689908,2,16.000036239623963,5.999999046325684,-3.141576940948342,0.0,True,0.011519908905029297,16.000036239624023,5.999999046325684,-3.141576051712036,0.0,0.0,0.0
1759830040.4804115,2,16.000036239624002,5.999999046325684,-3.1415769118067267,0.0,True,0.011420726776123047,16.000036239624023,5.999999046325684,-3.141576051712036,0.0,0.0,0.0
1759830040.49184,2,16.000036239624016,5.999999046325684,-3.141576882751501,0.0,True,0.011428356170654297,16.000036239624023,5.999999046325684,-3.141576051712036,0.0,0.0,0.0
1759830040.5018682,2,16.00003623962402,5.999999046325684,-3.1415768314481465,0.0,True,0.010028362274169922,16.000036239624023,5.999999046325684,-3.141576051712036,0.0,0.0,0.0
1759830040.512241,2,16.000036239624023,5.999999046325684,-3.141576793131481,0.0,True,0.010372638702392578,16.000036239624023,5.999999046325684,-3.141576051712036,0.0,0.0,0.0
1759830040.5231311,2,16.000036239624023,5.999999046325684,-3.141576768376762,0.0,True,0.01089024543762207,16.000036239624023,5.999999046325684,-3.141576051712036,0.0,0.0,0.0
1759830040.534383,2,16.000036239624023,5.999999046325684,-3.1415767503729555,0.0,True,0.01125192642211914,16.000036239624023,5.999999046325684,-3.141576051712036,0.0,0.0,0.0
1759830040.5453286,2,16.000036190521172,5.9999975728170485,-3.141576726948383,1.1744757591185138e-05,True,0.010945558547973633,16.000036239624023,5.999996662139893,-3.141576051712036,1.1744757591185138e-05,0.0,0.0
1759830040.556233,2,16.000036171950587,5.999997009986834,-3.141576703280805,1.1744757591185138e-05,True,0.010904312133789062,16.000036239624023,5.999996662139893,-3.141576051712036,1.1744757591185138e-05,0.0,0.0
1759830040.5674798,2,16.000036163320285,5.9999967950047965,-3.141576685059963,1.1744757591185138e-05,True,0.011246919631958008,16.000036239624023,5.999996662139893,-3.141576051712036,1.1744757591185138e-05,0.0,0.0
1759830040.57809,2,16.000036162880622,5.99999671288901,-3.141576658285649,1.1744757591185138e-05,True,0.010610103607177734,16.000036239624023,5.999996662139893,-3.141576051712036,1.1744757591185138e-05,0.0,0.0
1759830040.5888932,2,16.000036161846335,5.999996681523555,-3.141576635928809,1.1744757591185138e-05,True,0.01080322265625,16.000036239624023,5.999996662139893,-3.141576051712036,1.1744757591185138e-05,0.0,0.0
1759830040.600181,2,16.00003615927684,5.999996669542981,-3.1415766208429403,1.1744757591185138e-05,True,0.011287927627563477,16.000036239624023,5.999996662139893,-3.141576051712036,1.1744757591185138e-05,0.0,0.0
1759830040.6109753,2,16.000036160510454,5.999996664966845,-3.14157659940636,1.1744757591185138e-05,True,0.01079416275024414,16.000036239624023,5.999996662139893,-3.141576051712036,1.1744757591185138e-05,0.0,0.0
1759830040.6223407,2,16.00003615841897,5.999996663218873,-3.1415765852596635,1.1744757591185138e-05,True,0.011365413665771484,16.000036239624023,5.999996662139893,-3.141576051712036,1.1744757591185138e-05,0.0,0.0
1759830040.6330607,2,16.000036160515414,5.999996662551253,-3.141576563548435,1.1744757591185138e-05,True,0.010720014572143555,16.000036239624023,5.999996662139893,-3.141576051712036,1.1744757591185138e-05,0.0,0.0
1759830040.6444757,2,16.00003615819839,5.999996662296194,-3.1415765503642845,1.1744757591185138e-05,True,0.01141500473022461,16.000036239624023,5.999996662139893,-3.141576051712036,1.1744757591185138e-05,0.0,0.0
1759830040.6558878,2,16.0000361573262,5.99999666219877,-3.1415765365571744,1.1744757591185138e-05,True,0.01141214370727539,16.000036239624023,5.999996662139893,-3.141576051712036,1.1744757591185138e-05,0.0,0.0
1759830040.6671457,2,16.000036157685066,5.999996662161568,-3.1415765204910926,1.1744757591185138e-05,True,0.01125788688659668,16.000036239624023,5.999996662139893,-3.141576051712036,1.1744757591185138e-05,0.0,0.0
1759830040.678337,2,16.00003615812055,5.999996662147361,-3.14157650387223,1.1744757591185138e-05,True,0.011191368103027344,16.000036239624023,5.999996662139893,-3.141576051712036,1.1744757591185138e-05,0.0,0.0
1759830040.68863,2,16.000036162317027,5.999996662141999,-3.1415764797875703,1.1744757591185138e-05,True,0.010293006896972656,16.000036239624023,5.999996662139893,-3.141576051712036,1.1744757591185138e-05,0.0,0.0
1759830040.6990695,2,16.000036163263225,5.99999666213994,-3.1415764600529634,1.1744757591185138e-05,True,0.010439395904541016,16.000036239624023,5.999996662139893,-3.141576051712036,1.1744757591185138e-05,0.0,0.0
1759830040.7093542,2,16.00003616431879,5.999996662139163,-3.1415764415752054,1.1744757591185138e-05,True,0.010284662246704102,16.000036239624023,5.999996662139893,-3.141576051712036,1.1744757591185138e-05,0.0,0.0
1759830040.720672,2,16.000036160087536,5.999996662138791,-3.141576433693908,1.1744757591185138e-05,True,0.011317729949951172,16.000036239624023,5.999996662139893,-3.141576051712036,1.1744757591185138e-05,0.0,0.0
1759830040.7320585,2,16.000036158162235,5.999996662138644,-3.1415764255279583,1.1744757591185138e-05,True,0.011386632919311523,16.000036239624023,5.999996662139893,-3.141576051712036,1.1744757591185138e-05,0.0,0.0
1759830040.7444155,2,16.00003616437802,5.999997840944983,-3.1415764232979004,9.349748200073947e-06,True,0.012356996536254883,16.000036239624023,5.999998569488525,-3.141576051712036,9.349748200073947e-06,0.0,0.0
1759830040.7558963,2,16.00003616988136,5.999998291208989,-3.1415764115318954,9.349748200073947e-06,True,0.01148080825805664,16.000036239624023,5.999998569488525,-3.141576051712036,9.349748200073947e-06,0.0,0.0
1759830040.7661397,2,16.000036176402528,5.999998463194607,-3.141576390506085,9.349748200073947e-06,True,0.010243415832519531,16.000036239624023,5.999998569488525,-3.141576051712036,9.349748200073947e-06,0.0,0.0
1759830040.7762916,2,16.000036179220352,5.9999985288872715,-3.1415763717289025,9.349748200073947e-06,True,0.010151863098144531,16.000036239624023,5.999998569488525,-3.141576051712036,9.349748200073947e-06,0.0,0.0
1759830040.786998,2,16.00003617831617,5.999998553979604,-3.141576359610518,9.349748200073947e-06,True,0.010706424713134766,16.000036239624023,5.999998569488525,-3.141576051712036,9.349748200073947e-06,0.0,0.0
1759830040.7979846,2,16.000036176970333,5.999998563564006,-3.1415763504568375,9.349748200073947e-06,True,0.010986566543579102,16.000036239624023,5.999998569488525,-3.141576051712036,9.349748200073947e-06,0.0,0.0
1759830040.8086503,2,16.000036177602336,5.99999856722494,-3.1415763394244838,9.349748200073947e-06,True,0.010665655136108398,16.000036239624023,5.999998569488525,-3.141576051712036,9.349748200073947e-06,0.0,0.0
1759830040.8189251,2,16.000036179239288,5.9999985686233135,-3.141576326663092,9.349748200073947e-06,True,0.010274887084960938,16.000036239624023,5.999998569488525,-3.141576051712036,9.349748200073947e-06,0.0,0.0
1759830040.8300436,2,16.000036176852078,5.999998569157396,-3.1415763200726996,9.349748200073947e-06,True,0.011118412017822266,16.000036239624023,5.999998569488525,-3.141576051712036,9.349748200073947e-06,0.0,0.0
1759830040.8409853,2,16.000036176571175,5.999998569361407,-3.141576312242071,9.349748200073947e-06,True,0.010941743850708008,16.000036239624023,5.999998569488525,-3.141576051712036,9.349748200073947e-06,0.0,0.0
1759830040.8516011,2,16.00003617762783,5.9999985694393505,-3.1415763024862997,9.349748200073947e-06,True,0.010615825653076172,16.000036239624023,5.999998569488525,-3.141576051712036,9.349748200073947e-06,0.0,0.0
1759830040.8624654,2,16.000036177144214,5.999998569469108,-3.1415762945517525,9.349748200073947e-06,True,0.0108642578125,16.000036239624023,5.999998569488525,-3.141576051712036,9.349748200073947e-06,0.0,0.0
1759830040.8738005,2,16.000036175277852,5.9999985694804465,-3.1415762891647105,9.349748200073947e-06,True,0.011335134506225586,16.000036239624023,5.999998569488525,-3.141576051712036,9.349748200073947e-06,0.0,0.0
1759830040.8844004,2,16.00003617719087,5.99999856948482,-3.1415762796378175,9.349748200073947e-06,True,0.010599851608276367,16.000036239624023,5.999998569488525,-3.141576051712036,9.349748200073947e-06,0.0,0.0
1759830040.8947334,2,16.000036178874364,5.999998569486506,-3.1415762694235774,9.349748200073947e-06,True,0.010333061218261719,16.000036239624023,5.999998569488525,-3.141576051712036,9.349748200073947e-06,0.0,0.0
1759830040.905444,2,16.000036178169537,5.999998569487127,-3.1415762620266534,9.349748200073947e-06,True,0.010710477828979492,16.000036239624023,5.999998569488525,-3.141576051712036,9.349748200073947e-06,0.0,0.0
1759830040.916227,2,16.000036177640624,5.99999856948736,-3.14157625539049,9.349748200073947e-06,True,0.010783195495605469,16.000036239624023,5.999998569488525,-3.141576051712036,9.349748200073947e-06,0.0,0.0
1759830040.9266293,2,16.00003617879923,5.999998569487471,-3.141576247291221,9.349748200073947e-06,True,0.010402202606201172,16.000036239624023,5.999998569488525,-3.141576051712036,9.349748200073947e-06,0.0,0.0
1759830040.937093,2,16.000036179022104,5.999998569487509,-3.1415762400582548,9.349748200073947e-06,True,0.010463714599609375,16.000036239624023,5.999998569488525,-3.141576051712036,9.349748200073947e-06,0.0,0.0
1759830040.951107,2,16.00003621647615,5.999998569488137,-3.141576247257726,0.0,True,0.014014005661010742,16.000036239624023,5.999998569488525,-3.141576051712036,0.0,0.0,0.0
1759830040.9613934,2,16.000036230782325,5.999998569488377,-3.141576236449371,0.0,True,0.010286331176757812,16.000036239624023,5.999998569488525,-3.141576051712036,0.0,0.0,0.0
1759830040.9721205,2,16.000036236246796,5.9999985694884685,-3.1415762278620853,0.0,True,0.010727167129516602,16.000036239624023,5.999998569488525,-3.141576051712036,0.0,0.0,0.0
1759830040.9833648,2,16.000036238334037,5.999998569488504,-3.1415762221618504,0.0,True,0.01124429702758789,16.000036239624023,5.999998569488525,-3.141576051712036,0.0,0.0,0.0
1759830040.9933794,2,16.000036239131294,5.999998569488517,-3.141576212485571,0.0,True,0.010014533996582031,16.000036239624023,5.999998569488525,-3.141576051712036,0.0,0.0,0.0
1759830041.0036125,2,16.00003623943582,5.999998569488523,-3.1415762048545997,0.0,True,0.010233163833618164,16.000036239624023,5.999998569488525,-3.141576051712036,0.0,0.0,0.0
1759830041.0144796,2,16.000036239552134,5.9999985694885245,-3.1415762003242236,0.0,True,0.010867118835449219,16.000036239624023,5.999998569488525,-3.141576051712036,0.0,0.0,0.0
1759830041.0260155,2,16.000036239596565,5.999998569488525,-3.141576197987339,0.0,True,0.011535882949829102,16.000036239624023,5.999998569488525,-3.141576051712036,0.0,0.0,0.0
1759830041.0364516,2,16.000036239613536,5.999998569488525,-3.1415761917212564,0.0,True,0.010436058044433594,16.000036239624023,5.999998569488525,-3.141576051712036,0.0,0.0,0.0
1759830041.0470467,2,16.000036239620016,5.999998569488525,-3.1415761863227942,0.0,True,0.010595083236694336,16.000036239624023,5.999998569488525,-3.141576051712036,0.0,0.0,0.0
1759830041.0579417,2,16.000036239622492,5.999998569488525,-3.141576182202865,0.0,True,0.010895013809204102,16.000036239624023,5.999998569488525,-3.141576051712036,0.0,0.0,0.0
1759830041.0691109,2,16.000036239623437,5.999998569488525,-3.1415761788929792,0.0,True,0.011169195175170898,16.000036239624023,5.999998569488525,-3.141576051712036,0.0,0.0,0.0
1759830041.0802581,2,16.0000362396238,5.999998569488525,-3.1415761753189173,0.0,True,0.011147260665893555,16.000036239624023,5.999998569488525,-3.141576051712036,0.0,0.0,0.0
1759830041.0910108,2,16.000036239623938,5.999998569488525,-3.1415761706102323,0.0,True,0.010752677917480469,16.000036239624023,5.999998569488525,-3.141576051712036,0.0,0.0,0.0
1759830041.1026273,2,16.00003623962399,5.999998569488525,-3.1415761682224446,0.0,True,0.01161646842956543,16.000036239624023,5.999998569488525,-3.141576051712036,0.0,0.0,0.0
1759830041.1134367,2,16.000036239624013,5.999998569488525,-3.141576163602199,0.0,True,0.01080942153930664,16.000036239624023,5.999998569488525,-3.141576051712036,0.0,0.0,0.0
1759830041.123582,2,16.00003623962402,5.999998569488525,-3.1415761577053445,0.0,True,0.010145187377929688,16.000036239624023,5.999998569488525,-3.141576051712036,0.0,0.0,0.0
1759830041.134636,2,16.000036239624023,5.999998569488525,-3.1415761545731478,0.0,True,0.011054039001464844,16.000036239624023,5.999998569488525,-3.141576051712036,0.0,0.0,0.0
1759830041.152321,2,16.000036239624023,5.999998569488525,-3.1415761651720224,0.0,True,0.0176851749420166,16.000036239624023,5.999998569488525,-3.141576051712036,0.0,0.0,0.0
1759830041.1600175,2,16.000036239624023,5.999998569488525,-3.1415761515537266,0.0,True,0.007696390151977539,16.000036239624023,5.999998569488525,-3.141576051712036,0.0,0.0,0.0
1759830041.170477,2,16.000036239624023,5.999998569488525,-3.1415761454208244,0.0,True,0.010459423065185547,16.000036239624023,5.999998569488525,-3.141576051712036,0.0,0.0,0.0
1759830041.1819525,2,16.000036239624023,5.999998569488525,-3.141576142607125,0.0,True,0.011475563049316406,16.000036239624023,5.999998569488525,-3.141576051712036,0.0,0.0,0.0
1759830041.1933794,2,16.000036239624023,5.999998569488525,-3.1415761398186355,0.0,True,0.011426925659179688,16.000036239624023,5.999998569488525,-3.141576051712036,0.0,0.0,0.0
1759830041.204782,2,16.000036239624023,5.999998569488525,-3.1415761369396797,0.0,True,0.011402606964111328,16.000036239624023,5.999998569488525,-3.141576051712036,0.0,0.0,0.0
1759830041.2156808,2,16.000036239624023,5.999998569488525,-3.141576133230007,0.0,True,0.010898828506469727,16.000036239624023,5.999998569488525,-3.141576051712036,0.0,0.0,0.0
1759830041.2264955,2,16.000036239624023,5.999998569488525,-3.141576129687696,0.0,True,0.010814666748046875,16.000036239624023,5.999998569488525,-3.141576051712036,0.0,0.0,0.0
1759830041.237885,2,16.000036239624023,5.999998569488525,-3.1415761273853597,0.0,True,0.011389493942260742,16.000036239624023,5.999998569488525,-3.141576051712036,0.0,0.0,0.0
1759830041.249378,2,16.000036239624023,5.999998569488525,-3.1415761252421124,0.0,True,0.01149296760559082,16.000036239624023,5.999998569488525,-3.141576051712036,0.0,0.0,0.0
1759830041.2610528,2,16.000036239624023,5.999998569488525,-3.1415761232665513,0.0,True,0.011674880981445312,16.000036239624023,5.999998569488525,-3.141576051712036,0.0,0.0,0.0
1759830041.271442,2,16.000036239624023,5.999998569488525,-3.1415761193713596,0.0,True,0.010389089584350586,16.000036239624023,5.999998569488525,-3.141576051712036,0.0,0.0,0.0
1759830041.2827919,2,16.000036239624023,5.999998569488525,-3.1415761172339263,0.0,True,0.011349916458129883,16.000036239624023,5.999998569488525,-3.141576051712036,0.0,0.0,0.0
1759830041.2936041,2,16.000036239624023,5.999998569488525,-3.141576114492681,0.0,True,0.01081228256225586,16.000036239624023,5.999998569488525,-3.141576051712036,0.0,0.0,0.0
1759830041.3049943,2,16.000036239624023,5.999998569488525,-3.141576112681445,0.0,True,0.011390209197998047,16.000036239624023,5.999998569488525,-3.141576051712036,0.0,0.0,0.0
1759830041.3158867,2,16.000036239624023,5.999998569488525,-3.1415761102590487,0.0,True,0.010892391204833984,16.000036239624023,5.999998569488525,-3.141576051712036,0.0,0.0,0.0
1759830041.3264413,2,16.000036239624023,5.999998569488525,-3.141576107588026,0.0,True,0.01055455207824707,16.000036239624023,5.999998569488525,-3.141576051712036,0.0,0.0,0.0
1759830041.3371825,2,16.000036239624023,5.999998569488525,-3.1415761054156413,0.0,True,0.010741233825683594,16.000036239624023,5.999998569488525,-3.141576051712036,0.0,0.0,0.0
1759830041.3567972,2,16.000036239624023,5.999998569488525,-3.141576112882788,0.0,True,0.019614696502685547,16.000036239624023,5.999998569488525,-3.141576051712036,0.0,0.0,0.0
1759830041.3672817,2,16.000036239624023,5.999998569488525,-3.1415761080410505,0.0,True,0.010484457015991211,16.000036239624023,5.999998569488525,-3.141576051712036,0.0,0.0,0.0
1759830041.3782814,2,16.000036239624023,5.999998569488525,-3.1415761040008707,0.0,True,0.010999679565429688,16.000036239624023,5.999998569488525,-3.141576051712036,0.0,0.0,0.0
1759830041.3885443,2,16.000036239624023,5.999998569488525,-3.1415761000478746,0.0,True,0.01026296615600586,16.000036239624023,5.999998569488525,-3.141576051712036,0.0,0.0,0.0
1759830041.3995042,2,16.000036239624023,5.999998569488525,-3.141576097517307,0.0,True,0.010959863662719727,16.000036239624023,5.999998569488525,-3.141576051712036,0.0,0.0,0.0
1759830041.4107559,2,16.000036239624023,5.999998569488525,-3.141576095658756,0.0,True,0.011251688003540039,16.000036239624023,5.999998569488525,-3.141576051712036,0.0,0.0,0.0
1759830041.4212325,2,16.000036239624023,5.999998569488525,-3.141576093312775,0.0,True,0.01047658920288086,16.000036239624023,5.999998569488525,-3.141576051712036,0.0,0.0,0.0
1759830041.4316385,2,16.000036239624023,5.999998569488525,-3.141576091221273,0.0,True,0.010406017303466797,16.000036239624023,5.999998569488525,-3.141576051712036,0.0,0.0,0.0
1759830041.4422572,2,16.000036239624023,5.999998569488525,-3.1415760895994644,0.0,True,0.01061868667602539,16.000036239624023,5.999998569488525,-3.141576051712036,0.0,0.0,0.0
1759830041.4527059,2,16.000036239624023,5.999998569488525,-3.141576088021967,0.0,True,0.010448694229125977,16.000036239624023,5.999998569488525,-3.141576051712036,0.0,0.0,0.0
