timestamp,vehicle_id,x,y,theta,velocity,gps_available,dt,gps_x,gps_y,gps_theta,gps_velocity,control_steering,control_acceleration
1759830037.3187184,0,0.0,6.0,-0.05483113549895435,0.0,False,0.01,nan,nan,nan,nan,0.0,0.0
1759830037.3292553,0,0.0,6.0,-0.05483113549895435,0.0,False,0.010536909103393555,nan,nan,nan,nan,0.0,0.0
1759830037.340445,0,0.0,6.0,-0.05483113549895435,0.0,False,0.011189699172973633,nan,nan,nan,nan,0.0,0.0
1759830037.350827,0,0.0,6.0,-0.05483113549895435,0.0,False,0.010381937026977539,nan,nan,nan,nan,0.0,0.0
1759830037.3619661,0,0.0,6.0,-0.05483113549895435,0.0,False,0.011139154434204102,nan,nan,nan,nan,0.0,0.0
1759830037.3725686,0,0.0,6.0,-0.05483113549895435,0.0,False,0.010602474212646484,nan,nan,nan,nan,0.0,0.0
1759830037.3833356,0,0.0,6.0,-0.05483113549895435,0.0,False,0.010766983032226562,nan,nan,nan,nan,0.0,0.0
1759830037.3946233,0,0.0,6.0,-0.05483113549895435,0.0,False,0.011287689208984375,nan,nan,nan,nan,0.0,0.0
1759830037.4055204,0,0.0,6.0,-0.05483113549895435,0.0,False,0.010897159576416016,nan,nan,nan,nan,0.0,0.0
1759830037.4158604,0,0.0,6.0,-0.05483113549895435,0.0,False,0.010339975357055664,nan,nan,nan,nan,0.0,0.0
1759830037.4262738,0,0.0,6.0,-0.05483113549895435,0.0,False,0.010413408279418945,nan,nan,nan,nan,0.0,0.0
1759830037.4377341,0,0.0,6.0,-0.05483113549895435,0.0,False,0.011460304260253906,nan,nan,nan,nan,0.0,0.0
1759830037.4481556,0,0.0,6.0,-0.05483113549895435,0.0,False,0.010421514511108398,nan,nan,nan,nan,0.0,0.0
1759830037.4590027,0,0.0,6.0,-0.05483113549895435,0.0,False,0.010847091674804688,nan,nan,nan,nan,0.0,0.0
1759830037.4705226,0,0.0,6.0,-0.05483113549895435,0.0,False,0.011519908905029297,nan,nan,nan,nan,0.0,0.0
1759830037.4813883,0,0.0,6.0,-0.05483113549895435,0.0,False,0.01086568832397461,nan,nan,nan,nan,0.0,0.0
1759830037.4925506,0,0.0,6.0,-0.05483113549895435,0.0,False,0.011162281036376953,nan,nan,nan,nan,0.0,0.0
1759830037.5038683,0,0.0,6.0,-0.05483113549895435,0.0,False,0.011317729949951172,nan,nan,nan,nan,0.0,0.0
1759830037.5140877,0,0.0,5.999996689955394,-2.8798466424190217,0.0,True,0.010219335556030273,0.0,5.999996662139893,3.141591787338257,0.0,0.0,0.0
1759830037.525173,0,0.0,5.999996671437553,-3.1212057647695346,0.0,True,0.011085271835327148,0.0,5.999996662139893,3.141591787338257,0.0,0.0,0.0
1759830037.535374,0,0.0,5.999996665627729,3.1394499630439334,0.0,True,0.010200977325439453,0.0,5.999996662139893,3.141591787338257,0.0,0.0,0.0
1759830037.5466974,0,0.0,5.999996663468658,3.1363151529209574,0.0,True,0.01132345199584961,0.0,5.999996662139893,3.141591787338257,0.0,0.0,0.0
1759830037.557469,0,0.0,5.999996662647243,3.136007487293936,0.0,True,0.010771512985229492,0.0,5.999996662139893,3.141591787338257,0.0,0.0,0.0
1759830037.5690603,0,0.0,5.999996662333673,3.1363029038909023,0.0,True,0.011591434478759766,0.0,5.999996662139893,3.141591787338257,0.0,0.0,0.0
1759830037.579594,0,0.0,5.99999666221391,3.13695821738955,0.0,True,0.010533571243286133,0.0,5.999996662139893,3.141591787338257,0.0,0.0,0.0
1759830037.5897164,0,0.0,5.999996662168164,3.137595344028135,0.0,True,0.010122537612915039,0.0,5.999996662139893,3.141591787338257,0.0,0.0,0.0
1759830037.5999255,0,0.0,5.999996662150691,3.138112695515659,0.0,True,0.010209083557128906,0.0,5.999996662139893,3.141591787338257,0.0,0.0,0.0
1759830037.6107094,0,0.0,5.999996662144017,3.1385052752943956,0.0,True,0.010783910751342773,0.0,5.999996662139893,3.141591787338257,0.0,0.0,0.0
1759830037.620988,0,0.0,5.999996662141468,3.1388715959280287,0.0,True,0.010278463363647461,0.0,5.999996662139893,3.141591787338257,0.0,0.0,0.0
1759830037.6315436,0,0.0,5.999996662140495,3.1391618504605,0.0,True,0.010555744171142578,0.0,5.999996662139893,3.141591787338257,0.0,0.0,0.0
1759830037.642749,0,0.0,5.999996662140123,3.1393812494412963,0.0,True,0.011205434799194336,0.0,5.999996662139893,3.141591787338257,0.0,0.0,0.0
1759830037.652949,0,0.0,5.9999966621399805,3.1396172324023244,0.0,True,0.010200023651123047,0.0,5.999996662139893,3.141591787338257,0.0,0.0,0.0
1759830037.663422,0,0.0,5.999996662139926,3.1398030391333123,0.0,True,0.010473012924194336,0.0,5.999996662139893,3.141591787338257,0.0,0.0,0.0
1759830037.674127,0,0.0,5.999996662139906,3.1399524135526136,0.0,True,0.010704994201660156,0.0,5.999996662139893,3.141591787338257,0.0,0.0,0.0
1759830037.684854,0,0.0,5.999996662139898,3.1400824958644815,0.0,True,0.0107269287109375,0.0,5.999996662139893,3.141591787338257,0.0,0.0,0.0
1759830037.6951766,0,0.0,5.999996662139894,3.1402085371250212,0.0,True,0.01032257080078125,0.0,5.999996662139893,3.141591787338257,0.0,0.0,0.0
1759830037.7060266,0,0.0,5.9999966621398935,3.140303030787271,0.0,True,0.010849952697753906,0.0,5.999996662139893,3.141591787338257,0.0,0.0,0.0
1759830037.8197906,0,0.0,5.999996662139893,3.1394118287554083,0.0,True,0.1,0.0,5.999996662139893,3.141591787338257,0.0,0.0,0.0
1759830037.8303702,0,0.0,5.999996662139893,3.140120806884397,0.0,True,0.010579586029052734,0.0,5.999996662139893,3.141591787338257,0.0,0.0,0.0
1759830037.8410716,0,0.0,5.999996662139893,3.140547615970881,0.0,True,0.010701417922973633,0.0,5.999996662139893,3.141591787338257,0.0,0.0,0.0
1759830037.8526306,0,0.0,5.999996662139893,3.1407868228363185,0.0,True,0.011559009552001953,0.0,5.999996662139893,3.141591787338257,0.0,0.0,0.0
1759830037.8629243,0,0.0,5.999996662139893,3.140945658408288,0.0,True,0.010293722152709961,0.0,5.999996662139893,3.141591787338257,0.0,0.0,0.0
1759830037.8736618,0,0.0,5.999996662139893,3.1410483473550634,0.0,True,0.010737419128417969,0.0,5.999996662139893,3.141591787338257,0.0,0.0,0.0
1759830037.8844173,0,0.0,5.999996662139893,3.1411194391889428,0.0,True,0.010755538940429688,0.0,5.999996662139893,3.141591787338257,0.0,0.0,0.0
1759830037.8945553,0,0.0,5.999996662139893,3.141174971676083,0.0,True,0.01013803482055664,0.0,5.999996662139893,3.141591787338257,0.0,0.0,0.0
1759830037.905048,0,0.0,5.999996662139893,3.141213590203739,0.0,True,0.010492563247680664,0.0,5.999996662139893,3.141591787338257,0.0,0.0,0.0
1759830037.9423501,0,0.0,5.999996662139893,3.141078139430567,0.0,True,0.037302255630493164,0.0,5.999996662139893,3.141591787338257,0.0,0.0,0.0
1759830037.9531696,0,0.0,5.999996662139893,3.141149434453588,0.0,True,0.010819435119628906,0.0,5.999996662139893,3.141591787338257,0.0,0.0,0.0
1759830037.9646115,0,0.0,5.999996662139893,3.1412088798592084,0.0,True,0.011441946029663086,0.0,5.999996662139893,3.141591787338257,0.0,0.0,0.0
1759830037.9757175,0,0.0,5.999996662139893,3.141254081384119,0.0,True,0.011106014251708984,0.0,5.999996662139893,3.141591787338257,0.0,0.0,0.0
1759830037.9867787,0,0.0,5.999996662139893,3.1412876762312028,0.0,True,0.01106119155883789,0.0,5.999996662139893,3.141591787338257,0.0,0.0,0.0
1759830037.9977014,0,0.0,5.999996662139893,3.141313686032685,0.0,True,0.010922670364379883,0.0,5.999996662139893,3.141591787338257,0.0,0.0,0.0
1759830038.0079236,0,0.0,5.999996662139893,3.141337121998733,0.0,True,0.010222196578979492,0.0,5.999996662139893,3.141591787338257,0.0,0.0,0.0
1759830038.0183809,0,0.0,5.999996662139893,3.141354280034628,0.0,True,0.010457277297973633,0.0,5.999996662139893,3.141591787338257,0.0,0.0,0.0
1759830038.0292876,0,0.0,5.999996662139893,3.1413658064195626,0.0,True,0.010906696319580078,0.0,5.999996662139893,3.141591787338257,0.0,0.0,0.0
1759830038.0397193,0,0.0,5.999996662139893,3.141377546897388,0.0,True,0.010431766510009766,0.0,5.999996662139893,3.141591787338257,0.0,0.0,0.0
1759830038.0509443,0,0.0,5.999996662139893,3.1413840934828876,0.0,True,0.011224985122680664,0.0,5.999996662139893,3.141591787338257,0.0,0.0,0.0
1759830038.0619571,0,0.0,5.999996662139893,3.1413910632360036,0.0,True,0.011012792587280273,0.0,5.999996662139893,3.141591787338257,0.0,0.0,0.0
1759830038.0730731,0,0.0,5.999996662139893,3.141397264984869,0.0,True,0.01111602783203125,0.0,5.999996662139893,3.141591787338257,0.0,0.0,0.0
1759830038.0842135,0,0.0,5.999996662139893,3.141403156990023,0.0,True,0.01114034652709961,0.0,5.999996662139893,3.141591787338257,0.0,0.0,0.0
1759830038.0946662,0,0.0,5.999996662139893,3.1414115209570035,0.0,True,0.010452747344970703,0.0,5.999996662139893,3.141591787338257,0.0,0.0,0.0
1759830038.1056137,0,0.0,5.999996662139893,3.141417168435522,0.0,True,0.010947465896606445,0.0,5.999996662139893,3.141591787338257,0.0,0.0,0.0
1759830038.1157846,0,0.0,5.999996662139893,3.1414252484882876,0.0,True,0.010170936584472656,0.0,5.999996662139893,3.141591787338257,0.0,0.0,0.0
1759830038.1261704,0,0.0,5.999996662139893,3.1414316242831024,0.0,True,0.010385751724243164,0.0,5.999996662139893,3.141591787338257,0.0,0.0,0.0
1759830038.136908,0,0.0,5.999996662139893,3.141436108749783,0.0,True,0.01073765754699707,0.0,5.999996662139893,3.141591787338257,0.0,0.0,0.0
1759830038.1469963,0,0.0,5.999996662139893,3.1414425907848713,0.0,True,0.010088205337524414,0.0,5.999996662139893,3.141591787338257,0.0,0.0,0.0
1759830038.1580153,0,0.0,5.999996662139893,3.1414454669431073,0.0,True,0.011018991470336914,0.0,5.999996662139893,3.141591787338257,0.0,0.0,0.0
1759830038.1681712,0,0.0,5.999996662139893,3.1414512295132937,0.0,True,0.010155916213989258,0.0,5.999996662139893,3.141591787338257,0.0,0.0,0.0
1759830038.179018,0,0.0,5.999996662139893,3.1414544955406978,0.0,True,0.010846853256225586,0.0,5.999996662139893,3.141591787338257,0.0,0.0,0.0
1759830038.189433,0,0.0,5.999996662139893,3.141459096464432,0.0,True,0.010415077209472656,0.0,5.999996662139893,3.141591787338257,0.0,0.0,0.0
1759830038.1996853,0,0.0,5.999996662139893,3.1414639669830358,0.0,True,0.010252237319946289,0.0,5.999996662139893,3.141591787338257,0.0,0.0,0.0
1759830038.2108114,0,0.0,5.999996662139893,3.141466063140351,0.0,True,0.011126041412353516,0.0,5.999996662139893,3.141591787338257,0.0,0.0,0.0
1759830038.221081,0,0.0,5.999996662139893,3.141470790606709,0.0,True,0.010269641876220703,0.0,5.999996662139893,3.141591787338257,0.0,0.0,0.0
1759830038.2312686,0,0.0,5.999996662139893,3.1414754731926955,0.0,True,0.010187625885009766,0.0,5.999996662139893,3.141591787338257,0.0,0.0,0.0
1759830038.241462,0,0.0,5.999996662139893,3.1414797002271904,0.0,True,0.010193347930908203,0.0,5.999996662139893,3.141591787338257,0.0,0.0,0.0
1759830038.2527416,0,0.0,5.999996662139893,3.1414809440976867,0.0,True,0.011279582977294922,0.0,5.999996662139893,3.141591787338257,0.0,0.0,0.0
1759830038.2627938,0,0.0,5.999996662139893,3.141485561587391,0.0,True,0.010052204132080078,0.0,5.999996662139893,3.141591787338257,0.0,0.0,0.0
1759830038.2735665,0,0.0,5.999996662139893,3.141488230936064,0.0,True,0.010772705078125,0.0,5.999996662139893,3.141591787338257,0.0,0.0,0.0
1759830038.283921,0,0.0,5.999996662139893,3.1414918393079247,0.0,True,0.01035451889038086,0.0,5.999996662139893,3.141591787338257,0.0,0.0,0.0
1759830038.2949522,0,0.0,5.999996662139893,3.1414938428325936,0.0,True,0.011031150817871094,0.0,5.999996662139893,3.141591787338257,0.0,0.0,0.0
1759830038.305349,0,0.0,5.999996662139893,3.1414973736371348,0.0,True,0.010396957397460938,0.0,5.999996662139893,3.141591787338257,0.0,0.0,0.0
1759830038.3197005,0,0.0,5.999996662139893,3.141492968398129,0.0,True,0.014351367950439453,0.0,5.999996662139893,3.141591787338257,0.0,0.0,0.0
1759830038.3304863,0,0.0,5.999996662139893,3.1414975393777986,0.0,True,0.010785818099975586,0.0,5.999996662139893,3.141591787338257,0.0,0.0,0.0
1759830038.3418248,0,0.0,5.999996662139893,3.141501107189793,0.0,True,0.011338472366333008,0.0,5.999996662139893,3.141591787338257,0.0,0.0,0.0
1759830038.3523135,0,0.0,5.999996662139893,3.1415059357960615,0.0,True,0.010488748550415039,0.0,5.999996662139893,3.141591787338257,0.0,0.0,0.0
1759830038.3629,0,0.0,5.999996662139893,3.1415099789106193,0.0,True,0.01058650016784668,0.0,5.999996662139893,3.141591787338257,0.0,0.0,0.0
1759830038.3738718,0,0.0,5.999996662139893,3.1415128628315596,0.0,True,0.010971784591674805,0.0,5.999996662139893,3.141591787338257,0.0,0.0,0.0
1759830038.384237,0,0.0,5.999996662139893,3.141516523892708,0.0,True,0.01036524772644043,0.0,5.999996662139893,3.141591787338257,0.0,0.0,0.0
1759830038.3950133,0,0.0,5.999996662139893,3.141519152365948,0.0,True,0.010776281356811523,0.0,5.999996662139893,3.141591787338257,0.0,0.0,0.0
1759830038.4059658,0,0.0,5.999996662139893,3.141521338006303,0.0,True,0.010952472686767578,0.0,5.999996662139893,3.141591787338257,0.0,0.0,0.0
1759830038.417469,0,0.0,5.999996662139893,3.1415227140034325,0.0,True,0.011503219604492188,0.0,5.999996662139893,3.141591787338257,0.0,0.0,0.0
1759830038.427548,0,0.0,5.999996662139893,3.1415263063010492,0.0,True,0.010078907012939453,0.0,5.999996662139893,3.141591787338257,0.0,0.0,0.0
1759830038.4377513,0,0.0,5.999996662139893,3.1415293308135173,0.0,True,0.010203361511230469,0.0,5.999996662139893,3.141591787338257,0.0,0.0,0.0
1759830038.449186,0,0.0,5.999996662139893,3.1415303432467727,0.0,True,0.011434793472290039,0.0,5.999996662139893,3.141591787338257,0.0,0.0,0.0
1759830038.46004,0,0.0,5.999996662139893,3.1415322829428476,0.0,True,0.010854005813598633,0.0,5.999996662139893,3.141591787338257,0.0,0.0,0.0
1759830038.4711554,0,0.0,5.999996662139893,3.141533931196596,0.0,True,0.011115312576293945,0.0,5.999996662139893,3.141591787338257,0.0,0.0,0.0
1759830038.4812512,0,0.0,5.999996662139893,3.1415368247167272,0.0,True,0.010095834732055664,0.0,5.999996662139893,3.141591787338257,0.0,0.0,0.0
1759830038.4916396,0,0.0,5.999996662139893,3.141539052933247,0.0,True,0.010388374328613281,0.0,5.999996662139893,3.141591787338257,0.0,0.0,0.0
1759830038.502421,0,0.0,5.999996662139893,3.1415406047094674,0.0,True,0.010781288146972656,0.0,5.999996662139893,3.141591787338257,0.0,0.0,0.0
1759830038.5132406,0,0.0,5.999996662139893,3.1415420846463107,0.0,True,0.010819673538208008,0.0,5.999996662139893,3.141591787338257,0.0,0.0,0.0
1759830038.5265775,0,0.0,5.999996662139893,3.1415410037068163,0.0,True,0.013336896896362305,0.0,5.999996662139893,3.141591787338257,0.0,0.0,0.0
1759830038.5378895,0,0.0,5.999996662139893,3.14154273855568,0.0,True,0.011312007904052734,0.0,5.999996662139893,3.141591787338257,0.0,0.0,0.0
1759830038.5485067,0,0.0,5.999996662139893,3.1415452583667385,0.0,True,0.010617256164550781,0.0,5.999996662139893,3.141591787338257,0.0,0.0,0.0
1759830038.5587401,0,0.0,5.999996662139893,3.1415478403648596,0.0,True,0.010233402252197266,0.0,5.999996662139893,3.141591787338257,0.0,0.0,0.0
1759830038.5695722,0,0.0,5.999996662139893,3.1415494980958663,0.0,True,0.010832071304321289,0.0,5.999996662139893,3.141591787338257,0.0,0.0,0.0
1759830038.58008,0,0.0,5.999996662139893,3.1415512786592394,0.0,True,0.010507822036743164,0.0,5.999996662139893,3.141591787338257,0.0,0.0,0.0
1759830038.590219,0,0.0,5.999996662139893,3.141553201226076,0.0,True,0.010138988494873047,0.0,5.999996662139893,3.141591787338257,0.0,0.0,0.0
1759830038.6006117,0,0.0,5.999996662139893,3.141554679285024,0.0,True,0.01039266586303711,0.0,5.999996662139893,3.141591787338257,0.0,0.0,0.0
1759830038.6114423,0,0.0,5.999996662139893,3.141555672977125,0.0,True,0.01083064079284668,0.0,5.999996662139893,3.141591787338257,0.0,0.0,0.0
1759830038.6215756,0,0.0,5.999996662139893,3.1415572041222646,0.0,True,0.01013326644897461,0.0,5.999996662139893,3.141591787338257,0.0,0.0,0.0
1759830038.6321898,0,0.0,5.999996662139893,3.1415582490811804,0.0,True,0.010614156723022461,0.0,5.999996662139893,3.141591787338257,0.0,0.0,0.0
1759830038.6434457,0,0.0,5.999996662139893,3.1415588030509696,0.0,True,0.011255979537963867,0.0,5.999996662139893,3.141591787338257,0.0,0.0,0.0
1759830038.6548398,0,0.0,5.999996662139893,3.141559395044162,0.0,True,0.011394023895263672,0.0,5.999996662139893,3.141591787338257,0.0,0.0,0.0
1759830038.6651225,0,0.0,5.999996662139893,3.1415608694267867,0.0,True,0.010282754898071289,0.0,5.999996662139893,3.141591787338257,0.0,0.0,0.0
1759830038.6755404,0,0.0,5.999996662139893,3.14156213551969,0.0,True,0.010417938232421875,0.0,5.999996662139893,3.141591787338257,0.0,0.0,0.0
1759830038.6856878,0,0.0,5.999996662139893,3.1415634408949984,0.0,True,0.010147333145141602,0.0,5.999996662139893,3.141591787338257,0.0,0.0,0.0
1759830038.6963687,0,0.0,5.999996662139893,3.1415642804990824,0.0,True,0.010680913925170898,0.0,5.999996662139893,3.141591787338257,0.0,0.0,0.0
1759830038.7066958,0,0.0,5.999996662139893,3.1415652992673078,0.0,True,0.01032710075378418,0.0,5.999996662139893,3.141591787338257,0.0,0.0,0.0
1759830038.7172365,0,0.0,5.999996662139893,3.1415661354597226,0.0,True,0.01054072380065918,0.0,5.999996662139893,3.141591787338257,0.0,0.0,0.0
1759830038.7330694,0,0.0,5.999996662139893,3.14156411112144,0.0,True,0.015832901000976562,0.0,5.999996662139893,3.141591787338257,0.0,0.0,0.0
1759830038.7445042,0,0.0,5.999996662139893,3.141565241672124,0.0,True,0.011434793472290039,0.0,5.999996662139893,3.141591787338257,0.0,0.0,0.0
1759830038.7550797,0,0.0,5.999996662139893,3.141566900665474,0.0,True,0.010575532913208008,0.0,5.999996662139893,3.141591787338257,0.0,0.0,0.0
1759830038.7661684,0,0.0,5.999996662139893,3.1415680714799343,0.0,True,0.01108860969543457,0.0,5.999996662139893,3.141591787338257,0.0,0.0,0.0
1759830038.7775147,0,0.0,5.999996662139893,3.1415689747781297,0.0,True,0.01134634017944336,0.0,5.999996662139893,3.141591787338257,0.0,0.0,0.0
1759830038.7884045,0,0.0,5.999996662139893,3.1415700210269684,0.0,True,0.010889768600463867,0.0,5.999996662139893,3.141591787338257,0.0,0.0,0.0
1759830038.8004682,0,0.0,5.999996662139893,3.1415704675559812,0.0,True,0.012063741683959961,0.0,5.999996662139893,3.141591787338257,0.0,0.0,0.0
1759830038.8113089,0,0.0,5.999996662139893,3.1415714792521516,0.0,True,0.010840654373168945,0.0,5.999996662139893,3.141591787338257,0.0,0.0,0.0
1759830038.8223145,0,0.0,5.999996662139893,3.141572343225217,0.0,True,0.011005640029907227,0.0,5.999996662139893,3.141591787338257,0.0,0.0,0.0
1759830038.8342395,0,0.0,5.999996662139893,3.141572774969365,0.0,True,0.011924982070922852,0.0,5.999996662139893,3.141591787338257,0.0,0.0,0.0
1759830038.8445497,0,0.0,5.999996662139893,3.1415738485842137,0.0,True,0.010310173034667969,0.0,5.999996662139893,3.141591787338257,0.0,0.0,0.0
1759830038.8547213,0,0.0,5.999996662139893,3.1415748412625852,0.0,True,0.010171651840209961,0.0,5.999996662139893,3.141591787338257,0.0,0.0,0.0
1759830038.8647697,0,0.0,5.999996662139893,3.1415757187553126,0.0,True,0.010048389434814453,0.0,5.999996662139893,3.141591787338257,0.0,0.0,0.0
1759830038.8761914,0,0.0,5.999996662139893,3.141576001485131,0.0,True,0.011421680450439453,0.0,5.999996662139893,3.141591787338257,0.0,0.0,0.0
1759830038.8862724,0,0.0,5.999996662139893,3.1415767560726007,0.0,True,0.010081052780151367,0.0,5.999996662139893,3.141591787338257,0.0,0.0,0.0
1759830038.8972526,0,0.0,5.999996662139893,3.1415771561165364,0.0,True,0.01098012924194336,0.0,5.999996662139893,3.141591787338257,0.0,0.0,0.0
1759830038.9086711,0,0.0,5.999996662139893,3.1415774220791732,0.0,True,0.011418581008911133,0.0,5.999996662139893,3.141591787338257,0.0,0.0,0.0
1759830038.9189558,0,0.0,5.999996662139893,3.1415780753200515,0.0,True,0.010284662246704102,0.0,5.999996662139893,3.141591787338257,0.0,0.0,0.0
1759830038.9303327,0,0.0,5.999996662139893,3.1415783652464526,0.0,True,0.01137685775756836,0.0,5.999996662139893,3.141591787338257,0.0,0.0,0.0
1759830038.9410641,0,0.0,5.999996662139893,3.1415788573518117,0.0,True,0.01073145866394043,0.0,5.999996662139893,3.141591787338257,0.0,0.0,0.0
1759830038.9519784,0,0.0,5.999996662139893,3.1415792842534085,0.0,True,0.010914325714111328,0.0,5.999996662139893,3.141591787338257,0.0,0.0,0.0
1759830038.9635234,0,0.0,5.999996662139893,3.1415795373827393,0.0,True,0.011544942855834961,0.0,5.999996662139893,3.141591787338257,0.0,0.0,0.0
1759830038.9741216,0,0.0,5.999996662139893,3.1415800618633494,0.0,True,0.010598182678222656,0.0,5.999996662139893,3.141591787338257,0.0,0.0,0.0
1759830038.9855273,0,0.0,5.999996662139893,3.141580359569982,0.0,True,0.011405706405639648,0.0,5.999996662139893,3.141591787338257,0.0,0.0,0.0
1759830038.9959562,0,0.0,5.999996662139893,3.1415808930059406,0.0,True,0.010428905487060547,0.0,5.999996662139893,3.141591787338257,0.0,0.0,0.0
1759830039.0072784,0,0.0,5.999996662139893,3.1415811789626815,0.0,True,0.011322259902954102,0.0,5.999996662139893,3.141591787338257,0.0,0.0,0.0
1759830039.0183406,0,0.0,5.999996662139893,3.141581526052107,0.0,True,0.011062145233154297,0.0,5.999996662139893,3.141591787338257,0.0,0.0,0.0
1759830039.0287173,0,0.0,5.999996662139893,3.141582012251968,0.0,True,0.010376691818237305,0.0,5.999996662139893,3.141591787338257,0.0,0.0,0.0
1759830039.040011,0,0.0,5.999996662139893,3.1415822639164155,0.0,True,0.011293649673461914,0.0,5.999996662139893,3.141591787338257,0.0,0.0,0.0
1759830039.051538,0,0.0,5.999996662139893,3.1415824765781792,0.0,True,0.011527061462402344,0.0,5.999996662139893,3.141591787338257,0.0,0.0,0.0
1759830039.0619125,0,0.0,5.999996662139893,3.1415829315181742,0.0,True,0.01037454605102539,0.0,5.999996662139893,3.141591787338257,0.0,0.0,0.0
1759830039.0731857,0,0.0,5.999996662139893,3.141583180710855,0.0,True,0.01127314567565918,0.0,5.999996662139893,3.141591787338257,0.0,0.0,0.0
1759830039.0839293,0,0.0,5.999996662139893,3.1415835199721105,0.0,True,0.01074361801147461,0.0,5.999996662139893,3.141591787338257,0.0,0.0,0.0
1759830039.0939755,0,0.0,5.999996662139893,3.1415839555188043,0.0,True,0.010046243667602539,0.0,5.999996662139893,3.141591787338257,0.0,0.0,0.0
1759830039.104558,0,0.0,5.999996662139893,3.1415842448643634,0.0,True,0.010582447052001953,0.0,5.999996662139893,3.141591787338257,0.0,0.0,0.0
1759830039.115103,0,0.0,5.999996662139893,3.141584513026727,0.0,True,0.010545015335083008,0.0,5.999996662139893,3.141591787338257,0.0,0.0,0.0
1759830039.1302207,0,0.0,5.999996662139893,3.141584078597999,0.0,True,0.015117645263671875,0.0,5.999996662139893,3.141591787338257,0.0,0.0,0.0
1759830039.1373553,0,0.0,5.999996662139893,3.1415850030206265,0.0,True,0.007134675979614258,0.0,5.999996662139893,3.141591787338257,0.0,0.0,0.0
1759830039.1485493,0,0.0,5.999996662139893,3.141585189753325,0.0,True,0.011193990707397461,0.0,5.999996662139893,3.141591787338257,0.0,0.0,0.0
1759830039.1594512,0,0.0,5.999996662139893,3.141585382647639,0.0,True,0.010901927947998047,0.0,5.999996662139893,3.141591787338257,0.0,0.0,0.0
1759830039.1698859,0,0.0,5.999996662139893,3.1415856398268307,0.0,True,0.010434627532958984,0.0,5.999996662139893,3.141591787338257,0.0,0.0,0.0
1759830039.180705,0,0.0,5.999996662139893,3.1415858289894043,0.0,True,0.010819196701049805,0.0,5.999996662139893,3.141591787338257,0.0,0.0,0.0
1759830039.1910877,0,0.0,5.999996662139893,3.1415860668987747,0.0,True,0.010382652282714844,0.0,5.999996662139893,3.141591787338257,0.0,0.0,0.0
1759830039.2023323,0,0.0,5.999996662139893,3.1415861838648116,0.0,True,0.011244535446166992,0.0,5.999996662139893,3.141591787338257,0.0,0.0,0.0
1759830039.2124312,0,0.0,5.999996662139893,3.141586446017145,0.0,True,0.010098934173583984,0.0,5.999996662139893,3.141591787338257,0.0,0.0,0.0
1759830039.2239034,0,0.0,5.999996662139893,3.1415865300829715,0.0,True,0.011472225189208984,0.0,5.999996662139893,3.141591787338257,0.0,0.0,0.0
1759830039.2340279,0,0.0,5.999996662139893,3.1415867771575368,0.0,True,0.010124444961547852,0.0,5.999996662139893,3.141591787338257,0.0,0.0,0.0
1759830039.244393,0,0.0,5.999996662139893,3.1415869770830245,0.0,True,0.01036524772644043,0.0,5.999996662139893,3.141591787338257,0.0,0.0,0.0
1759830039.2557673,0,0.0,5.999996662139893,3.1415870549969522,0.0,True,0.011374235153198242,0.0,5.999996662139893,3.141591787338257,0.0,0.0,0.0
1759830039.266654,0,0.0,5.999996662139893,3.141587197569251,0.0,True,0.010886669158935547,0.0,5.999996662139893,3.141591787338257,0.0,0.0,0.0
1759830039.277949,0,0.0,5.999996662139893,3.1415873062006714,0.0,True,0.011295080184936523,0.0,5.999996662139893,3.141591787338257,0.0,0.0,0.0
1759830039.288001,0,0.0,5.999996662139893,3.1415875377048756,0.0,True,0.010051965713500977,0.0,5.999996662139893,3.141591787338257,0.0,0.0,0.0
1759830039.2989469,0,0.0,5.999996662139893,3.1415876642329525,0.0,True,0.010945796966552734,0.0,5.999996662139893,3.141591787338257,0.0,0.0,0.0
1759830039.3099067,0,0.0,5.999996662139893,3.141587784957135,0.0,True,0.010959863662719727,0.0,5.999996662139893,3.141591787338257,0.0,0.0,0.0
1759830039.3201864,0,0.0,5.999996662139893,3.141587963110034,0.0,True,0.010279655456542969,0.0,5.999996662139893,3.141591787338257,0.0,0.0,0.0
1759830039.3400936,0,0.0,5.999996662139893,3.141587379493231,0.0,True,0.019907236099243164,0.0,5.999996662139893,3.141591787338257,0.0,0.0,0.0
1759830039.3509307,0,0.0,5.999996662139893,3.14158769683627,0.0,True,0.010837078094482422,0.0,5.999996662139893,3.141591787338257,0.0,0.0,0.0
1759830039.3611617,0,0.0,5.999996662139893,3.141588047882035,0.0,True,0.01023101806640625,0.0,5.999996662139893,3.141591787338257,0.0,0.0,0.0
1759830039.3724456,0,0.0,5.999996662139893,3.1415882544585134,0.0,True,0.01128387451171875,0.0,5.999996662139893,3.141591787338257,0.0,0.0,0.0
1759830039.3839633,0,0.0,5.999996662139893,3.141588409993812,0.0,True,0.011517763137817383,0.0,5.999996662139893,3.141591787338257,0.0,0.0,0.0
1759830039.394375,0,0.0,5.999996662139893,3.141588619969143,0.0,True,0.010411739349365234,0.0,5.999996662139893,3.141591787338257,0.0,0.0,0.0
1759830039.4056249,0,0.0,5.999996662139893,3.1415887461621814,0.0,True,0.011249780654907227,0.0,5.999996662139893,3.141591787338257,0.0,0.0,0.0
1759830039.4169407,0,0.0,5.999996662139893,3.141588855462306,0.0,True,0.01131582260131836,0.0,5.999996662139893,3.141591787338257,0.0,0.0,0.0
1759830039.4282207,0,0.0,5.999996662139893,3.1415889618500774,0.0,True,0.011280059814453125,0.0,5.999996662139893,3.141591787338257,0.0,0.0,0.0
1759830039.4385297,0,0.0,5.999996662139893,3.1415891172526003,0.0,True,0.010308980941772461,0.0,5.999996662139893,3.141591787338257,0.0,0.0,0.0
1759830039.448978,0,0.0,5.999996662139893,3.1415892443724687,0.0,True,0.010448217391967773,0.0,5.999996662139893,3.141591787338257,0.0,0.0,0.0
1759830039.4597206,0,0.0,5.999996662139893,3.141589338816141,0.0,True,0.010742664337158203,0.0,5.999996662139893,3.141591787338257,0.0,0.0,0.0
1759830039.4698832,0,0.0,5.999996662139893,3.1415894544489493,0.0,True,0.010162591934204102,0.0,5.999996662139893,3.141591787338257,0.0,0.0,0.0
1759830039.481131,0,0.0,5.999996662139893,3.1415895036262196,0.0,True,0.011247873306274414,0.0,5.999996662139893,3.141591787338257,0.0,0.0,0.0
1759830039.4912233,0,0.0,5.999996662139893,3.14158961064177,0.0,True,0.01009225845336914,0.0,5.999996662139893,3.141591787338257,0.0,0.0,0.0
1759830039.5019364,0,0.0,5.999996662139893,3.1415896788676534,0.0,True,0.01071310043334961,0.0,5.999996662139893,3.141591787338257,0.0,0.0,0.0
1759830039.5132768,0,0.0,5.999996662139893,3.141589716014451,0.0,True,0.01134037971496582,0.0,5.999996662139893,3.141591787338257,0.0,0.0,0.0
1759830039.524006,0,0.0,5.999996662139893,3.1415897866147695,0.0,True,0.010729074478149414,0.0,5.999996662139893,3.141591787338257,0.0,0.0,0.0
1759830039.5413616,0,0.0,5.999996662139893,3.1415895892052372,0.0,True,0.017355680465698242,0.0,5.999996662139893,3.141591787338257,0.0,0.0,0.0
1759830039.551754,0,0.0,5.999996662139893,3.1415897447120464,0.0,True,0.010392427444458008,0.0,5.999996662139893,3.141591787338257,0.0,0.0,0.0
1759830039.5634928,0,0.0,5.999996662139893,3.141589840846919,0.0,True,0.011738777160644531,0.0,5.999996662139893,3.141591787338257,0.0,0.0,0.0
1759830039.5736876,0,0.0,5.999996662139893,3.1415899798965192,0.0,True,0.010194778442382812,0.0,5.999996662139893,3.141591787338257,0.0,0.0,0.0
1759830039.5840118,0,0.0,5.999996662139893,3.141590090309169,0.0,True,0.010324239730834961,0.0,5.999996662139893,3.141591787338257,0.0,0.0,0.0
1759830039.5951467,0,0.0,5.999996662139893,3.141590153380008,0.0,True,0.011134862899780273,0.0,5.999996662139893,3.141591787338257,0.0,0.0,0.0
1759830039.6053932,0,0.0,5.999996662139893,3.1415902392569315,0.0,True,0.010246515274047852,0.0,5.999996662139893,3.141591787338257,0.0,0.0,0.0
1759830039.61605,0,0.0,5.999996662139893,3.141590300984465,0.0,True,0.01065683364868164,0.0,5.999996662139893,3.141591787338257,0.0,0.0,0.0
1759830039.62729,0,0.0,5.999996662139893,3.141590338479835,0.0,True,0.011240005493164062,0.0,5.999996662139893,3.141591787338257,0.0,0.0,0.0
1759830039.6376746,0,0.0,5.999996662139893,3.141590402501265,0.0,True,0.010384559631347656,0.0,5.999996662139893,3.141591787338257,0.0,0.0,0.0
1759830039.649095,0,0.0,5.999996662139893,3.1415904314561836,0.0,True,0.011420488357543945,0.0,5.999996662139893,3.141591787338257,0.0,0.0,0.0
1759830039.6596606,0,0.0,5.999996662139893,3.141590486639327,0.0,True,0.010565519332885742,0.0,5.999996662139893,3.141591787338257,0.0,0.0,0.0
1759830039.6699922,0,0.0,5.999996662139893,3.141590544593843,0.0,True,0.01033163070678711,0.0,5.999996662139893,3.141591787338257,0.0,0.0,0.0
1759830039.6809173,0,0.0,5.999996662139893,3.141590580825943,0.0,True,0.010925054550170898,0.0,5.999996662139893,3.141591787338257,0.0,0.0,0.0
1759830039.6916275,0,0.0,5.999996662139893,3.1415906215742204,0.0,True,0.01071023941040039,0.0,5.999996662139893,3.141591787338257,0.0,0.0,0.0
1759830039.7026541,0,0.0,5.999996662139893,3.1415906533756583,0.0,True,0.011026620864868164,0.0,5.999996662139893,3.141591787338257,0.0,0.0,0.0
1759830039.713819,0,0.0,5.999996662139893,3.141590682702722,0.0,True,0.01116490364074707,0.0,5.999996662139893,3.141591787338257,0.0,0.0,0.0
1759830039.724354,0,0.0,5.999996662139893,3.141590727911332,0.0,True,0.010535001754760742,0.0,5.999996662139893,3.141591787338257,0.0,0.0,0.0
1759830039.7433286,0,0.0,5.999996662139893,3.1415905909288426,0.0,True,0.01897454261779785,0.0,5.999996662139893,3.141591787338257,0.0,0.0,0.0
1759830039.7537038,0,0.0,5.999996662139893,3.1415906838097367,0.0,True,0.010375261306762695,0.0,5.999996662139893,3.141591787338257,0.0,0.0,0.0
1759830039.7648046,0,0.0,5.999996662139893,3.14159075669634,0.0,True,0.01110076904296875,0.0,5.999996662139893,3.141591787338257,0.0,0.0,0.0
1759830039.7750769,0,0.0,5.999996662139893,3.1415908317560035,0.0,True,0.01027226448059082,0.0,5.999996662139893,3.141591787338257,0.0,0.0,0.0
1759830039.7858777,0,0.0,5.999996662139893,3.141590882863296,0.0,True,0.010800838470458984,0.0,5.999996662139893,3.141591787338257,0.0,0.0,0.0
1759830039.7961562,0,0.0,5.999996662139893,3.1415909347279456,0.0,True,0.010278463363647461,0.0,5.999996662139893,3.141591787338257,0.0,0.0,0.0
1759830039.8066638,0,0.0,5.999996662139893,3.141590974454285,0.0,True,0.010507583618164062,0.0,5.999996662139893,3.141591787338257,0.0,0.0,0.0
1759830039.8181,0,0.0,5.999996662139893,3.1415909934129544,0.0,True,0.011436223983764648,0.0,5.999996662139893,3.141591787338257,0.0,0.0,0.0
1759830039.8296306,0,0.0,5.999996662139893,3.141591011886442,0.0,True,0.011530637741088867,0.0,5.999996662139893,3.141591787338257,0.0,0.0,0.0
1759830039.840421,0,0.0,5.999996662139893,3.1415910439417623,0.0,True,0.010790348052978516,0.0,5.999996662139893,3.141591787338257,0.0,0.0,0.0
1759830039.851236,0,0.0,5.999996662139893,3.141591073594606,0.0,True,0.010815143585205078,0.0,5.999996662139893,3.141591787338257,0.0,0.0,0.0
1759830039.8616505,0,0.0,5.999996662139893,3.1415911065323403,0.0,True,0.010414361953735352,0.0,5.999996662139893,3.141591787338257,0.0,0.0,0.0
1759830039.8731675,0,0.0,5.999996662139893,3.141591120404364,0.0,True,0.011517047882080078,0.0,5.999996662139893,3.141591787338257,0.0,0.0,0.0
1759830039.8843155,0,0.0,5.999996662139893,3.141591140677974,0.0,True,0.01114797592163086,0.0,5.999996662139893,3.141591787338257,0.0,0.0,0.0
1759830039.8945947,0,0.0,5.999996662139893,3.1415911726931416,0.0,True,0.010279178619384766,0.0,5.999996662139893,3.141591787338257,0.0,0.0,0.0
1759830039.9048297,0,0.0,5.999996662139893,3.141591201615814,0.0,True,0.010235071182250977,0.0,5.999996662139893,3.141591787338257,0.0,0.0,0.0
1759830039.9163005,0,0.0,5.999996662139893,3.14159121167571,0.0,True,0.011470794677734375,0.0,5.999996662139893,3.141591787338257,0.0,0.0,0.0
1759830039.9265163,0,0.0,5.999996662139893,3.141591238119098,0.0,True,0.01021575927734375,0.0,5.999996662139893,3.141591787338257,0.0,0.0,0.0
1759830039.9371722,0,0.0,5.999996662139893,3.1415912572480558,0.0,True,0.010655879974365234,0.0,5.999996662139893,3.141591787338257,0.0,0.0,0.0
1759830039.947391,0,0.0,5.999996662139893,3.141591279831186,0.0,True,0.01021885871887207,0.0,5.999996662139893,3.141591787338257,0.0,0.0,0.0
1759830039.9585078,0,0.0,5.999996662139893,3.1415912905997736,0.0,True,0.011116743087768555,0.0,5.999996662139893,3.141591787338257,0.0,0.0,0.0
1759830039.9691026,0,0.0,5.999996662139893,3.1415913076071664,0.0,True,0.010594844818115234,0.0,5.999996662139893,3.141591787338257,0.0,0.0,0.0
1759830039.979506,0,0.0,5.999996662139893,3.1415913260983093,0.0,True,0.01040339469909668,0.0,5.999996662139893,3.141591787338257,0.0,0.0,0.0
1759830039.9902954,0,0.0,5.999996662139893,3.14159133945536,0.0,True,0.01078939437866211,0.0,5.999996662139893,3.141591787338257,0.0,0.0,0.0
1759830040.0012832,0,0.0,5.999996662139893,3.14159135080496,0.0,True,0.01098775863647461,0.0,5.999996662139893,3.141591787338257,0.0,0.0,0.0
1759830040.0126946,0,0.0,5.999996662139893,3.1415913589779674,0.0,True,0.011411428451538086,0.0,5.999996662139893,3.141591787338257,0.0,0.0,0.0
1759830040.023376,0,0.0,5.999996662139893,3.141591375165884,0.0,True,0.010681390762329102,0.0,5.999996662139893,3.141591787338257,0.0,0.0,0.0
1759830040.0346975,0,0.0,5.999996662139893,3.1415913853648654,0.0,True,0.011321544647216797,0.0,5.999996662139893,3.141591787338257,0.0,0.0,0.0
1759830040.0448685,0,0.0,5.999996662139893,3.141591405486613,0.0,True,0.010170936584472656,0.0,5.999996662139893,3.141591787338257,0.0,0.0,0.0
1759830040.0558944,0,0.0,5.999996662139893,3.1415914166992245,0.0,True,0.01102590560913086,0.0,5.999996662139893,3.141591787338257,0.0,0.0,0.0
1759830040.0664115,0,0.0,5.999996662139893,3.1415914314491697,0.0,True,0.010517120361328125,0.0,5.999996662139893,3.141591787338257,0.0,0.0,0.0
1759830040.0773473,0,0.0,5.999996662139893,3.141591442100081,0.0,True,0.010935783386230469,0.0,5.999996662139893,3.141591787338257,0.0,0.0,0.0
1759830040.0889502,0,0.0,5.999996662139893,3.1415914478863716,0.0,True,0.01160287857055664,0.0,5.999996662139893,3.141591787338257,0.0,0.0,0.0
1759830040.099902,0,0.0,5.999996662139893,3.1415914596081596,0.0,True,0.010951757431030273,0.0,5.999996662139893,3.141591787338257,0.0,0.0,0.0
1759830040.1101282,0,0.0,5.999996662139893,3.141591476048358,0.0,True,0.010226249694824219,0.0,5.999996662139893,3.141591787338257,0.0,0.0,0.0
1759830040.1209898,0,0.0,5.999996662139893,3.141591486462028,0.0,True,0.010861635208129883,0.0,5.999996662139893,3.141591787338257,0.0,0.0,0.0
1759830040.1317751,0,0.0,5.999996662139893,3.1415914967061607,0.0,True,0.010785341262817383,0.0,5.999996662139893,3.141591787338257,0.0,0.0,0.0
1759830040.1422625,0,0.0,5.999996662139893,3.141591508347668,0.0,True,0.01048731803894043,0.0,5.999996662139893,3.141591787338257,0.0,0.0,0.0
1759830040.1530178,0,0.0,5.999996662139893,3.141591517527912,0.0,True,0.010755300521850586,0.0,5.999996662139893,3.141591787338257,0.0,0.0,0.0
1759830040.1639092,0,0.0,5.999996662139893,3.1415915255567537,0.0,True,0.010891437530517578,0.0,5.999996662139893,3.141591787338257,0.0,0.0,0.0
1759830040.175264,0,0.0,5.999996662139893,3.141591531094834,0.0,True,0.011354684829711914,0.0,5.999996662139893,3.141591787338257,0.0,0.0,0.0
1759830040.1861875,0,0.0,5.999996662139893,3.1415915396381315,0.0,True,0.010923624038696289,0.0,5.999996662139893,3.141591787338257,0.0,0.0,0.0
1759830040.1976964,0,0.0,5.999996662139893,3.14159154521896,0.0,True,0.011508941650390625,0.0,5.999996662139893,3.141591787338257,0.0,0.0,0.0
1759830040.2078881,0,0.0,5.999996662139893,3.1415915577946496,0.0,True,0.010191679000854492,0.0,5.999996662139893,3.141591787338257,0.0,0.0,0.0
1759830040.2188492,0,0.0,5.999996662139893,3.1415915653741777,0.0,True,0.010961055755615234,0.0,5.999996662139893,3.141591787338257,0.0,0.0,0.0
1759830040.229146,0,0.0,5.999996662139893,3.141591575513008,0.0,True,0.010296821594238281,0.0,5.999996662139893,3.141591787338257,0.0,0.0,0.0
1759830040.2393937,0,0.0,5.999996662139893,3.141591584822777,0.0,True,0.01024770736694336,0.0,5.999996662139893,3.141591787338257,0.0,0.0,0.0
1759830040.2499526,0,0.0,5.999996662139893,3.141591591729945,0.0,True,0.010558843612670898,0.0,5.999996662139893,3.141591787338257,0.0,0.0,0.0
1759830040.2605982,0,0.0,5.999996662139893,3.141591597838543,0.0,True,0.010645627975463867,0.0,5.999996662139893,3.141591787338257,0.0,0.0,0.0
1759830040.2706218,0,0.0,5.999996662139893,3.1415916062743836,0.0,True,0.01002359390258789,0.0,5.999996662139893,3.141591787338257,0.0,0.0,0.0
1759830040.2820706,0,0.0,5.999996662139893,3.141591608355018,0.0,True,0.011448860168457031,0.0,5.999996662139893,3.141591787338257,0.0,0.0,0.0
1759830040.2935236,0,0.0,5.999996662139893,3.14159161125478,0.0,True,0.011452913284301758,0.0,5.999996662139893,3.141591787338257,0.0,0.0,0.0
1759830040.3045957,0,0.0,5.999996662139893,3.1415916164877515,0.0,True,0.011072158813476562,0.0,5.999996662139893,3.141591787338257,0.0,0.0,0.0
1759830040.314947,0,0.0,5.999996662139893,3.141591624429216,0.0,True,0.010351181030273438,0.0,5.999996662139893,3.141591787338257,0.0,0.0,0.0
1759830040.3257437,0,0.0,5.999996662139893,3.1415916300941404,0.0,True,0.010796785354614258,0.0,5.999996662139893,3.141591787338257,0.0,0.0,0.0
1759830040.3360884,0,0.0,5.999996662139893,3.1415916368610795,0.0,True,0.010344743728637695,0.0,5.999996662139893,3.141591787338257,0.0,0.0,0.0
1759830040.3552084,0,0.0,5.999996662139893,3.1415916162049076,0.0,True,0.019119977951049805,0.0,5.999996662139893,3.141591787338257,0.0,0.0,0.0
1759830040.3667245,0,0.0,5.999996662139893,3.141591626037144,0.0,True,0.011516094207763672,0.0,5.999996662139893,3.141591787338257,0.0,0.0,0.0
1759830040.3772342,0,0.0,5.999996662139893,3.141591638997804,0.0,True,0.010509729385375977,0.0,5.999996662139893,3.141591787338257,0.0,0.0,0.0
1759830040.3875172,0,0.0,5.999996662139893,3.1415916501228605,0.0,True,0.01028299331665039,0.0,5.999996662139893,3.141591787338257,0.0,0.0,0.0
1759830040.3983357,0,0.0,5.999996662139893,3.1415916575767557,0.0,True,0.0108184814453125,0.0,5.999996662139893,3.141591787338257,0.0,0.0,0.0
1759830040.4086146,0,0.0,5.999996662139893,3.1415916651383213,0.0,True,0.010278940200805664,0.0,5.999996662139893,3.141591787338257,0.0,0.0,0.0
1759830040.419941,0,0.0,5.999996662139893,3.1415916689372807,0.0,True,0.011326313018798828,0.0,5.999996662139893,3.141591787338257,0.0,0.0,0.0
1759830040.4308233,0,0.0,5.999996662139893,3.141591673591778,0.0,True,0.010882377624511719,0.0,5.999996662139893,3.141591787338257,0.0,0.0,0.0
1759830040.4412847,0,0.0,5.999996662139893,3.1415916789142244,0.0,True,0.01046133041381836,0.0,5.999996662139893,3.141591787338257,0.0,0.0,0.0
1759830040.4520545,0,0.0,5.999996662139893,3.1415916829552124,0.0,True,0.010769844055175781,0.0,5.999996662139893,3.141591787338257,0.0,0.0,0.0
1759830040.4633718,0,0.0,5.999996662139893,3.1415916855057144,0.0,True,0.011317253112792969,0.0,5.999996662139893,3.141591787338257,0.0,0.0,0.0
1759830040.474172,0,0.0,5.999996662139893,3.14159168926909,0.0,True,0.010800361633300781,0.0,5.999996662139893,3.141591787338257,0.0,0.0,0.0
1759830040.4851716,0,0.0,5.999996662139893,3.1415916924826934,0.0,True,0.010999441146850586,0.0,5.999996662139893,3.141591787338257,0.0,0.0,0.0
1759830040.4967105,0,0.0,5.999996662139893,3.1415916945685574,0.0,True,0.011538982391357422,0.0,5.999996662139893,3.141591787338257,0.0,0.0,0.0
1759830040.5080447,0,0.0,5.999996662139893,3.141591697285854,0.0,True,0.01133418083190918,0.0,5.999996662139893,3.141591787338257,0.0,0.0,0.0
1759830040.5194466,0,0.0,5.999996662139893,3.141591699997054,0.0,True,0.011401891708374023,0.0,5.999996662139893,3.141591787338257,0.0,0.0,0.0
1759830040.5295982,0,0.0,5.999996662139893,3.141591704912095,0.0,True,0.01015162467956543,0.0,5.999996662139893,3.141591787338257,0.0,0.0,0.0
1759830040.5411015,0,0.0,5.999996662139893,3.1415917069301464,0.0,True,0.011503219604492188,0.0,5.999996662139893,3.141591787338257,0.0,0.0,0.0
1759830040.5557232,0,0.0,5.999996662139893,3.1415917040585875,0.0,True,0.014621734619140625,0.0,5.999996662139893,3.141591787338257,0.0,0.0,0.0
1759830040.5669699,0,0.0,5.999996662139893,3.141591708110024,0.0,True,0.011246681213378906,0.0,5.999996662139893,3.141591787338257,0.0,0.0,0.0
1759830040.5775692,0,0.0,5.999996662139893,3.1415917130506212,0.0,True,0.010599374771118164,0.0,5.999996662139893,3.141591787338257,0.0,0.0,0.0
1759830040.5888932,0,0.0,5.999996662139893,3.141591716194169,0.0,True,0.011323928833007812,0.0,5.999996662139893,3.141591787338257,0.0,0.0,0.0
1759830040.5996718,0,0.0,5.999996662139893,3.141591719735505,0.0,True,0.010778665542602539,0.0,5.999996662139893,3.141591787338257,0.0,0.0,0.0
1759830040.6104634,0,0.0,5.999996662139893,3.1415917228377275,0.0,True,0.010791540145874023,0.0,5.999996662139893,3.141591787338257,0.0,0.0,0.0
1759830040.621831,0,0.0,5.999996662139893,3.1415917248405645,0.0,True,0.011367559432983398,0.0,5.999996662139893,3.141591787338257,0.0,0.0,0.0
1759830040.6330607,0,0.0,5.999996662139893,3.1415917269670235,0.0,True,0.011229753494262695,0.0,5.999996662139893,3.141591787338257,0.0,0.0,0.0
1759830040.643458,0,0.0,5.999996662139893,3.141591730038181,0.0,True,0.010397195816040039,0.0,5.999996662139893,3.141591787338257,0.0,0.0,0.0
1759830040.6548147,0,0.0,5.999996662139893,3.1415917316360975,0.0,True,0.011356830596923828,0.0,5.999996662139893,3.141591787338257,0.0,0.0,0.0
1759830040.6661272,0,0.0,5.999996662139893,3.1415917332697543,0.0,True,0.011312484741210938,0.0,5.999996662139893,3.141591787338257,0.0,0.0,0.0
1759830040.6771507,0,0.0,5.999996662139893,3.141591735255467,0.0,True,0.011023521423339844,0.0,5.999996662139893,3.141591787338257,0.0,0.0,0.0
1759830040.68863,0,0.0,5.999996662139893,3.1415917366876887,0.0,True,0.011479377746582031,0.0,5.999996662139893,3.141591787338257,0.0,0.0,0.0
1759830040.6990695,0,0.0,5.999996662139893,3.141591739204088,0.0,True,0.010439395904541016,0.0,5.999996662139893,3.141591787338257,0.0,0.0,0.0
1759830040.710369,0,0.0,5.999996662139893,3.1415917406186704,0.0,True,0.011299610137939453,0.0,5.999996662139893,3.141591787338257,0.0,0.0,0.0
1759830040.7211816,0,0.0,5.999996662139893,3.1415917424579956,0.0,True,0.010812520980834961,0.0,5.999996662139893,3.141591787338257,0.0,0.0,0.0
1759830040.732574,0,0.0,5.999996662139893,3.1415917436614755,0.0,True,0.011392354965209961,0.0,5.999996662139893,3.141591787338257,0.0,0.0,0.0
1759830040.7438533,0,0.0,5.999996662139893,3.141591745000019,0.0,True,0.01127934455871582,0.0,5.999996662139893,3.141591787338257,0.0,0.0,0.0
1759830040.7569253,0,0.0,5.999996662139893,3.1415917448691335,0.0,True,0.013072013854980469,0.0,5.999996662139893,3.141591787338257,0.0,0.0,0.0
1759830040.7671564,0,0.0,5.999996662139893,3.1415917474870927,0.0,True,0.01023101806640625,0.0,5.999996662139893,3.141591787338257,0.0,0.0,0.0
1759830040.7778318,0,0.0,5.999996662139893,3.1415917494682795,0.0,True,0.010675430297851562,0.0,5.999996662139893,3.141591787338257,0.0,0.0,0.0
1759830040.7885203,0,0.0,5.999996662139893,3.141591751151548,0.0,True,0.010688543319702148,0.0,5.999996662139893,3.141591787338257,0.0,0.0,0.0
1759830040.7995064,0,0.0,5.999996662139893,3.1415917524245014,0.0,True,0.010986089706420898,0.0,5.999996662139893,3.141591787338257,0.0,0.0,0.0
1759830040.8096676,0,0.0,5.999996662139893,3.1415917542008653,0.0,True,0.010161161422729492,0.0,5.999996662139893,3.141591787338257,0.0,0.0,0.0
1759830040.820982,0,0.0,5.999996662139893,3.141591754968042,0.0,True,0.01131439208984375,0.0,5.999996662139893,3.141591787338257,0.0,0.0,0.0
1759830040.8310618,0,0.0,5.999996662139893,3.141591756577226,0.0,True,0.01007986068725586,0.0,5.999996662139893,3.141591787338257,0.0,0.0,0.0
1759830040.8420467,0,0.0,5.999996662139893,3.1415917574321774,0.0,True,0.01098489761352539,0.0,5.999996662139893,3.141591787338257,0.0,0.0,0.0
1759830040.8526149,0,0.0,5.999996662139893,3.141591758526273,0.0,True,0.01056814193725586,0.0,5.999996662139893,3.141591787338257,0.0,0.0,0.0
1759830040.866033,0,0.0,5.999996662139893,3.1415917578744974,0.0,True,0.013418197631835938,0.0,5.999996662139893,3.141591787338257,0.0,0.0,0.0
1759830040.876433,0,0.0,5.999996662139893,3.141591759410492,0.0,True,0.010399818420410156,0.0,5.999996662139893,3.141591787338257,0.0,0.0,0.0
1759830040.8869627,0,0.0,5.999996662139893,3.1415917607824753,0.0,True,0.010529756546020508,0.0,5.999996662139893,3.141591787338257,0.0,0.0,0.0
1759830040.8973365,0,0.0,5.999996662139893,3.1415917620538334,0.0,True,0.010373830795288086,0.0,5.999996662139893,3.141591787338257,0.0,0.0,0.0
1759830040.9081886,0,0.0,5.999996662139893,3.1415917629118066,0.0,True,0.01085209846496582,0.0,5.999996662139893,3.141591787338257,0.0,0.0,0.0
1759830040.9185197,0,0.0,5.999996662139893,3.141591763976466,0.0,True,0.010331153869628906,0.0,5.999996662139893,3.141591787338257,0.0,0.0,0.0
1759830040.9296978,0,0.0,5.999996662139893,3.1415917645267086,0.0,True,0.011178016662597656,0.0,5.999996662139893,3.141591787338257,0.0,0.0,0.0
1759830040.9404671,0,0.0,5.999996662139893,3.141591765294754,0.0,True,0.010769367218017578,0.0,5.999996662139893,3.141591787338257,0.0,0.0,0.0
1759830040.9624135,0,0.0,5.999996662139893,3.141591761158132,0.0,True,0.021946430206298828,0.0,5.999996662139893,3.141591787338257,0.0,0.0,0.0
1759830040.9731414,0,0.0,5.999996662139893,3.141591763332279,0.0,True,0.010727882385253906,0.0,5.999996662139893,3.141591787338257,0.0,0.0,0.0
1759830040.983877,0,0.0,5.999996662139893,3.141591765399177,0.0,True,0.010735511779785156,0.0,5.999996662139893,3.141591787338257,0.0,0.0,0.0
1759830040.9949012,0,0.0,5.999996662139893,3.1415917669168927,0.0,True,0.011024236679077148,0.0,5.999996662139893,3.141591787338257,0.0,0.0,0.0
1759830041.0061998,0,0.0,5.999996662139893,3.141591768034134,0.0,True,0.011298656463623047,0.0,5.999996662139893,3.141591787338257,0.0,0.0,0.0
1759830041.017653,0,0.0,5.999996662139893,3.141591768924121,0.0,True,0.01145315170288086,0.0,5.999996662139893,3.141591787338257,0.0,0.0,0.0
1759830041.0292218,0,0.0,5.999996662139893,3.1415917696758218,0.0,True,0.011568784713745117,0.0,5.999996662139893,3.141591787338257,0.0,0.0,0.0
1759830041.0401778,0,0.0,5.999996662139893,3.141591770573868,0.0,True,0.010956048965454102,0.0,5.999996662139893,3.141591787338257,0.0,0.0,0.0
1759830041.051649,0,0.0,5.999996662139893,3.1415917712004653,0.0,True,0.011471271514892578,0.0,5.999996662139893,3.141591787338257,0.0,0.0,0.0
1759830041.0627675,0,0.0,5.999996662139893,3.1415917718921627,0.0,True,0.011118412017822266,0.0,5.999996662139893,3.141591787338257,0.0,0.0,0.0
1759830041.074523,0,0.0,5.999996662139893,3.1415917723359605,0.0,True,0.01175546646118164,0.0,5.999996662139893,3.141591787338257,0.0,0.0,0.0
1759830041.0858932,0,0.0,5.999996662139893,3.141591772897062,0.0,True,0.011370182037353516,0.0,5.999996662139893,3.141591787338257,0.0,0.0,0.0
1759830041.0961556,0,0.0,5.999996662139893,3.141591773745141,0.0,True,0.010262489318847656,0.0,5.999996662139893,3.141591787338257,0.0,0.0,0.0
1759830041.1067152,0,0.0,5.999996662139893,3.141591774390008,0.0,True,0.010559558868408203,0.0,5.999996662139893,3.141591787338257,0.0,0.0,0.0
1759830041.1170893,0,0.0,5.999996662139893,3.1415917749923796,0.0,True,0.010374069213867188,0.0,5.999996662139893,3.141591787338257,0.0,0.0,0.0
1759830041.1273625,0,0.0,5.999996662139893,3.141591775543457,0.0,True,0.010273218154907227,0.0,5.999996662139893,3.141591787338257,0.0,0.0,0.0
1759830041.137802,0,0.0,5.999996662139893,3.1415917759856065,0.0,True,0.010439395904541016,0.0,5.999996662139893,3.141591787338257,0.0,0.0,0.0
1759830041.14817,0,0.0,5.999996662139893,3.1415917764043293,0.0,True,0.010368108749389648,0.0,5.999996662139893,3.141591787338257,0.0,0.0,0.0
1759830041.1683867,0,0.0,5.999996662139893,3.141591774570472,0.0,True,0.020216703414916992,0.0,5.999996662139893,3.141591787338257,0.0,0.0,0.0
1759830041.1792295,0,0.0,5.999996662139893,3.141591775458057,0.0,True,0.01084280014038086,0.0,5.999996662139893,3.141591787338257,0.0,0.0,0.0
1759830041.189677,0,0.0,5.999996662139893,3.1415917764164583,0.0,True,0.010447502136230469,0.0,5.999996662139893,3.141591787338257,0.0,0.0,0.0
1759830041.2005582,0,0.0,5.999996662139893,3.141591777096828,0.0,True,0.010881185531616211,0.0,5.999996662139893,3.141591787338257,0.0,0.0,0.0
1759830041.2119393,0,0.0,5.999996662139893,3.1415917775543587,0.0,True,0.011381149291992188,0.0,5.999996662139893,3.141591787338257,0.0,0.0,0.0
1759830041.2227607,0,0.0,5.999996662139893,3.1415917780609632,0.0,True,0.010821342468261719,0.0,5.999996662139893,3.141591787338257,0.0,0.0,0.0
1759830041.2334685,0,0.0,5.999996662139893,3.1415917785228125,0.0,True,0.010707855224609375,0.0,5.999996662139893,3.141591787338257,0.0,0.0,0.0
1759830041.2436218,0,0.0,5.999996662139893,3.1415917790190004,0.0,True,0.01015329360961914,0.0,5.999996662139893,3.141591787338257,0.0,0.0,0.0
1759830041.254203,0,0.0,5.999996662139893,3.1415917793655357,0.0,True,0.010581254959106445,0.0,5.999996662139893,3.141591787338257,0.0,0.0,0.0
1759830041.2656803,0,0.0,5.999996662139893,3.141591779523587,0.0,True,0.011477231979370117,0.0,5.999996662139893,3.141591787338257,0.0,0.0,0.0
1759830041.2765946,0,0.0,5.999996662139893,3.141591779789218,0.0,True,0.010914325714111328,0.0,5.999996662139893,3.141591787338257,0.0,0.0,0.0
1759830041.2877748,0,0.0,5.999996662139893,3.1415917800104793,0.0,True,0.01118016242980957,0.0,5.999996662139893,3.141591787338257,0.0,0.0,0.0
1759830041.2981875,0,0.0,5.999996662139893,3.141591780345818,0.0,True,0.01041269302368164,0.0,5.999996662139893,3.141591787338257,0.0,0.0,0.0
1759830041.3091085,0,0.0,5.999996662139893,3.14159178057524,0.0,True,0.010921001434326172,0.0,5.999996662139893,3.141591787338257,0.0,0.0,0.0
1759830041.319979,0,0.0,5.999996662139893,3.1415917807994056,0.0,True,0.01087045669555664,0.0,5.999996662139893,3.141591787338257,0.0,0.0,0.0
1759830041.3301187,0,0.0,5.999996662139893,3.141591781113833,0.0,True,0.010139703750610352,0.0,5.999996662139893,3.141591787338257,0.0,0.0,0.0
1759830041.341345,0,0.0,5.999996662139893,3.1415917812508027,0.0,True,0.011226415634155273,0.0,5.999996662139893,3.141591787338257,0.0,0.0,0.0
1759830041.352251,0,0.0,5.999996662139893,3.141591781435288,0.0,True,0.010905981063842773,0.0,5.999996662139893,3.141591787338257,0.0,0.0,0.0
1759830041.3703876,0,0.0,5.999996662139893,3.141591780767108,0.0,True,0.01813650131225586,0.0,5.999996662139893,3.141591787338257,0.0,0.0,0.0
1759830041.3813686,0,0.0,5.999996662139893,3.1415917811882945,0.0,True,0.010981082916259766,0.0,5.999996662139893,3.141591787338257,0.0,0.0,0.0
1759830041.3921633,0,0.0,5.999996662139893,3.1415917816201446,0.0,True,0.010794639587402344,0.0,5.999996662139893,3.141591787338257,0.0,0.0,0.0
1759830041.4036334,0,0.0,5.999996662139893,3.141591781903502,0.0,True,0.01147007942199707,0.0,5.999996662139893,3.141591787338257,0.0,0.0,0.0
1759830041.4140053,0,0.0,5.999996662139893,3.1415917822579225,0.0,True,0.010371923446655273,0.0,5.999996662139893,3.141591787338257,0.0,0.0,0.0
1759830041.425863,0,0.0,5.999996662139893,3.1415917824083603,0.0,True,0.011857748031616211,0.0,5.999996662139893,3.141591787338257,0.0,0.0,0.0
1759830041.4373875,0,0.0,5.999996662139893,3.1415917825848076,0.0,True,0.011524438858032227,0.0,5.999996662139893,3.141591787338257,0.0,0.0,0.0
1759830041.4480972,0,0.0,5.999996662139893,3.1415917828310835,0.0,True,0.010709762573242188,0.0,5.999996662139893,3.141591787338257,0.0,0.0,0.0
1759830041.4584308,0,0.0,5.999996662139893,3.141591783081001,0.0,True,0.010333538055419922,0.0,5.999996662139893,3.141591787338257,0.0,0.0,0.0
1759830041.469106,0,0.0,5.999996662139893,3.1415917832635145,0.0,True,0.010675191879272461,0.0,5.999996662139893,3.141591787338257,0.0,0.0,0.0
1759830041.4806662,0,0.0,5.999996662139893,3.14159178335105,0.0,True,0.011560201644897461,0.0,5.999996662139893,3.141591787338257,0.0,0.0,0.0
1759830041.492125,0,0.0,5.999996662139893,3.141591783454956,0.0,True,0.011458873748779297,0.0,5.999996662139893,3.141591787338257,0.0,0.0,0.0
1759830041.5026016,0,0.0,5.999996662139893,3.1415917836423937,0.0,True,0.01047658920288086,0.0,5.999996662139893,3.141591787338257,0.0,0.0,0.0
1759830041.513171,0,0.0,5.999996662139893,3.1415917838038254,0.0,True,0.010569334030151367,0.0,5.999996662139893,3.141591787338257,0.0,0.0,0.0
1759830041.52466,0,0.0,5.999996662139893,3.141591783880626,0.0,True,0.011489152908325195,0.0,5.999996662139893,3.141591787338257,0.0,0.0,0.0
1759830041.5355322,0,0.0,5.999996662139893,3.1415917840067618,0.0,True,0.010872125625610352,0.0,5.999996662139893,3.141591787338257,0.0,0.0,0.0
1759830041.5455456,0,0.0,5.999996662139893,3.141591784186277,0.0,True,0.010013341903686523,0.0,5.999996662139893,3.141591787338257,0.0,0.0,0.0
1759830041.5563195,0,0.0,5.999996662139893,3.141591784291533,0.0,True,0.010773897171020508,0.0,5.999996662139893,3.141591787338257,0.0,0.0,0.0
1759830041.5684772,0,0.0,5.999996662139893,3.1415917843019336,0.0,True,0.012157678604125977,0.0,5.999996662139893,3.141591787338257,0.0,0.0,0.0
1759830041.5792117,0,0.0,5.999996662139893,3.1415917844227934,0.0,True,0.01073455810546875,0.0,5.999996662139893,3.141591787338257,0.0,0.0,0.0
1759830041.5896041,0,0.0,5.999996662139893,3.1415917845602728,0.0,True,0.010392427444458008,0.0,5.999996662139893,3.141591787338257,0.0,0.0,0.0
1759830041.6009443,0,0.0,5.999996662139893,3.141591784628016,0.0,True,0.011340141296386719,0.0,5.999996662139893,3.141591787338257,0.0,0.0,0.0
1759830041.611411,0,0.0,5.999996662139893,3.1415917847459003,0.0,True,0.010466814041137695,0.0,5.999996662139893,3.141591787338257,0.0,0.0,0.0
1759830041.6217837,0,0.0,5.999996662139893,3.141591784859129,0.0,True,0.010372638702392578,0.0,5.999996662139893,3.141591787338257,0.0,0.0,0.0
1759830041.6328566,0,0.0,5.999996662139893,3.141591784923804,0.0,True,0.011072874069213867,0.0,5.999996662139893,3.141591787338257,0.0,0.0,0.0
1759830041.6442862,0,0.0,5.999996662139893,3.1415917849717143,0.0,True,0.011429548263549805,0.0,5.999996662139893,3.141591787338257,0.0,0.0,0.0
1759830041.6556864,0,0.0,5.999996662139893,3.141591785029412,0.0,True,0.011400222778320312,0.0,5.999996662139893,3.141591787338257,0.0,0.0,0.0
1759830041.6660397,0,0.0,5.999996662139893,3.141591785141596,0.0,True,0.010353326797485352,0.0,5.999996662139893,3.141591787338257,0.0,0.0,0.0
1759830041.676857,0,0.0,5.999996662139893,3.1415917852216886,0.0,True,0.010817289352416992,0.0,5.999996662139893,3.141591787338257,0.0,0.0,0.0
1759830041.6877344,0,0.0,5.999996662139893,3.1415917852929542,0.0,True,0.010877370834350586,0.0,5.999996662139893,3.141591787338257,0.0,0.0,0.0
1759830041.6986868,0,0.0,5.999996662139893,3.141591785358317,0.0,True,0.010952472686767578,0.0,5.999996662139893,3.141591787338257,0.0,0.0,0.0
1759830041.7087512,0,0.0,5.999996662139893,3.141591785458205,0.0,True,0.010064363479614258,0.0,5.999996662139893,3.141591787338257,0.0,0.0,0.0
1759830041.72016,0,0.0,5.999996662139893,3.141591785493439,0.0,True,0.011408805847167969,0.0,5.999996662139893,3.141591787338257,0.0,0.0,0.0
1759830041.731142,0,0.0,5.999996662139893,3.141591785548931,0.0,True,0.010982036590576172,0.0,5.999996662139893,3.141591787338257,0.0,0.0,0.0
1759830041.7423964,0,0.0,5.999996662139893,3.1415917855960505,0.0,True,0.011254310607910156,0.0,5.999996662139893,3.141591787338257,0.0,0.0,0.0
1759830041.7531395,0,0.0,5.999996662139893,3.1415917856636213,0.0,True,0.010743141174316406,0.0,5.999996662139893,3.141591787338257,0.0,0.0,0.0
1759830041.7739716,0,0.0,5.999996662139893,3.1415917853954323,0.0,True,0.020832061767578125,0.0,5.999996662139893,3.141591787338257,0.0,0.0,0.0
1759830041.7806907,0,0.0,5.999996662139893,3.141591785677681,0.0,True,0.006719112396240234,0.0,5.999996662139893,3.141591787338257,0.0,0.0,0.0
1759830041.7911406,0,0.0,5.999996662139893,3.1415917857982087,0.0,True,0.010449886322021484,0.0,5.999996662139893,3.141591787338257,0.0,0.0,0.0
1759830041.8021393,0,0.0,5.999996662139893,3.1415917858705633,0.0,True,0.010998725891113281,0.0,5.999996662139893,3.141591787338257,0.0,0.0,0.0
1759830041.8128867,0,0.0,5.999996662139893,3.141591785939479,0.0,True,0.010747432708740234,0.0,5.999996662139893,3.141591787338257,0.0,0.0,0.0
1759830041.8242574,0,0.0,5.999996662139893,3.141591785983028,0.0,True,0.011370658874511719,0.0,5.999996662139893,3.141591787338257,0.0,0.0,0.0
1759830041.835716,0,0.0,5.999996662139893,3.1415917860231346,0.0,True,0.011458635330200195,0.0,5.999996662139893,3.141591787338257,0.0,0.0,0.0
1759830041.8461618,0,0.0,5.999996662139893,3.141591786090224,0.0,True,0.010445833206176758,0.0,5.999996662139893,3.141591787338257,0.0,0.0,0.0
1759830041.8574367,0,0.0,5.999996662139893,3.141591786129002,0.0,True,0.01127481460571289,0.0,5.999996662139893,3.141591787338257,0.0,0.0,0.0
1759830041.868213,0,0.0,5.999996662139893,3.1415917861783313,0.0,True,0.010776281356811523,0.0,5.999996662139893,3.141591787338257,0.0,0.0,0.0
1759830041.8814256,0,0.0,5.999996662139893,3.1415917861677567,0.0,True,0.01321268081665039,0.0,5.999996662139893,3.141591787338257,0.0,0.0,0.0
1759830041.8917527,0,0.0,5.999996662139893,3.1415917862355336,0.0,True,0.01032710075378418,0.0,5.999996662139893,3.141591787338257,0.0,0.0,0.0
1759830041.902037,0,0.0,5.999996662139893,3.141591786297832,0.0,True,0.010284185409545898,0.0,5.999996662139893,3.141591787338257,0.0,0.0,0.0
1759830041.9134269,0,0.0,5.999996662139893,3.1415917863269875,0.0,True,0.011389970779418945,0.0,5.999996662139893,3.141591787338257,0.0,0.0,0.0
1759830041.924662,0,0.0,5.999996662139893,3.1415917863586422,0.0,True,0.011235237121582031,0.0,5.999996662139893,3.141591787338257,0.0,0.0,0.0
1759830041.9349787,0,0.0,5.999996662139893,3.1415917864083163,0.0,True,0.010316610336303711,0.0,5.999996662139893,3.141591787338257,0.0,0.0,0.0
1759830041.945238,0,0.0,5.999996662139893,3.141591786453226,0.0,True,0.010259389877319336,0.0,5.999996662139893,3.141591787338257,0.0,0.0,0.0
1759830041.9555018,0,0.0,5.999996662139893,3.141591786491908,0.0,True,0.010263681411743164,0.0,5.999996662139893,3.141591787338257,0.0,0.0,0.0
1759830041.972654,0,0.0,5.999996662139893,3.1415917864057707,0.0,True,0.01715230941772461,0.0,5.999996662139893,3.141591787338257,0.0,0.0,0.0
1759830041.9834328,0,0.0,5.999996662139893,3.141591786461321,0.0,True,0.010778665542602539,0.0,5.999996662139893,3.141591787338257,0.0,0.0,0.0
1759830041.994393,0,0.0,5.999996662139893,3.1415917865131604,0.0,True,0.01096034049987793,0.0,5.999996662139893,3.141591787338257,0.0,0.0,0.0
1759830042.0053146,0,0.0,5.999996662139893,3.1415917865574947,0.0,True,0.010921478271484375,0.0,5.999996662139893,3.141591787338257,0.0,0.0,0.0
1759830042.0163956,0,0.0,5.999996662139893,3.141591786592958,0.0,True,0.01108098030090332,0.0,5.999996662139893,3.141591787338257,0.0,0.0,0.0
1759830042.0278838,0,0.0,5.999996662139893,3.141591786618484,0.0,True,0.011488199234008789,0.0,5.999996662139893,3.141591787338257,0.0,0.0,0.0
1759830042.038815,0,0.0,5.999996662139893,3.1415917866507215,0.0,True,0.010931253433227539,0.0,5.999996662139893,3.141591787338257,0.0,0.0,0.0
1759830042.0500276,0,0.0,5.999996662139893,3.1415917866762832,0.0,True,0.011212587356567383,0.0,5.999996662139893,3.141591787338257,0.0,0.0,0.0
1759830042.0605626,0,0.0,5.999996662139893,3.1415917867089718,0.0,True,0.010535001754760742,0.0,5.999996662139893,3.141591787338257,0.0,0.0,0.0
1759830042.0716813,0,0.0,5.999996662139893,3.1415917867304906,0.0,True,0.011118650436401367,0.0,5.999996662139893,3.141591787338257,0.0,0.0,0.0
1759830042.08309,0,0.0,5.999996662139893,3.141591786747199,0.0,True,0.011408805847167969,0.0,5.999996662139893,3.141591787338257,0.0,0.0,0.0
1759830042.0942588,0,0.0,5.999996662139893,3.1415917867672825,0.0,True,0.011168718338012695,0.0,5.999996662139893,3.141591787338257,0.0,0.0,0.0
1759830042.1054354,0,0.0,5.999996662139893,3.1415917867869325,0.0,True,0.011176586151123047,0.0,5.999996662139893,3.141591787338257,0.0,0.0,0.0
