timestamp,observer_vehicle_id,vehicle_0_x,vehicle_0_y,vehicle_0_theta,vehicle_0_velocity,vehicle_1_x,vehicle_1_y,vehicle_1_theta,vehicle_1_velocity,vehicle_2_x,vehicle_2_y,vehicle_2_theta,vehicle_2_velocity
1759842057.9313605,1,0.0,0.0,0.0,0.0,-1.735,-0.35,-0.7801621756414646,0.0,0.0,0.0,0.0,0.0
1759842057.941811,1,0.0,0.0,0.0,0.0,-1.735,-0.35,-0.7801621756414646,0.0,0.0,0.0,0.0,0.0
1759842057.9530067,1,0.0,0.0,0.0,0.0,-1.735,-0.35,-0.7801621756414646,0.0,0.0,0.0,0.0,0.0
1759842057.9644115,1,0.0,0.0,0.0,0.0,-1.735,-0.35,-0.7801621756414646,0.0,0.0,0.0,0.0,0.0
1759842057.975911,1,0.0,0.0,0.0,0.0,-1.735,-0.35,-0.7801621756414646,0.0,0.0,0.0,0.0,0.0
1759842057.9861217,1,0.0,0.0,0.0,0.0,-1.735,-0.35,-0.7801621756414646,0.0,0.0,0.0,0.0,0.0
1759842057.9962554,1,0.0,0.0,0.0,0.0,-1.735,-0.35,-0.7801621756414646,0.0,0.0,0.0,0.0,0.0
1759842058.0070086,1,0.0,0.0,0.0,0.0,-1.735,-0.35,-0.7801621756414646,0.0,0.0,0.0,0.0,0.0
1759842058.017714,1,0.0,0.0,0.0,0.0,-1.735,-0.35,-0.7801621756414646,0.0,0.0,0.0,0.0,0.0
1759842058.0285027,1,0.0,0.0,0.0,0.0,-1.735,-0.35,-0.7801621756414646,0.0,0.0,0.0,0.0,0.0
1759842058.0398452,1,0.0,0.0,0.0,0.0,-1.735,-0.35,-0.7801621756414646,0.0,0.0,0.0,0.0,0.0
1759842058.050971,1,0.0,0.0,0.0,0.0,-1.735,-0.35,-0.7801621756414646,0.0,0.0,0.0,0.0,0.0
1759842058.0612133,1,0.0,0.0,0.0,0.0,-1.735,-0.35,-0.7801621756414646,0.0,0.0,0.0,0.0,0.0
1759842058.0720987,1,0.0,0.0,0.0,0.0,-1.735,-0.35,-0.7801621756414646,0.0,0.0,0.0,0.0,0.0
1759842058.0833354,1,0.0,0.0,0.0,0.0,-1.735,-0.35,-0.7801621756414646,0.0,0.0,0.0,0.0,0.0
1759842058.0936704,1,0.0,0.0,0.0,0.0,-1.735,-0.35,-0.7801621756414646,0.0,0.0,0.0,0.0,0.0
1759842058.104027,1,0.0,0.0,0.0,0.0,-1.735,-0.35,-0.7801621756414646,0.0,0.0,0.0,0.0,0.0
1759842058.1152606,1,-0.23647609019279484,-0.16288394594192507,1.7441094810937703,0.0,-1.735,-0.35,-0.7801621756414646,0.0,0.0,0.0,0.0,0.0
1759842058.1268084,1,-0.4243078954428501,-0.2922618698900959,-3.1315546571873716,0.0,-1.7350000141859054,-0.349999905427297,-0.7229996904588738,0.0,0.0,0.0,0.0,0.0
1759842058.1379066,1,-0.5739794751178149,-0.3953551571350924,-0.7838237775513412,0.0,-1.7350000142652677,-0.3499999048982158,-0.718115853937082,0.0,0.0,0.0,0.0,0.0
1759842058.148519,1,-0.6936171996828886,-0.4777612246778402,1.1136679477982183,0.0,-1.735000014290167,-0.34999990473222087,-0.7176580750647297,0.0,0.0,0.0,0.0,0.0
1759842058.1600802,1,-0.7948043275368303,-0.5474585824527544,2.6362508693737023,0.0,-1.73500001429942,-0.3499999046705331,-0.7175952924653881,0.0,0.0,0.0,0.0,0.0
1759842058.1709614,1,-0.8750769123299582,-0.6027500723932491,-2.418325444077392,0.0,-1.7350000143029403,-0.3499999046470641,-0.7175902829518606,0.0,0.0,0.0,0.0,0.0
1759842058.1825054,1,-0.9388789565660891,-0.6466967086720778,-0.2044956323017366,0.0,-1.7350000143042843,-0.34999990463810493,-0.7175972136533507,0.0,0.0,0.0,0.0,0.0
1759842058.1934457,1,-0.9897603784982224,-0.6817436631979455,1.5823365171048362,0.0,-1.7350000143047974,-0.3499999046346831,-0.7176099179027524,0.0,0.0,0.0,0.0,0.0
1759842058.2044427,1,-1.0304400482828027,-0.7097636847093162,3.032591280098741,0.0,-1.7350000143049935,-0.3499999046333761,-0.7176220001504916,0.0,0.0,0.0,0.0,0.0
1759842058.2152238,1,-1.0630549895026884,-0.7322287479562085,-2.066346824215654,0.0,-1.7350000143050683,-0.3499999046328769,-0.7176327800092075,0.0,0.0,0.0,0.0,0.0
1759842058.2267842,1,-1.0908435474869298,-0.7513694144515781,0.08263263995339035,0.0,-1.735000014305097,-0.3499999046326862,-0.717640872588383,0.0,0.0,0.0,0.0,0.0
1759842058.2376359,1,-1.1129441862222198,-0.7665922610493296,1.8126436351491224,0.0,-1.7350000143051079,-0.3499999046326134,-0.7176486447600379,0.0,0.0,0.0,0.0,0.0
1759842058.2492723,1,-1.1305519096553518,-0.7787204025011966,-3.0695711674836295,0.0,-1.735000014305112,-0.34999990463258557,-0.7176543498368755,0.0,0.0,0.0,0.0,0.0
1759842058.2607732,1,-1.1446205210089748,-0.7884108153007875,-0.740178099982584,0.0,-1.7350000143051136,-0.3499999046325749,-0.71765942755815,0.0,0.0,0.0,0.0,0.0
1759842058.271959,1,-1.1565432218219032,-0.7966231320433024,1.1492155179506007,0.0,-1.7350000143051143,-0.34999990463257086,-0.7176640218380488,0.0,0.0,0.0,0.0,0.0
1759842058.28278,1,-1.1660067639254337,-0.8031415884299667,2.6695645217013673,0.0,-1.7350000143051145,-0.3499999046325693,-0.7176681037771466,0.0,0.0,0.0,0.0,0.0
1759842058.293599,1,-1.1735377160387348,-0.8083288832465974,-2.382864509341935,0.0,-1.7350000143051147,-0.3499999046325687,-0.7176714583905975,0.0,0.0,0.0,0.0,0.0
1759842058.3037522,1,-1.1795502898166175,-0.8124703241060517,-0.17968957421960827,0.0,-1.7350000143051147,-0.34999990463256847,-0.7176746131735108,0.0,0.0,0.0,0.0,0.0
1759842058.3140826,1,-1.1843612543173483,-0.8157841004841484,1.60356101812038,0.0,-1.7350000143051147,-0.3499999046325684,-0.7176770770861225,0.0,0.0,0.0,0.0,0.0
1759842058.3308506,1,-1.1884255422744767,-0.8185835124794703,1.146446639367823,0.0,-1.7350000143051147,-0.34999990463256836,-0.7176761212101113,0.0,0.0,0.0,0.0,0.0
1759842058.341315,1,-1.1916547828664097,-0.8208077581392743,0.783250841581167,0.0,-1.7350000143051147,-0.34999990463256836,-0.717678981564827,0.0,0.0,0.0,0.0,0.0
1759842058.3523111,1,-1.1942255153741357,-0.8225784346993024,0.4941180818939246,0.0,-1.7350000143051147,-0.34999990463256836,-0.7176812169993667,0.0,0.0,0.0,0.0,0.0
1759842058.3636067,1,-1.1962767000662862,-0.8239912556146499,0.26341936513233627,0.0,-1.7350000143051147,-0.34999990463256836,-0.7176829113850385,0.0,0.0,0.0,0.0,0.0
1759842058.374374,1,-1.1979186082836073,-0.8251221738978205,0.07875236745735262,0.0,-1.7350000143051147,-0.34999990463256836,-0.7176845357983588,0.0,0.0,0.0,0.0,0.0
1759842058.3856018,1,-1.199311131070537,-0.82608131976411,-0.07786601080734926,0.0,-1.7350000143051147,-0.34999990463256836,-0.7176857420464522,0.0,0.0,0.0,0.0,0.0
1759842058.3965502,1,-1.2004173654606336,-0.8268432750817302,-0.20228525750386148,0.0,-1.7350000143051147,-0.34999990463256836,-0.7176868898350541,0.0,0.0,0.0,0.0,0.0
1759842058.407478,1,-1.2012984717960464,-0.827450166047756,-0.3013841351856918,0.0,-1.7350000143051147,-0.34999990463256836,-0.7176879028776284,0.0,0.0,0.0,0.0,0.0
1759842058.418385,1,-1.2020020942300749,-0.8279348091396762,-0.38052122763583096,0.0,-1.7350000143051147,-0.34999990463256836,-0.7176888019791843,0.0,0.0,0.0,0.0,0.0
1759842058.4297912,1,-1.2025651277978218,-0.8283226170263086,-0.4438461549668353,0.0,-1.7350000143051147,-0.34999990463256836,-0.7176894654404613,0.0,0.0,0.0,0.0,0.0
1759842058.441035,1,-1.2030444701308063,-0.8286527798225911,-0.4977582485643635,0.0,-1.7350000143051147,-0.34999990463256836,-0.7176901425976254,0.0,0.0,0.0,0.0,0.0
1759842058.4523597,1,-1.2034250189258855,-0.8289148953205547,-0.5405589378567163,0.0,-1.7350000143051147,-0.34999990463256836,-0.7176907631525075,0.0,-0.37985292434692386,0.03837488517761231,1.1719946208088843,0.0
1759842058.4631357,1,-1.2037281195233451,-0.829123665825319,-0.574648953812454,0.0,-1.7350000143051147,-0.34999990463256836,-0.7176914821282097,0.0,-0.6823278828812964,0.06893261175775148,2.119151310924264,0.0
1759842058.474459,1,-1.2039700104161297,-0.8292902761329457,-0.6018546553639933,0.0,-1.7350000143051147,-0.34999990463256836,-0.7176919992018078,0.0,-0.9236628892382351,0.09331363547688837,2.8896297824002573,0.0
1759842058.485817,1,-1.2041635593376472,-0.8294235893180086,-0.6236232888739589,0.0,-1.7350000143051147,-0.34999990463256836,-0.7176924807631693,0.0,-1.1167219448546188,0.11281755032633842,-2.762206915410465,0.0
1759842058.4965236,1,-1.20431894813458,-0.8295306184622672,-0.6411000164395833,0.0,-1.7350000143051147,-0.34999990463256836,-0.7176930821953604,0.0,-1.2716813176185207,0.12847242029274286,-1.0727043981062019,0.0
1759842058.507907,1,-1.2044439206178716,-0.8296166973701847,-0.6551557919317927,0.0,-1.7350000143051147,-0.34999990463256836,-0.7176934849274179,0.0,-1.396279589863825,0.14106004061701205,0.3011592437493127,0.0
1759842058.518939,1,-1.2045507330162541,-0.8296902679223787,-0.6671690851936599,0.0,-1.7350000143051147,-0.34999990463256836,-0.7176939395629098,0.0,-1.496769048462262,0.15121205258823875,1.4242853118992624,0.0
1759842058.5291073,1,-1.2046361165987556,-0.8297490786728912,-0.676772258906358,0.0,-1.7350000143051147,-0.34999990463256836,-0.7176945230262445,0.0,-1.5780999106356417,0.1594285550744725,2.347366074386799,0.0
1759842058.5395043,1,-1.2047045177615006,-0.8297961922232847,-0.6844654035220831,0.0,-1.7350000143051147,-0.34999990463256836,-0.7176949826223016,0.0,-1.6481862922944093,0.16650907670871723,3.0797436304241583,0.0
1759842058.5507646,1,-1.204759397159326,-0.829833992213391,-0.6906377422214918,0.0,-1.7350000143051147,-0.34999990463256836,-0.7176952337305629,0.0,-1.704384853428137,0.17218657237197074,-2.60116992851686,0.0
1759842058.5609846,1,-1.2048035935006403,-0.8298644338969847,-0.6956085472717548,0.0,-1.7350000143051147,-0.34999990463256836,-0.7176956590986663,0.0,-1.7496170445818409,0.17675618347826802,-0.9455247592629418,0.0
1759842058.5715058,1,-1.2048392594871242,-0.8298890000181458,-0.6996199351030836,0.0,-1.7350000143051147,-0.34999990463256836,-0.7176959926370401,0.0,-1.7860976768322103,0.1804416627363823,0.4041434999153293,0.0
1759842058.5824,1,-1.2048680998811598,-0.8299088647880304,-0.7028636419815294,0.0,-1.7350000143051147,-0.34999990463256836,-0.7176962376641143,0.0,-1.8155797231936182,0.18342010536879116,1.5099258128767536,0.0
1759842058.593142,1,-1.2048929003978222,-0.829925946959512,-0.7056529799630883,0.0,-1.7350000143051147,-0.34999990463256836,-0.7176965010573753,0.0,-1.8394698784497021,0.1858336236177391,2.4209821721167177,0.0
1759842058.603401,1,-1.2049128194814929,-0.829939666883482,-0.7078932984773046,0.0,-1.7350000143051147,-0.34999990463256836,-0.7176968243478186,0.0,-1.8588873167089959,0.18779528276496005,-3.1072075142725994,0.0
1759842058.6148162,1,-1.204928836232404,-0.8299506989474252,-0.7096947178697457,0.0,-1.7350000143051147,-0.34999990463256836,-0.7176969587337716,0.0,-1.8756458781605758,0.18948832717827352,-1.358976554884453,0.0
1759842058.625589,1,-1.2049417584258313,-0.8299595995331287,-0.7111480894031789,0.0,-1.7350000143051147,-0.34999990463256836,-0.7176971970278032,0.0,-1.8891618005801605,0.1908537819047649,0.06570655405374762,0.0
1759842058.6367004,1,-1.2049522060457525,-0.8299667956749471,-0.7123231432724355,0.0,-1.7350000143051147,-0.34999990463256836,-0.7176973893291816,0.0,-1.9000856287922012,0.1919573686523403,1.2325256696747513,0.0
1759842058.6480463,1,-1.204960672357248,-0.8299726271254266,-0.7132753574758446,0.0,-1.7350000143051147,-0.34999990463256836,-0.7176975560638308,0.0,-1.9089347601572377,0.19285135782101323,2.193618902362964,0.0
1759842058.6593769,1,-1.2049675510573024,-0.8299773650563134,-0.7140490114923057,0.0,-1.7350000143051147,-0.34999990463256836,-0.7176977361044017,0.0,-1.9161220034661628,0.19357745368350465,2.9902792011873816,0.0
1759842058.6698937,1,-1.2049735051251547,-0.8299814661163618,-0.7147186712349316,0.0,-1.7350000143051147,-0.34999990463256836,-0.7176980141129619,0.0,-1.92198007639252,0.19416926925606484,-2.6284737536749025,0.0
1759842058.6804087,1,-1.2049783123131708,-0.8299847772252049,-0.7152593402984148,0.0,-1.7350000143051147,-0.34999990463256836,-0.717698265326213,0.0,-1.9270755851281374,0.19468404629243233,-0.9728590506191287,0.0
1759842058.6913245,1,-1.2049822012619202,-0.8299874558665545,-0.7156967341077063,0.0,-1.7350000143051147,-0.34999990463256836,-0.7176984463546923,0.0,-1.9311944125636713,0.19510015347438114,0.3805017782700013,0.0
1759842058.7028027,1,-1.2049853532792478,-0.8299896269221515,-0.716051244530633,0.0,-1.7350000143051147,-0.34999990463256836,-0.7176985621541121,0.0,-1.9345300398615664,0.19543713736037366,1.4925753846110885,0.0
1759842058.7136426,1,-1.2049879165946618,-0.8299913924899441,-0.7163395430826296,0.0,-1.7350000143051147,-0.34999990463256836,-0.7176987528994534,0.0,-1.937240474025374,0.1957109607092301,2.4115736635353024,0.0
1759842058.731711,1,-1.2049899887956548,-0.8299928197865278,-0.7165726055229688,0.0,-1.7350000143051147,-0.34999990463256836,-0.7176982789891291,0.0,-1.9394299144794849,0.19593215033459416,-3.1033428205828777,0.0
1759842058.7366657,1,-1.204991696926229,-0.8299939963176373,-0.7167647206128883,0.0,-1.7350000143051147,-0.34999990463256836,-0.7176991583006966,0.0,-1.9412331885527636,0.19611432725379208,-1.3913997523390733,0.0
1759842058.7470467,1,-1.2049930975284386,-0.8299949610284716,-0.7169222476915857,0.0,-1.7350000143051147,-0.34999990463256836,-0.7176993951251269,0.0,-1.9427106194616925,0.1962635856584377,0.026496321160196314,0.0
1759842058.7574797,1,-1.2049943219902226,-0.829995804416795,-0.7170599640870761,0.0,-1.7350000143051147,-0.34999990463256836,-0.7176995563889808,0.0,-1.9439238556898644,0.1963861536261043,1.2064027580636918,0.0
1759842058.7685957,1,-1.2049953178623518,-0.8299964903564757,-0.7171719707840448,0.0,-1.7350000143051147,-0.34999990463256836,-0.717699645108743,0.0,-1.944991098268913,0.19649403692052445,0.9182211488545929,0.0
1759842058.779639,1,-1.2049961299416314,-0.8299970497027869,-0.7172633061223053,0.0,-1.7350000143051147,-0.34999990463256836,-0.7176997461273906,0.0,-1.9458598442176525,0.19658185498251343,0.6836384865653938,0.0
1759842058.7903068,1,-1.2049967941029578,-0.829997507165743,-0.7173380049859778,0.0,-1.7350000143051147,-0.34999990463256836,-0.7176998816207885,0.0,-1.9465691025641534,0.19665355107908758,0.4921213791596541,0.0
1759842058.8007956,1,-1.2049973387188995,-0.8299978822878841,-0.7173992584651824,0.0,-1.7350000143051147,-0.34999990463256836,-0.7177000243351692,0.0,-1.9471496800702879,0.19671223934289714,0.3353512471643855,0.0
1759842058.811745,1,-1.2049977861160823,-0.8299981904474077,-0.7174495776570099,0.0,-1.7350000143051147,-0.34999990463256836,-0.7177001233896617,0.0,-1.9476257904027066,0.19676036743690042,0.2067898081335704,0.0
1759842058.8231397,1,-1.2049981543502786,-0.8299984440808208,-0.7174909933115229,0.0,-1.7350000143051147,-0.34999990463256836,-0.7177001921969062,0.0,-1.9480169812955788,0.19679991136355654,0.10115869555531817,0.0
1759842058.834633,1,-1.2049984794147786,-0.8299986679796857,-0.7175275536287314,0.0,-1.7350000143051147,-0.34999990463256836,-0.7177002654017102,0.0,-1.9483391775298398,0.19683248089543637,0.014157828935840125,0.0
1759842058.8451974,1,-1.204998745224905,-0.829998851065152,-0.7175574495494905,0.0,-1.7350000143051147,-0.34999990463256836,-0.7177004074762223,0.0,-1.9486055335013233,0.19685940575793365,-0.057764800456436664,0.0
1759842058.8556142,1,-1.204998963141212,-0.8299990011621753,-0.7175819588063166,0.0,-1.7350000143051147,-0.34999990463256836,-0.7177005472344042,0.0,-1.9488418613184457,0.19688329519410755,-0.1215790934542756,0.0
1759842058.8658447,1,-1.204999142254313,-0.8299991245322144,-0.7176021038292083,0.0,-1.7350000143051147,-0.34999990463256836,-0.7177006814985862,0.0,-1.9490357880387887,0.19690289847257247,-0.17394405286857476,0.0
1759842058.876299,1,-1.2049992897729709,-0.8299992261405414,-0.7176186953946616,0.0,-1.7350000143051147,-0.34999990463256836,-0.7177007863783551,0.0,-1.949195246106652,0.19691901745247517,-0.2170016327481084,0.0
1759842058.8878334,1,-1.204999411392231,-0.8299993099098067,-0.7176323740299317,0.0,-1.7350000143051147,-0.34999990463256836,-0.7177008227544839,0.0,-1.949326496156361,0.196932284996362,-0.25244235754348715,0.0
1759842058.8993473,1,-1.204999511917853,-0.8299993791501348,-0.7176436802433716,0.0,-1.7350000143051147,-0.34999990463256836,-0.7177008722968967,0.0,-1.9494348077689962,0.19694323378516077,-0.2816891430803532,0.0
1759842058.9103844,1,-1.2049995952697066,-0.8299994365614654,-0.7176530549065999,0.0,-1.7350000143051147,-0.34999990463256836,-0.717700958153614,0.0,-1.9495244713203386,0.19695229751584217,-0.30590049579480194,0.0
1759842058.9216218,1,-1.2049996690870135,-0.8299994874055632,-0.7176613572101551,0.0,-1.7350000143051147,-0.34999990463256836,-0.7177010344110641,0.0,-1.9495988591360525,0.1969598170833533,-0.32598702612896235,0.0
1759842058.9339976,1,-1.2049997298064699,-0.8299995292280857,-0.7176681863858648,0.0,-1.7350000143051147,-0.34999990463256836,-0.7177010577371696,0.0,-1.9496649624988407,0.19696649920857004,-0.3438365514725179,0.0
1759842058.9448972,1,-1.2049997799809564,-0.8299995637874135,-0.7176738295586722,0.0,-1.7350000143051147,-0.34999990463256836,-0.71770116466217,0.0,-1.9497194614581084,0.19697200829093212,-0.3585526039336142,0.0
1759842058.9551983,1,-1.204999821573472,-0.8299995924356265,-0.7176785075089547,0.0,-1.7350000143051147,-0.34999990463256836,-0.717701291544449,0.0,-1.9497645359283033,0.19697656468929395,-0.37072381375041114,0.0
1759842058.9656818,1,-1.2049998561225501,-0.8299996162324402,-0.7176823932770244,0.0,-1.7350000143051147,-0.34999990463256836,-0.7177013922889017,0.0,-1.9498018925730314,0.19698034092347058,-0.3808110218544715,0.0
1759842058.975805,1,-1.2049998849006998,-0.8299996360543372,-0.7176856299832152,0.0,-1.7350000143051147,-0.34999990463256836,-0.7177014941140882,0.0,-1.9498329390415823,0.19698347928711268,-0.38919432799585024,0.0
1759842058.986332,1,-1.2049999089124757,-0.8299996525932376,-0.717688330610769,0.0,-1.7350000143051147,-0.34999990463256836,-0.7177015658171335,0.0,-1.9498587853856657,0.1969860919909189,-0.3961734732963996,0.0
1759842058.997344,1,-1.2049999304812844,-0.829999667449464,-0.7176907564754453,0.0,-1.7350000143051147,-0.34999990463256836,-0.7177016122995035,0.0,-1.9498803384737602,0.19698827070660566,-0.40199333443427787,0.0
1759842059.0086312,1,-1.2049999483246114,-0.8299996797396423,-0.7176927633316081,0.0,-1.7350000143051147,-0.34999990463256836,-0.7177016504749165,0.0,-1.949899687313159,0.19699022660358592,-0.4072179944916944,0.0
1759842059.0194366,1,-1.2049999631317783,-0.8299996899385654,-0.7176944287079158,0.0,-1.7350000143051147,-0.34999990463256836,-0.7177017113645388,0.0,-1.9499157089040147,0.1969918461622854,-0.41154421603260843,0.0
1759842059.0296361,1,-1.2049999754582903,-0.829999698428856,-0.7176958150825979,0.0,-1.7350000143051147,-0.34999990463256836,-0.7177017920072917,0.0,-1.9499290173951864,0.1969931914645621,-0.4151378342758378,0.0
1759842059.0398972,1,-1.2049999857419276,-0.8299997055120495,-0.7176969716931924,0.0,-1.7350000143051147,-0.34999990463256836,-0.7177018614752022,0.0,-1.9499400962561997,0.19699431138242143,-0.4181293978225608,0.0
1759842059.050924,1,-1.2049999943317649,-0.8299997114285824,-0.7176979378004568,0.0,-1.7350000143051147,-0.34999990463256836,-0.7177018981564629,0.0,-1.949949330540169,0.19699524483934658,-0.4206228804350372,0.0
1759842059.0618343,1,-1.2050000015250375,-0.8299997163831854,-0.7176987468347489,0.0,-1.7350000143051147,-0.34999990463256836,-0.7177019400927556,0.0,-1.9499570470137986,0.19699602486687998,-0.4227065171186421,0.0
1759842059.0729735,1,-1.2050000079963465,-0.8299997208405123,-0.7176994746691044,0.0,-1.7350000143051147,-0.34999990463256836,-0.7177019767674313,0.0,-1.9499635083825833,0.196996678020872,-0.42445124478467694,0.0
1759842059.0838082,1,-1.2050000133802095,-0.8299997245488249,-0.7177000801973316,0.0,-1.7350000143051147,-0.34999990463256836,-0.7177020249618593,0.0,-1.9499689340098119,0.19699722647588233,-0.4259162968884856,0.0
1759842059.0938318,1,-1.2050000178747706,-0.8299997276446017,-0.7177005857049551,0.0,-1.7350000143051147,-0.34999990463256836,-0.7177020951288425,0.0,-1.9499738668919777,0.19699772512126013,-0.427248295769094,0.0
1759842059.1051881,1,-1.2050000216284902,-0.8299997302300995,-0.7177010078894005,0.0,-1.7350000143051147,-0.34999990463256836,-0.7177021202901379,0.0,-1.9499779741824896,0.19699814031087143,-0.42835736470282604,0.0
1759842059.115945,1,-1.20500002477371,-0.8299997323964732,-0.7177013616353133,0.0,-1.7350000143051147,-0.34999990463256836,-0.7177021639681911,0.0,-1.949981405221823,0.19699848714094906,-0.4292838292721017,0.0
1759842059.1262221,1,-1.2050000274169224,-0.8299997342170725,-0.7177016589199521,0.0,-1.7350000143051147,-0.34999990463256836,-0.7177022193210228,0.0,-1.9499842799013016,0.19699877773082866,-0.4300600630678212,0.0
1759842059.1400313,1,-1.205000029632218,-0.8299997357429302,-0.7177019080763816,0.0,-1.7350000143051147,-0.34999990463256836,-0.7177021829788117,0.0,-1.949986682158676,0.19699902056544252,-0.43070873133634247,0.0
1759842059.1511443,1,-1.2050000316520488,-0.829999737134155,-0.7177021352486866,0.0,-1.7350000143051147,-0.34999990463256836,-0.7177022318324138,0.0,-1.9499887030124923,0.19699922484549237,-0.4312544113121944,0.0
1759842059.162459,1,-1.2050000333392563,-0.8299997382962746,-0.7177023250105357,0.0,-1.7350000143051147,-0.34999990463256836,-0.7177022777411146,0.0,-1.949990406545493,0.19699939704884695,-0.4317144069037301,0.0
1759842059.173701,1,-1.205000034752194,-0.829999739269482,-0.7177024839250051,0.0,-1.7350000143051147,-0.34999990463256836,-0.717702322540946,0.0,-1.9499919539862642,0.19699955347346085,-0.4321322537741831,0.0
1759842059.1849408,1,-1.2050000359383046,-0.8299997400864546,-0.7177026173279927,0.0,-1.7350000143051147,-0.34999990463256836,-0.7177023645746096,0.0,-1.9499932504080546,0.1969996845235674,-0.43248231937790604,0.0
1759842059.1950212,1,-1.2050000369380063,-0.8299997407750321,-0.7177027297654117,0.0,-1.7350000143051147,-0.34999990463256836,-0.7177024274696855,0.0,-1.9499943408884803,0.19699979475588303,-0.43277677577427187,0.0
1759842059.206475,1,-1.2050000377807735,-0.8299997413555158,-0.7177028245522559,0.0,-1.7350000143051147,-0.34999990463256836,-0.7177024540699772,0.0,-1.9499952583689115,0.1969998875003194,-0.43302451793924707,0.0
1759842059.2179177,1,-1.205000038492965,-0.8299997418460613,-0.7177029046531437,0.0,-1.7350000143051147,-0.34999990463256836,-0.7177024804657179,0.0,-1.9499960321769538,0.1969999657214872,-0.4332334650439102,0.0
1759842059.2286215,1,-1.205000039096905,-0.8299997422620446,-0.7177029725788302,0.0,-1.7350000143051147,-0.34999990463256836,-0.7177025216557436,0.0,-1.9499966870790744,0.19700003192292975,-0.433410304640342,0.0
1759842059.239878,1,-1.2050000396516043,-0.8299997426441121,-0.7177030349664135,0.0,-1.7350000143051147,-0.34999990463256836,-0.7177025497260487,0.0,-1.9499972421440073,0.19700008803222932,-0.43356018575338245,0.0
1759842059.2501104,1,-1.2050000401190442,-0.8299997429660767,-0.7177030875398207,0.0,-1.7350000143051147,-0.34999990463256836,-0.7177025943705982,0.0,-1.9499977516005995,0.1970001395311637,-0.43369775149843964,0.0
1759842059.2613082,1,-1.205000040513274,-0.8299997432376153,-0.7177031318792043,0.0,-1.7350000143051147,-0.34999990463256836,-0.7177026176963217,0.0,-1.9499981805951085,0.1970001828965071,-0.43381359051233254,0.0
1759842059.2717326,1,-1.205000040846916,-0.8299997434674222,-0.7177031694042507,0.0,-1.7350000143051147,-0.34999990463256836,-0.7177026527190195,0.0,-1.9499985430913118,0.19700021953980204,-0.43391147335660807,0.0
1759842059.282426,1,-1.205000041129792,-0.8299997436622625,-0.7177032012196087,0.0,-1.7350000143051147,-0.34999990463256836,-0.7177026803988599,0.0,-1.9499988499545529,0.19700025055938283,-0.4339943339399219,0.0
1759842059.2936134,1,-1.2050000413699873,-0.8299997438277049,-0.7177032282345969,0.0,-1.7350000143051147,-0.34999990463256836,-0.7177026986547101,0.0,-1.9499991101179706,0.1970002768582648,-0.4340645844283226,0.0
1759842059.3038461,1,-1.2050000415747084,-0.8299997439687133,-0.7177032512597832,0.0,-1.7350000143051147,-0.34999990463256836,-0.7177027314214754,0.0,-1.9499993315169464,0.197000299238604,-0.4341243675689301,0.0
1759842059.3146474,1,-1.2050000417628781,-0.8299997440983213,-0.7177032724234029,0.0,-1.7350000143051147,-0.34999990463256836,-0.7177027530862468,0.0,-1.9499995201668063,0.1970003183084657,-0.43417530764693424,0.0
1759842059.3250093,1,-1.2050000419222482,-0.8299997442080927,-0.7177032903479087,0.0,-1.7350000143051147,-0.34999990463256836,-0.7177027795410282,0.0,-1.9499996813786475,0.19700033460472754,-0.4342188387884893,0.0
1759842059.335968,1,-1.205000042057403,-0.8299997443011851,-0.7177033055488997,0.0,-1.7350000143051147,-0.34999990463256836,-0.717702796051368,0.0,-1.949999819307676,0.19700034854742274,-0.43425608300095003,0.0
1759842059.3464751,1,-1.205000042172361,-0.8299997443803662,-0.7177033184783477,0.0,-1.7350000143051147,-0.34999990463256836,-0.7177028184532741,0.0,-1.9499999486522626,0.19700036162235096,-0.43429100920405733,0.0
1759842059.3579047,1,-1.2050000422702172,-0.8299997444477678,-0.7177033294843209,0.0,-1.7350000143051147,-0.34999990463256836,-0.7177028285212828,0.0,-1.9500000584060655,0.197000372716925,-0.4343206454162562,0.0
1759842059.368761,1,-1.205000042353784,-0.8299997445053273,-0.7177033388831862,0.0,-1.7350000143051147,-0.34999990463256836,-0.7177028473591989,0.0,-1.95000015183695,0.19700038216148036,-0.4343458740411639,0.0
1759842059.3793697,1,-1.2050000424253346,-0.8299997445546101,-0.7177033469305549,0.0,-1.7350000143051147,-0.34999990463256836,-0.71770286905668,0.0,-1.9500002315810083,0.19700039022248905,-0.43436740688799613,0.0
1759842059.390178,1,-1.2050000424867096,-0.8299997445968841,-0.7177033538334439,0.0,-1.7350000143051147,-0.34999990463256836,-0.717702887079124,0.0,-1.9500002997704868,0.1970003971154914,-0.43438581971562357,0.0
1759842059.400317,1,-1.205000042539528,-0.8299997446332644,-0.7177033597739714,0.0,-1.7350000143051147,-0.34999990463256836,-0.7177029113701838,0.0,-1.9500003582699645,0.1970004030289702,-0.43440161600596305,0.0
1759842059.410349,1,-1.2050000425891887,-0.8299997446674698,-0.7177033653593551,0.0,-1.7350000143051147,-0.34999990463256836,-0.7177029340336514,0.0,-1.9500004085688782,0.1970004081134867,-0.4344151979433182,0.0
1759842059.4212096,1,-1.2050000426315786,-0.8299997446966674,-0.717703370127001,0.0,-1.7350000143051147,-0.34999990463256836,-0.7177029455158993,0.0,-1.9500004518460825,0.19700041248820663,-0.43442688384737876,0.0
1759842059.431517,1,-1.2050000426678744,-0.8299997447216672,-0.7177033742092098,0.0,-1.7350000143051147,-0.34999990463256836,-0.7177029625138811,0.0,-1.950000489196788,0.1970004162638404,-0.4344369694517104,0.0
1759842059.4418771,1,-1.2050000426990148,-0.8299997447431162,-0.717703377711603,0.0,-1.7350000143051147,-0.34999990463256836,-0.7177029780814692,0.0,-1.9500005244486982,0.19700041982731537,-0.4344464883299982,0.0
1759842059.4525883,1,-1.2050000427257732,-0.829999744761547,-0.7177033807211495,0.0,-1.7350000143051147,-0.34999990463256836,-0.7177029894722562,0.0,-1.9500005546500496,0.1970004228802495,-0.4344546434338367,0.0
1759842059.4629195,1,-1.20500004274883,-0.8299997447774282,-0.7177033833143818,0.0,-1.7350000143051147,-0.34999990463256836,-0.7177030043286337,0.0,-1.9500005805964695,0.19700042550306957,-0.4344616496020441,0.0
1759842059.4736748,1,-1.2050000427687244,-0.8299997447911311,-0.7177033855519226,0.0,-1.7350000143051147,-0.34999990463256836,-0.7177030148475101,0.0,-1.9500006029185368,0.19700042775951832,-0.434467677106417,0.0
1759842059.4844265,1,-1.2050000427859267,-0.8299997448029798,-0.7177033874866716,0.0,-1.7350000143051147,-0.34999990463256836,-0.7177030255971442,0.0,-1.9500006221638808,0.19700042970495335,-0.4344728738201654,0.0
1759842059.4957538,1,-1.2050000428008176,-0.8299997448132364,-0.7177033891614504,0.0,-1.7350000143051147,-0.34999990463256836,-0.71770303212001,0.0,-1.9500006387757116,0.19700043138417703,-0.4344773594208861,0.0
1759842059.506071,1,-1.2050000428151193,-0.829999744823087,-0.7177033907699701,0.0,-1.7350000143051147,-0.34999990463256836,-0.7177030478341919,0.0,-1.9500006531711016,0.1970004328393496,-0.4344812465284385,0.0
1759842059.516387,1,-1.2050000428274281,-0.8299997448315652,-0.7177033921543674,0.0,-1.7350000143051147,-0.34999990463256836,-0.7177030624942907,0.0,-1.950000666860793,0.19700043422318586,-0.4344849430800498,0.0
1759842059.5269022,1,-1.2050000428380405,-0.8299997448388748,-0.7177033933479481,0.0,-1.7350000143051147,-0.34999990463256836,-0.7177030742720873,0.0,-1.9500006786411255,0.1970004354140127,-0.4344881240580658,0.0
1759842059.5416298,1,-1.2050000428471443,-0.8299997448451453,-0.7177033943718423,0.0,-1.7350000143051147,-0.34999990463256836,-0.7177030566138889,0.0,-1.9500006887287535,0.19700043643373075,-0.43449084796443843,0.0
1759842059.5522099,1,-1.2050000428550316,-0.8299997448505778,-0.7177033952589273,0.0,-1.7350000143051147,-0.34999990463256836,-0.717703074804783,0.0,-1.9500006974522066,0.19700043731554978,-0.4344932035101881,0.0
1759842059.5625432,1,-1.205000042861882,-0.8299997448552963,-0.7177033960294035,0.0,-1.7350000143051147,-0.34999990463256836,-0.7177030940833031,0.0,-1.9500007050148795,0.1970004380800302,-0.4344952456169279,0.0
1759842059.5733733,1,-1.2050000428678385,-0.829999744859399,-0.7177033966993435,0.0,-1.7350000143051147,-0.34999990463256836,-0.7177031073137012,0.0,-1.9500007115787248,0.19700043874354312,-0.43449701801573526,0.0
1759842059.5838327,1,-1.205000042873064,-0.8299997448629983,-0.7177033972870785,0.0,-1.7350000143051147,-0.34999990463256836,-0.7177031211888814,0.0,-1.9500007172913334,0.19700043932100791,-0.43449856055981245,0.0
1759842059.59515,1,-1.2050000428780552,-0.8299997448664361,-0.7177033978484368,0.0,-1.7350000143051147,-0.34999990463256836,-0.71770312856402,0.0,-1.9500007223126268,0.19700043982859042,-0.43449991643184055,0.0
1759842059.6066642,1,-1.2050000428823713,-0.829999744869409,-0.7177033983338695,0.0,-1.7350000143051147,-0.34999990463256836,-0.7177031350220702,0.0,-1.9500007267815778,0.19700044028033883,-0.4345011231579456,0.0
1759842059.6168654,1,-1.2050000428861205,-0.8299997448719915,-0.717703398755549,0.0,-1.7350000143051147,-0.34999990463256836,-0.7177031491817374,0.0,-1.950000730758944,0.19700044068239494,-0.43450219714417904,0.0
1759842059.6276476,1,-1.2050000428893803,-0.8299997448742369,-0.7177033991221933,0.0,-1.7350000143051147,-0.34999990463256836,-0.7177031587320926,0.0,-1.9500007344258627,0.19700044105306913,-0.4345031873019996,0.0
1759842059.6384532,1,-1.2050000428922363,-0.8299997448762041,-0.7177033994434148,0.0,-1.7350000143051147,-0.34999990463256836,-0.7177031673082936,0.0,-1.9500007376133206,0.19700044137527653,-0.43450404799361375,0.0
1759842059.6496737,1,-1.2050000428947782,-0.8299997448779549,-0.7177033997293019,0.0,-1.7350000143051147,-0.34999990463256836,-0.7177031734670294,0.0,-1.9500007403991952,0.19700044165688949,-0.4345048002479237,0.0
1759842059.6606014,1,-1.2050000428970404,-0.8299997448795131,-0.7177033999837414,0.0,-1.7350000143051147,-0.34999990463256836,-0.7177031812487868,0.0,-1.9500007428786237,0.19700044190752503,-0.4345054697542596,0.0
1759842059.6719613,1,-1.2050000428990537,-0.8299997448809,-0.7177034002101926,0.0,-1.7350000143051147,-0.34999990463256836,-0.7177031869639112,0.0,-1.9500007450853147,0.19700044213059065,-0.4345060656148985,0.0
1759842059.6834712,1,-1.2050000429008634,-0.8299997448821465,-0.7177034004137275,0.0,-1.7350000143051147,-0.34999990463256836,-0.7177031923719817,0.0,-1.95000074704927,0.19700044232911904,-0.4345065959308671,0.0
1759842059.6936538,1,-1.2050000429024563,-0.8299997448832436,-0.7177034005928803,0.0,-1.7350000143051147,-0.34999990463256836,-0.717703203781408,0.0,-1.95000074879719,0.19700044250580934,-0.4345070679120792,0.0
1759842059.7044456,1,-1.2050000429038739,-0.8299997448842201,-0.7177034007523261,0.0,-1.7350000143051147,-0.34999990463256836,-0.7177032113677164,0.0,-1.950000750352839,0.19700044266306369,-0.434507487975358,0.0
1759842059.71519,1,-1.2050000429051357,-0.8299997448850892,-0.717703400894233,0.0,-1.7350000143051147,-0.34999990463256836,-0.7177032184212795,0.0,-1.9500007517373665,0.19700044280302004,-0.43450786183167606,0.0
1759842059.7265904,1,-1.2050000429062588,-0.8299997448858626,-0.7177034010205302,0.0,-1.7350000143051147,-0.34999990463256836,-0.7177032225738742,0.0,-1.950000752969596,0.1970004429275812,-0.4345081945637992,0.0
1759842059.7439592,1,-1.2050000429062588,-0.8299997448858626,-0.7177034010205302,0.0,-1.7350000143051147,-0.34999990463256836,-0.7177032060243747,0.0,-1.9500007540662803,0.19700044303844064,-0.43450849069538877,0.0
1759842059.7543771,1,-1.2050000429062588,-0.8299997448858626,-0.7177034010205302,0.0,-1.7350000143051147,-0.34999990463256836,-0.7177032204812885,0.0,-1.9500007540662803,0.19700044303844064,-0.43450849069538877,0.0
1759842059.7657762,1,-1.2050000429072583,-0.829999744886551,-0.7177034011329347,0.0,-1.7350000143051147,-0.34999990463256836,-0.7177032306831599,0.0,-1.9500007540662803,0.19700044303844064,-0.43450849069538877,0.0
1759842059.7762,1,-1.2050000429081478,-0.8299997448871637,-0.7177034012329747,0.0,-1.7350000143051147,-0.34999990463256836,-0.7177032423333465,0.0,-1.9500007540662803,0.19700044303844064,-0.43450849069538877,0.0
1759842059.7865279,1,-1.2050000429089394,-0.8299997448877089,-0.7177034013220104,0.0,-1.7350000143051147,-0.34999990463256836,-0.7177032522472757,0.0,-1.9500007550423293,0.19700044313710555,-0.43450875425250346,0.0
1759842059.798155,1,-1.2050000429089394,-0.8299997448877089,-0.7177034013220104,0.0,-1.7350000143051147,-0.34999990463256836,-0.7177032565573498,0.0,-1.9500007559110129,0.1970004432249173,-0.43450898881833555,0.0
1759842059.8089838,1,-1.2050000429089394,-0.8299997448877089,-0.7177034013220104,0.0,-1.7350000143051147,-0.34999990463256836,-0.7177032630082323,0.0,-1.9500007559110129,0.1970004432249173,-0.43450898881833555,0.0
1759842059.8202643,1,-1.2050000429089394,-0.8299997448877089,-0.7177034013220104,0.0,-1.7350000143051147,-0.34999990463256836,-0.7177032676911637,0.0,-1.9500007559110129,0.1970004432249173,-0.43450898881833555,0.0
1759842059.8305063,1,-1.2050000429089394,-0.8299997448877089,-0.7177034013220104,0.0,-1.7350000143051147,-0.34999990463256836,-0.717703274932946,0.0,-1.9500007559110129,0.1970004432249173,-0.43450898881833555,0.0
1759842059.8408453,1,-1.2050000429089394,-0.8299997448877089,-0.7177034013220104,0.0,-1.7350000143051147,-0.34999990463256836,-0.7177032809864965,0.0,-1.9500007559110129,0.1970004432249173,-0.43450898881833555,0.0
1759842059.8512406,1,-1.2050000429089394,-0.8299997448877089,-0.7177034013220104,0.0,-1.7350000143051147,-0.34999990463256836,-0.7177032860661807,0.0,-1.9500007559110129,0.1970004432249173,-0.43450898881833555,0.0
1759842059.8615353,1,-1.2050000429089394,-0.8299997448877089,-0.7177034013220104,0.0,-1.7350000143051147,-0.34999990463256836,-0.717703290821996,0.0,-1.9500007559110129,0.1970004432249173,-0.43450898881833555,0.0
1759842059.8718534,1,-1.2050000429089394,-0.8299997448877089,-0.7177034013220104,0.0,-1.7350000143051147,-0.34999990463256836,-0.7177032950365714,0.0,-1.9500007559110129,0.1970004432249173,-0.43450898881833555,0.0
1759842059.8831847,1,-1.2050000429089394,-0.8299997448877089,-0.7177034013220104,0.0,-1.7350000143051147,-0.34999990463256836,-0.7177032965855901,0.0,-1.9500007559110129,0.1970004432249173,-0.43450898881833555,0.0
1759842059.8946927,1,-1.2050000429089394,-0.8299997448877089,-0.7177034013220104,0.0,-1.7350000143051147,-0.34999990463256836,-0.7177032981720792,0.0,-1.9500007559110129,0.1970004432249173,-0.43450898881833555,0.0
1759842059.9060867,1,-1.2050000429089394,-0.8299997448877089,-0.7177034013220104,0.0,-1.7350000143051147,-0.34999990463256836,-0.71770330057754,0.0,-1.9500007559110129,0.1970004432249173,-0.43450898881833555,0.0
1759842059.9163492,1,-1.2050000429089394,-0.8299997448877089,-0.7177034013220104,0.0,-1.7350000143051147,-0.34999990463256836,-0.7177033056188442,0.0,-1.9500007559110129,0.1970004432249173,-0.43450898881833555,0.0
1759842059.9272394,1,-1.2050000429089394,-0.8299997448877089,-0.7177034013220104,0.0,-1.7350000143051147,-0.34999990463256836,-0.7177033088958673,0.0,-1.9500007559110129,0.1970004432249173,-0.43450898881833555,0.0
1759842059.9432108,1,-1.2050000429089394,-0.8299997448877089,-0.7177034013220104,0.0,-1.7350000143051147,-0.34999990463256836,-0.7177033024519196,0.0,-1.9500007559110129,0.1970004432249173,-0.43450898881833555,0.0
1759842059.9540193,1,-1.2050000429089394,-0.8299997448877089,-0.7177034013220104,0.0,-1.7350000143051147,-0.34999990463256836,-0.7177033082889039,0.0,-1.9500007559110129,0.1970004432249173,-0.43450898881833555,0.0
1759842059.9654105,1,-1.2050000429089394,-0.8299997448877089,-0.7177034013220104,0.0,-1.7350000143051147,-0.34999990463256836,-0.71770331291631,0.0,-1.9500007559110129,0.1970004432249173,-0.43450898881833555,0.0
1759842059.97664,1,-1.2050000429089394,-0.8299997448877089,-0.7177034013220104,0.0,-1.7350000143051147,-0.34999990463256836,-0.7177033172386409,0.0,-1.9500007559110129,0.1970004432249173,-0.43450898881833555,0.0
1759842059.9866765,1,-1.2050000429089394,-0.8299997448877089,-0.7177034013220104,0.0,-1.7350000143051147,-0.34999990463256836,-0.7177033229836294,0.0,-1.9500007559110129,0.1970004432249173,-0.43450898881833555,0.0
1759842059.9975438,1,-1.2050000429089394,-0.8299997448877089,-0.7177034013220104,0.0,-1.7350000143051147,-0.34999990463256836,-0.7177033264456795,0.0,-1.9500007559110129,0.1970004432249173,-0.43450898881833555,0.0
1759842060.0078864,1,-1.2050000429089394,-0.8299997448877089,-0.7177034013220104,0.0,-1.7350000143051147,-0.34999990463256836,-0.7177033302306874,0.0,-1.9500007559110129,0.1970004432249173,-0.43450898881833555,0.0
1759842060.0182219,1,-1.2050000429089394,-0.8299997448877089,-0.7177034013220104,0.0,-1.7350000143051147,-0.34999990463256836,-0.7177033335315209,0.0,-1.9500007559110129,0.1970004432249173,-0.43450898881833555,0.0
1759842060.0296302,1,-1.2050000429089394,-0.8299997448877089,-0.7177034013220104,0.0,-1.7350000143051147,-0.34999990463256836,-0.7177033348912331,0.0,-1.9500007559110129,0.1970004432249173,-0.43450898881833555,0.0
1759842060.0400534,1,-1.2050000429089394,-0.8299997448877089,-0.7177034013220104,0.0,-1.7350000143051147,-0.34999990463256836,-0.7177033377421367,0.0,-1.9500007559110129,0.1970004432249173,-0.43450898881833555,0.0
1759842060.0513792,1,-1.2050000429089394,-0.8299997448877089,-0.7177034013220104,0.0,-1.7350000143051147,-0.34999990463256836,-0.7177033391949692,0.0,-1.9500007559110129,0.1970004432249173,-0.43450898881833555,0.0
1759842060.0615435,1,-1.2050000429089394,-0.8299997448877089,-0.7177034013220104,0.0,-1.7350000143051147,-0.34999990463256836,-0.7177033422322693,0.0,-1.9500007559110129,0.1970004432249173,-0.43450898881833555,0.0
1759842060.0722084,1,-1.2050000429089394,-0.8299997448877089,-0.7177034013220104,0.0,-1.7350000143051147,-0.34999990463256836,-0.7177033443375151,0.0,-1.9500007559110129,0.1970004432249173,-0.43450898881833555,0.0
1759842060.0825028,1,-1.2050000429089394,-0.8299997448877089,-0.7177034013220104,0.0,-1.7350000143051147,-0.34999990463256836,-0.7177033467246935,0.0,-1.9500007559110129,0.1970004432249173,-0.43450898881833555,0.0
1759842060.093953,1,-1.2050000429089394,-0.8299997448877089,-0.7177034013220104,0.0,-1.7350000143051147,-0.34999990463256836,-0.7177033475514527,0.0,-1.9500007559110129,0.1970004432249173,-0.43450898881833555,0.0
1759842060.10518,1,-1.2050000429089394,-0.8299997448877089,-0.7177034013220104,0.0,-1.7350000143051147,-0.34999990463256836,-0.7177033488370324,0.0,-1.9500007559110129,0.1970004432249173,-0.43450898881833555,0.0
1759842060.1153932,1,-1.2050000429089394,-0.8299997448877089,-0.7177034013220104,0.0,-1.7350000143051147,-0.34999990463256836,-0.7177033513768905,0.0,-1.9500007559110129,0.1970004432249173,-0.43450898881833555,0.0
1759842060.1257026,1,-1.2050000429089394,-0.8299997448877089,-0.7177034013220104,0.0,-1.7350000143051147,-0.34999990463256836,-0.7177033535608182,0.0,-1.9500007559110129,0.1970004432249173,-0.43450898881833555,0.0
1759842060.1443927,1,-1.2050000429089394,-0.8299997448877089,-0.7177034013220104,0.0,-1.7350000143051147,-0.34999990463256836,-0.7177033471802813,0.0,-1.9500007559110129,0.1970004432249173,-0.43450898881833555,0.0
1759842060.1547189,1,-1.2050000429089394,-0.8299997448877089,-0.7177034013220104,0.0,-1.7350000143051147,-0.34999990463256836,-0.7177033512639461,0.0,-1.9500007559110129,0.1970004432249173,-0.43450898881833555,0.0
1759842060.1660595,1,-1.2050000429089394,-0.8299997448877089,-0.7177034013220104,0.0,-1.7350000143051147,-0.34999990463256836,-0.7177033542100126,0.0,-1.9500007559110129,0.1970004432249173,-0.43450898881833555,0.0
1759842060.1765063,1,-1.2050000429089394,-0.8299997448877089,-0.7177034013220104,0.0,-1.7350000143051147,-0.34999990463256836,-0.7177033574561822,0.0,-1.9500007559110129,0.1970004432249173,-0.43450898881833555,0.0
1759842060.1878011,1,-1.2050000429089394,-0.8299997448877089,-0.7177034013220104,0.0,-1.7350000143051147,-0.34999990463256836,-0.717703359413683,0.0,-1.9500007559110129,0.1970004432249173,-0.43450898881833555,0.0
1759842060.1986084,1,-1.2050000429089394,-0.8299997448877089,-0.7177034013220104,0.0,-1.7350000143051147,-0.34999990463256836,-0.7177033615256647,0.0,-1.9500007559110129,0.1970004432249173,-0.43450898881833555,0.0
1759842060.2092903,1,-1.2050000429089394,-0.8299997448877089,-0.7177034013220104,0.0,-1.7350000143051147,-0.34999990463256836,-0.7177033634833502,0.0,-1.9500007559110129,0.1970004432249173,-0.43450898881833555,0.0
1759842060.2206936,1,-1.2050000429089394,-0.8299997448877089,-0.7177034013220104,0.0,-1.7350000143051147,-0.34999990463256836,-0.71770336464186,0.0,-1.9500007559110129,0.1970004432249173,-0.43450898881833555,0.0
1759842060.2321408,1,-1.2050000429089394,-0.8299997448877089,-0.7177034013220104,0.0,-1.7350000143051147,-0.34999990463256836,-0.7177033657462851,0.0,-1.9500007559110129,0.1970004432249173,-0.43450898881833555,0.0
1759842060.242577,1,-1.2050000429089394,-0.8299997448877089,-0.7177034013220104,0.0,-1.7350000143051147,-0.34999990463256836,-0.7177033675969362,0.0,-1.9500007559110129,0.1970004432249173,-0.43450898881833555,0.0
1759842060.2533567,1,-1.2050000429089394,-0.8299997448877089,-0.7177034013220104,0.0,-1.7350000143051147,-0.34999990463256836,-0.7177033689996044,0.0,-1.9500007559110129,0.1970004432249173,-0.43450898881833555,0.0
1759842060.2641125,1,-1.2050000429089394,-0.8299997448877089,-0.7177034013220104,0.0,-1.7350000143051147,-0.34999990463256836,-0.7177033702743056,0.0,-1.9500007559110129,0.1970004432249173,-0.43450898881833555,0.0
1759842060.2747939,1,-1.2050000429089394,-0.8299997448877089,-0.7177034013220104,0.0,-1.7350000143051147,-0.34999990463256836,-0.7177033714971532,0.0,-1.9500007559110129,0.1970004432249173,-0.43450898881833555,0.0
1759842060.2850409,1,-1.2050000429089394,-0.8299997448877089,-0.7177034013220104,0.0,-1.7350000143051147,-0.34999990463256836,-0.7177033728978142,0.0,-1.9500007559110129,0.1970004432249173,-0.43450898881833555,0.0
1759842060.2959433,1,-1.2050000429089394,-0.8299997448877089,-0.7177034013220104,0.0,-1.7350000143051147,-0.34999990463256836,-0.7177033737410792,0.0,-1.9500007559110129,0.1970004432249173,-0.43450898881833555,0.0
1759842060.3074539,1,-1.2050000429089394,-0.8299997448877089,-0.7177034013220104,0.0,-1.7350000143051147,-0.34999990463256836,-0.7177033742079466,0.0,-1.9500007559110129,0.1970004432249173,-0.43450898881833555,0.0
1759842060.317963,1,-1.2050000429089394,-0.8299997448877089,-0.7177034013220104,0.0,-1.7350000143051147,-0.34999990463256836,-0.7177033753578766,0.0,-1.9500007559110129,0.1970004432249173,-0.43450898881833555,0.0
1759842060.3280206,1,-1.2050000429089394,-0.8299997448877089,-0.7177034013220104,0.0,-1.7350000143051147,-0.34999990463256836,-0.7177033766855843,0.0,-1.9500007559110129,0.1970004432249173,-0.43450898881833555,0.0
1759842060.3402781,1,-1.2050000429089394,-0.8299997448877089,-0.7177034013220104,0.0,-1.7350000143051147,-0.34999990463256836,-0.7177033766755567,0.0,-1.9500007559110129,0.1970004432249173,-0.43450898881833555,0.0
1759842060.3507245,1,-1.2050000429089394,-0.8299997448877089,-0.7177034013220104,0.0,-1.7350000143051147,-0.34999990463256836,-0.717703377793253,0.0,-1.9500007559110129,0.1970004432249173,-0.43450898881833555,0.0
1759842060.3615859,1,-1.2050000429089394,-0.8299997448877089,-0.7177034013220104,0.0,-1.7350000143051147,-0.34999990463256836,-0.7177033786495635,0.0,-1.9500007559110129,0.1970004432249173,-0.43450898881833555,0.0
1759842060.3724685,1,-1.2050000429089394,-0.8299997448877089,-0.7177034013220104,0.0,-1.7350000143051147,-0.34999990463256836,-0.7177033794422467,0.0,-1.9500007559110129,0.1970004432249173,-0.43450898881833555,0.0
1759842060.3837557,1,-1.2050000429089394,-0.8299997448877089,-0.7177034013220104,0.0,-1.7350000143051147,-0.34999990463256836,-0.7177033800193406,0.0,-1.9500007559110129,0.1970004432249173,-0.43450898881833555,0.0
1759842060.394693,1,-1.2050000429089394,-0.8299997448877089,-0.7177034013220104,0.0,-1.7350000143051147,-0.34999990463256836,-0.7177033807833624,0.0,-1.9500007559110129,0.1970004432249173,-0.43450898881833555,0.0
1759842060.4049022,1,-1.2050000429089394,-0.8299997448877089,-0.7177034013220104,0.0,-1.7350000143051147,-0.34999990463256836,-0.717703381841293,0.0,-1.9500007559110129,0.1970004432249173,-0.43450898881833555,0.0
1759842060.4158056,1,-1.2050000429089394,-0.8299997448877089,-0.7177034013220104,0.0,-1.7350000143051147,-0.34999990463256836,-0.7177033824836805,0.0,-1.9500007559110129,0.1970004432249173,-0.43450898881833555,0.0
1759842060.4261131,1,-1.2050000429089394,-0.8299997448877089,-0.7177034013220104,0.0,-1.7350000143051147,-0.34999990463256836,-0.7177033833324629,0.0012114235754061653,-1.9500007559110129,0.1970004432249173,-0.43450898881833555,0.0
1759842060.4366336,1,-1.2050000429089394,-0.8299997448877089,-0.7177034013220104,0.0,-1.7350000143051147,-0.34999990463256836,-0.7177033840182254,0.0012114235754061653,-1.9500007559110129,0.1970004432249173,-0.43450898881833555,0.0
1759842060.4497173,1,-1.2050000429089394,-0.8299997448877089,-0.7177034013220104,0.0,-1.7350000143051147,-0.34999990463256836,-0.7177033836908926,0.0012114235754061653,-1.9500007559110129,0.1970004432249173,-0.43450898881833555,0.0
1759842060.4601867,1,-1.2050000429089394,-0.8299997448877089,-0.7177034013220104,0.0,-1.7350000143051147,-0.34999990463256836,-0.7177033845694432,0.0012114235754061653,-1.9500007559110129,0.1970004432249173,-0.43450898881833555,0.0
1759842060.476272,1,-1.2050000429089394,-0.8299997448877089,-0.7177034013220104,0.0,-1.7350000143051147,-0.34999990463256836,-0.7177033834819541,0.0012114235754061653,-1.9500007559110129,0.1970004432249173,-0.43450898881833555,0.0
1759842060.4877112,1,-1.2050000429089394,-0.8299997448877089,-0.7177034013220104,0.0,-1.7350000143051147,-0.34999990463256836,-0.717703384446466,0.0012114235754061653,-1.9500007559110129,0.1970004432249173,-0.43450898881833555,0.0
1759842060.5014584,1,-1.2050000429089394,-0.8299997448877089,-0.7177034013220104,0.0,-1.7350000143051147,-0.34999990463256836,-0.7177033846932499,0.0012114235754061653,-1.9500007559110129,0.1970004432249173,-0.43450898881833555,0.0
1759842060.5116906,1,-1.2050000429089394,-0.8299997448877089,-0.7177034013220104,0.0,-1.7350000143051147,-0.34999990463256836,-0.7177033861054021,0.0012114235754061653,-1.9500007559110129,0.1970004432249173,-0.43450898881833555,0.0
1759842060.526976,1,-1.2050000429089394,-0.8299997448877089,-0.7177034013220104,0.0,-1.7350000143051147,-0.34999990463256836,-0.717703385841137,0.0012114235754061653,-1.9500007559110129,0.1970004432249173,-0.43450898881833555,0.0
1759842060.543157,1,-1.2050000429089394,-0.8299997448877089,-0.7177034013220104,0.0,-1.7350000143051147,-0.34999990463256836,-0.7177033855919497,0.0012114235754061653,-1.9500007559110129,0.1970004432249173,-0.43450898881833555,0.0
1759842060.553972,1,-1.2050000429089394,-0.8299997448877089,-0.7177034013220104,0.0,-1.7350000143051147,-0.34999990463256836,-0.7177033870711274,0.0012114235754061653,-1.9500007559110129,0.1970004432249173,-0.43450898881833555,0.0
1759842060.5668178,1,-1.2050000429089394,-0.8299997448877089,-0.7177034013220104,0.0,-1.7350000143051147,-0.34999990463256836,-0.7177033878254075,0.0012114235754061653,-1.9500007559110129,0.1970004432249173,-0.43450898881833555,0.0
1759842060.578036,1,-1.2050000429089394,-0.8299997448877089,-0.7177034013220104,0.0,-1.7350000143051147,-0.34999990463256836,-0.7177033888596593,0.0012114235754061653,-1.9500007559110129,0.1970004432249173,-0.43450898881833555,0.0
1759842060.591853,1,-1.2050000429089394,-0.8299997448877089,-0.7177034013220104,0.0,-1.7350000143051147,-0.34999990463256836,-0.7177033891291772,0.0012114235754061653,-1.9500007559110129,0.1970004432249173,-0.43450898881833555,0.0
1759842060.6031907,1,-1.2050000429089394,-0.8299997448877089,-0.7177034013220104,0.0,-1.7350000143051147,-0.34999990463256836,-0.7177033899809563,0.0012114235754061653,-1.9500007559110129,0.1970004432249173,-0.43450898881833555,0.0
1759842060.6164627,1,-1.2050000429089394,-0.8299997448877089,-0.7177034013220104,0.0,-1.7350000143051147,-0.34999990463256836,-0.7177033903174284,0.0012114235754061653,-1.9500007559110129,0.1970004432249173,-0.43450898881833555,0.0
1759842060.6273403,1,-1.2050000429089394,-0.8299997448877089,-0.7177034013220104,0.0,-1.7350000143051147,-0.34999990463256836,-0.7177033911462535,0.0012114235754061653,-1.9500007559110129,0.1970004432249173,-0.43450898881833555,0.0
1759842060.6401594,1,-1.2050000429089394,-0.8299997448877089,-0.7177034013220104,0.0,-1.7350000143051147,-0.34999990463256836,-0.7177033914729201,0.0012114235754061653,-1.9500007559110129,0.1970004432249173,-0.43450898881833555,0.0
1759842060.6515958,1,-1.2050000429089394,-0.8299997448877089,-0.7177034013220104,0.0,-1.7350000143051147,-0.34999990463256836,-0.717703392051245,0.0012114235754061653,-1.9500007559110129,0.1970004432249173,-0.43450898881833555,0.0
1759842060.6650205,1,-1.2050000429089394,-0.8299997448877089,-0.7177034013220104,0.0,-1.7350000143051147,-0.34999990463256836,-0.7177033922093301,0.0012114235754061653,-1.9500007559110129,0.1970004432249173,-0.43450898881833555,0.0
1759842060.6763399,1,-1.2050000429089394,-0.8299997448877089,-0.7177034013220104,0.0,-1.7350000143051147,-0.34999990463256836,-0.7177033927783967,0.0012114235754061653,-1.9500007559110129,0.1970004432249173,-0.43450898881833555,0.0
1759842060.690766,1,-1.2050000429089394,-0.8299997448877089,-0.7177034013220104,0.0,-1.7350000143051147,-0.34999990463256836,-0.7177033927741885,0.0012114235754061653,-1.9500007559110129,0.1970004432249173,-0.43450898881833555,0.0
1759842060.7010577,1,-1.2050000429089394,-0.8299997448877089,-0.7177034013220104,0.0,-1.7350000143051147,-0.34999990463256836,-0.7177033935187076,0.0012114235754061653,-1.9500007559110129,0.1970004432249173,-0.43450898881833555,0.0
1759842060.7125564,1,-1.2050000429089394,-0.8299997448877089,-0.7177034013220104,0.0,-1.7350000143051147,-0.34999990463256836,-0.7177033939653087,0.0012114235754061653,-1.9500007559110129,0.1970004432249173,-0.43450898881833555,0.0
1759842060.724328,1,-1.2050000429089394,-0.8299997448877089,-0.7177034013220104,0.0,-1.7350000143051147,-0.34999990463256836,-0.7177033942981925,0.0012114235754061653,-1.9500007559110129,0.1970004432249173,-0.43450898881833555,0.0
1759842060.735588,1,-1.2050000429089394,-0.8299997448877089,-0.7177034013220104,0.0,-1.7350000143051147,-0.34999990463256836,-0.7177033946749098,0.0012114235754061653,-1.9500007559110129,0.1970004432249173,-0.43450898881833555,0.0
1759842060.7562876,1,-1.2050000429089394,-0.8299997448877089,-0.7177034013220104,0.0,-1.7350000143051147,-0.34999990463256836,-0.7177033937395798,0.0012114235754061653,-1.9500007559110129,0.1970004432249173,-0.43450898881833555,0.0
1759842060.765485,1,-1.2050000429089394,-0.8299997448877089,-0.7177034013220104,0.0,-1.7350000143051147,-0.34999990463256836,-0.7177033946723697,0.0012114235754061653,-1.9500007559110129,0.1970004432249173,-0.43450898881833555,0.0
1759842060.776845,1,-1.2050000429089394,-0.8299997448877089,-0.7177034013220104,0.0,-1.7350000143051147,-0.34999990463256836,-0.7177033952069554,0.0012114235754061653,-1.9500007559110129,0.1970004432249173,-0.43450898881833555,0.0
1759842060.791159,1,-1.2050000429089394,-0.8299997448877089,-0.7177034013220104,0.0,-1.7350000143051147,-0.34999990463256836,-0.7177033952709735,0.0012114235754061653,-1.9500007559110129,0.1970004432249173,-0.43450898881833555,0.0
1759842060.8011959,1,-1.2050000429089394,-0.8299997448877089,-0.7177034013220104,0.0,-1.7350000143051147,-0.34999990463256836,-0.7177033958661667,0.0012114235754061653,-1.9500007559110129,0.1970004432249173,-0.43450898881833555,0.0
1759842060.8120964,1,-1.2050000429089394,-0.8299997448877089,-0.7177034013220104,0.0,-1.7350000143051147,-0.34999990463256836,-0.7177033962644757,0.0012114235754061653,-1.9500007559110129,0.1970004432249173,-0.43450898881833555,0.0
1759842060.8250222,1,-1.2050000429089394,-0.8299997448877089,-0.7177034013220104,0.0,-1.7350000143051147,-0.34999990463256836,-0.7177033963664315,0.0012114235754061653,-1.9500007559110129,0.1970004432249173,-0.43450898881833555,0.0
1759842060.8359842,1,-1.2050000429089394,-0.8299997448877089,-0.7177034013220104,0.0,-1.7350000143051147,-0.34999990463256836,-0.7177033966872983,0.0012114235754061653,-1.9500007559110129,0.1970004432249173,-0.43450898881833555,0.0
1759842060.849365,1,-1.2050000429089394,-0.8299997448877089,-0.7177034013220104,0.0,-1.7350000143051147,-0.34999990463256836,-0.7177033967321833,0.0012114235754061653,-1.9500007559110129,0.1970004432249173,-0.43450898881833555,0.0
1759842060.8596904,1,-1.2050000429089394,-0.8299997448877089,-0.7177034013220104,0.0,-1.7350000143051147,-0.34999990463256836,-0.7177033971027598,0.0012114235754061653,-1.9500007559110129,0.1970004432249173,-0.43450898881833555,0.0
1759842060.8698623,1,-1.2050000429089394,-0.8299997448877089,-0.7177034013220104,0.0,-1.7350000143051147,-0.34999990463256836,-0.7177033974355993,0.0012114235754061653,-1.9500007559110129,0.1970004432249173,-0.43450898881833555,0.0
1759842060.8829134,1,-1.2050000429089394,-0.8299997448877089,-0.7177034013220104,0.0,-1.7350000143051147,-0.34999990463256836,-0.7177033974454883,0.0012114235754061653,-1.9500007559110129,0.1970004432249173,-0.43450898881833555,0.0
1759842060.8931448,1,-1.2050000429089394,-0.8299997448877089,-0.7177034013220104,0.0,-1.7350000143051147,-0.34999990463256836,-0.7177033977301903,0.0012114235754061653,-1.9500007559110129,0.1970004432249173,-0.43450898881833555,0.0
1759842060.904455,1,-1.2050000429089394,-0.8299997448877089,-0.7177034013220104,0.0,-1.7350000143051147,-0.34999990463256836,-0.7177033978900447,0.0012114235754061653,-1.9500007559110129,0.1970004432249173,-0.43450898881833555,0.0
1759842060.9162502,1,-1.2050000429089394,-0.8299997448877089,-0.7177034013220104,0.0,-1.7350000143051147,-0.34999990463256836,-0.7177033979947111,0.0012114235754061653,-1.9500007559110129,0.1970004432249173,-0.43450898881833555,0.0
1759842060.92751,1,-1.2050000429089394,-0.8299997448877089,-0.7177034013220104,0.0,-1.7350000143051147,-0.34999990463256836,-0.7177033981470977,0.0012114235754061653,-1.9500007559110129,0.1970004432249173,-0.43450898881833555,0.0
1759842060.937842,1,-1.2050000429089394,-0.8299997448877089,-0.7177034013220104,0.0,-1.7350000143051147,-0.34999990463256836,-0.7177033983631524,0.0012114235754061653,-1.9500007559110129,0.1970004432249173,-0.43450898881833555,0.0
1759842060.9492786,1,-1.2050000429089394,-0.8299997448877089,-0.7177034013220104,0.0,-1.7350000143051147,-0.34999990463256836,-0.7177033984679326,0.0012114235754061653,-1.9500007559110129,0.1970004432249173,-0.43450898881833555,0.0
1759842060.967596,1,-1.2050000429089394,-0.8299997448877089,-0.7177034013220104,0.0,-1.7350000143051147,-0.34999990463256836,-0.7177033980927625,0.0012114235754061653,-1.9500007559110129,0.1970004432249173,-0.43450898881833555,0.0
1759842060.978968,1,-1.2050000429089394,-0.8299997448877089,-0.7177034013220104,0.0,-1.7350000143051147,-0.34999990463256836,-0.7177033983388732,0.0012114235754061653,-1.9500007559110129,0.1970004432249173,-0.43450898881833555,0.0
1759842060.9907346,1,-1.2050000429089394,-0.8299997448877089,-0.7177034013220104,0.0,-1.7350000143051147,-0.34999990463256836,-0.7177033985553932,0.0012114235754061653,-1.9500007559110129,0.1970004432249173,-0.43450898881833555,0.0
1759842061.0022597,1,-1.2050000429089394,-0.8299997448877089,-0.7177034013220104,0.0,-1.7350000143051147,-0.34999990463256836,-0.7177033987544394,0.0012114235754061653,-1.9500007559110129,0.1970004432249173,-0.43450898881833555,0.0
1759842061.015987,1,-1.2050000429089394,-0.8299997448877089,-0.7177034013220104,0.0,-1.7350000143051147,-0.34999990463256836,-0.7177033987955816,0.0012114235754061653,-1.9500007559110129,0.1970004432249173,-0.43450898881833555,0.0
1759842061.0274684,1,-1.2050000429089394,-0.8299997448877089,-0.7177034013220104,0.0,-1.7350000143051147,-0.34999990463256836,-0.7177033989825521,0.0012114235754061653,-1.9500007559110129,0.1970004432249173,-0.43450898881833555,0.0
1759842061.0399313,1,-1.2050000429089394,-0.8299997448877089,-0.7177034013220104,0.0,-1.7350000143051147,-0.34999990463256836,-0.71770339909774,0.0012114235754061653,-1.9500007559110129,0.1970004432249173,-0.43450898881833555,0.0
1759842061.0514414,1,-1.2050000429089394,-0.8299997448877089,-0.7177034013220104,0.0,-1.7350000143051147,-0.34999990463256836,-0.7177033992557682,0.0012114235754061653,-1.9500007559110129,0.1970004432249173,-0.43450898881833555,0.0
1759842061.0644813,1,-1.2050000429089394,-0.8299997448877089,-0.7177034013220104,0.0,-1.7350000143051147,-0.34999990463256836,-0.7177033993190491,0.0012114235754061653,-1.9500007559110129,0.1970004432249173,-0.43450898881833555,0.0
1759842061.0748568,1,-1.2050000429089394,-0.8299997448877089,-0.7177034013220104,0.0,-1.7350000143051147,-0.34999990463256836,-0.717703399517866,0.0012114235754061653,-1.9500007559110129,0.1970004432249173,-0.43450898881833555,0.0
1759842061.0849874,1,-1.2050000429089394,-0.8299997448877089,-0.7177034013220104,0.0,-1.7350000143051147,-0.34999990463256836,-0.7177033996971183,0.0012114235754061653,-1.9500007559110129,0.1970004432249173,-0.43450898881833555,0.0
1759842061.0950017,1,-1.2050000429089394,-0.8299997448877089,-0.7177034013220104,0.0,-1.7350000143051147,-0.34999990463256836,-0.7177033998459077,0.0012114235754061653,-1.9500007559110129,0.1970004432249173,-0.43450898881833555,0.0
1759842061.1064656,1,-1.2050000429089394,-0.8299997448877089,-0.7177034013220104,0.0,-1.7350000143051147,-0.34999990463256836,-0.7177033999018523,0.0012114235754061653,-1.9500007559110129,0.1970004432249173,-0.43450898881833555,0.0
1759842061.1178622,1,-1.2050000429089394,-0.8299997448877089,-0.7177034013220104,0.0,-1.7350000143051147,-0.34999990463256836,-0.7177033999590883,0.0012114235754061653,-1.9500007559110129,0.1970004432249173,-0.43450898881833555,0.0
1759842061.1317248,1,-1.2050000429089394,-0.8299997448877089,-0.7177034013220104,0.0,-1.7350000143051147,-0.34999990463256836,-0.7177033999182552,0.0012114235754061653,-1.9500007559110129,0.1970004432249173,-0.43450898881833555,0.0
1759842061.1417282,1,-1.2050000429089394,-0.8299997448877089,-0.7177034013220104,0.0,-1.7350000143051147,-0.34999990463256836,-0.7177034000630442,0.0012114235754061653,-1.9500007559110129,0.1970004432249173,-0.43450898881833555,0.0
1759842061.1524968,1,-1.2050000429089394,-0.8299997448877089,-0.7177034013220104,0.0,-1.7350000143051147,-0.34999990463256836,-0.7177034001615041,0.0012114235754061653,-1.9500007559110129,0.1970004432249173,-0.43450898881833555,0.0
1759842061.1713407,1,-1.2050000429089394,-0.8299997448877089,-0.7177034013220104,0.0,-1.7350000143051147,-0.34999990463256836,-0.717703399951656,0.0012114235754061653,-1.9500007559110129,0.1970004432249173,-0.43450898881833555,0.0
1759842061.1821103,1,-1.2050000429089394,-0.8299997448877089,-0.7177034013220104,0.0,-1.7350000143051147,-0.34999990463256836,-0.7177034001084017,0.0012114235754061653,-1.9500007559110129,0.1970004432249173,-0.43450898881833555,0.0
1759842061.192313,1,-1.2050000429089394,-0.8299997448877089,-0.7177034013220104,0.0,-1.7350000143051147,-0.34999990463256836,-0.7177034002739209,0.0012114235754061653,-1.9500007559110129,0.1970004432249173,-0.43450898881833555,0.0
