timestamp,vehicle_id,x,y,theta,velocity,gps_available,dt,gps_x,gps_y,gps_theta,gps_velocity,control_steering,control_acceleration
1759842057.9313605,1,-1.735,-0.35,-0.7801621756414647,0.0,False,0.01,nan,nan,nan,nan,0.0,0.0
1759842057.941811,1,-1.735,-0.35,-0.7801621756414647,0.0,False,0.010450601577758789,nan,nan,nan,nan,0.0,0.0
1759842057.9530067,1,-1.735,-0.35,-0.7801621756414647,0.0,False,0.011195659637451172,nan,nan,nan,nan,0.0,0.0
1759842057.9644115,1,-1.735,-0.35,-0.7801621756414647,0.0,False,0.011404752731323242,nan,nan,nan,nan,0.0,0.0
1759842057.975911,1,-1.735,-0.35,-0.7801621756414647,0.0,False,0.011499404907226562,nan,nan,nan,nan,0.0,0.0
1759842057.9861217,1,-1.735,-0.35,-0.7801621756414647,0.0,False,0.010210752487182617,nan,nan,nan,nan,0.0,0.0
1759842057.9962554,1,-1.735,-0.35,-0.7801621756414647,0.0,False,0.010133743286132812,nan,nan,nan,nan,0.0,0.0
1759842058.0070086,1,-1.735,-0.35,-0.7801621756414647,0.0,False,0.010753154754638672,nan,nan,nan,nan,0.0,0.0
1759842058.017714,1,-1.735,-0.35,-0.7801621756414647,0.0,False,0.01070547103881836,nan,nan,nan,nan,0.0,0.0
1759842058.0285027,1,-1.735,-0.35,-0.7801621756414647,0.0,False,0.010788679122924805,nan,nan,nan,nan,0.0,0.0
1759842058.0398452,1,-1.735,-0.35,-0.7801621756414647,0.0,False,0.011342525482177734,nan,nan,nan,nan,0.0,0.0
1759842058.050971,1,-1.735,-0.35,-0.7801621756414647,0.0,False,0.011125802993774414,nan,nan,nan,nan,0.0,0.0
1759842058.0612133,1,-1.735,-0.35,-0.7801621756414647,0.0,False,0.010242223739624023,nan,nan,nan,nan,0.0,0.0
1759842058.0720987,1,-1.735,-0.35,-0.7801621756414647,0.0,False,0.010885477066040039,nan,nan,nan,nan,0.0,0.0
1759842058.0833354,1,-1.735,-0.35,-0.7801621756414647,0.0,False,0.01123666763305664,nan,nan,nan,nan,0.0,0.0
1759842058.0936704,1,-1.735,-0.35,-0.7801621756414647,0.0,False,0.010334968566894531,nan,nan,nan,nan,0.0,0.0
1759842058.104027,1,-1.735,-0.35,-0.7801621756414647,0.0,False,0.010356664657592773,nan,nan,nan,nan,0.0,0.0
1759842058.1152606,1,-1.735,-0.35,-0.7801621756414647,0.0,False,0.01123356819152832,nan,nan,nan,nan,0.0,0.0
1759842058.1268084,1,-1.7350000141859054,-0.349999905427297,-0.7229996904588738,0.0,True,0.01154780387878418,-1.7350000143051147,-0.34999990463256836,-0.7177034020423889,0.0,0.0,0.0
1759842058.1379066,1,-1.7350000142652677,-0.3499999048982158,-0.718115853937082,0.0,True,0.011098146438598633,-1.7350000143051147,-0.34999990463256836,-0.7177034020423889,0.0,0.0,0.0
1759842058.148519,1,-1.735000014290167,-0.34999990473222087,-0.7176580750647297,0.0,True,0.01061248779296875,-1.7350000143051147,-0.34999990463256836,-0.7177034020423889,0.0,0.0,0.0
1759842058.1600802,1,-1.73500001429942,-0.3499999046705331,-0.7175952924653881,0.0,True,0.011561155319213867,-1.7350000143051147,-0.34999990463256836,-0.7177034020423889,0.0,0.0,0.0
1759842058.1709614,1,-1.7350000143029403,-0.3499999046470641,-0.7175902829518606,0.0,True,0.010881185531616211,-1.7350000143051147,-0.34999990463256836,-0.7177034020423889,0.0,0.0,0.0
1759842058.1825054,1,-1.7350000143042843,-0.34999990463810493,-0.7175972136533506,0.0,True,0.011543989181518555,-1.7350000143051147,-0.34999990463256836,-0.7177034020423889,0.0,0.0,0.0
1759842058.1934457,1,-1.7350000143047974,-0.3499999046346831,-0.7176099179027524,0.0,True,0.010940313339233398,-1.7350000143051147,-0.34999990463256836,-0.7177034020423889,0.0,0.0,0.0
1759842058.2044427,1,-1.7350000143049935,-0.3499999046333761,-0.7176220001504916,0.0,True,0.01099705696105957,-1.7350000143051147,-0.34999990463256836,-0.7177034020423889,0.0,0.0,0.0
1759842058.2152238,1,-1.7350000143050683,-0.3499999046328769,-0.7176327800092075,0.0,True,0.010781049728393555,-1.7350000143051147,-0.34999990463256836,-0.7177034020423889,0.0,0.0,0.0
1759842058.2267842,1,-1.735000014305097,-0.3499999046326862,-0.7176408725883832,0.0,True,0.011560440063476562,-1.7350000143051147,-0.34999990463256836,-0.7177034020423889,0.0,0.0,0.0
1759842058.2376359,1,-1.7350000143051079,-0.3499999046326134,-0.7176486447600379,0.0,True,0.010851621627807617,-1.7350000143051147,-0.34999990463256836,-0.7177034020423889,0.0,0.0,0.0
1759842058.2492723,1,-1.735000014305112,-0.34999990463258557,-0.7176543498368755,0.0,True,0.011636495590209961,-1.7350000143051147,-0.34999990463256836,-0.7177034020423889,0.0,0.0,0.0
1759842058.2607732,1,-1.7350000143051136,-0.3499999046325749,-0.71765942755815,0.0,True,0.011500835418701172,-1.7350000143051147,-0.34999990463256836,-0.7177034020423889,0.0,0.0,0.0
1759842058.271959,1,-1.7350000143051143,-0.34999990463257086,-0.7176640218380488,0.0,True,0.011185884475708008,-1.7350000143051147,-0.34999990463256836,-0.7177034020423889,0.0,0.0,0.0
1759842058.28278,1,-1.7350000143051145,-0.3499999046325693,-0.7176681037771466,0.0,True,0.010820865631103516,-1.7350000143051147,-0.34999990463256836,-0.7177034020423889,0.0,0.0,0.0
1759842058.293599,1,-1.7350000143051147,-0.3499999046325687,-0.7176714583905976,0.0,True,0.010818958282470703,-1.7350000143051147,-0.34999990463256836,-0.7177034020423889,0.0,0.0,0.0
1759842058.3037522,1,-1.7350000143051147,-0.34999990463256847,-0.7176746131735108,0.0,True,0.01015329360961914,-1.7350000143051147,-0.34999990463256836,-0.7177034020423889,0.0,0.0,0.0
1759842058.3140826,1,-1.7350000143051147,-0.3499999046325684,-0.7176770770861225,0.0,True,0.010330438613891602,-1.7350000143051147,-0.34999990463256836,-0.7177034020423889,0.0,0.0,0.0
1759842058.3308506,1,-1.7350000143051147,-0.34999990463256836,-0.7176761212101113,0.0,True,0.01676797866821289,-1.7350000143051147,-0.34999990463256836,-0.7177034020423889,0.0,0.0,0.0
1759842058.341315,1,-1.7350000143051147,-0.34999990463256836,-0.717678981564827,0.0,True,0.01046442985534668,-1.7350000143051147,-0.34999990463256836,-0.7177034020423889,0.0,0.0,0.0
1759842058.3523111,1,-1.7350000143051147,-0.34999990463256836,-0.7176812169993667,0.0,True,0.010996103286743164,-1.7350000143051147,-0.34999990463256836,-0.7177034020423889,0.0,0.0,0.0
1759842058.3636067,1,-1.7350000143051147,-0.34999990463256836,-0.7176829113850385,0.0,True,0.011295557022094727,-1.7350000143051147,-0.34999990463256836,-0.7177034020423889,0.0,0.0,0.0
1759842058.374374,1,-1.7350000143051147,-0.34999990463256836,-0.7176845357983588,0.0,True,0.010767221450805664,-1.7350000143051147,-0.34999990463256836,-0.7177034020423889,0.0,0.0,0.0
1759842058.3856018,1,-1.7350000143051147,-0.34999990463256836,-0.7176857420464522,0.0,True,0.011227846145629883,-1.7350000143051147,-0.34999990463256836,-0.7177034020423889,0.0,0.0,0.0
1759842058.3965502,1,-1.7350000143051147,-0.34999990463256836,-0.7176868898350541,0.0,True,0.010948419570922852,-1.7350000143051147,-0.34999990463256836,-0.7177034020423889,0.0,0.0,0.0
1759842058.407478,1,-1.7350000143051147,-0.34999990463256836,-0.7176879028776284,0.0,True,0.010927915573120117,-1.7350000143051147,-0.34999990463256836,-0.7177034020423889,0.0,0.0,0.0
1759842058.418385,1,-1.7350000143051147,-0.34999990463256836,-0.7176888019791843,0.0,True,0.01090693473815918,-1.7350000143051147,-0.34999990463256836,-0.7177034020423889,0.0,0.0,0.0
1759842058.4297912,1,-1.7350000143051147,-0.34999990463256836,-0.7176894654404613,0.0,True,0.011406183242797852,-1.7350000143051147,-0.34999990463256836,-0.7177034020423889,0.0,0.0,0.0
1759842058.441035,1,-1.7350000143051147,-0.34999990463256836,-0.7176901425976254,0.0,True,0.011243820190429688,-1.7350000143051147,-0.34999990463256836,-0.7177034020423889,0.0,0.0,0.0
1759842058.4523597,1,-1.7350000143051147,-0.34999990463256836,-0.7176907631525076,0.0,True,0.011324644088745117,-1.7350000143051147,-0.34999990463256836,-0.7177034020423889,0.0,0.0,0.0
1759842058.4631357,1,-1.7350000143051147,-0.34999990463256836,-0.7176914821282097,0.0,True,0.010776042938232422,-1.7350000143051147,-0.34999990463256836,-0.7177034020423889,0.0,0.0,0.0
1759842058.474459,1,-1.7350000143051147,-0.34999990463256836,-0.7176919992018078,0.0,True,0.011323213577270508,-1.7350000143051147,-0.34999990463256836,-0.7177034020423889,0.0,0.0,0.0
1759842058.485817,1,-1.7350000143051147,-0.34999990463256836,-0.7176924807631693,0.0,True,0.011358022689819336,-1.7350000143051147,-0.34999990463256836,-0.7177034020423889,0.0,0.0,0.0
1759842058.4965236,1,-1.7350000143051147,-0.34999990463256836,-0.7176930821953604,0.0,True,0.010706663131713867,-1.7350000143051147,-0.34999990463256836,-0.7177034020423889,0.0,0.0,0.0
1759842058.507907,1,-1.7350000143051147,-0.34999990463256836,-0.7176934849274179,0.0,True,0.011383295059204102,-1.7350000143051147,-0.34999990463256836,-0.7177034020423889,0.0,0.0,0.0
1759842058.518939,1,-1.7350000143051147,-0.34999990463256836,-0.7176939395629098,0.0,True,0.0110321044921875,-1.7350000143051147,-0.34999990463256836,-0.7177034020423889,0.0,0.0,0.0
1759842058.5291073,1,-1.7350000143051147,-0.34999990463256836,-0.7176945230262444,0.0,True,0.010168313980102539,-1.7350000143051147,-0.34999990463256836,-0.7177034020423889,0.0,0.0,0.0
1759842058.5395043,1,-1.7350000143051147,-0.34999990463256836,-0.7176949826223016,0.0,True,0.010396957397460938,-1.7350000143051147,-0.34999990463256836,-0.7177034020423889,0.0,0.0,0.0
1759842058.5507646,1,-1.7350000143051147,-0.34999990463256836,-0.7176952337305629,0.0,True,0.011260271072387695,-1.7350000143051147,-0.34999990463256836,-0.7177034020423889,0.0,0.0,0.0
1759842058.5609846,1,-1.7350000143051147,-0.34999990463256836,-0.7176956590986663,0.0,True,0.010220050811767578,-1.7350000143051147,-0.34999990463256836,-0.7177034020423889,0.0,0.0,0.0
1759842058.5715058,1,-1.7350000143051147,-0.34999990463256836,-0.7176959926370401,0.0,True,0.010521173477172852,-1.7350000143051147,-0.34999990463256836,-0.7177034020423889,0.0,0.0,0.0
1759842058.5824,1,-1.7350000143051147,-0.34999990463256836,-0.7176962376641143,0.0,True,0.010894298553466797,-1.7350000143051147,-0.34999990463256836,-0.7177034020423889,0.0,0.0,0.0
1759842058.593142,1,-1.7350000143051147,-0.34999990463256836,-0.7176965010573753,0.0,True,0.010741949081420898,-1.7350000143051147,-0.34999990463256836,-0.7177034020423889,0.0,0.0,0.0
1759842058.603401,1,-1.7350000143051147,-0.34999990463256836,-0.7176968243478186,0.0,True,0.010258913040161133,-1.7350000143051147,-0.34999990463256836,-0.7177034020423889,0.0,0.0,0.0
1759842058.6148162,1,-1.7350000143051147,-0.34999990463256836,-0.7176969587337716,0.0,True,0.011415243148803711,-1.7350000143051147,-0.34999990463256836,-0.7177034020423889,0.0,0.0,0.0
1759842058.625589,1,-1.7350000143051147,-0.34999990463256836,-0.7176971970278032,0.0,True,0.010772705078125,-1.7350000143051147,-0.34999990463256836,-0.7177034020423889,0.0,0.0,0.0
1759842058.6367004,1,-1.7350000143051147,-0.34999990463256836,-0.7176973893291816,0.0,True,0.01111149787902832,-1.7350000143051147,-0.34999990463256836,-0.7177034020423889,0.0,0.0,0.0
1759842058.6480463,1,-1.7350000143051147,-0.34999990463256836,-0.7176975560638308,0.0,True,0.011345863342285156,-1.7350000143051147,-0.34999990463256836,-0.7177034020423889,0.0,0.0,0.0
1759842058.6593769,1,-1.7350000143051147,-0.34999990463256836,-0.7176977361044017,0.0,True,0.011330604553222656,-1.7350000143051147,-0.34999990463256836,-0.7177034020423889,0.0,0.0,0.0
1759842058.6698937,1,-1.7350000143051147,-0.34999990463256836,-0.7176980141129619,0.0,True,0.010516881942749023,-1.7350000143051147,-0.34999990463256836,-0.7177034020423889,0.0,0.0,0.0
1759842058.6804087,1,-1.7350000143051147,-0.34999990463256836,-0.717698265326213,0.0,True,0.010514974594116211,-1.7350000143051147,-0.34999990463256836,-0.7177034020423889,0.0,0.0,0.0
1759842058.6913245,1,-1.7350000143051147,-0.34999990463256836,-0.7176984463546923,0.0,True,0.010915756225585938,-1.7350000143051147,-0.34999990463256836,-0.7177034020423889,0.0,0.0,0.0
1759842058.7028027,1,-1.7350000143051147,-0.34999990463256836,-0.7176985621541121,0.0,True,0.011478185653686523,-1.7350000143051147,-0.34999990463256836,-0.7177034020423889,0.0,0.0,0.0
1759842058.7136426,1,-1.7350000143051147,-0.34999990463256836,-0.7176987528994534,0.0,True,0.01083993911743164,-1.7350000143051147,-0.34999990463256836,-0.7177034020423889,0.0,0.0,0.0
1759842058.731711,1,-1.7350000143051147,-0.34999990463256836,-0.7176982789891291,0.0,True,0.018068313598632812,-1.7350000143051147,-0.34999990463256836,-0.7177034020423889,0.0,0.0,0.0
1759842058.7366657,1,-1.7350000143051147,-0.34999990463256836,-0.7176991583006966,0.0,True,0.004954814910888672,-1.7350000143051147,-0.34999990463256836,-0.7177034020423889,0.0,0.0,0.0
1759842058.7470467,1,-1.7350000143051147,-0.34999990463256836,-0.7176993951251269,0.0,True,0.010380983352661133,-1.7350000143051147,-0.34999990463256836,-0.7177034020423889,0.0,0.0,0.0
1759842058.7574797,1,-1.7350000143051147,-0.34999990463256836,-0.7176995563889808,0.0,True,0.010432958602905273,-1.7350000143051147,-0.34999990463256836,-0.7177034020423889,0.0,0.0,0.0
1759842058.7685957,1,-1.7350000143051147,-0.34999990463256836,-0.717699645108743,0.0,True,0.01111602783203125,-1.7350000143051147,-0.34999990463256836,-0.7177034020423889,0.0,0.0,0.0
1759842058.779639,1,-1.7350000143051147,-0.34999990463256836,-0.7176997461273906,0.0,True,0.011043310165405273,-1.7350000143051147,-0.34999990463256836,-0.7177034020423889,0.0,0.0,0.0
1759842058.7903068,1,-1.7350000143051147,-0.34999990463256836,-0.7176998816207885,0.0,True,0.010667800903320312,-1.7350000143051147,-0.34999990463256836,-0.7177034020423889,0.0,0.0,0.0
1759842058.8007956,1,-1.7350000143051147,-0.34999990463256836,-0.7177000243351692,0.0,True,0.010488748550415039,-1.7350000143051147,-0.34999990463256836,-0.7177034020423889,0.0,0.0,0.0
1759842058.811745,1,-1.7350000143051147,-0.34999990463256836,-0.7177001233896618,0.0,True,0.010949373245239258,-1.7350000143051147,-0.34999990463256836,-0.7177034020423889,0.0,0.0,0.0
1759842058.8231397,1,-1.7350000143051147,-0.34999990463256836,-0.7177001921969062,0.0,True,0.011394739151000977,-1.7350000143051147,-0.34999990463256836,-0.7177034020423889,0.0,0.0,0.0
1759842058.834633,1,-1.7350000143051147,-0.34999990463256836,-0.7177002654017102,0.0,True,0.011493444442749023,-1.7350000143051147,-0.34999990463256836,-0.7177034020423889,0.0,0.0,0.0
1759842058.8451974,1,-1.7350000143051147,-0.34999990463256836,-0.7177004074762223,0.0,True,0.010564327239990234,-1.7350000143051147,-0.34999990463256836,-0.7177034020423889,0.0,0.0,0.0
1759842058.8556142,1,-1.7350000143051147,-0.34999990463256836,-0.7177005472344042,0.0,True,0.010416746139526367,-1.7350000143051147,-0.34999990463256836,-0.7177034020423889,0.0,0.0,0.0
1759842058.8658447,1,-1.7350000143051147,-0.34999990463256836,-0.7177006814985862,0.0,True,0.010230541229248047,-1.7350000143051147,-0.34999990463256836,-0.7177034020423889,0.0,0.0,0.0
1759842058.876299,1,-1.7350000143051147,-0.34999990463256836,-0.7177007863783551,0.0,True,0.010454177856445312,-1.7350000143051147,-0.34999990463256836,-0.7177034020423889,0.0,0.0,0.0
1759842058.8878334,1,-1.7350000143051147,-0.34999990463256836,-0.7177008227544839,0.0,True,0.011534452438354492,-1.7350000143051147,-0.34999990463256836,-0.7177034020423889,0.0,0.0,0.0
1759842058.8993473,1,-1.7350000143051147,-0.34999990463256836,-0.7177008722968967,0.0,True,0.011513948440551758,-1.7350000143051147,-0.34999990463256836,-0.7177034020423889,0.0,0.0,0.0
1759842058.9103844,1,-1.7350000143051147,-0.34999990463256836,-0.717700958153614,0.0,True,0.011037111282348633,-1.7350000143051147,-0.34999990463256836,-0.7177034020423889,0.0,0.0,0.0
1759842058.9216218,1,-1.7350000143051147,-0.34999990463256836,-0.7177010344110641,0.0,True,0.011237382888793945,-1.7350000143051147,-0.34999990463256836,-0.7177034020423889,0.0,0.0,0.0
1759842058.9339976,1,-1.7350000143051147,-0.34999990463256836,-0.7177010577371696,0.0,True,0.012375831604003906,-1.7350000143051147,-0.34999990463256836,-0.7177034020423889,0.0,0.0,0.0
1759842058.9448972,1,-1.7350000143051147,-0.34999990463256836,-0.71770116466217,0.0,True,0.010899543762207031,-1.7350000143051147,-0.34999990463256836,-0.7177034020423889,0.0,0.0,0.0
1759842058.9551983,1,-1.7350000143051147,-0.34999990463256836,-0.717701291544449,0.0,True,0.01030111312866211,-1.7350000143051147,-0.34999990463256836,-0.7177034020423889,0.0,0.0,0.0
1759842058.9656818,1,-1.7350000143051147,-0.34999990463256836,-0.7177013922889017,0.0,True,0.010483503341674805,-1.7350000143051147,-0.34999990463256836,-0.7177034020423889,0.0,0.0,0.0
1759842058.975805,1,-1.7350000143051147,-0.34999990463256836,-0.7177014941140882,0.0,True,0.010123252868652344,-1.7350000143051147,-0.34999990463256836,-0.7177034020423889,0.0,0.0,0.0
1759842058.986332,1,-1.7350000143051147,-0.34999990463256836,-0.7177015658171335,0.0,True,0.010526895523071289,-1.7350000143051147,-0.34999990463256836,-0.7177034020423889,0.0,0.0,0.0
1759842058.997344,1,-1.7350000143051147,-0.34999990463256836,-0.7177016122995035,0.0,True,0.011012077331542969,-1.7350000143051147,-0.34999990463256836,-0.7177034020423889,0.0,0.0,0.0
1759842059.0086312,1,-1.7350000143051147,-0.34999990463256836,-0.7177016504749165,0.0,True,0.011287212371826172,-1.7350000143051147,-0.34999990463256836,-0.7177034020423889,0.0,0.0,0.0
1759842059.0194366,1,-1.7350000143051147,-0.34999990463256836,-0.7177017113645388,0.0,True,0.010805368423461914,-1.7350000143051147,-0.34999990463256836,-0.7177034020423889,0.0,0.0,0.0
1759842059.0296361,1,-1.7350000143051147,-0.34999990463256836,-0.7177017920072917,0.0,True,0.010199546813964844,-1.7350000143051147,-0.34999990463256836,-0.7177034020423889,0.0,0.0,0.0
1759842059.0398972,1,-1.7350000143051147,-0.34999990463256836,-0.7177018614752022,0.0,True,0.010261058807373047,-1.7350000143051147,-0.34999990463256836,-0.7177034020423889,0.0,0.0,0.0
1759842059.050924,1,-1.7350000143051147,-0.34999990463256836,-0.7177018981564629,0.0,True,0.011026859283447266,-1.7350000143051147,-0.34999990463256836,-0.7177034020423889,0.0,0.0,0.0
1759842059.0618343,1,-1.7350000143051147,-0.34999990463256836,-0.7177019400927556,0.0,True,0.010910272598266602,-1.7350000143051147,-0.34999990463256836,-0.7177034020423889,0.0,0.0,0.0
1759842059.0729735,1,-1.7350000143051147,-0.34999990463256836,-0.7177019767674313,0.0,True,0.011139154434204102,-1.7350000143051147,-0.34999990463256836,-0.7177034020423889,0.0,0.0,0.0
1759842059.0838082,1,-1.7350000143051147,-0.34999990463256836,-0.7177020249618593,0.0,True,0.010834693908691406,-1.7350000143051147,-0.34999990463256836,-0.7177034020423889,0.0,0.0,0.0
1759842059.0938318,1,-1.7350000143051147,-0.34999990463256836,-0.7177020951288426,0.0,True,0.01002359390258789,-1.7350000143051147,-0.34999990463256836,-0.7177034020423889,0.0,0.0,0.0
1759842059.1051881,1,-1.7350000143051147,-0.34999990463256836,-0.7177021202901379,0.0,True,0.011356353759765625,-1.7350000143051147,-0.34999990463256836,-0.7177034020423889,0.0,0.0,0.0
1759842059.115945,1,-1.7350000143051147,-0.34999990463256836,-0.7177021639681911,0.0,True,0.010756969451904297,-1.7350000143051147,-0.34999990463256836,-0.7177034020423889,0.0,0.0,0.0
1759842059.1262221,1,-1.7350000143051147,-0.34999990463256836,-0.7177022193210227,0.0,True,0.010277032852172852,-1.7350000143051147,-0.34999990463256836,-0.7177034020423889,0.0,0.0,0.0
1759842059.1400313,1,-1.7350000143051147,-0.34999990463256836,-0.7177021829788117,0.0,True,0.0138092041015625,-1.7350000143051147,-0.34999990463256836,-0.7177034020423889,0.0,0.0,0.0
1759842059.1511443,1,-1.7350000143051147,-0.34999990463256836,-0.7177022318324138,0.0,True,0.01111292839050293,-1.7350000143051147,-0.34999990463256836,-0.7177034020423889,0.0,0.0,0.0
1759842059.162459,1,-1.7350000143051147,-0.34999990463256836,-0.7177022777411146,0.0,True,0.011314630508422852,-1.7350000143051147,-0.34999990463256836,-0.7177034020423889,0.0,0.0,0.0
1759842059.173701,1,-1.7350000143051147,-0.34999990463256836,-0.717702322540946,0.0,True,0.011242151260375977,-1.7350000143051147,-0.34999990463256836,-0.7177034020423889,0.0,0.0,0.0
1759842059.1849408,1,-1.7350000143051147,-0.34999990463256836,-0.7177023645746097,0.0,True,0.011239767074584961,-1.7350000143051147,-0.34999990463256836,-0.7177034020423889,0.0,0.0,0.0
1759842059.1950212,1,-1.7350000143051147,-0.34999990463256836,-0.7177024274696855,0.0,True,0.010080337524414062,-1.7350000143051147,-0.34999990463256836,-0.7177034020423889,0.0,0.0,0.0
1759842059.206475,1,-1.7350000143051147,-0.34999990463256836,-0.7177024540699772,0.0,True,0.011453866958618164,-1.7350000143051147,-0.34999990463256836,-0.7177034020423889,0.0,0.0,0.0
1759842059.2179177,1,-1.7350000143051147,-0.34999990463256836,-0.7177024804657179,0.0,True,0.01144266128540039,-1.7350000143051147,-0.34999990463256836,-0.7177034020423889,0.0,0.0,0.0
1759842059.2286215,1,-1.7350000143051147,-0.34999990463256836,-0.7177025216557436,0.0,True,0.010703802108764648,-1.7350000143051147,-0.34999990463256836,-0.7177034020423889,0.0,0.0,0.0
1759842059.239878,1,-1.7350000143051147,-0.34999990463256836,-0.7177025497260487,0.0,True,0.01125645637512207,-1.7350000143051147,-0.34999990463256836,-0.7177034020423889,0.0,0.0,0.0
1759842059.2501104,1,-1.7350000143051147,-0.34999990463256836,-0.7177025943705981,0.0,True,0.01023244857788086,-1.7350000143051147,-0.34999990463256836,-0.7177034020423889,0.0,0.0,0.0
1759842059.2613082,1,-1.7350000143051147,-0.34999990463256836,-0.7177026176963217,0.0,True,0.011197805404663086,-1.7350000143051147,-0.34999990463256836,-0.7177034020423889,0.0,0.0,0.0
1759842059.2717326,1,-1.7350000143051147,-0.34999990463256836,-0.7177026527190193,0.0,True,0.010424375534057617,-1.7350000143051147,-0.34999990463256836,-0.7177034020423889,0.0,0.0,0.0
1759842059.282426,1,-1.7350000143051147,-0.34999990463256836,-0.71770268039886,0.0,True,0.010693550109863281,-1.7350000143051147,-0.34999990463256836,-0.7177034020423889,0.0,0.0,0.0
1759842059.2936134,1,-1.7350000143051147,-0.34999990463256836,-0.7177026986547101,0.0,True,0.011187314987182617,-1.7350000143051147,-0.34999990463256836,-0.7177034020423889,0.0,0.0,0.0
1759842059.3038461,1,-1.7350000143051147,-0.34999990463256836,-0.7177027314214754,0.0,True,0.010232686996459961,-1.7350000143051147,-0.34999990463256836,-0.7177034020423889,0.0,0.0,0.0
1759842059.3146474,1,-1.7350000143051147,-0.34999990463256836,-0.7177027530862468,0.0,True,0.010801315307617188,-1.7350000143051147,-0.34999990463256836,-0.7177034020423889,0.0,0.0,0.0
1759842059.3250093,1,-1.7350000143051147,-0.34999990463256836,-0.7177027795410282,0.0,True,0.010361909866333008,-1.7350000143051147,-0.34999990463256836,-0.7177034020423889,0.0,0.0,0.0
1759842059.335968,1,-1.7350000143051147,-0.34999990463256836,-0.717702796051368,0.0,True,0.010958671569824219,-1.7350000143051147,-0.34999990463256836,-0.7177034020423889,0.0,0.0,0.0
1759842059.3464751,1,-1.7350000143051147,-0.34999990463256836,-0.7177028184532741,0.0,True,0.01050710678100586,-1.7350000143051147,-0.34999990463256836,-0.7177034020423889,0.0,0.0,0.0
1759842059.3579047,1,-1.7350000143051147,-0.34999990463256836,-0.7177028285212828,0.0,True,0.011429548263549805,-1.7350000143051147,-0.34999990463256836,-0.7177034020423889,0.0,0.0,0.0
1759842059.368761,1,-1.7350000143051147,-0.34999990463256836,-0.7177028473591989,0.0,True,0.010856389999389648,-1.7350000143051147,-0.34999990463256836,-0.7177034020423889,0.0,0.0,0.0
1759842059.3793697,1,-1.7350000143051147,-0.34999990463256836,-0.71770286905668,0.0,True,0.010608673095703125,-1.7350000143051147,-0.34999990463256836,-0.7177034020423889,0.0,0.0,0.0
1759842059.390178,1,-1.7350000143051147,-0.34999990463256836,-0.717702887079124,0.0,True,0.010808229446411133,-1.7350000143051147,-0.34999990463256836,-0.7177034020423889,0.0,0.0,0.0
1759842059.400317,1,-1.7350000143051147,-0.34999990463256836,-0.7177029113701838,0.0,True,0.010138988494873047,-1.7350000143051147,-0.34999990463256836,-0.7177034020423889,0.0,0.0,0.0
1759842059.410349,1,-1.7350000143051147,-0.34999990463256836,-0.7177029340336514,0.0,True,0.010031938552856445,-1.7350000143051147,-0.34999990463256836,-0.7177034020423889,0.0,0.0,0.0
1759842059.4212096,1,-1.7350000143051147,-0.34999990463256836,-0.7177029455158994,0.0,True,0.010860681533813477,-1.7350000143051147,-0.34999990463256836,-0.7177034020423889,0.0,0.0,0.0
1759842059.431517,1,-1.7350000143051147,-0.34999990463256836,-0.7177029625138811,0.0,True,0.01030731201171875,-1.7350000143051147,-0.34999990463256836,-0.7177034020423889,0.0,0.0,0.0
1759842059.4418771,1,-1.7350000143051147,-0.34999990463256836,-0.7177029780814692,0.0,True,0.010360240936279297,-1.7350000143051147,-0.34999990463256836,-0.7177034020423889,0.0,0.0,0.0
1759842059.4525883,1,-1.7350000143051147,-0.34999990463256836,-0.7177029894722562,0.0,True,0.010711193084716797,-1.7350000143051147,-0.34999990463256836,-0.7177034020423889,0.0,0.0,0.0
1759842059.4629195,1,-1.7350000143051147,-0.34999990463256836,-0.7177030043286337,0.0,True,0.010331153869628906,-1.7350000143051147,-0.34999990463256836,-0.7177034020423889,0.0,0.0,0.0
1759842059.4736748,1,-1.7350000143051147,-0.34999990463256836,-0.7177030148475101,0.0,True,0.010755300521850586,-1.7350000143051147,-0.34999990463256836,-0.7177034020423889,0.0,0.0,0.0
1759842059.4844265,1,-1.7350000143051147,-0.34999990463256836,-0.7177030255971442,0.0,True,0.010751724243164062,-1.7350000143051147,-0.34999990463256836,-0.7177034020423889,0.0,0.0,0.0
1759842059.4957538,1,-1.7350000143051147,-0.34999990463256836,-0.71770303212001,0.0,True,0.011327266693115234,-1.7350000143051147,-0.34999990463256836,-0.7177034020423889,0.0,0.0,0.0
1759842059.506071,1,-1.7350000143051147,-0.34999990463256836,-0.7177030478341919,0.0,True,0.010317325592041016,-1.7350000143051147,-0.34999990463256836,-0.7177034020423889,0.0,0.0,0.0
1759842059.516387,1,-1.7350000143051147,-0.34999990463256836,-0.7177030624942908,0.0,True,0.010315895080566406,-1.7350000143051147,-0.34999990463256836,-0.7177034020423889,0.0,0.0,0.0
1759842059.5269022,1,-1.7350000143051147,-0.34999990463256836,-0.7177030742720873,0.0,True,0.010515213012695312,-1.7350000143051147,-0.34999990463256836,-0.7177034020423889,0.0,0.0,0.0
1759842059.5416298,1,-1.7350000143051147,-0.34999990463256836,-0.7177030566138889,0.0,True,0.014727592468261719,-1.7350000143051147,-0.34999990463256836,-0.7177034020423889,0.0,0.0,0.0
1759842059.5522099,1,-1.7350000143051147,-0.34999990463256836,-0.717703074804783,0.0,True,0.010580062866210938,-1.7350000143051147,-0.34999990463256836,-0.7177034020423889,0.0,0.0,0.0
1759842059.5625432,1,-1.7350000143051147,-0.34999990463256836,-0.7177030940833031,0.0,True,0.01033329963684082,-1.7350000143051147,-0.34999990463256836,-0.7177034020423889,0.0,0.0,0.0
1759842059.5733733,1,-1.7350000143051147,-0.34999990463256836,-0.7177031073137012,0.0,True,0.010830163955688477,-1.7350000143051147,-0.34999990463256836,-0.7177034020423889,0.0,0.0,0.0
1759842059.5838327,1,-1.7350000143051147,-0.34999990463256836,-0.7177031211888814,0.0,True,0.010459423065185547,-1.7350000143051147,-0.34999990463256836,-0.7177034020423889,0.0,0.0,0.0
1759842059.59515,1,-1.7350000143051147,-0.34999990463256836,-0.7177031285640201,0.0,True,0.011317253112792969,-1.7350000143051147,-0.34999990463256836,-0.7177034020423889,0.0,0.0,0.0
1759842059.6066642,1,-1.7350000143051147,-0.34999990463256836,-0.7177031350220702,0.0,True,0.01151418685913086,-1.7350000143051147,-0.34999990463256836,-0.7177034020423889,0.0,0.0,0.0
1759842059.6168654,1,-1.7350000143051147,-0.34999990463256836,-0.7177031491817374,0.0,True,0.010201215744018555,-1.7350000143051147,-0.34999990463256836,-0.7177034020423889,0.0,0.0,0.0
1759842059.6276476,1,-1.7350000143051147,-0.34999990463256836,-0.7177031587320926,0.0,True,0.010782241821289062,-1.7350000143051147,-0.34999990463256836,-0.7177034020423889,0.0,0.0,0.0
1759842059.6384532,1,-1.7350000143051147,-0.34999990463256836,-0.7177031673082936,0.0,True,0.010805606842041016,-1.7350000143051147,-0.34999990463256836,-0.7177034020423889,0.0,0.0,0.0
1759842059.6496737,1,-1.7350000143051147,-0.34999990463256836,-0.7177031734670294,0.0,True,0.011220455169677734,-1.7350000143051147,-0.34999990463256836,-0.7177034020423889,0.0,0.0,0.0
1759842059.6606014,1,-1.7350000143051147,-0.34999990463256836,-0.7177031812487868,0.0,True,0.010927677154541016,-1.7350000143051147,-0.34999990463256836,-0.7177034020423889,0.0,0.0,0.0
1759842059.6719613,1,-1.7350000143051147,-0.34999990463256836,-0.7177031869639112,0.0,True,0.011359930038452148,-1.7350000143051147,-0.34999990463256836,-0.7177034020423889,0.0,0.0,0.0
1759842059.6834712,1,-1.7350000143051147,-0.34999990463256836,-0.7177031923719817,0.0,True,0.011509895324707031,-1.7350000143051147,-0.34999990463256836,-0.7177034020423889,0.0,0.0,0.0
1759842059.6936538,1,-1.7350000143051147,-0.34999990463256836,-0.717703203781408,0.0,True,0.010182619094848633,-1.7350000143051147,-0.34999990463256836,-0.7177034020423889,0.0,0.0,0.0
1759842059.7044456,1,-1.7350000143051147,-0.34999990463256836,-0.7177032113677164,0.0,True,0.010791778564453125,-1.7350000143051147,-0.34999990463256836,-0.7177034020423889,0.0,0.0,0.0
1759842059.71519,1,-1.7350000143051147,-0.34999990463256836,-0.7177032184212795,0.0,True,0.010744333267211914,-1.7350000143051147,-0.34999990463256836,-0.7177034020423889,0.0,0.0,0.0
1759842059.7265904,1,-1.7350000143051147,-0.34999990463256836,-0.7177032225738742,0.0,True,0.011400461196899414,-1.7350000143051147,-0.34999990463256836,-0.7177034020423889,0.0,0.0,0.0
1759842059.7439592,1,-1.7350000143051147,-0.34999990463256836,-0.7177032060243747,0.0,True,0.017368793487548828,-1.7350000143051147,-0.34999990463256836,-0.7177034020423889,0.0,0.0,0.0
1759842059.7543771,1,-1.7350000143051147,-0.34999990463256836,-0.7177032204812885,0.0,True,0.010417938232421875,-1.7350000143051147,-0.34999990463256836,-0.7177034020423889,0.0,0.0,0.0
1759842059.7657762,1,-1.7350000143051147,-0.34999990463256836,-0.7177032306831599,0.0,True,0.011399030685424805,-1.7350000143051147,-0.34999990463256836,-0.7177034020423889,0.0,0.0,0.0
1759842059.7762,1,-1.7350000143051147,-0.34999990463256836,-0.7177032423333465,0.0,True,0.010423898696899414,-1.7350000143051147,-0.34999990463256836,-0.7177034020423889,0.0,0.0,0.0
1759842059.7865279,1,-1.7350000143051147,-0.34999990463256836,-0.7177032522472757,0.0,True,0.010327816009521484,-1.7350000143051147,-0.34999990463256836,-0.7177034020423889,0.0,0.0,0.0
1759842059.798155,1,-1.7350000143051147,-0.34999990463256836,-0.7177032565573498,0.0,True,0.011627197265625,-1.7350000143051147,-0.34999990463256836,-0.7177034020423889,0.0,0.0,0.0
1759842059.8089838,1,-1.7350000143051147,-0.34999990463256836,-0.7177032630082323,0.0,True,0.010828733444213867,-1.7350000143051147,-0.34999990463256836,-0.7177034020423889,0.0,0.0,0.0
1759842059.8202643,1,-1.7350000143051147,-0.34999990463256836,-0.7177032676911637,0.0,True,0.011280536651611328,-1.7350000143051147,-0.34999990463256836,-0.7177034020423889,0.0,0.0,0.0
1759842059.8305063,1,-1.7350000143051147,-0.34999990463256836,-0.717703274932946,0.0,True,0.010241985321044922,-1.7350000143051147,-0.34999990463256836,-0.7177034020423889,0.0,0.0,0.0
1759842059.8408453,1,-1.7350000143051147,-0.34999990463256836,-0.7177032809864965,0.0,True,0.010339021682739258,-1.7350000143051147,-0.34999990463256836,-0.7177034020423889,0.0,0.0,0.0
1759842059.8512406,1,-1.7350000143051147,-0.34999990463256836,-0.7177032860661807,0.0,True,0.010395288467407227,-1.7350000143051147,-0.34999990463256836,-0.7177034020423889,0.0,0.0,0.0
1759842059.8615353,1,-1.7350000143051147,-0.34999990463256836,-0.717703290821996,0.0,True,0.010294675827026367,-1.7350000143051147,-0.34999990463256836,-0.7177034020423889,0.0,0.0,0.0
1759842059.8718534,1,-1.7350000143051147,-0.34999990463256836,-0.7177032950365714,0.0,True,0.01031804084777832,-1.7350000143051147,-0.34999990463256836,-0.7177034020423889,0.0,0.0,0.0
1759842059.8831847,1,-1.7350000143051147,-0.34999990463256836,-0.7177032965855901,0.0,True,0.011331319808959961,-1.7350000143051147,-0.34999990463256836,-0.7177034020423889,0.0,0.0,0.0
1759842059.8946927,1,-1.7350000143051147,-0.34999990463256836,-0.7177032981720792,0.0,True,0.011507987976074219,-1.7350000143051147,-0.34999990463256836,-0.7177034020423889,0.0,0.0,0.0
1759842059.9060867,1,-1.7350000143051147,-0.34999990463256836,-0.71770330057754,0.0,True,0.011394023895263672,-1.7350000143051147,-0.34999990463256836,-0.7177034020423889,0.0,0.0,0.0
1759842059.9163492,1,-1.7350000143051147,-0.34999990463256836,-0.7177033056188442,0.0,True,0.010262489318847656,-1.7350000143051147,-0.34999990463256836,-0.7177034020423889,0.0,0.0,0.0
1759842059.9272394,1,-1.7350000143051147,-0.34999990463256836,-0.7177033088958673,0.0,True,0.01089024543762207,-1.7350000143051147,-0.34999990463256836,-0.7177034020423889,0.0,0.0,0.0
1759842059.9432108,1,-1.7350000143051147,-0.34999990463256836,-0.7177033024519197,0.0,True,0.01597142219543457,-1.7350000143051147,-0.34999990463256836,-0.7177034020423889,0.0,0.0,0.0
1759842059.9540193,1,-1.7350000143051147,-0.34999990463256836,-0.7177033082889039,0.0,True,0.010808467864990234,-1.7350000143051147,-0.34999990463256836,-0.7177034020423889,0.0,0.0,0.0
1759842059.9654105,1,-1.7350000143051147,-0.34999990463256836,-0.71770331291631,0.0,True,0.011391162872314453,-1.7350000143051147,-0.34999990463256836,-0.7177034020423889,0.0,0.0,0.0
1759842059.97664,1,-1.7350000143051147,-0.34999990463256836,-0.7177033172386409,0.0,True,0.011229515075683594,-1.7350000143051147,-0.34999990463256836,-0.7177034020423889,0.0,0.0,0.0
1759842059.9866765,1,-1.7350000143051147,-0.34999990463256836,-0.7177033229836294,0.0,True,0.010036468505859375,-1.7350000143051147,-0.34999990463256836,-0.7177034020423889,0.0,0.0,0.0
1759842059.9975438,1,-1.7350000143051147,-0.34999990463256836,-0.7177033264456796,0.0,True,0.01086735725402832,-1.7350000143051147,-0.34999990463256836,-0.7177034020423889,0.0,0.0,0.0
1759842060.0078864,1,-1.7350000143051147,-0.34999990463256836,-0.7177033302306874,0.0,True,0.010342597961425781,-1.7350000143051147,-0.34999990463256836,-0.7177034020423889,0.0,0.0,0.0
1759842060.0182219,1,-1.7350000143051147,-0.34999990463256836,-0.7177033335315208,0.0,True,0.010335445404052734,-1.7350000143051147,-0.34999990463256836,-0.7177034020423889,0.0,0.0,0.0
1759842060.0296302,1,-1.7350000143051147,-0.34999990463256836,-0.7177033348912332,0.0,True,0.011408329010009766,-1.7350000143051147,-0.34999990463256836,-0.7177034020423889,0.0,0.0,0.0
1759842060.0400534,1,-1.7350000143051147,-0.34999990463256836,-0.7177033377421367,0.0,True,0.01042318344116211,-1.7350000143051147,-0.34999990463256836,-0.7177034020423889,0.0,0.0,0.0
1759842060.0513792,1,-1.7350000143051147,-0.34999990463256836,-0.7177033391949692,0.0,True,0.011325836181640625,-1.7350000143051147,-0.34999990463256836,-0.7177034020423889,0.0,0.0,0.0
1759842060.0615435,1,-1.7350000143051147,-0.34999990463256836,-0.7177033422322694,0.0,True,0.010164260864257812,-1.7350000143051147,-0.34999990463256836,-0.7177034020423889,0.0,0.0,0.0
1759842060.0722084,1,-1.7350000143051147,-0.34999990463256836,-0.7177033443375151,0.0,True,0.010664939880371094,-1.7350000143051147,-0.34999990463256836,-0.7177034020423889,0.0,0.0,0.0
1759842060.0825028,1,-1.7350000143051147,-0.34999990463256836,-0.7177033467246936,0.0,True,0.010294437408447266,-1.7350000143051147,-0.34999990463256836,-0.7177034020423889,0.0,0.0,0.0
1759842060.093953,1,-1.7350000143051147,-0.34999990463256836,-0.7177033475514527,0.0,True,0.011450052261352539,-1.7350000143051147,-0.34999990463256836,-0.7177034020423889,0.0,0.0,0.0
1759842060.10518,1,-1.7350000143051147,-0.34999990463256836,-0.7177033488370324,0.0,True,0.011227130889892578,-1.7350000143051147,-0.34999990463256836,-0.7177034020423889,0.0,0.0,0.0
1759842060.1153932,1,-1.7350000143051147,-0.34999990463256836,-0.7177033513768905,0.0,True,0.010213136672973633,-1.7350000143051147,-0.34999990463256836,-0.7177034020423889,0.0,0.0,0.0
1759842060.1257026,1,-1.7350000143051147,-0.34999990463256836,-0.7177033535608182,0.0,True,0.010309457778930664,-1.7350000143051147,-0.34999990463256836,-0.7177034020423889,0.0,0.0,0.0
1759842060.1443927,1,-1.7350000143051147,-0.34999990463256836,-0.7177033471802812,0.0,True,0.018690109252929688,-1.7350000143051147,-0.34999990463256836,-0.7177034020423889,0.0,0.0,0.0
1759842060.1547189,1,-1.7350000143051147,-0.34999990463256836,-0.7177033512639461,0.0,True,0.010326147079467773,-1.7350000143051147,-0.34999990463256836,-0.7177034020423889,0.0,0.0,0.0
1759842060.1660595,1,-1.7350000143051147,-0.34999990463256836,-0.7177033542100126,0.0,True,0.011340618133544922,-1.7350000143051147,-0.34999990463256836,-0.7177034020423889,0.0,0.0,0.0
1759842060.1765063,1,-1.7350000143051147,-0.34999990463256836,-0.7177033574561822,0.0,True,0.010446786880493164,-1.7350000143051147,-0.34999990463256836,-0.7177034020423889,0.0,0.0,0.0
1759842060.1878011,1,-1.7350000143051147,-0.34999990463256836,-0.717703359413683,0.0,True,0.011294841766357422,-1.7350000143051147,-0.34999990463256836,-0.7177034020423889,0.0,0.0,0.0
1759842060.1986084,1,-1.7350000143051147,-0.34999990463256836,-0.7177033615256647,0.0,True,0.010807275772094727,-1.7350000143051147,-0.34999990463256836,-0.7177034020423889,0.0,0.0,0.0
1759842060.2092903,1,-1.7350000143051147,-0.34999990463256836,-0.7177033634833503,0.0,True,0.010681867599487305,-1.7350000143051147,-0.34999990463256836,-0.7177034020423889,0.0,0.0,0.0
1759842060.2206936,1,-1.7350000143051147,-0.34999990463256836,-0.71770336464186,0.0,True,0.011403322219848633,-1.7350000143051147,-0.34999990463256836,-0.7177034020423889,0.0,0.0,0.0
1759842060.2321408,1,-1.7350000143051147,-0.34999990463256836,-0.717703365746285,0.0,True,0.01144719123840332,-1.7350000143051147,-0.34999990463256836,-0.7177034020423889,0.0,0.0,0.0
1759842060.242577,1,-1.7350000143051147,-0.34999990463256836,-0.7177033675969362,0.0,True,0.010436296463012695,-1.7350000143051147,-0.34999990463256836,-0.7177034020423889,0.0,0.0,0.0
1759842060.2533567,1,-1.7350000143051147,-0.34999990463256836,-0.7177033689996044,0.0,True,0.010779619216918945,-1.7350000143051147,-0.34999990463256836,-0.7177034020423889,0.0,0.0,0.0
1759842060.2641125,1,-1.7350000143051147,-0.34999990463256836,-0.7177033702743056,0.0,True,0.010755777359008789,-1.7350000143051147,-0.34999990463256836,-0.7177034020423889,0.0,0.0,0.0
1759842060.2747939,1,-1.7350000143051147,-0.34999990463256836,-0.7177033714971532,0.0,True,0.010681390762329102,-1.7350000143051147,-0.34999990463256836,-0.7177034020423889,0.0,0.0,0.0
1759842060.2850409,1,-1.7350000143051147,-0.34999990463256836,-0.7177033728978142,0.0,True,0.010246992111206055,-1.7350000143051147,-0.34999990463256836,-0.7177034020423889,0.0,0.0,0.0
1759842060.2959433,1,-1.7350000143051147,-0.34999990463256836,-0.7177033737410792,0.0,True,0.01090240478515625,-1.7350000143051147,-0.34999990463256836,-0.7177034020423889,0.0,0.0,0.0
1759842060.3074539,1,-1.7350000143051147,-0.34999990463256836,-0.7177033742079466,0.0,True,0.011510610580444336,-1.7350000143051147,-0.34999990463256836,-0.7177034020423889,0.0,0.0,0.0
1759842060.317963,1,-1.7350000143051147,-0.34999990463256836,-0.7177033753578765,0.0,True,0.010509014129638672,-1.7350000143051147,-0.34999990463256836,-0.7177034020423889,0.0,0.0,0.0
1759842060.3280206,1,-1.7350000143051147,-0.34999990463256836,-0.7177033766855843,0.0,True,0.010057687759399414,-1.7350000143051147,-0.34999990463256836,-0.7177034020423889,0.0,0.0,0.0
1759842060.3402781,1,-1.7350000143051147,-0.34999990463256836,-0.7177033766755567,0.0,True,0.012257575988769531,-1.7350000143051147,-0.34999990463256836,-0.7177034020423889,0.0,0.0,0.0
1759842060.3507245,1,-1.7350000143051147,-0.34999990463256836,-0.7177033777932529,0.0,True,0.010446310043334961,-1.7350000143051147,-0.34999990463256836,-0.7177034020423889,0.0,0.0,0.0
1759842060.3615859,1,-1.7350000143051147,-0.34999990463256836,-0.7177033786495635,0.0,True,0.010861396789550781,-1.7350000143051147,-0.34999990463256836,-0.7177034020423889,0.0,0.0,0.0
1759842060.3724685,1,-1.7350000143051147,-0.34999990463256836,-0.7177033794422467,0.0,True,0.01088261604309082,-1.7350000143051147,-0.34999990463256836,-0.7177034020423889,0.0,0.0,0.0
1759842060.3837557,1,-1.7350000143051147,-0.34999990463256836,-0.7177033800193406,0.0,True,0.011287212371826172,-1.7350000143051147,-0.34999990463256836,-0.7177034020423889,0.0,0.0,0.0
1759842060.394693,1,-1.7350000143051147,-0.34999990463256836,-0.7177033807833624,0.0,True,0.010937213897705078,-1.7350000143051147,-0.34999990463256836,-0.7177034020423889,0.0,0.0,0.0
1759842060.4049022,1,-1.7350000143051147,-0.34999990463256836,-0.717703381841293,0.0,True,0.010209321975708008,-1.7350000143051147,-0.34999990463256836,-0.7177034020423889,0.0,0.0,0.0
1759842060.4158056,1,-1.7350000143051147,-0.34999990463256836,-0.7177033824836805,0.0,True,0.010903358459472656,-1.7350000143051147,-0.34999990463256836,-0.7177034020423889,0.0,0.0,0.0
1759842060.4261131,1,-1.7350000143051147,-0.34999990463256836,-0.7177033833324629,0.0,True,0.010307550430297852,-1.7350000143051147,-0.34999990463256836,-0.7177034020423889,0.0,0.12114235754061653,0.0
1759842060.4366336,1,-1.7350000143051147,-0.34999990463256836,-0.7177033840182254,0.0,True,0.010520458221435547,-1.7350000143051147,-0.34999990463256836,-0.7177034020423889,0.0,0.12114235754061653,0.0
1759842060.4497173,1,-1.7350000143051147,-0.34999990463256836,-0.7177033836908926,0.0,True,0.013083696365356445,-1.7350000143051147,-0.34999990463256836,-0.7177034020423889,0.0,0.12114235754061653,0.0
1759842060.4601867,1,-1.7350000143051147,-0.34999990463256836,-0.7177033845694432,0.0,True,0.010469436645507812,-1.7350000143051147,-0.34999990463256836,-0.7177034020423889,0.0,0.12114235754061653,0.0
1759842060.476272,1,-1.7350000143051147,-0.34999990463256836,-0.717703383481954,0.0,True,0.016085386276245117,-1.7350000143051147,-0.34999990463256836,-0.7177034020423889,0.0,0.12114235754061653,0.0
1759842060.4877112,1,-1.7350000143051147,-0.34999990463256836,-0.717703384446466,0.0,True,0.011439085006713867,-1.7350000143051147,-0.34999990463256836,-0.7177034020423889,0.0,0.12114235754061653,0.0
1759842060.5014584,1,-1.7350000143051147,-0.34999990463256836,-0.7177033846932499,0.0,True,0.013747215270996094,-1.7350000143051147,-0.34999990463256836,-0.7177034020423889,0.0,0.12114235754061653,0.0
1759842060.5116906,1,-1.7350000143051147,-0.34999990463256836,-0.7177033861054021,0.0,True,0.010232210159301758,-1.7350000143051147,-0.34999990463256836,-0.7177034020423889,0.0,0.12114235754061653,0.0
1759842060.526976,1,-1.7350000143051147,-0.34999990463256836,-0.717703385841137,0.0,True,0.015285491943359375,-1.7350000143051147,-0.34999990463256836,-0.7177034020423889,0.0,0.12114235754061653,0.0
1759842060.543157,1,-1.7350000143051147,-0.34999990463256836,-0.7177033855919497,0.0,True,0.016180992126464844,-1.7350000143051147,-0.34999990463256836,-0.7177034020423889,0.0,0.12114235754061653,0.0
1759842060.553972,1,-1.7350000143051147,-0.34999990463256836,-0.7177033870711274,0.0,True,0.010814905166625977,-1.7350000143051147,-0.34999990463256836,-0.7177034020423889,0.0,0.12114235754061653,0.0
1759842060.5668178,1,-1.7350000143051147,-0.34999990463256836,-0.7177033878254075,0.0,True,0.012845754623413086,-1.7350000143051147,-0.34999990463256836,-0.7177034020423889,0.0,0.12114235754061653,0.0
1759842060.578036,1,-1.7350000143051147,-0.34999990463256836,-0.7177033888596593,0.0,True,0.01121830940246582,-1.7350000143051147,-0.34999990463256836,-0.7177034020423889,0.0,0.12114235754061653,0.0
1759842060.591853,1,-1.7350000143051147,-0.34999990463256836,-0.7177033891291771,0.0,True,0.01381683349609375,-1.7350000143051147,-0.34999990463256836,-0.7177034020423889,0.0,0.12114235754061653,0.0
1759842060.6031907,1,-1.7350000143051147,-0.34999990463256836,-0.7177033899809562,0.0,True,0.011337757110595703,-1.7350000143051147,-0.34999990463256836,-0.7177034020423889,0.0,0.12114235754061653,0.0
1759842060.6164627,1,-1.7350000143051147,-0.34999990463256836,-0.7177033903174284,0.0,True,0.01327204704284668,-1.7350000143051147,-0.34999990463256836,-0.7177034020423889,0.0,0.12114235754061653,0.0
1759842060.6273403,1,-1.7350000143051147,-0.34999990463256836,-0.7177033911462534,0.0,True,0.010877609252929688,-1.7350000143051147,-0.34999990463256836,-0.7177034020423889,0.0,0.12114235754061653,0.0
1759842060.6401594,1,-1.7350000143051147,-0.34999990463256836,-0.7177033914729201,0.0,True,0.012819051742553711,-1.7350000143051147,-0.34999990463256836,-0.7177034020423889,0.0,0.12114235754061653,0.0
1759842060.6515958,1,-1.7350000143051147,-0.34999990463256836,-0.717703392051245,0.0,True,0.01143646240234375,-1.7350000143051147,-0.34999990463256836,-0.7177034020423889,0.0,0.12114235754061653,0.0
1759842060.6650205,1,-1.7350000143051147,-0.34999990463256836,-0.7177033922093301,0.0,True,0.01342463493347168,-1.7350000143051147,-0.34999990463256836,-0.7177034020423889,0.0,0.12114235754061653,0.0
1759842060.6763399,1,-1.7350000143051147,-0.34999990463256836,-0.7177033927783967,0.0,True,0.011319398880004883,-1.7350000143051147,-0.34999990463256836,-0.7177034020423889,0.0,0.12114235754061653,0.0
1759842060.690766,1,-1.7350000143051147,-0.34999990463256836,-0.7177033927741885,0.0,True,0.014426231384277344,-1.7350000143051147,-0.34999990463256836,-0.7177034020423889,0.0,0.12114235754061653,0.0
1759842060.7010577,1,-1.7350000143051147,-0.34999990463256836,-0.7177033935187076,0.0,True,0.010291576385498047,-1.7350000143051147,-0.34999990463256836,-0.7177034020423889,0.0,0.12114235754061653,0.0
1759842060.7125564,1,-1.7350000143051147,-0.34999990463256836,-0.7177033939653086,0.0,True,0.011498689651489258,-1.7350000143051147,-0.34999990463256836,-0.7177034020423889,0.0,0.12114235754061653,0.0
1759842060.724328,1,-1.7350000143051147,-0.34999990463256836,-0.7177033942981925,0.0,True,0.011771678924560547,-1.7350000143051147,-0.34999990463256836,-0.7177034020423889,0.0,0.12114235754061653,0.0
1759842060.735588,1,-1.7350000143051147,-0.34999990463256836,-0.7177033946749098,0.0,True,0.011260032653808594,-1.7350000143051147,-0.34999990463256836,-0.7177034020423889,0.0,0.12114235754061653,0.0
1759842060.7562876,1,-1.7350000143051147,-0.34999990463256836,-0.7177033937395798,0.0,True,0.020699501037597656,-1.7350000143051147,-0.34999990463256836,-0.7177034020423889,0.0,0.12114235754061653,0.0
1759842060.765485,1,-1.7350000143051147,-0.34999990463256836,-0.7177033946723697,0.0,True,0.009197473526000977,-1.7350000143051147,-0.34999990463256836,-0.7177034020423889,0.0,0.12114235754061653,0.0
1759842060.776845,1,-1.7350000143051147,-0.34999990463256836,-0.7177033952069554,0.0,True,0.011359930038452148,-1.7350000143051147,-0.34999990463256836,-0.7177034020423889,0.0,0.12114235754061653,0.0
1759842060.791159,1,-1.7350000143051147,-0.34999990463256836,-0.7177033952709735,0.0,True,0.014313936233520508,-1.7350000143051147,-0.34999990463256836,-0.7177034020423889,0.0,0.12114235754061653,0.0
1759842060.8011959,1,-1.7350000143051147,-0.34999990463256836,-0.7177033958661667,0.0,True,0.010036945343017578,-1.7350000143051147,-0.34999990463256836,-0.7177034020423889,0.0,0.12114235754061653,0.0
1759842060.8120964,1,-1.7350000143051147,-0.34999990463256836,-0.7177033962644757,0.0,True,0.010900497436523438,-1.7350000143051147,-0.34999990463256836,-0.7177034020423889,0.0,0.12114235754061653,0.0
1759842060.8250222,1,-1.7350000143051147,-0.34999990463256836,-0.7177033963664314,0.0,True,0.012925863265991211,-1.7350000143051147,-0.34999990463256836,-0.7177034020423889,0.0,0.12114235754061653,0.0
1759842060.8359842,1,-1.7350000143051147,-0.34999990463256836,-0.7177033966872983,0.0,True,0.01096200942993164,-1.7350000143051147,-0.34999990463256836,-0.7177034020423889,0.0,0.12114235754061653,0.0
1759842060.849365,1,-1.7350000143051147,-0.34999990463256836,-0.7177033967321833,0.0,True,0.013380765914916992,-1.7350000143051147,-0.34999990463256836,-0.7177034020423889,0.0,0.12114235754061653,0.0
1759842060.8596904,1,-1.7350000143051147,-0.34999990463256836,-0.7177033971027598,0.0,True,0.010325431823730469,-1.7350000143051147,-0.34999990463256836,-0.7177034020423889,0.0,0.12114235754061653,0.0
1759842060.8698623,1,-1.7350000143051147,-0.34999990463256836,-0.7177033974355993,0.0,True,0.010171890258789062,-1.7350000143051147,-0.34999990463256836,-0.7177034020423889,0.0,0.12114235754061653,0.0
1759842060.8829134,1,-1.7350000143051147,-0.34999990463256836,-0.7177033974454883,0.0,True,0.013051033020019531,-1.7350000143051147,-0.34999990463256836,-0.7177034020423889,0.0,0.12114235754061653,0.0
1759842060.8931448,1,-1.7350000143051147,-0.34999990463256836,-0.7177033977301903,0.0,True,0.010231494903564453,-1.7350000143051147,-0.34999990463256836,-0.7177034020423889,0.0,0.12114235754061653,0.0
1759842060.904455,1,-1.7350000143051147,-0.34999990463256836,-0.7177033978900447,0.0,True,0.011310100555419922,-1.7350000143051147,-0.34999990463256836,-0.7177034020423889,0.0,0.12114235754061653,0.0
1759842060.9162502,1,-1.7350000143051147,-0.34999990463256836,-0.7177033979947112,0.0,True,0.011795282363891602,-1.7350000143051147,-0.34999990463256836,-0.7177034020423889,0.0,0.12114235754061653,0.0
1759842060.92751,1,-1.7350000143051147,-0.34999990463256836,-0.7177033981470977,0.0,True,0.011259794235229492,-1.7350000143051147,-0.34999990463256836,-0.7177034020423889,0.0,0.12114235754061653,0.0
1759842060.937842,1,-1.7350000143051147,-0.34999990463256836,-0.7177033983631524,0.0,True,0.010331869125366211,-1.7350000143051147,-0.34999990463256836,-0.7177034020423889,0.0,0.12114235754061653,0.0
1759842060.9492786,1,-1.7350000143051147,-0.34999990463256836,-0.7177033984679326,0.0,True,0.011436700820922852,-1.7350000143051147,-0.34999990463256836,-0.7177034020423889,0.0,0.12114235754061653,0.0
1759842060.967596,1,-1.7350000143051147,-0.34999990463256836,-0.7177033980927625,0.0,True,0.018317461013793945,-1.7350000143051147,-0.34999990463256836,-0.7177034020423889,0.0,0.12114235754061653,0.0
1759842060.978968,1,-1.7350000143051147,-0.34999990463256836,-0.7177033983388732,0.0,True,0.011371850967407227,-1.7350000143051147,-0.34999990463256836,-0.7177034020423889,0.0,0.12114235754061653,0.0
1759842060.9907346,1,-1.7350000143051147,-0.34999990463256836,-0.7177033985553933,0.0,True,0.011766672134399414,-1.7350000143051147,-0.34999990463256836,-0.7177034020423889,0.0,0.12114235754061653,0.0
1759842061.0022597,1,-1.7350000143051147,-0.34999990463256836,-0.7177033987544394,0.0,True,0.011525154113769531,-1.7350000143051147,-0.34999990463256836,-0.7177034020423889,0.0,0.12114235754061653,0.0
1759842061.015987,1,-1.7350000143051147,-0.34999990463256836,-0.7177033987955816,0.0,True,0.013727188110351562,-1.7350000143051147,-0.34999990463256836,-0.7177034020423889,0.0,0.12114235754061653,0.0
1759842061.0274684,1,-1.7350000143051147,-0.34999990463256836,-0.7177033989825521,0.0,True,0.011481523513793945,-1.7350000143051147,-0.34999990463256836,-0.7177034020423889,0.0,0.12114235754061653,0.0
1759842061.0399313,1,-1.7350000143051147,-0.34999990463256836,-0.71770339909774,0.0,True,0.012462854385375977,-1.7350000143051147,-0.34999990463256836,-0.7177034020423889,0.0,0.12114235754061653,0.0
1759842061.0514414,1,-1.7350000143051147,-0.34999990463256836,-0.7177033992557682,0.0,True,0.011510133743286133,-1.7350000143051147,-0.34999990463256836,-0.7177034020423889,0.0,0.12114235754061653,0.0
1759842061.0644813,1,-1.7350000143051147,-0.34999990463256836,-0.7177033993190491,0.0,True,0.013039827346801758,-1.7350000143051147,-0.34999990463256836,-0.7177034020423889,0.0,0.12114235754061653,0.0
1759842061.0748568,1,-1.7350000143051147,-0.34999990463256836,-0.7177033995178661,0.0,True,0.010375499725341797,-1.7350000143051147,-0.34999990463256836,-0.7177034020423889,0.0,0.12114235754061653,0.0
1759842061.0849874,1,-1.7350000143051147,-0.34999990463256836,-0.7177033996971183,0.0,True,0.010130643844604492,-1.7350000143051147,-0.34999990463256836,-0.7177034020423889,0.0,0.12114235754061653,0.0
1759842061.0950017,1,-1.7350000143051147,-0.34999990463256836,-0.7177033998459077,0.0,True,0.01001429557800293,-1.7350000143051147,-0.34999990463256836,-0.7177034020423889,0.0,0.12114235754061653,0.0
1759842061.1064656,1,-1.7350000143051147,-0.34999990463256836,-0.7177033999018523,0.0,True,0.01146388053894043,-1.7350000143051147,-0.34999990463256836,-0.7177034020423889,0.0,0.12114235754061653,0.0
1759842061.1178622,1,-1.7350000143051147,-0.34999990463256836,-0.7177033999590883,0.0,True,0.011396646499633789,-1.7350000143051147,-0.34999990463256836,-0.7177034020423889,0.0,0.12114235754061653,0.0
1759842061.1317248,1,-1.7350000143051147,-0.34999990463256836,-0.7177033999182552,0.0,True,0.01386260986328125,-1.7350000143051147,-0.34999990463256836,-0.7177034020423889,0.0,0.12114235754061653,0.0
1759842061.1417282,1,-1.7350000143051147,-0.34999990463256836,-0.7177034000630442,0.0,True,0.010003328323364258,-1.7350000143051147,-0.34999990463256836,-0.7177034020423889,0.0,0.12114235754061653,0.0
1759842061.1524968,1,-1.7350000143051147,-0.34999990463256836,-0.7177034001615041,0.0,True,0.010768651962280273,-1.7350000143051147,-0.34999990463256836,-0.7177034020423889,0.0,0.12114235754061653,0.0
1759842061.1713407,1,-1.7350000143051147,-0.34999990463256836,-0.717703399951656,0.0,True,0.018843889236450195,-1.7350000143051147,-0.34999990463256836,-0.7177034020423889,0.0,0.12114235754061653,0.0
1759842061.1821103,1,-1.7350000143051147,-0.34999990463256836,-0.7177034001084017,0.0,True,0.01076960563659668,-1.7350000143051147,-0.34999990463256836,-0.7177034020423889,0.0,0.12114235754061653,0.0
1759842061.192313,1,-1.7350000143051147,-0.34999990463256836,-0.7177034002739209,0.0,True,0.010202646255493164,-1.7350000143051147,-0.34999990463256836,-0.7177034020423889,0.0,0.12114235754061653,0.0
1759842061.2025883,1,-1.7350000143051147,-0.34999990463256836,-0.7177034004021259,0.0,True,0.01027536392211914,-1.7350000143051147,-0.34999990463256836,-0.7177034020423889,0.0,0.12114235754061653,0.0
1759842061.2166145,1,-1.7350000143051147,-0.34999990463256836,-0.7177034003864335,0.0,True,0.014026165008544922,-1.7350000143051147,-0.34999990463256836,-0.7177034020423889,0.0,0.12114235754061653,0.0
1759842061.2267716,1,-1.7350000143051147,-0.34999990463256836,-0.7177034005043872,0.0,True,0.010157108306884766,-1.7350000143051147,-0.34999990463256836,-0.7177034020423889,0.0,0.12114235754061653,0.0
1759842061.2377174,1,-1.7350000143051147,-0.34999990463256836,-0.7177034005840959,0.0,True,0.010945796966552734,-1.7350000143051147,-0.34999990463256836,-0.7177034020423889,0.0,0.12114235754061653,0.0
1759842061.2498837,1,-1.7350000143051147,-0.34999990463256836,-0.7177034006167489,0.0,True,0.012166261672973633,-1.7350000143051147,-0.34999990463256836,-0.7177034020423889,0.0,0.12114235754061653,0.0
1759842061.2606122,1,-1.7350000143051147,-0.34999990463256836,-0.7177034006907643,0.0,True,0.010728597640991211,-1.7350000143051147,-0.34999990463256836,-0.7177034020423889,0.0,0.12114235754061653,0.0
1759842061.2759159,1,-1.7350000143051147,-0.34999990463256836,-0.7177034006384453,0.0,True,0.015303611755371094,-1.7350000143051147,-0.34999990463256836,-0.7177034020423889,0.0,0.12114235754061653,0.0
1759842061.287314,1,-1.7350000143051147,-0.34999990463256836,-0.7177034007123133,0.0,True,0.011398077011108398,-1.7350000143051147,-0.34999990463256836,-0.7177034020423889,0.0,0.12114235754061653,0.0
1759842061.2977374,1,-1.7350000143051147,-0.34999990463256836,-0.7177034008070766,0.0,True,0.010423421859741211,-1.7350000143051147,-0.34999990463256836,-0.7177034020423889,0.0,0.12114235754061653,0.0
1759842061.3103304,1,-1.7350000143051147,-0.34999990463256836,-0.7177034008348713,0.0,True,0.01259303092956543,-1.7350000143051147,-0.34999990463256836,-0.7177034020423889,0.0,0.12114235754061653,0.0
1759842061.3217568,1,-1.7350000143051147,-0.34999990463256836,-0.7177034008898531,0.0,True,0.011426448822021484,-1.7350000143051147,-0.34999990463256836,-0.7177034020423889,0.0,0.12114235754061653,0.0
1759842061.3324847,1,-1.7350000143051147,-0.34999990463256836,-0.7177034009559442,0.0,True,0.010727882385253906,-1.7350000143051147,-0.34999990463256836,-0.7177034020423889,0.0,0.12114235754061653,0.0
1759842061.3466678,1,-1.7350000143051147,-0.34999990463256836,-0.7177034009411685,0.0,True,0.01418304443359375,-1.7350000143051147,-0.34999990463256836,-0.7177034020423889,0.0,0.12114235754061653,0.0
1759842061.3573217,1,-1.7350000143051147,-0.34999990463256836,-0.71770340101064,0.0,True,0.010653972625732422,-1.7350000143051147,-0.34999990463256836,-0.7177034020423889,0.0,0.12114235754061653,0.0
1759842061.3737082,1,-1.7350000143051147,-0.34999990463256836,-0.7177034009646768,0.0,True,0.01638650894165039,-1.7350000143051147,-0.34999990463256836,-0.7177034020423889,0.0,0.12114235754061653,0.0
1759842061.384914,1,-1.7350000143051147,-0.34999990463256836,-0.7177034010372658,0.0,True,0.011205673217773438,-1.7350000143051147,-0.34999990463256836,-0.7177034020423889,0.0,0.12114235754061653,0.0
1759842061.399836,1,-1.7350000143051147,-0.34999990463256836,-0.7177034010399748,0.0,True,0.014922142028808594,-1.7350000143051147,-0.34999990463256836,-0.7177034020423889,0.0,0.12114235754061653,0.0
1759842061.4099026,1,-1.7350000143051147,-0.34999990463256836,-0.7177034011322405,0.0,True,0.010066509246826172,-1.7350000143051147,-0.34999990463256836,-0.7177034020423889,0.0,0.12114235754061653,0.0
1759842061.420934,1,-1.7350000143051147,-0.34999990463256836,-0.7177034011933454,0.0,True,0.011031389236450195,-1.7350000143051147,-0.34999990463256836,-0.7177034020423889,0.0,0.12114235754061653,0.0
1759842061.4310648,1,-1.7350000143051147,-0.34999990463256836,-0.717703401255978,0.0,True,0.010130882263183594,-1.7350000143051147,-0.34999990463256836,-0.7177034020423889,0.0,0.12114235754061653,0.0
1759842061.4436207,1,-1.7350000143051147,-0.34999990463256836,-0.7177034012698158,0.0,True,0.012555837631225586,-1.7350000143051147,-0.34999990463256836,-0.7177034020423889,0.0,0.12114235754061653,0.0
1759842061.4542081,1,-1.7350000143051147,-0.34999990463256836,-0.7177034013136385,0.0,True,0.010587453842163086,-1.7350000143051147,-0.34999990463256836,-0.7177034020423889,0.0,0.12114235754061653,0.0
1759842061.4643855,1,-1.7350000143051147,-0.34999990463256836,-0.7177034013580688,0.0,True,0.010177373886108398,-1.7350000143051147,-0.34999990463256836,-0.7177034020423889,0.0,0.12114235754061653,0.0
1759842061.4747334,1,-1.7350000143051147,-0.34999990463256836,-0.7177034013925123,0.0,True,0.010347843170166016,-1.7350000143051147,-0.34999990463256836,-0.7177034020423889,0.0,0.12114235754061653,0.0
1759842061.487356,1,-1.7350000143051147,-0.34999990463256836,-0.7177034013914838,0.0,True,0.012622594833374023,-1.7350000143051147,-0.34999990463256836,-0.7177034020423889,0.0,0.12114235754061653,0.0
1759842061.4987166,1,-1.7350000143051147,-0.34999990463256836,-0.7177034014119421,0.0,True,0.011360645294189453,-1.7350000143051147,-0.34999990463256836,-0.7177034020423889,0.0,0.12114235754061653,0.0
1759842061.5146549,1,-1.7350000143051147,-0.34999990463256836,-0.7177034013781771,0.0,True,0.015938282012939453,-1.7350000143051147,-0.34999990463256836,-0.7177034020423889,0.0,0.12114235754061653,0.0
1759842061.525983,1,-1.7350000143051147,-0.34999990463256836,-0.7177034014153865,0.0,True,0.01132822036743164,-1.7350000143051147,-0.34999990463256836,-0.7177034020423889,0.0,0.12114235754061653,0.0
1759842061.5362296,1,-1.7350000143051147,-0.34999990463256836,-0.7177034014633996,0.0,True,0.010246515274047852,-1.7350000143051147,-0.34999990463256836,-0.7177034020423889,0.0,0.12114235754061653,0.0
1759842061.5490878,1,-1.7350000143051147,-0.34999990463256836,-0.7177034014741679,0.0,True,0.012858152389526367,-1.7350000143051147,-0.34999990463256836,-0.7177034020423889,0.0,0.12114235754061653,0.0
1759842061.5593839,1,-1.7350000143051147,-0.34999990463256836,-0.7177034015126917,0.0,True,0.010296106338500977,-1.7350000143051147,-0.34999990463256836,-0.7177034020423889,0.0,0.12114235754061653,0.0
1759842061.5762568,1,-1.7350000143051147,-0.34999990463256836,-0.7177034014802999,0.0,True,0.016872882843017578,-1.7350000143051147,-0.34999990463256836,-0.7177034020423889,0.0,0.12114235754061653,0.0
