timestamp,observer_vehicle_id,vehicle_0_x,vehicle_0_y,vehicle_0_theta,vehicle_0_velocity,vehicle_1_x,vehicle_1_y,vehicle_1_theta,vehicle_1_velocity
1759182025.5418916,0,-1.205,-0.83,-0.7177028497428992,0.0,-0.2662959167957306,-0.053719637393951414,1.7747992011687501,0.0
1759182025.5532646,0,-1.205,-0.83,-0.7177028497428992,0.0,-0.48837876352164633,-0.09852021166142719,-3.0003219225939617,0.0
1759182025.5637717,0,-1.205,-0.83,-0.7177028497428992,0.0,-0.6742607710352213,-0.13601802297540486,-0.7750080859030752,0.0
1759182025.574353,0,-1.205,-0.83,-0.7177028497428992,0.0,-0.8301813732197645,-0.1674717467590303,1.1183709402923052,0.0
1759182025.5858064,0,-1.205,-0.83,-0.7177028497428992,0.0,-0.9611101841551046,-0.19388389882091447,2.7376434982956903,0.0
1759182025.5966566,0,-1.205,-0.83,-0.7177028497428992,0.0,-1.0714140005633035,-0.21613538916262606,-2.153082540363225,0.0
1759182025.6072495,0,-1.205,-0.83,-0.7177028497428992,0.0,-1.1645901635918896,-0.23493173328943018,-0.06658084540625772,0.0
1759182025.617631,0,-1.205,-0.83,-0.7177028497428992,0.0,-1.2434988359212282,-0.25084990926364836,1.7283006112625803,0.0
1759182025.6281745,0,-1.205,-0.83,-0.7177028497428992,0.0,-1.3104550980647582,-0.2643569362090291,-3.003143470093333,0.0
1759182025.638664,0,-1.205,-0.83,-0.7177028497428992,0.0,-1.367399387190309,-0.27584425678190677,-0.8116412891775349,0.0
1759182025.649699,0,-1.205,-0.83,-0.7177028497428992,0.0,-1.4158944358762255,-0.28562711962920984,1.0857069623874394,0.0
1759182025.6602492,0,-1.205,-0.83,-0.7177028497428992,0.0,-1.4573185332498884,-0.2939835657852801,2.736556252235255,0.0
1759182025.671236,0,-1.205,-0.83,-0.7177028497428992,0.0,-1.4927550717754186,-0.30113214704403257,-2.102491451751047,0.0
1759182025.6819198,0,-1.205,-0.83,-0.7177028497428992,0.0,-1.5231517305390176,-0.3072640378608969,-0.043773928218615345,0.0
1759182025.6923206,0,-1.205,-0.83,-0.7177028497428992,0.0,-1.5492935689133387,-0.31253760756176857,1.7580195923870996,0.0
1759182025.7028751,0,-1.205,-0.83,-0.7177028497428992,0.0,-1.5718175241710888,-0.31708134493364903,-2.9404854614669262,0.0
1759182025.7131348,0,-1.205,-0.83,-0.7177028497428992,0.0,-1.591274756405148,-0.321006435009684,-0.7904940726538069,0.0
1759182025.7237556,0,-1.205,-0.83,-0.7177028497428992,0.0,-1.6081066889699962,-0.3244019257288177,1.1029862359987448,0.0
1759182025.7380373,0,-1.2049999243418377,-0.8299995105862618,-0.7177035734109971,0.0,-1.6226049506734266,-0.3273266471099132,2.779918043199762,0.0
1759182025.748541,0,-1.2049999239185727,-0.8299995078482668,-0.7177036352054067,0.0,-1.6352105915682624,-0.3298695717861048,-2.0105865382624857,0.0
1759182025.7587767,0,-1.2049999237857767,-0.8299995069892429,-0.7177036410006785,0.0,-1.6461981698527615,-0.33208608613744467,0.016725451866014287,0.0
1759182025.769843,0,-1.2049999237364264,-0.8299995066700088,-0.717703641806624,0.0,-1.6559663711689576,-0.3340566166623258,1.8208939308429086,0.0
1759182025.780369,0,-1.2049999237176512,-0.8299995065485567,-0.717703641891827,0.0,-1.6646600703403722,-0.33581038882946995,-2.856581430047241,0.0
1759182025.7914011,0,-1.2049999237104838,-0.829999506502193,-0.7177036418147935,0.0,-1.6723974626029314,-0.33737124605822827,-0.7363491940598876,0.0
1759182025.8020744,0,-1.2049999237077464,-0.8299995064844852,-0.7177036416650964,0.0,-1.679283741716609,-0.3387604089918232,1.1506574959688571,0.0
1759182025.8125463,0,-1.2049999237067008,-0.8299995064777215,-0.7177036415108908,0.0,-1.679283741716609,-0.3387604089918232,1.1506574959688571,0.0
1759182025.823054,0,-1.2049999237063016,-0.829999506475138,-0.7177036413772591,0.0,-1.679283741716609,-0.3387604089918232,1.1506574959688571,0.0
1759182025.8335526,0,-1.204999923706149,-0.8299995064741511,-0.7177036412644409,0.0,-1.679283741716609,-0.3387604089918232,1.1506574959688571,0.0
1759182025.8441153,0,-1.2049999237060907,-0.8299995064737742,-0.7177036411711767,0.0,-1.679283741716609,-0.3387604089918232,1.1506574959688571,0.0
1759182025.8544767,0,-1.2049999237060685,-0.8299995064736302,-0.7177036410906865,0.0,-1.679283741716609,-0.3387604089918232,1.1506574959688571,0.0
1759182025.865607,0,-1.20499992370606,-0.8299995064735752,-0.7177036410321698,0.0,-1.679283741716609,-0.3387604089918232,1.1506574959688571,0.0
1759182025.876352,0,-1.2049999237060567,-0.8299995064735542,-0.7177036409762713,0.0,-1.679283741716609,-0.3387604089918232,1.1506574959688571,0.0
1759182025.8868573,0,-1.2049999237060554,-0.8299995064735463,-0.7177036409260218,0.0,-1.679283741716609,-0.3387604089918232,1.1506574959688571,0.0
1759182025.8972178,0,-1.204999923706055,-0.8299995064735431,-0.7177036408825543,0.0,-1.679283741716609,-0.3387604089918232,1.1506574959688571,0.0
1759182025.908011,0,-1.2049999237060547,-0.8299995064735419,-0.7177036408493684,0.0,-1.679283741716609,-0.3387604089918232,1.1506574959688571,0.0
1759182025.9181921,0,-1.2049999237060547,-0.8299995064735415,-0.7177036408158433,0.0,-1.679283741716609,-0.3387604089918232,1.1506574959688571,0.0
1759182025.9294996,0,-1.2049999237060547,-0.8299995064735414,-0.7177036407948093,0.0,-1.679283741716609,-0.3387604089918232,1.1506574959688571,0.0
1759182025.940356,0,-1.2049999237060547,-0.8299995064735413,-0.7177036407719797,0.0,-1.679283741716609,-0.3387604089918232,1.1506574959688571,0.0
1759182025.9506834,0,-1.2049999237060547,-0.8299995064735413,-0.7177036407480911,0.0,-1.679283741716609,-0.3387604089918232,1.1506574959688571,0.0
1759182025.961227,0,-1.2049999237060547,-0.8299995064735413,-0.7177036407287005,0.0,-1.679283741716609,-0.3387604089918232,1.1506574959688571,0.0
1759182025.9716346,0,-1.2049999237060547,-0.8299995064735413,-0.7177036407109991,0.0,-1.679283741716609,-0.3387604089918232,1.1506574959688571,0.0
1759182025.9828079,0,-1.2049999237060547,-0.8299995064735413,-0.7177036406991064,0.0,-1.679283741716609,-0.3387604089918232,1.1506574959688571,0.0
1759182025.9936335,0,-1.2049999237060547,-0.8299995064735413,-0.7177036406859258,0.0,-1.679283741716609,-0.3387604089918232,1.1506574959688571,0.0
1759182026.0047848,0,-1.2049999237060547,-0.8299995064735413,-0.717703640674971,0.0,-1.679283741716609,-0.3387604089918232,1.1506574959688571,0.0
1759182026.0149388,0,-1.2049999237060547,-0.8299995064735413,-0.7177036406603499,0.0,-1.679283741716609,-0.3387604089918232,1.1506574959688571,0.0
1759182026.025758,0,-1.2049999237060547,-0.8299995064735413,-0.7177036406502637,0.0,-1.679283741716609,-0.3387604089918232,1.1506574959688571,0.0
1759182026.036879,0,-1.2049999237060547,-0.8299995064735413,-0.7177036406421529,0.0,-1.679283741716609,-0.3387604089918232,1.1506574959688571,0.0
1759182026.0476341,0,-1.2049999237060547,-0.8299995064735413,-0.7177036406329034,0.0,-1.679283741716609,-0.3387604089918232,1.1506574959688571,0.0
1759182026.0588515,0,-1.2049999237060547,-0.8299995064735413,-0.7177036406258352,0.0,-1.679283741716609,-0.3387604089918232,1.1506574959688571,0.0
1759182026.0692837,0,-1.2049999237060547,-0.8299995064735413,-0.7177036406163815,0.0,-1.679283741716609,-0.3387604089918232,1.1506574959688571,0.0
1759182026.0796356,0,-1.2049999237060547,-0.8299995064735413,-0.7177036406076791,0.0,-1.679283741716609,-0.3387604089918232,1.1506574959688571,0.0
1759182026.0906858,0,-1.2049999237060547,-0.8299995064735413,-0.7177036406020996,0.0,-1.679283741716609,-0.3387604089918232,1.1506574959688571,0.0
1759182026.1020064,0,-1.2049999237060547,-0.8299995064735413,-0.717703640597426,0.0,-1.679283741716609,-0.3387604089918232,1.1506574959688571,0.0
1759182026.1125388,0,-1.2049999237060547,-0.8299995064735413,-0.7177036405904111,0.0,-1.679283741716609,-0.3387604089918232,1.1506574959688571,0.0
1759182026.1228697,0,-1.2049999237060547,-0.8299995064735413,-0.7177036405834762,0.0,-1.679283741716609,-0.3387604089918232,1.1506574959688571,0.0
1759182026.1359131,0,-1.2049999237060547,-0.8299995064735413,-0.7177036405840216,0.0,-1.679283741716609,-0.3387604089918232,1.1506574959688571,0.0
1759182026.1450455,0,-1.2049999237060547,-0.8299995064735413,-0.7177036405738075,0.0,-1.679283741716609,-0.3387604089918232,1.1506574959688571,0.0
1759182026.1551955,0,-1.2049999237060547,-0.8299995064735413,-0.7177036405674659,0.0,-1.679283741716609,-0.3387604089918232,1.1506574959688571,0.0
1759182026.1665716,0,-1.2049999237060547,-0.8299995064735413,-0.7177036405648919,0.0,-1.679283741716609,-0.3387604089918232,1.1506574959688571,0.0
1759182026.1773534,0,-1.2049999237060547,-0.8299995064735413,-0.7177036405608526,0.0,-1.679283741716609,-0.3387604089918232,1.1506574959688571,0.0
1759182026.1883843,0,-1.2049999237060547,-0.8299995064735413,-0.7177036405573887,0.0,-1.679283741716609,-0.3387604089918232,1.1506574959688571,0.0
1759182026.1997452,0,-1.2049999237060547,-0.8299995064735413,-0.717703640554582,0.0,-1.679283741716609,-0.3387604089918232,1.1506574959688571,0.0
1759182026.2105129,0,-1.2049999237060547,-0.8299995064735413,-0.7177036405505035,0.0,-1.679283741716609,-0.3387604089918232,1.1506574959688571,0.0
1759182026.2209551,0,-1.2049999237060547,-0.8299995064735413,-0.7177036405460804,0.0,-1.679283741716609,-0.3387604089918232,1.1506574959688571,0.0
1759182026.2311323,0,-1.2049999237060547,-0.8299995064735413,-0.7177036405416839,0.0,-1.679283741716609,-0.3387604089918232,1.1506574959688571,0.0
1759182026.2422605,0,-1.2049999237060547,-0.8299995064735413,-0.7177036405394368,0.0,-1.679283741716609,-0.3387604089918232,1.1506574959688571,0.0
1759182026.253721,0,-1.2049999237060547,-0.8299995064735413,-0.7177036405376782,0.0,-1.679283741716609,-0.3387604089918232,1.1506574959688571,0.0
1759182026.2650485,0,-1.2049999237060547,-0.8299995064735413,-0.7177036405354187,0.0,-1.679283741716609,-0.3387604089918232,1.1506574959688571,0.0
1759182026.27554,0,-1.2049999237060547,-0.8299995064735413,-0.7177036405317754,0.0,-1.679283741716609,-0.3387604089918232,1.1506574959688571,0.0
1759182026.2861068,0,-1.2049999237060547,-0.8299995064735413,-0.7177036405285815,0.0,-1.679283741716609,-0.3387604089918232,1.1506574959688571,0.0
1759182026.297156,0,-1.2049999237060547,-0.8299995064735413,-0.7177036405263806,0.0,-1.679283741716609,-0.3387604089918232,1.1506574959688571,0.0
1759182026.3074768,0,-1.2049999237060547,-0.8299995064735413,-0.7177036405232649,0.0,-1.679283741716609,-0.3387604089918232,1.1506574959688571,0.0
1759182026.3175526,0,-1.2049999237060547,-0.8299995064735413,-0.7177036405201473,0.0,-1.679283741716609,-0.3387604089918232,1.1506574959688571,0.0
1759182026.32911,0,-1.2049999237060547,-0.8299995064735413,-0.7177036405192645,0.0,-1.679283741716609,-0.3387604089918232,1.1506574959688571,0.0
1759182026.3394167,0,-1.2049999237060547,-0.8299995064735413,-0.7177036405166604,0.0,-1.679283741716609,-0.3387604089918232,1.1506574959688571,0.0
1759182026.3509946,0,-1.2049999237060547,-0.8299995064735413,-0.7177036405156834,0.0,-1.679283741716609,-0.3387604089918232,1.1506574959688571,0.0
1759182026.3626497,0,-1.2049999237060547,-0.8299995064735413,-0.7177036405145838,0.0,-1.6904079074215514,-0.3410044395337281,0.7776255022226,0.0
1759182026.3737361,0,-1.2049999237060547,-0.8299995064735413,-0.7177036405126174,0.0,-1.699212177451197,-0.3427804874073161,0.48238768486610667,0.0
1759182026.3841915,0,-1.2049999237060547,-0.8299995064735413,-0.717703640510031,0.0,-1.7062032965134624,-0.344190776063017,0.24795113011794934,0.0
1759182026.3951855,0,-1.2049999237060547,-0.8299995064735413,-0.7177036405082635,0.0,-1.7117653892997569,-0.34531279333787734,0.06143480012915278,0.0
1759182026.405589,0,-1.2049999237060547,-0.8299995064735413,-0.7177036405060448,0.0,-1.716204817658775,-0.3462083403020699,-0.08743468417945718,0.0
1759182026.416982,0,-1.2049999237060547,-0.8299995064735413,-0.7177036405049648,0.0,-1.7197531805243984,-0.34692413642156517,-0.2064236411410198,0.0
1759182026.428434,0,-1.2049999237060547,-0.8299995064735413,-0.717703640503867,0.0,-1.7225967233998378,-0.3474977522080387,-0.301777530705692,0.0
1759182026.4400082,0,-1.2049999237060547,-0.8299995064735413,-0.7177036405027515,0.0,-1.7248812321635532,-0.34795859642548405,-0.3783850607859847,0.0
1759182026.4504406,0,-1.2049999237060547,-0.8299995064735413,-0.7177036405005914,0.0,-1.7267238542893726,-0.3483303007345714,-0.4401745939111499,0.0
1759182026.461051,0,-1.2049999237060547,-0.8299995064735413,-0.7177036404988044,0.0,-1.7282133738237917,-0.34863077516264607,-0.49012336817306407,0.0
1759182026.4716513,0,-1.2049999237060547,-0.8299995064735413,-0.7177036404972164,0.0,-1.7294204257823727,-0.3488742686103856,-0.530600021488719,0.0
1759182026.482822,0,-1.2049999237060547,-0.8299995064735413,-0.7177036404962038,0.0,-1.730400329523081,-0.34907194041612827,-0.5634596044697122,0.0
1759182026.4932466,0,-1.2049999237060547,-0.8299995064735413,-0.7177036404946442,0.0,-1.7311985497002358,-0.34923296197084175,-0.5902267052150932,0.0
1759182026.5039499,0,-1.2049999237060547,-0.8299995064735413,-0.7177036404934078,0.0,-1.731850110668065,-0.34936439858824775,-0.6120758122243988,0.0
1759182026.5146396,0,-1.2049999237060547,-0.8299995064735413,-0.7177036404922532,0.0,-1.732383261483908,-0.3494719488302998,-0.6299542147110724,0.0
1759182026.5254238,0,-1.2049999237060547,-0.8299995064735413,-0.7177036404912158,0.0,-1.732820527619261,-0.3495601566643701,-0.6446172701342661,0.0
1759182026.5722182,0,-1.2049999237060547,-0.8299995064735413,-0.717703640509999,0.0,-1.7332376568518744,-0.34964430236686445,-0.658605065122122,0.0
1759182026.5834904,0,-1.2049999237060547,-0.8299995064735413,-0.7177036405025685,0.0,-1.7335709791157201,-0.3497115420466936,-0.6697825207570338,0.0
1759182026.5941741,0,-1.2049999237060547,-0.8299995064735413,-0.7177036404957312,0.0,-1.7338382052045558,-0.34976544842680757,-0.6787435415961167,0.0
1759182026.6051838,0,-1.2049999237060547,-0.8299995064735413,-0.7177036404910311,0.0,-1.7340529024353581,-0.34980875838424275,-0.6859430869986468,0.0
1759182026.61667,0,-1.2049999237060547,-0.8299995064735413,-0.7177036404878763,0.0,-1.734225748843184,-0.3498436259535066,-0.6917392286449887,0.0
1759182026.6275105,0,-1.2049999237060547,-0.8299995064735413,-0.7177036404852633,0.0,-1.7343653723480101,-0.3498717916081281,-0.6964212907214246,0.0
1759182026.638949,0,-1.2049999237060547,-0.8299995064735413,-0.7177036404835064,0.0,-1.7344783656537335,-0.3498945852661695,-0.7002103495355386,0.0
1759182026.6493335,0,-1.2049999237060547,-0.8299995064735413,-0.7177036404817088,0.0,-1.734570157918931,-0.34991310212865406,-0.7032884636705975,0.0
1759182026.6601815,0,-1.2049999237060547,-0.8299995064735413,-0.7177036404804582,0.0,-1.734644865274476,-0.3499281725251219,-0.7057936613209761,0.0
1759182026.6707392,0,-1.2049999237060547,-0.8299995064735413,-0.7177036404793355,0.0,-1.7347058388764243,-0.34994047247000326,-0.7078383184129248,0.0
1759182026.6814103,0,-1.2049999237060547,-0.8299995064735413,-0.717703640478442,0.0,-1.7347557164155205,-0.3499505340534115,-0.7095108858975994,0.0
1759182026.6915069,0,-1.2049999237060547,-0.8299995064735413,-0.717703640477481,0.0,-1.7347966438885574,-0.34995879017813436,-0.7108833265165998,0.0
1759182026.7016177,0,-1.2049999237060547,-0.8299995064735413,-0.7177036404766781,0.0,-1.7348303034907941,-0.3499655801862528,-0.7120120501318448,0.0
1759182026.7125714,0,-1.2049999237060547,-0.8299995064735413,-0.7177036404762749,0.0,-1.7348639763776428,-0.3499723728742194,-0.7131412192263619,0.0
1759182026.7239418,0,-1.2049999237060547,-0.8299995064735413,-0.7177036404760138,0.0,-1.7348906587533843,-0.3499777553961705,-0.7140359721529886,0.0
1759182026.7349653,0,-1.2049999237060547,-0.8299995064735413,-0.7177036404755928,0.0,-1.734911866571566,-0.34998203355895496,-0.7147471441104347,0.0
1759182026.7506206,0,-1.2049999237060547,-0.8299995064735413,-0.7177036404765182,0.0,-1.734928685465894,-0.3499854263628339,-0.7153111401754257,0.0
1759182026.7619536,0,-1.2049999237060547,-0.8299995064735413,-0.7177036404757899,0.0,-1.734942133582866,-0.3499881391941614,-0.7157621023436651,0.0
1759182026.7726126,0,-1.2049999237060547,-0.8299995064735413,-0.7177036404748662,0.0,-1.7349529228439045,-0.3499903156658121,-0.7161239038183079,0.0
1759182026.783837,0,-1.2049999237060547,-0.8299995064735413,-0.7177036404742374,0.0,-1.7349615952161064,-0.349992065106499,-0.7164147186424268,0.0
1759182026.795315,0,-1.2049999237060547,-0.8299995064735413,-0.7177036404737525,0.0,-1.734968582288185,-0.3499934745787739,-0.716649019487729,0.0
1759182026.8061125,0,-1.2049999237060547,-0.8299995064735413,-0.7177036404731325,0.0,-1.7349742307817826,-0.34999461402531623,-0.7168384331376371,0.0
1759182026.8172565,0,-1.2049999237060547,-0.8299995064735413,-0.7177036404726636,0.0,-1.7349788067463812,-0.3499955371151542,-0.7169918811572737,0.0
1759182026.827696,0,-1.2049999237060547,-0.8299995064735413,-0.7177036404720738,0.0,-1.7349825263058332,-0.3499962874460315,-0.7171166109316266,0.0
1759182026.8383417,0,-1.2049999237060547,-0.8299995064735413,-0.7177036404716048,0.0,-1.7349855562636174,-0.3499968986665031,-0.7172182159618976,0.0
1759182026.8489575,0,-1.2049999237060547,-0.8299995064735413,-0.7177036404711856,0.0,-1.7349880305563536,-0.3499973977950325,-0.7173011876091224,0.0
1759182026.8604224,0,-1.2049999237060547,-0.8299995064735413,-0.7177036404709796,0.0,-1.7349900539299594,-0.3499978059615673,-0.7173690383684694,0.0
1759182026.871099,0,-1.2049999237060547,-0.8299995064735413,-0.7177036404705959,0.0,-1.7349920277451514,-0.34999820413089455,-0.7174352272617175,0.0
1759182026.8822446,0,-1.2049999237060547,-0.8299995064735413,-0.7177036404703205,0.0,-1.7349935926128106,-0.3499985198049787,-0.7174877027208522,0.0
1759182026.8933537,0,-1.2049999237060547,-0.8299995064735413,-0.7177036404700381,0.0,-1.7349948365961418,-0.3499987707484349,-0.7175294178116349,0.0
1759182026.9049706,0,-1.2049999237060547,-0.8299995064735413,-0.7177036404698498,0.0,-1.7349958275704012,-0.3499989706534492,-0.7175626486276365,0.0
1759182026.9155293,0,-1.2049999237060547,-0.8299995064735413,-0.7177036404694466,0.0,-1.7349966200384814,-0.3499991305146579,-0.7175892228405509,0.0
1759182026.9267886,0,-1.2049999237060547,-0.8299995064735413,-0.717703640469198,0.0,-1.7349972548642232,-0.34999925857534947,-0.7176105107571792,0.0
1759182026.9373827,0,-1.2049999237060547,-0.8299995064735413,-0.7177036404688444,0.0,-1.7349977651124695,-0.34999936150555383,-0.717627621156803,0.0
1759182026.9803975,0,-1.2049999237060547,-0.8299995064735413,-0.7177036404731876,0.0,-1.7349981616610084,-0.3499994414996007,-0.7176409188095011,0.0
1759182026.9919033,0,-1.2049999237060547,-0.8299995064735413,-0.7177036404715,0.0,-1.7349984840319947,-0.349999506530126,-0.7176517290306876,0.0
1759182027.002015,0,-1.2049999237060547,-0.8299995064735413,-0.7177036404698036,0.0,-1.734998747213765,-0.349999559620663,-0.7176605544314468,0.0
1759182027.0126195,0,-1.2049999237060547,-0.8299995064735413,-0.7177036404686454,0.0,-1.7349989624452617,-0.3499996030383956,-0.7176677718926476,0.0
1759182027.0234795,0,-1.2049999237060547,-0.8299995064735413,-0.7177036404678461,0.0,-1.7349991712835442,-0.3499996451664524,-0.7176747749671223,0.0
1759182027.0347357,0,-1.2049999237060547,-0.8299995064735413,-0.7177036404672954,0.0,-1.7349993367608247,-0.349999678547479,-0.7176803239962812,0.0
1759182027.0450656,0,-1.2049999237060547,-0.8299995064735413,-0.7177036404667662,0.0,-1.7349994683566554,-0.34999970509374506,-0.717684736862502,0.0
1759182027.0557556,0,-1.2049999237060547,-0.8299995064735413,-0.7177036404663896,0.0,-1.7349995732260914,-0.34999972624860953,-0.7176882534996926,0.0
1759182027.0670197,0,-1.2049999237060547,-0.8299995064735413,-0.7177036404661442,0.0,-1.7349996569578336,-0.3499997431394571,-0.7176910613164352,0.0
1759182027.0782392,0,-1.2049999237060547,-0.8299995064735413,-0.7177036404659329,0.0,-1.7349997239926027,-0.3499997566620954,-0.7176933092255555,0.0
1759182027.0897012,0,-1.2049999237060547,-0.8299995064735413,-0.7177036404657624,0.0,-1.73499977778681,-0.34999976751377154,-0.7176951131325557,0.0
1759182027.1002135,0,-1.2049999237060547,-0.8299995064735413,-0.7177036404655137,0.0,-1.734999821115808,-0.3499997762543456,-0.7176965661046605,0.0
1759182027.110602,0,-1.2049999237060547,-0.8299995064735413,-0.7177036404652863,0.0,-1.7349998561057605,-0.34999978331271964,-0.7176977394395531,0.0
1759182027.121146,0,-1.2049999237060547,-0.8299995064735413,-0.7177036404651069,0.0,-1.7349998844248096,-0.34999978902540074,-0.7176986890758379,0.0
1759182027.1314943,0,-1.2049999237060547,-0.8299995064735413,-0.7177036404649311,0.0,-1.7349999074056959,-0.349999793661237,-0.7176994597049475,0.0
1759182027.1461027,0,-1.2049999237060547,-0.8299995064735413,-0.7177036404651247,0.0,-1.7349999260080426,-0.34999979741380915,-0.7177000835063795,0.0
1759182027.1528046,0,-1.2049999237060547,-0.8299995064735413,-0.7177036404646042,0.0,-1.734999941254907,-0.34999980048949414,-0.7177005947868097,0.0
1759182027.1631076,0,-1.2049999237060547,-0.8299995064735413,-0.7177036404644568,0.0,-1.7349999537184628,-0.34999980300371414,-0.7177010127332089,0.0
1759182027.1744869,0,-1.2049999237060547,-0.8299995064735413,-0.7177036404644284,0.0,-1.7349999656979072,-0.34999980542027637,-0.7177014144456725,0.0
1759182027.1845572,0,-1.2049999237060547,-0.8299995064735413,-0.717703640464288,0.0,-1.7349999752108278,-0.3499998073392773,-0.7177017334470172,0.0
1759182027.196096,0,-1.2049999237060547,-0.8299995064735413,-0.7177036404642614,0.0,-1.7349999827717544,-0.3499998088645108,-0.7177019869911974,0.0
1759182027.2072911,0,-1.2049999237060547,-0.8299995064735413,-0.7177036404641939,0.0,-1.7349999887997756,-0.3499998100805179,-0.717702189131731,0.0
1759182027.217977,0,-1.2049999237060547,-0.8299995064735413,-0.7177036404640802,0.0,-1.7349999936209508,-0.349999811053073,-0.7177023508025159,0.0
1759182027.229225,0,-1.2049999237060547,-0.8299995064735413,-0.7177036404640055,0.0,-1.7349999974842674,-0.3499998118324034,-0.717702480352968,0.0
1759182027.2405362,0,-1.2049999237060547,-0.8299995064735413,-0.717703640463931,0.0,-1.735000000587954,-0.3499998124584969,-0.7177025844303815,0.0
1759182027.2510886,0,-1.2049999237060547,-0.8299995064735413,-0.7177036404638031,0.0,-1.7350000030900163,-0.34999981296322724,-0.7177026683332376,0.0
1759182027.2620106,0,-1.2049999237060547,-0.8299995064735413,-0.7177036404637089,0.0,-1.7350000051111947,-0.349999813370951,-0.7177027361103852,0.0
1759182027.2725713,0,-1.2049999237060547,-0.8299995064735413,-0.7177036404636006,0.0,-1.7350000067486988,-0.34999981370127764,-0.7177027910215905,0.0
1759182027.2841895,0,-1.2049999237060547,-0.8299995064735413,-0.7177036404635544,0.0,-1.735000008076993,-0.34999981396922875,-0.7177028355639204,0.0
1759182027.295491,0,-1.2049999237060547,-0.8299995064735413,-0.7177036404634869,0.0,-1.7350000093187414,-0.3499998142197214,-0.7177028772040686,0.0
1759182027.3061357,0,-1.2049999237060547,-0.8299995064735413,-0.7177036404633804,0.0,-1.7350000103022973,-0.3499998144181299,-0.7177029101861203,0.0
1759182027.3161626,0,-1.2049999237060547,-0.8299995064735413,-0.7177036404632489,0.0,-1.7350000110838208,-0.3499998145757833,-0.7177029363933239,0.0
1759182027.32745,0,-1.2049999237060547,-0.8299995064735413,-0.7177036404631991,0.0,-1.7350000117054851,-0.34999981470118896,-0.7177029572398883,0.0
1759182027.3387933,0,-1.2049999237060547,-0.8299995064735413,-0.7177036404631494,0.0,-1.7350000122012792,-0.3499998148012034,-0.7177029738655918,0.0
1759182027.3517246,0,-1.2049999237060547,-0.8299995064735413,-0.71770364046316,0.0,-1.7350000125970757,-0.34999981488104576,-0.7177029871380288,0.0
1759182027.3633368,0,-1.2049999237060547,-0.8299995064735413,-0.7177036404630925,0.0,-1.7350000129144438,-0.3499998149450671,-0.7177029977804886,0.0
1759182027.3746262,0,-1.2049999237060547,-0.8299995064735413,-0.7177036404630037,0.0,-1.7350000131697025,-0.3499998149965593,-0.7177030063401952,0.0
1759182027.3860261,0,-1.2049999237060547,-0.8299995064735413,-0.7177036404629256,0.0,-1.7350000133755195,-0.34999981503807787,-0.7177030132419527,0.0
1759182027.3968704,0,-1.2049999237060547,-0.8299995064735413,-0.7177036404628314,0.0,-1.7350000135420118,-0.3499998150716636,-0.7177030188250157,0.0
1759182027.4072218,0,-1.2049999237060547,-0.8299995064735413,-0.7177036404627302,0.0,-1.735000013677105,-0.3499998150989154,-0.7177030233551646,0.0
1759182027.4175584,0,-1.2049999237060547,-0.8299995064735413,-0.7177036404626413,0.0,-1.7350000137869843,-0.3499998151210809,-0.7177030270397976,0.0
1759182027.4280224,0,-1.2049999237060547,-0.8299995064735413,-0.7177036404625703,0.0,-1.7350000138765542,-0.34999981513914946,-0.7177030300433902,0.0
1759182027.4382744,0,-1.2049999237060547,-0.8299995064735413,-0.7177036404625027,0.0,-1.7350000139611201,-0.3499998151562086,-0.7177030328791754,0.0
1759182027.4485195,0,-1.2049999237060547,-0.8299995064735413,-0.7177036404624406,0.0,-1.735000014028294,-0.3499998151697593,-0.7177030351317526,0.0
1759182027.4588957,0,-1.2049999237060547,-0.8299995064735413,-0.7177036404623891,0.0,-1.735000014081776,-0.349999815180548,-0.7177030369251914,0.0
1759182027.4697978,0,-1.2049999237060547,-0.8299995064735413,-0.7177036404623571,0.0,-1.7350000141244384,-0.34999981518915413,-0.7177030383558064,0.0
1759182027.4799619,0,-1.2049999237060547,-0.8299995064735413,-0.717703640462302,0.0,-1.735000014158584,-0.3499998151960422,-0.7177030395008284,0.0
1759182027.4913068,0,-1.2049999237060547,-0.8299995064735413,-0.7177036404622843,0.0,-1.735000014185944,-0.3499998152015614,-0.7177030404183062,0.0
1759182027.5024652,0,-1.2049999237060547,-0.8299995064735413,-0.7177036404622577,0.0,-1.7350000142079296,-0.34999981520599643,-0.7177030411555556,0.0
1759182027.5129764,0,-1.2049999237060547,-0.8299995064735413,-0.7177036404622044,0.0,-1.7350000142256545,-0.3499998152095721,-0.7177030417499409,0.0
1759182027.523469,0,-1.2049999237060547,-0.8299995064735413,-0.7177036404621582,0.0,-1.7350000142399802,-0.34999981521246193,-0.7177030422303279,0.0
1759182027.5521777,0,-1.2049999237060547,-0.8299995064735413,-0.7177036404625383,0.0,-1.735000014251349,-0.3499998152147553,-0.7177030426115666,0.0
1759182027.5622475,0,-1.2049999237060547,-0.8299995064735413,-0.7177036404623607,0.0,-1.7349910564088544,-0.3500076355318389,-0.7177030429723973,0.007189119243621827
1759182027.5733967,0,-1.2049999237060547,-0.8299995064735413,-0.7177036404622186,0.0,-1.7349743429370856,-0.3500907189359135,-0.7177030432585005,0.012956103352410493
1759182027.583903,0,-1.2049999237060547,-0.8299995064735413,-0.7177036404620996,0.0,-1.7349530301416571,-0.3502194833279684,-0.7177030434861108,0.01760762495497751
1759182027.5944095,0,-1.2049999237060547,-0.8299995064735413,-0.7177036404620072,0.0,-1.7349292738216842,-0.35037371767865094,-0.7177030436676467,0.021381814693682784
1759182027.6048832,0,-1.2049999237060547,-0.8299995064735413,-0.7177036404619344,0.0,-1.7349045164333987,-0.35053983919933623,-0.7177030438128078,0.02446450887483275
1759182027.6150622,0,-1.2049999237060547,-0.8299995064735413,-0.7177036404618704,0.0,-1.7348797091637334,-0.35070889613063333,-0.7177030439292128,0.027000131317828496
1759182027.6266036,0,-1.2049999237060547,-0.8299995064735413,-0.7177036404618455,0.0,-1.734855364192636,-0.35087544552957134,-0.7177030440226573,0.029108485202227204
1759182027.636864,0,-1.2049999237060547,-0.8299995064735413,-0.7177036404617958,0.0,-1.7348318888042684,-0.35103593467759475,-0.7177030440979809,0.03087354900522829
1759182027.646872,0,-1.2049999237060547,-0.8299995064735413,-0.7177036404617496,0.0,-1.734809475363405,-0.3511884371026123,-0.717703044158867,0.03236492884859956
1759182027.656946,0,-1.2049999237060547,-0.8299995064735413,-0.7177036404617142,0.0,-1.7347881815128532,-0.35133213443013805,-0.7177030442082015,0.033639098275934115
1759182027.6682463,0,-1.2049999237060547,-0.8299995064735413,-0.7177036404616999,0.0,-1.734767891253759,-0.35146726294029995,-0.7177030442482268,0.03474734300178061
1759182027.6795516,0,-1.2049999237060547,-0.8299995064735413,-0.7177036404616857,0.0,-1.7347485375204332,-0.35159421126475565,-0.7177030442807921,0.035724442703801415
1759182027.6909976,0,-1.2049999237060547,-0.8299995064735413,-0.7177036404616715,0.0,-1.734734671765302,-0.3516869217292639,-0.717703044308169,0.036182667943533316
1759182027.7013166,0,-1.2049999237060547,-0.8299995064735413,-0.7177036404616395,0.0,-1.7347219311974171,-0.35177004906498827,-0.7177030443299023,0.036612396831325375
1759182027.711359,0,-1.2049999237060547,-0.8299995064735413,-0.7177036404616057,0.0,-1.7347100927060948,-0.35184543334240853,-0.7177030443472047,0.03701935577717532
1759182027.7218163,0,-1.2049999237060547,-0.8299995064735413,-0.7177036404615809,0.0,-1.7346989065386806,-0.3519148328273357,-0.7177030443610085,0.03741221756257148
1759182027.7332194,0,-1.2049999237060547,-0.8299995064735413,-0.7177036404615721,0.0,-1.734688104267507,-0.35197996039057416,-0.7177030443720405,0.03780130310565719
1759182027.7434628,0,-1.2049999237060547,-0.8299995064735413,-0.7177036404615471,0.0,-1.734677682625226,-0.35204139656905015,-0.7177030443808927,0.03818173622998235
1759182027.7664485,0,-1.2049999237060547,-0.8299995064735413,-0.717703640461675,0.0,-1.7346660876732136,-0.3521057528958141,-0.7177030443879294,0.03863873067780762
1759182027.7777793,0,-1.2049999237060547,-0.8299995064735413,-0.7177036404616217,0.0,-1.734654645642081,-0.3521685145377384,-0.717703044393618,0.03908604266579935
1759182027.7878878,0,-1.2049999237060547,-0.8299995064735413,-0.7177036404615578,0.0,-1.7346434206648318,-0.3522295834144473,-0.7177030443982357,0.039519383129507694
1759182027.7984412,0,-1.2049999237060547,-0.8299995064735413,-0.717703640461508,0.0,-1.7346322809994053,-0.3522895911801659,-0.7177030444019937,0.03994601237146479
1759182027.8101013,0,-1.2049999237060547,-0.8299995064735413,-0.7177036404614832,0.0,-1.7346338738216625,-0.3522980115005759,-0.717703044406337,0.03961752271530047
1759182027.8211966,0,-1.2049999237060547,-0.8299995064735413,-0.7177036404614583,0.0,-1.7346342106550785,-0.35230684600003437,-0.7177030444098018,0.03942869617643036
1759182027.8322058,0,-1.2049999237060547,-0.8299995064735413,-0.7177036404614335,0.0,-1.7346333742083806,-0.35231749451824945,-0.7177030444125776,0.03935045622496444
1759182027.843204,0,-1.2049999237060547,-0.8299995064735413,-0.7177036404614103,0.0,-1.7346314465957133,-0.35233082357740936,-0.7177030444148116,0.03936072668704581
1759182027.854556,0,-1.2049999237060547,-0.8299995064735413,-0.7177036404613961,0.0,-1.7346284665593725,-0.3523475014141776,-0.7177030444166186,0.03944477348482186
1759182027.864668,0,-1.2049999237060547,-0.8299995064735413,-0.7177036404613695,0.0,-1.7346246726932333,-0.3523671194265997,-0.717703044418088,0.039580557828991565
1759182027.8747487,0,-1.2049999237060547,-0.8299995064735413,-0.7177036404613482,0.0,-1.7346201315550465,-0.35238974392270567,-0.7177030444192896,0.03975863311336025
1759182027.8854077,0,-1.2049999237060547,-0.8299995064735413,-0.717703640461334,0.0,-1.7346148266014103,-0.3524156649229541,-0.7177030444202788,0.03997570598005905
1759182027.896407,0,-1.2049999237060547,-0.8299995064735413,-0.7177036404613267,0.0,-1.7346087707127127,-0.3524449881351154,-0.7177030444210998,0.04022779377588806
1759182027.907968,0,-1.2049999237060547,-0.8299995064735413,-0.7177036404613197,0.0,-1.7346019431362503,-0.35247790479173935,-0.7177030444217875,0.04051344445226599
1759182027.9195027,0,-1.2049999237060547,-0.8299995064735413,-0.7177036404613126,0.0,-1.7345943966548767,-0.35251427403759533,-0.7177030444223692,0.040827727850405886
1759182027.929786,0,-1.2049999237060547,-0.8299995064735413,-0.7177036404612966,0.0,-1.7346020726145905,-0.35248895455495177,-0.7177030444224707,0.040318440190106296
1759182027.9406476,0,-1.2049999237060547,-0.8299995064735413,-0.7177036404612842,0.0,-1.7346074696157003,-0.3524691214012134,-0.7177030444225693,0.03998481335644928
1759182027.951208,0,-1.2049999237060547,-0.8299995064735413,-0.71770364046127,0.0,-1.7346108820827901,-0.35245530310675677,-0.7177030444226654,0.03978847682314328
1759182027.9698658,0,-1.2049999237060547,-0.8299995064735413,-0.7177036404613091,0.0,-1.7346114948461857,-0.3524520590059099,-0.7177030444227733,0.039756361151823814
1759182027.9809597,0,-1.2049999237060547,-0.8299995064735413,-0.717703640461286,0.0,-1.7346106088694764,-0.3524550218869629,-0.717703044422879,0.03980526166871813
1759182027.9913397,0,-1.2049999237060547,-0.8299995064735413,-0.7177036404612611,0.0,-1.734608484432712,-0.3524635108577279,-0.7177030444229822,0.039915134270912714
1759182028.0027318,0,-1.2049999237060547,-0.8299995064735413,-0.7177036404612469,0.0,-1.7346051264725726,-0.35247772259238813,-0.7177030444230854,0.040081819280034174
1759182028.0133607,0,-1.2049999237060547,-0.8299995064735413,-0.7177036404612309,0.0,-1.734600763012138,-0.35249685993092583,-0.7177030444231879,0.040290294472293604
1759182028.0248737,0,-1.2049999237060547,-0.8299995064735413,-0.7177036404612203,0.0,-1.734595377857316,-0.3525210356387766,-0.7177030444232916,0.04053982209538499
1759182028.0352755,0,-1.2049999237060547,-0.8299995064735413,-0.717703640461206,0.0,-1.7345892118153399,-0.35254928455842743,-0.7177030444233949,0.040816410630723964
1759182028.046255,0,-1.2049999237060547,-0.8299995064735413,-0.7177036404611954,0.0,-1.7345985033024467,-0.3525145353981363,-0.7177030444232853,0.040279820332259554
1759182028.0570474,0,-1.2049999237060547,-0.8299995064735413,-0.7177036404611883,0.0,-1.7346050488275713,-0.35248765626728434,-0.717703044422867,0.03992723682825037
1759182028.0681322,0,-1.2049999237060547,-0.8299995064735413,-0.7177036404611812,0.0,-1.7346093292339588,-0.35246832065790834,-0.7177030444225498,0.03971940597361345
1759182028.079471,0,-1.2049999237060547,-0.8299995064735413,-0.7177036404611742,0.0,-1.7346115922515453,-0.3524566326161884,-0.7177030444223127,0.03962857178772482
1759182028.0902355,0,-1.2049999237060547,-0.8299995064735413,-0.717703640461167,0.0,-1.734612161136916,-0.3524519893007355,-0.7177030444221381,0.03962764278075693
1759182028.1010964,0,-1.2049999237060547,-0.8299995064735413,-0.7177036404611599,0.0,-1.734611230128044,-0.3524540279233552,-0.7177030444220133,0.03969993625564025
1759182028.1112401,0,-1.2049999237060547,-0.8299995064735413,-0.7177036404611492,0.0,-1.734609069987847,-0.35246188778690474,-0.7177030444219272,0.0398269775230161
1759182028.121247,0,-1.2049999237060547,-0.8299995064735413,-0.7177036404611385,0.0,-1.7346058410186815,-0.3524750221134509,-0.7177030444218719,0.039998041021143856
1759182028.1325884,0,-1.2049999237060547,-0.8299995064735413,-0.7177036404611369,0.0,-1.734601488765917,-0.3524936987397325,-0.7177030444218436,0.04021468003788182
1759182028.1428218,0,-1.2049999237060547,-0.8299995064735413,-0.7177036404611279,0.0,-1.7345962737085656,-0.35251687535634085,-0.7177030444218354,0.04046189253621917
1759182028.152949,0,-1.2049999237060547,-0.8299995064735413,-0.7177036404611208,0.0,-1.7345902940166376,-0.3525441055064496,-0.7177030444218435,0.04073439132620953
1759182028.1667876,0,-1.2049999237060547,-0.8299995064735413,-0.7177036404611279,0.0,-1.7345831196740176,-0.3525771079511973,-0.7177030444218705,0.04105450845877572
1759182028.1781876,0,-1.2049999237060547,-0.8299995064735413,-0.7177036404611243,0.0,-1.734592170361805,-0.35254413979813454,-0.7177030444214106,0.04052379759520071
1759182028.189588,0,-1.2049999237060547,-0.8299995064735413,-0.7177036404611172,0.0,-1.734598608502817,-0.3525183469590464,-0.7177030444210575,0.040176843474932826
1759182028.20114,0,-1.2049999237060547,-0.8299995064735413,-0.7177036404611137,0.0,-1.7346027295451059,-0.3525002271199299,-0.7177030444207885,0.03997672928623973
1759182028.2113733,0,-1.2049999237060547,-0.8299995064735413,-0.7177036404611066,0.0,-1.7346049883994066,-0.3524890417283785,-0.7177030444205843,0.03988484296787875
1759182028.222898,0,-1.2049999237060547,-0.8299995064735413,-0.7177036404611012,0.0,-1.734605442385397,-0.3524852615882494,-0.7177030444204332,0.03988863547708243
1759182028.233285,0,-1.2049999237060547,-0.8299995064735413,-0.7177036404610924,0.0,-1.7346044552929365,-0.3524878627784076,-0.717703044420323,0.039962111149140944
1759182028.244306,0,-1.2049999237060547,-0.8299995064735413,-0.7177036404610888,0.0,-1.7346021136050136,-0.35249674450075347,-0.7177030444202462,0.04009671425728711
1759182028.2543714,0,-1.2049999237060547,-0.8299995064735413,-0.7177036404610817,0.0,-1.7345986949755383,-0.3525109131391067,-0.7177030444201952,0.04027509526219518
1759182028.2650163,0,-1.2049999237060547,-0.8299995064735413,-0.7177036404610782,0.0,-1.734594240445241,-0.3525302426123277,-0.7177030444201654,0.04049385978832526
1759182028.2763796,0,-1.2049999237060547,-0.8299995064735413,-0.7177036404610764,0.0,-1.7345887596131035,-0.35255471008725064,-0.7177030444201539,0.04075151762685674
1759182028.287592,0,-1.2049999237060547,-0.8299995064735413,-0.7177036404610746,0.0,-1.7345823678527348,-0.3525838426464361,-0.717703044420157,0.041041168552310804
1759182028.2991183,0,-1.2049999237060547,-0.8299995064735413,-0.717703640461071,0.0,-1.7345923085177033,-0.3525463310849191,-0.7177030444197707,0.040472518650410745
1759182028.309903,0,-1.2049999237060547,-0.8299995064735413,-0.7177036404610675,0.0,-1.7345995763311486,-0.3525162028711179,-0.7177030444194727,0.04009147996639734
1759182028.3212411,0,-1.2049999237060547,-0.8299995064735413,-0.7177036404610639,0.0,-1.7346044283046487,-0.3524941525792364,-0.7177030444192448,0.03986281736383046
1759182028.3321006,0,-1.2049999237060547,-0.8299995064735413,-0.7177036404610604,0.0,-1.734607229988331,-0.35247985031406415,-0.7177030444190716,0.0397522317652487
1759182028.3425794,0,-1.2049999237060547,-0.8299995064735413,-0.7177036404610568,0.0,-1.7346082867761703,-0.35247277986522896,-0.7177030444189412,0.039733677886460546
1759182028.3541434,0,-1.2049999237060547,-0.8299995064735413,-0.7177036404610568,0.0,-1.7346076741216594,-0.3524730896498575,-0.7177030444188458,0.039796677423274286
1759182028.3863723,0,-1.2049999237060547,-0.8299995064735413,-0.7177036404610888,0.0,-1.7346029187990941,-0.352491393003052,-0.7177030444187962,0.040065669074607194
1759182028.3975642,0,-1.2049999237060547,-0.8299995064735413,-0.7177036404610746,0.0,-1.734597175840867,-0.3525153507779888,-0.7177030444187652,0.04036203199318381
1759182028.4082675,0,-1.2049999237060547,-0.8299995064735413,-0.7177036404610604,0.0,-1.7345906141314245,-0.35254407887611466,-0.7177030444187489,0.0406787617966149
1759182028.418336,0,-1.2049999237060547,-0.8299995064735413,-0.7177036404610497,0.0,-1.7345833977115483,-0.35257672102434273,-0.717703044418744,0.04100915552629066
1759182028.4298062,0,-1.2049999237060547,-0.8299995064735413,-0.7177036404610426,0.0,-1.7345924550223732,-0.3525433782575446,-0.71770304441844,0.04048737386262552
1759182028.4411068,0,-1.2049999237060547,-0.8299995064735413,-0.7177036404610391,0.0,-1.7345989014665903,-0.3525173221583041,-0.7177030444182051,0.04014680198038235
1759182028.4520156,0,-1.2049999237060547,-0.8299995064735413,-0.7177036404610355,0.0,-1.7346031064556187,-0.352498703521936,-0.7177030444180242,0.03994736246092898
1759182028.4634595,0,-1.2049999237060547,-0.8299995064735413,-0.717703640461032,0.0,-1.734605274573272,-0.3524877811557431,-0.7177030444178862,0.039864205329812614
1759182028.4735405,0,-1.2049999237060547,-0.8299995064735413,-0.7177036404610266,0.0,-1.7346058321474545,-0.35248352025282625,-0.7177030444177815,0.03986522327291132
1759182028.4843974,0,-1.2049999237060547,-0.8299995064735413,-0.7177036404610231,0.0,-1.7346048729754735,-0.35248595292826135,-0.7177030444177037,0.039939582705287434
1759182028.4956806,0,-1.2049999237060547,-0.8299995064735413,-0.7177036404610213,0.0,-1.7346025200686856,-0.3524948443275559,-0.7177030444176475,0.04007662687643662
1759182028.5065918,0,-1.2049999237060547,-0.8299995064735413,-0.7177036404610178,0.0,-1.7345989793819665,-0.3525095027436181,-0.7177030444176087,0.0402627180946107
1759182028.5171492,0,-1.2049999237060547,-0.8299995064735413,-0.717703640461016,0.0,-1.734594425685368,-0.35252926675257346,-0.7177030444175834,0.040487183450105456
1759182028.528067,0,-1.2049999237060547,-0.8299995064735413,-0.7177036404610142,0.0,-1.7345889143790045,-0.3525539065168816,-0.7177030444175694,0.040746452093661206
1759182028.5387242,0,-1.2049999237060547,-0.8299995064735413,-0.7177036404610142,0.0,-1.7345825701543405,-0.3525828879093995,-0.7177030444175643,0.04103356384819631
1759182028.550028,0,-1.2049999237060547,-0.8299995064735413,-0.717401526913715,0.005235987755982988,-1.7345927501656475,-0.3525444925334753,-0.7177030444174894,0.040455987053588445
1759182028.5735335,0,-1.2049871715892737,-0.8300119143246847,-0.717399776075286,0.005367427312060631,-1.7345983893539134,-0.35252105061200595,-0.7177030444172844,0.04015908588613621
1759182028.5849655,0,-1.2049828985774556,-0.8300156534388596,-0.7173973538599676,0.005367427312060631,-1.7346018240453618,-0.35250527235384327,-0.7177030444171255,0.03999808066854301
1759182028.5964863,0,-1.2049812630675707,-0.8300170845888694,-0.7174048428246896,0.005367427312060631,-1.734603309966687,-0.35249709197670354,-0.7177030444170032,0.03994638621010608
1759182028.6066062,0,-1.2049806913426144,-0.8300175849827659,-0.7173958733525998,0.005367427312060631,-1.7346032643608393,-0.35249541790445144,-0.7177030444169091,0.03997322424870503
1759182028.6172817,0,-1.2049804519525187,-0.830017794457729,-0.7173973852522658,0.005367427312060631,-1.7346017963291913,-0.352500152411502,-0.7177030444168379,0.04006755124676807
1759182028.6277947,0,-1.2049803666539731,-0.8300178691089024,-0.7173636280182806,0.005367427312060631,-1.734599091062128,-0.35251075005225463,-0.7177030444167847,0.04021597267488627
1759182028.6392627,0,-1.204980297958681,-0.830017929150462,-0.7173537989329244,0.005367427312060631,-1.7345951602906295,-0.3525272740513085,-0.7177030444167465,0.04041559024587083
1759182028.6498842,0,-1.204980303730275,-0.8300179241383856,-0.7173782518022729,0.005367427312060631,-1.734590243629481,-0.3525488023615204,-0.7177030444167201,0.04065208356637105
1759182028.6599553,0,-1.2049803267553973,-0.830017904047294,-0.717377774652571,0.005367427312060631,-1.734584512117754,-0.3525746168263114,-0.7177030444167027,0.0409159486452067
1759182028.670931,0,-1.2049803013298404,-0.830017926247518,-0.717369969537923,0.005367427312060631,-1.7345779180376337,-0.35260486272661956,-0.7177030444166933,0.04120965657698784
1759182028.682069,0,-1.2025158455555933,-0.8283265516744776,-0.7158493621387744,0.005984161084124677,-1.7345877441846753,-0.3525682379071953,-0.7177030444165163,0.04064819718334066
1759182028.6925616,0,-1.2025158620776393,-0.8283265372510089,-0.7158532045760497,0.005984161084124677,-1.7345949542438333,-0.35253873488416027,-0.7177030444163787,0.04027060218782525
1759182028.7041576,0,-1.2025158308297959,-0.8283265645300919,-0.7158795052323071,0.005984161084124677,-1.734599718942852,-0.3525173833865782,-0.7177030444162723,0.040046449172342166
1759182028.7152097,0,-1.2025158374056881,-0.8283265587893589,-0.7158534696908454,0.005984161084124677,-1.7346024133940015,-0.35250382372562955,-0.7177030444161904,0.03994093969379301
1759182028.7266595,0,-1.2025158263807338,-0.8283265684140002,-0.7158716129130507,0.005984161084124677,-1.7346032410039671,-0.3524979723353515,-0.7177030444161279,0.039933342573152716
1759182028.7380066,0,-1.2025158256673774,-0.8283265690367491,-0.7158443562707726,0.005984161084124677,-1.73460244213861,-0.35249932139491535,-0.7177030444160809,0.04000419044170681
1759182028.749286,0,-1.2025158276997103,-0.8283265672625394,-0.7158766000441606,0.005984161084124677,-1.734600218140774,-0.3525073234570111,-0.7177030444160463,0.04013851383642343
1759182028.764889,0,-1.1977690796300346,-0.8329368138549585,-0.7119656871048681,0.056103791233906665,-1.7345961632476474,-0.3525238210778551,-0.7177030444160227,0.04035458345935688
1759182028.7696748,0,-1.196154792579101,-0.8343195953980597,-0.7092056878496215,0.056103791233906665,-1.7345918971370229,-0.35254228938581805,-0.7177030444160049,0.04056433842147047
1759182028.7810585,0,-1.1954407581954933,-0.8349294451468101,-0.7070044881875351,0.056103791233906665,-1.7345865739214428,-0.35256599574703795,-0.7177030444159936,0.040814936877239576
1759182028.791524,0,-1.1951803112914439,-0.8351501176594414,-0.705446042197197,0.056103791233906665,-1.7345961438987716,-0.3525289787412815,-0.7177030444159532,0.04028340918618226
1759182028.8029163,0,-1.195354076475978,-0.8357226511698553,-0.7042614422286001,0.057651296070043746,-1.7346030302162379,-0.35249984578464316,-0.7177030444158353,0.03993495020675197
1759182028.8133473,0,-1.1953240686444753,-0.8357466476398782,-0.7034439459111166,0.057651296070043746,-1.73460766079826,-0.3524784115669425,-0.7177030444157434,0.03972596131021844
1759182028.8243082,0,-1.1953044263845536,-0.8357620851309455,-0.7028611082203428,0.057651296070043746,-1.734610252318451,-0.3524648402830977,-0.7177030444156721,0.039631656978585235
1759182028.8344562,0,-1.1953085428584296,-0.8357576857112083,-0.7024475596086877,0.057651296070043746,-1.734611167237919,-0.352458327040359,-0.7177030444156169,0.039623793905726123
1759182028.845487,0,-1.1952969557467623,-0.8357667937788199,-0.7021263588072744,0.057651296070043746,-1.734610501754516,-0.3524588837658625,-0.7177030444155746,0.03969161111996738
1759182028.8567975,0,-1.1952882745856144,-0.8357736177564351,-0.7019111249393364,0.057651296070043746,-1.734608412084988,-0.3524661278708912,-0.7177030444155427,0.039822852965720086
1759182028.867563,0,-1.1952928470060271,-0.8357693980727778,-0.7017602411268486,0.057651296070043746,-1.7346051349575629,-0.35247922342929117,-0.7177030444155189,0.04000246817090143
1759182028.878804,0,-1.1952875452199216,-0.8357736196703208,-0.7016540880730687,0.057651296070043746,-1.7346007415703808,-0.3524979191699771,-0.7177030444155018,0.040225451011038346
1759182028.8890188,0,-1.1953005400065506,-0.835762496679309,-0.7016071575231553,0.057651296070043746,-1.7345954831955648,-0.3525211827439415,-0.7177030444154898,0.04047779376731035
1759182028.9003627,0,-1.1952889029630902,-0.8357722057899497,-0.7015613167141488,0.057651296070043746,-1.734589295553295,-0.35254922238800057,-0.7177030444154822,0.040762972945196714
1759182028.9111185,0,-1.195518410654703,-0.8361747049347933,-0.7014918291505424,0.058905963997014234,-1.7345980604338544,-0.3525163791660323,-0.7177030444153917,0.04026102849790404
1759182028.9214938,0,-1.1955255884131104,-0.8361686236040939,-0.7015057407232143,0.058905963997014234,-1.7346043740344348,-0.3524903947489436,-0.7177030444153211,0.0399299451906699
1759182028.9324567,0,-1.1955197061109195,-0.8361735762525986,-0.7014891116341805,0.058905963997014234,-1.7346084587554456,-0.352471932070575,-0.717703044415266,0.039738376349829664
1759182028.9435492,0,-1.1955155638594168,-0.836177072082179,-0.7014982628271208,0.058905963997014234,-1.7346105747499185,-0.3524609863233064,-0.7177030444152234,0.03965891473389609
1759182028.9546413,0,-1.1955139929679526,-0.836178408701902,-0.7015002592215621,0.058905963997014234,-1.7346109658796038,-0.3524572444908976,-0.7177030444151905,0.039669401894611635
1759182028.9905643,0,-1.185837087939634,-0.8442652611252034,-0.6880106715761243,0.0875009651711496,-1.7346066507409839,-0.3524735729106607,-0.7177030444151687,0.03991979710041039
1759182029.0014427,0,-1.1827361783535963,-0.8467244481963077,-0.6790795926984216,0.0875009651711496,-1.7346013535097695,-0.35249548208248266,-0.7177030444151524,0.04019819982146269
1759182029.0127587,0,-1.181534449474238,-0.8476664338872321,-0.6725425283212892,0.0875009651711496,-1.7345951239467603,-0.35252259484995146,-0.7177030444151403,0.04050369361331423
1759182029.0228183,0,-1.1811004223993737,-0.8479988662090636,-0.668109688653479,0.0875009651711496,-1.734588219636054,-0.3525537042160659,-0.7177030444151316,0.040824095435211885
1759182029.0334604,0,-1.180796302754452,-0.848722146300694,-0.6641035557565447,0.0891048822659758,-1.7345967504385182,-0.35252224130696314,-0.7177030444150672,0.040331422439619895
1759182029.043873,0,-1.1807295036443521,-0.8487675243206793,-0.6618250674568334,0.0891048822659758,-1.7346028639549322,-0.3524974715994739,-0.7177030444150166,0.0400078311306814
1759182029.0546227,0,-1.1806942285781843,-0.8487896376511688,-0.6601659826599464,0.0891048822659758,-1.7346068072158607,-0.35247994655293446,-0.7177030444149771,0.03982077457256921
1759182029.0652092,0,-1.1806834512221034,-0.8487940826066733,-0.6590275333867885,0.0891048822659758,-1.7346088672086608,-0.3524695376244006,-0.7177030444149463,0.03974158587011879
1759182029.0753822,0,-1.1806884346274937,-0.8487875340615149,-0.6582621304001097,0.0891048822659758,-1.7346093276566754,-0.35246575167239047,-0.7177030444149222,0.03974623066196639
1759182029.0865312,0,-1.1806663232981374,-0.8488023666102372,-0.657642250016488,0.0891048822659758,-1.7346082563375793,-0.3524687271129263,-0.7177030444149035,0.03982524125998788
1759182029.0965638,0,-1.1806842991195792,-0.8487873228885137,-0.6573303302366204,0.0891048822659758,-1.734605977790419,-0.3524773944778799,-0.7177030444148892,0.039957312016894925
1759182029.107232,0,-1.1806756621511334,-0.8487929746023134,-0.6570325485302559,0.0891048822659758,-1.7346025482353724,-0.35249163879947015,-0.7177030444148782,0.040137343165546756
1759182029.118359,0,-1.1806611631156672,-0.8488033414882881,-0.6568271473538023,0.0891048822659758,-1.7345980327314725,-0.3525112570838311,-0.7177030444148701,0.04036034047189768
1759182029.128567,0,-1.180677632719818,-0.8487904694477967,-0.6568064698146331,0.0891048822659758,-1.7345926627162707,-0.35253531790424786,-0.7177030444148642,0.04061310381477062
1759182029.1398008,0,-1.180659241502431,-0.8488042257364784,-0.656705985610284,0.0891048822659758,-1.7345863830223371,-0.35256400996876464,-0.7177030444148601,0.040898376862103215
1759182029.1511593,0,-1.1805402458186225,-0.8493070730034814,-0.6558895458355823,0.09040215255105989,-1.7345950768006497,-0.352531582693592,-0.7177030444148192,0.04039265776512256
1759182029.1817045,0,-1.1690356233678167,-0.8578936525023401,-0.6385658963257878,0.12429416143545437,-1.734598659286472,-0.3525170278441169,-0.7177030444147883,0.04019724731897677
1759182029.1931367,0,-1.1653255853734403,-0.8605055798583106,-0.6275462388754941,0.12429416143545437,-1.7346003141837987,-0.3525094427608992,-0.7177030444147638,0.04011755113744691
1759182029.2036629,0,-1.1639288470437745,-0.8614698221997104,-0.6196661033430906,0.12429416143545437,-1.7346003828220657,-0.35250819705341746,-0.7177030444147446,0.04012480222774497
1759182029.2141263,0,-1.1633897807917963,-0.8618292004246548,-0.6140893586741559,0.12429416143545437,-1.7345990541594831,-0.35251298195976866,-0.7177030444147294,0.04020210555250187
1759182029.2252364,0,-1.1631552583783615,-0.8619768884341479,-0.6100148809029141,0.12429416143545437,-1.7345963991642728,-0.35252379515242666,-0.7177030444147176,0.040341063184785836
1759182029.2364283,0,-1.163058678658854,-0.8620313099686759,-0.6071054307135749,0.12429416143545437,-1.7345925493803878,-0.35254027878353406,-0.7177030444147082,0.04053141468414104
1759182029.2470698,0,-1.1630386802392403,-0.8620360703251424,-0.6051206563208194,0.12429416143545437,-1.7345877000533017,-0.3525617220464599,-0.717703044414701,0.040760790215299214
1759182029.2583702,0,-1.163005437416788,-0.8620517793247243,-0.6036196833767254,0.12429416143545437,-1.7345818588186144,-0.3525881133332112,-0.7177030444146955,0.04102767923780935
1759182029.2695417,0,-1.1629959525136833,-0.8620532879703375,-0.6026268633515739,0.12429416143545437,-1.7345751302955348,-0.35261902719173466,-0.7177030444146912,0.04132567292071453
1759182029.280266,0,-1.162536535565136,-0.862743246957449,-0.6002776013484473,0.12608104392796074,-1.7345857627828982,-0.3525790106431858,-0.7177030444146643,0.0407165432751304
1759182029.2910693,0,-1.162537575769645,-0.8627403786629665,-0.5998576516322335,0.12608104392796074,-1.7345936229225216,-0.35254651206911086,-0.7177030444146428,0.04030351254968792
1759182029.3020837,0,-1.1625300350134822,-0.8627439732768946,-0.5995555873810218,0.12608104392796074,-1.734599023157304,-0.3525220954338003,-0.717703044414626,0.04004726268489051
1759182029.3129613,0,-1.1625318979140093,-0.8627418842079093,-0.599434482633141,0.12608104392796074,-1.7346022886491572,-0.3525056574161644,-0.7177030444146126,0.03991490510884748
1759182029.3235781,0,-1.1625419638306957,-0.862734817935618,-0.5993964785389266,0.12608104392796074,-1.7346037199996793,-0.35249675530186847,-0.7177030444146021,0.03988000679854803
1759182029.3349159,0,-1.1625198974437552,-0.8627493256086095,-0.5993268117415401,0.12608104392796074,-1.7346034500503085,-0.35249533835072683,-0.7177030444145936,0.039928568273224545
1759182029.346008,0,-1.1625203537695443,-0.8627490372584163,-0.5993511588327296,0.12608104392796074,-1.7346017161619922,-0.3525007406794652,-0.717703044414587,0.04004327539113859
1759182029.3564677,0,-1.1625434397744783,-0.8627339781514867,-0.5995116436658617,0.12608104392796074,-1.7345987721821239,-0.3525120747450772,-0.7177030444145818,0.04020790433725276
1759182029.3675969,0,-1.1491399914231644,-0.8712164937338994,-0.5821038677875366,0.14702924036665474,-1.734594666394922,-0.35252919509700686,-0.7177030444145778,0.0404184566319895
1759182029.3780656,0,-1.144061987764419,-0.874324833597858,-0.568165751507569,0.14702924036665474,-1.734589608806653,-0.3525512529261276,-0.7177030444145744,0.04066289424822463
1759182029.3887544,0,-1.1420969047178937,-0.875500520029843,-0.557910769812438,0.14702924036665474,-1.734583664517166,-0.35257794002149223,-0.7177030444145719,0.04093762213888208
1759182029.4002259,0,-1.1404890262289167,-0.8768020382467043,-0.5478800970473094,0.14890982254439616,-1.734593145747071,-0.3525444820550863,-0.7177030444145568,0.03984743911576918
1759182029.411681,0,-1.140177042067634,-0.8769661049659269,-0.542409213716141,0.14890982254439616,-1.7346006764286077,-0.35251232687254447,-0.7177030444145448,0.03905113417466523
1759182029.4231193,0,-1.1400526323216544,-0.8770212847399077,-0.5384818596028985,0.14890982254439616,-1.734606315982527,-0.35248417697261053,-0.7177030444145351,0.03848694003282696
1759182029.434368,0,-1.1400093803823477,-0.8770325699902339,-0.5357490078710565,0.14890982254439616,-1.7346101911369038,-0.352461486263873,-0.7177030444145274,0.03810574017483308
1759182029.445173,0,-1.1400098171236868,-0.8770223247118197,-0.5339258595378318,0.14889931983048746,-1.7346124797863764,-0.35244481227764085,-0.7177030444145212,0.03786764528160598
1759182029.4565547,0,-1.1399823445027664,-0.8770306039590854,-0.532514504440512,0.14890982254439616,-1.7346132319403338,-0.3524347716257188,-0.7177030444145159,0.03774808911427213
1759182029.4670813,0,-1.140008839912342,-0.8770108444571746,-0.5318255645497708,0.1484055854317099,-1.734612687030458,-0.3524308863087498,-0.7177030444145118,0.03771868090435875
1759182029.4785275,0,-1.1399770022883207,-0.8770252905917498,-0.5310714543844867,0.14890982254439616,-1.7346108420166075,-0.3524334495362573,-0.7177030444145085,0.03776844455928421
1759182029.489897,0,-1.139967719115328,-0.8770281758323434,-0.5306761451794823,0.14890982254439616,-1.7346078227021131,-0.35244210022414035,-0.7177030444145056,0.03788254385780023
1759182029.5005548,0,-1.1399957960405185,-0.87701122394324,-0.5306122002318082,0.14866588213172627,-1.7346038224763665,-0.35245609101190994,-0.7177030444145033,0.03804519700237077
1759182029.5113425,0,-1.1393032084489356,-0.8777249993593386,-0.5282402909898216,0.15032670225830805,-1.7346144447747414,-0.3524113709115953,-0.7177030444144953,0.03746182956767933
1759182029.5223842,0,-1.1392938660324847,-0.8777302107053016,-0.5282493922894329,0.14998297195451107,-1.7346223433973613,-0.3523750907975908,-0.7177030444144888,0.03706487474793793
1759182029.5334203,0,-1.1392907580756109,-0.8777322687688686,-0.5283682682048836,0.14932162008644873,-1.7346278623015876,-0.35234739072338317,-0.7177030444144836,0.03681553278147647
1759182029.544544,0,-1.1392858813670101,-0.8777354757742692,-0.5284891332666184,0.1489569245080145,-1.7346312938049293,-0.3523280795129226,-0.7177030444144793,0.036684268686335876
1759182029.5558257,0,-1.139277128944302,-0.8777408512151842,-0.528553672187243,0.149198422082093,-1.7346328842336403,-0.35231678312861286,-0.7177030444144757,0.03664856153609051
1759182029.583046,0,-1.1253766519345707,-0.8849173019106853,-0.5078680871019948,0.12876585231211873,-1.7346309462926703,-0.35232097474045965,-0.7177030444144726,0.03678920981687263
1759182029.5935314,0,-1.1206351684673068,-0.8873606845482055,-0.4946715306460185,0.1288443275816575,-1.7346278965517075,-0.352331208458854,-0.71770304441447,0.036969569179006366
1759182029.604609,0,-1.1187904509712674,-0.8882908204849222,-0.4851691241605531,0.1283300210747648,-1.7346237925582064,-0.3523471475937367,-0.7177030444144676,0.03718680864676441
1759182029.6155734,0,-1.1170791850462252,-0.8894489742321176,-0.4754514505163753,0.12915111519251635,-1.7346321347428333,-0.3523148669558567,-0.7177030444144641,0.03629862578566158
1759182029.6255977,0,-1.1168401146783855,-0.8895543497293859,-0.47094184479636825,0.12841776791287515,-1.7346387930153078,-0.3522845366944143,-0.7177030444144611,0.0356486989630454
1759182029.6366105,0,-1.1167065560085863,-0.8896079073272846,-0.46747050538637264,0.1284707526961707,-1.734643714649202,-0.3522586687810341,-0.7177030444144586,0.03519333458301265
1759182029.647928,0,-1.1166408830385004,-0.8896300326936728,-0.46496666736056536,0.12824978803288786,-1.7346469805877667,-0.35223849298455295,-0.7177030444144565,0.034894265381265915
1759182029.6595235,0,-1.1166028885742818,-0.8896406621587141,-0.4630966450384082,0.12877189155287716,-1.734648692505991,-0.35222461634980234,-0.7177030444144546,0.03472153581545601
1759182029.6710515,0,-1.1165896294645328,-0.8896414168626084,-0.46182788309467715,0.12919288122433817,-1.734648996160655,-0.3522170863047581,-0.717703044414453,0.03464977153585542
1759182029.6818314,0,-1.1166131551121887,-0.8896268232260279,-0.4612348706330372,0.12853094541937865,-1.7346481072053623,-0.3522153898491141,-0.7177030444144514,0.034655134520765976
1759182029.6928444,0,-1.1166125899335588,-0.8896249033469398,-0.4608085075904662,0.12829838624003667,-1.7346461090197716,-0.35221937253295976,-0.71770304441445,0.03472462606529894
1759182029.7038848,0,-1.1166110282687478,-0.8896242609581998,-0.460525448181453,0.128524930017617,-1.7346431007981906,-0.35222870966408903,-0.7177030444144488,0.034846879514338625
1759182029.7147644,0,-1.1166166410725382,-0.8896208979145251,-0.46040991251359786,0.12879246998243735,-1.7346391921252575,-0.3522429605682962,-0.7177030444144475,0.03501185573297809
1759182029.7261276,0,-1.115754661789959,-0.8903021602820274,-0.45770437492576893,0.12834062137205363,-1.7346485175094972,-0.3522038194319891,-0.7177030444144474,0.03449634989349397
1759182029.7369945,0,-1.1157677781331001,-0.8902960494728934,-0.45778292891471006,0.1285452978463163,-1.7346554181712566,-0.3521721783248799,-0.7177030444144472,0.03414737797522143
1759182029.7482796,0,-1.1157565310129138,-0.8903015639581205,-0.45780004127354257,0.12900552855411024,-1.7346601523684178,-0.3521483719004212,-0.7177030444144468,0.03393270037348653
1759182029.7596538,0,-1.1157490087921116,-0.8903056302089349,-0.457989641254108,0.12789764108630075,-1.7346629868253995,-0.35213222071774425,-0.7177030444144462,0.033825419476175865
1759182029.7709794,0,-1.0991885522432518,-0.8978395742679948,-0.44117989622512005,0.17937377505204538,-1.734664168626447,-0.3521232849156242,-0.7177030444144457,0.03380386337317577
1759182029.7820225,0,-1.0929907928169638,-0.9005018152419203,-0.42768281396710023,0.17955734129428655,-1.7346639360541682,-0.3521209234841966,-0.717703044414445,0.03384982103239679
1759182029.7933977,0,-1.0905897531164022,-0.9015027196819507,-0.41783320806397134,0.17878822389481355,-1.7346624254776466,-0.3521247555755741,-0.7177030444144443,0.033952570974509065
