timestamp,vehicle_id,x,y,theta,velocity,gps_available,dt,gps_x,gps_y,gps_theta,gps_velocity,control_steering,control_acceleration
1759182025.5418916,0,-1.205,-0.83,-0.7177028497428992,0.0,False,0.01,nan,nan,nan,nan,0.0,0.0
1759182025.5532646,0,-1.205,-0.83,-0.7177028497428992,0.0,False,0.011373043060302734,nan,nan,nan,nan,0.0,0.0
1759182025.5637717,0,-1.205,-0.83,-0.7177028497428992,0.0,False,0.01050710678100586,nan,nan,nan,nan,0.0,0.0
1759182025.574353,0,-1.205,-0.83,-0.7177028497428992,0.0,False,0.010581254959106445,nan,nan,nan,nan,0.0,0.0
1759182025.5858064,0,-1.205,-0.83,-0.7177028497428992,0.0,False,0.011453390121459961,nan,nan,nan,nan,0.0,0.0
1759182025.5966566,0,-1.205,-0.83,-0.7177028497428992,0.0,False,0.010850191116333008,nan,nan,nan,nan,0.0,0.0
1759182025.6072495,0,-1.205,-0.83,-0.7177028497428992,0.0,False,0.010592937469482422,nan,nan,nan,nan,0.0,0.0
1759182025.617631,0,-1.205,-0.83,-0.7177028497428992,0.0,False,0.010381460189819336,nan,nan,nan,nan,0.0,0.0
1759182025.6281745,0,-1.205,-0.83,-0.7177028497428992,0.0,False,0.010543584823608398,nan,nan,nan,nan,0.0,0.0
1759182025.638664,0,-1.205,-0.83,-0.7177028497428992,0.0,False,0.010489463806152344,nan,nan,nan,nan,0.0,0.0
1759182025.649699,0,-1.205,-0.83,-0.7177028497428992,0.0,False,0.011034965515136719,nan,nan,nan,nan,0.0,0.0
1759182025.6602492,0,-1.205,-0.83,-0.7177028497428992,0.0,False,0.010550260543823242,nan,nan,nan,nan,0.0,0.0
1759182025.671236,0,-1.205,-0.83,-0.7177028497428992,0.0,False,0.010986804962158203,nan,nan,nan,nan,0.0,0.0
1759182025.6819198,0,-1.205,-0.83,-0.7177028497428992,0.0,False,0.010683774948120117,nan,nan,nan,nan,0.0,0.0
1759182025.6923206,0,-1.205,-0.83,-0.7177028497428992,0.0,False,0.010400772094726562,nan,nan,nan,nan,0.0,0.0
1759182025.7028751,0,-1.205,-0.83,-0.7177028497428992,0.0,False,0.01055455207824707,nan,nan,nan,nan,0.0,0.0
1759182025.7131348,0,-1.205,-0.83,-0.7177028497428992,0.0,False,0.010259628295898438,nan,nan,nan,nan,0.0,0.0
1759182025.7237556,0,-1.205,-0.83,-0.7177028497428992,0.0,False,0.010620832443237305,nan,nan,nan,nan,0.0,0.0
1759182025.7380373,0,-1.2049999243418377,-0.8299995105862618,-0.7177035734109971,0.0,True,0.014281749725341797,-1.2049999237060547,-0.8299995064735413,-0.717703640460968,0.0,0.0,0.0
1759182025.748541,0,-1.2049999239185727,-0.8299995078482668,-0.7177036352054067,0.0,True,0.010503768920898438,-1.2049999237060547,-0.8299995064735413,-0.717703640460968,0.0,0.0,0.0
1759182025.7587767,0,-1.2049999237857767,-0.8299995069892429,-0.7177036410006785,0.0,True,0.01023554801940918,-1.2049999237060547,-0.8299995064735413,-0.717703640460968,0.0,0.0,0.0
1759182025.769843,0,-1.2049999237364264,-0.8299995066700088,-0.717703641806624,0.0,True,0.011066436767578125,-1.2049999237060547,-0.8299995064735413,-0.717703640460968,0.0,0.0,0.0
1759182025.780369,0,-1.2049999237176512,-0.8299995065485567,-0.717703641891827,0.0,True,0.010525941848754883,-1.2049999237060547,-0.8299995064735413,-0.717703640460968,0.0,0.0,0.0
1759182025.7914011,0,-1.2049999237104838,-0.829999506502193,-0.7177036418147935,0.0,True,0.0110321044921875,-1.2049999237060547,-0.8299995064735413,-0.717703640460968,0.0,0.0,0.0
1759182025.8020744,0,-1.2049999237077464,-0.8299995064844852,-0.7177036416650964,0.0,True,0.010673284530639648,-1.2049999237060547,-0.8299995064735413,-0.717703640460968,0.0,0.0,0.0
1759182025.8125463,0,-1.2049999237067008,-0.8299995064777215,-0.7177036415108908,0.0,True,0.010471820831298828,-1.2049999237060547,-0.8299995064735413,-0.717703640460968,0.0,0.0,0.0
1759182025.823054,0,-1.2049999237063016,-0.829999506475138,-0.7177036413772591,0.0,True,0.010507822036743164,-1.2049999237060547,-0.8299995064735413,-0.717703640460968,0.0,0.0,0.0
1759182025.8335526,0,-1.204999923706149,-0.8299995064741511,-0.7177036412644409,0.0,True,0.010498523712158203,-1.2049999237060547,-0.8299995064735413,-0.717703640460968,0.0,0.0,0.0
1759182025.8441153,0,-1.2049999237060907,-0.8299995064737742,-0.7177036411711768,0.0,True,0.010562658309936523,-1.2049999237060547,-0.8299995064735413,-0.717703640460968,0.0,0.0,0.0
1759182025.8544767,0,-1.2049999237060685,-0.8299995064736302,-0.7177036410906865,0.0,True,0.010361433029174805,-1.2049999237060547,-0.8299995064735413,-0.717703640460968,0.0,0.0,0.0
1759182025.865607,0,-1.20499992370606,-0.8299995064735752,-0.7177036410321698,0.0,True,0.011130332946777344,-1.2049999237060547,-0.8299995064735413,-0.717703640460968,0.0,0.0,0.0
1759182025.876352,0,-1.2049999237060567,-0.8299995064735542,-0.7177036409762714,0.0,True,0.010745048522949219,-1.2049999237060547,-0.8299995064735413,-0.717703640460968,0.0,0.0,0.0
1759182025.8868573,0,-1.2049999237060554,-0.8299995064735463,-0.7177036409260218,0.0,True,0.010505199432373047,-1.2049999237060547,-0.8299995064735413,-0.717703640460968,0.0,0.0,0.0
1759182025.8972178,0,-1.204999923706055,-0.8299995064735431,-0.7177036408825543,0.0,True,0.010360479354858398,-1.2049999237060547,-0.8299995064735413,-0.717703640460968,0.0,0.0,0.0
1759182025.908011,0,-1.2049999237060547,-0.8299995064735419,-0.7177036408493684,0.0,True,0.010793209075927734,-1.2049999237060547,-0.8299995064735413,-0.717703640460968,0.0,0.0,0.0
1759182025.9181921,0,-1.2049999237060547,-0.8299995064735415,-0.7177036408158433,0.0,True,0.010181188583374023,-1.2049999237060547,-0.8299995064735413,-0.717703640460968,0.0,0.0,0.0
1759182025.9294996,0,-1.2049999237060547,-0.8299995064735414,-0.7177036407948094,0.0,True,0.011307477951049805,-1.2049999237060547,-0.8299995064735413,-0.717703640460968,0.0,0.0,0.0
1759182025.940356,0,-1.2049999237060547,-0.8299995064735413,-0.7177036407719797,0.0,True,0.010856389999389648,-1.2049999237060547,-0.8299995064735413,-0.717703640460968,0.0,0.0,0.0
1759182025.9506834,0,-1.2049999237060547,-0.8299995064735413,-0.7177036407480912,0.0,True,0.010327339172363281,-1.2049999237060547,-0.8299995064735413,-0.717703640460968,0.0,0.0,0.0
1759182025.961227,0,-1.2049999237060547,-0.8299995064735413,-0.7177036407287005,0.0,True,0.010543584823608398,-1.2049999237060547,-0.8299995064735413,-0.717703640460968,0.0,0.0,0.0
1759182025.9716346,0,-1.2049999237060547,-0.8299995064735413,-0.7177036407109991,0.0,True,0.010407686233520508,-1.2049999237060547,-0.8299995064735413,-0.717703640460968,0.0,0.0,0.0
1759182025.9828079,0,-1.2049999237060547,-0.8299995064735413,-0.7177036406991064,0.0,True,0.011173248291015625,-1.2049999237060547,-0.8299995064735413,-0.717703640460968,0.0,0.0,0.0
1759182025.9936335,0,-1.2049999237060547,-0.8299995064735413,-0.7177036406859258,0.0,True,0.010825634002685547,-1.2049999237060547,-0.8299995064735413,-0.717703640460968,0.0,0.0,0.0
1759182026.0047848,0,-1.2049999237060547,-0.8299995064735413,-0.717703640674971,0.0,True,0.011151313781738281,-1.2049999237060547,-0.8299995064735413,-0.717703640460968,0.0,0.0,0.0
1759182026.0149388,0,-1.2049999237060547,-0.8299995064735413,-0.7177036406603499,0.0,True,0.010154008865356445,-1.2049999237060547,-0.8299995064735413,-0.717703640460968,0.0,0.0,0.0
1759182026.025758,0,-1.2049999237060547,-0.8299995064735413,-0.7177036406502637,0.0,True,0.010819196701049805,-1.2049999237060547,-0.8299995064735413,-0.717703640460968,0.0,0.0,0.0
1759182026.036879,0,-1.2049999237060547,-0.8299995064735413,-0.7177036406421529,0.0,True,0.011121034622192383,-1.2049999237060547,-0.8299995064735413,-0.717703640460968,0.0,0.0,0.0
1759182026.0476341,0,-1.2049999237060547,-0.8299995064735413,-0.7177036406329034,0.0,True,0.010755062103271484,-1.2049999237060547,-0.8299995064735413,-0.717703640460968,0.0,0.0,0.0
1759182026.0588515,0,-1.2049999237060547,-0.8299995064735413,-0.7177036406258352,0.0,True,0.011217355728149414,-1.2049999237060547,-0.8299995064735413,-0.717703640460968,0.0,0.0,0.0
1759182026.0692837,0,-1.2049999237060547,-0.8299995064735413,-0.7177036406163815,0.0,True,0.010432243347167969,-1.2049999237060547,-0.8299995064735413,-0.717703640460968,0.0,0.0,0.0
1759182026.0796356,0,-1.2049999237060547,-0.8299995064735413,-0.7177036406076791,0.0,True,0.010351896286010742,-1.2049999237060547,-0.8299995064735413,-0.717703640460968,0.0,0.0,0.0
1759182026.0906858,0,-1.2049999237060547,-0.8299995064735413,-0.7177036406020996,0.0,True,0.011050224304199219,-1.2049999237060547,-0.8299995064735413,-0.717703640460968,0.0,0.0,0.0
1759182026.1020064,0,-1.2049999237060547,-0.8299995064735413,-0.717703640597426,0.0,True,0.01132059097290039,-1.2049999237060547,-0.8299995064735413,-0.717703640460968,0.0,0.0,0.0
1759182026.1125388,0,-1.2049999237060547,-0.8299995064735413,-0.7177036405904111,0.0,True,0.010532379150390625,-1.2049999237060547,-0.8299995064735413,-0.717703640460968,0.0,0.0,0.0
1759182026.1228697,0,-1.2049999237060547,-0.8299995064735413,-0.7177036405834762,0.0,True,0.010330915451049805,-1.2049999237060547,-0.8299995064735413,-0.717703640460968,0.0,0.0,0.0
1759182026.1359131,0,-1.2049999237060547,-0.8299995064735413,-0.7177036405840216,0.0,True,0.013043403625488281,-1.2049999237060547,-0.8299995064735413,-0.717703640460968,0.0,0.0,0.0
1759182026.1450455,0,-1.2049999237060547,-0.8299995064735413,-0.7177036405738075,0.0,True,0.00913238525390625,-1.2049999237060547,-0.8299995064735413,-0.717703640460968,0.0,0.0,0.0
1759182026.1551955,0,-1.2049999237060547,-0.8299995064735413,-0.7177036405674659,0.0,True,0.010149955749511719,-1.2049999237060547,-0.8299995064735413,-0.717703640460968,0.0,0.0,0.0
1759182026.1665716,0,-1.2049999237060547,-0.8299995064735413,-0.717703640564892,0.0,True,0.011376142501831055,-1.2049999237060547,-0.8299995064735413,-0.717703640460968,0.0,0.0,0.0
1759182026.1773534,0,-1.2049999237060547,-0.8299995064735413,-0.7177036405608526,0.0,True,0.01078176498413086,-1.2049999237060547,-0.8299995064735413,-0.717703640460968,0.0,0.0,0.0
1759182026.1883843,0,-1.2049999237060547,-0.8299995064735413,-0.7177036405573887,0.0,True,0.011030912399291992,-1.2049999237060547,-0.8299995064735413,-0.717703640460968,0.0,0.0,0.0
1759182026.1997452,0,-1.2049999237060547,-0.8299995064735413,-0.717703640554582,0.0,True,0.011360883712768555,-1.2049999237060547,-0.8299995064735413,-0.717703640460968,0.0,0.0,0.0
1759182026.2105129,0,-1.2049999237060547,-0.8299995064735413,-0.7177036405505035,0.0,True,0.010767698287963867,-1.2049999237060547,-0.8299995064735413,-0.717703640460968,0.0,0.0,0.0
1759182026.2209551,0,-1.2049999237060547,-0.8299995064735413,-0.7177036405460804,0.0,True,0.010442256927490234,-1.2049999237060547,-0.8299995064735413,-0.717703640460968,0.0,0.0,0.0
1759182026.2311323,0,-1.2049999237060547,-0.8299995064735413,-0.7177036405416839,0.0,True,0.010177135467529297,-1.2049999237060547,-0.8299995064735413,-0.717703640460968,0.0,0.0,0.0
1759182026.2422605,0,-1.2049999237060547,-0.8299995064735413,-0.7177036405394368,0.0,True,0.01112818717956543,-1.2049999237060547,-0.8299995064735413,-0.717703640460968,0.0,0.0,0.0
1759182026.253721,0,-1.2049999237060547,-0.8299995064735413,-0.7177036405376782,0.0,True,0.011460542678833008,-1.2049999237060547,-0.8299995064735413,-0.717703640460968,0.0,0.0,0.0
1759182026.2650485,0,-1.2049999237060547,-0.8299995064735413,-0.7177036405354187,0.0,True,0.011327505111694336,-1.2049999237060547,-0.8299995064735413,-0.717703640460968,0.0,0.0,0.0
1759182026.27554,0,-1.2049999237060547,-0.8299995064735413,-0.7177036405317754,0.0,True,0.010491609573364258,-1.2049999237060547,-0.8299995064735413,-0.717703640460968,0.0,0.0,0.0
1759182026.2861068,0,-1.2049999237060547,-0.8299995064735413,-0.7177036405285815,0.0,True,0.01056671142578125,-1.2049999237060547,-0.8299995064735413,-0.717703640460968,0.0,0.0,0.0
1759182026.297156,0,-1.2049999237060547,-0.8299995064735413,-0.7177036405263806,0.0,True,0.011049270629882812,-1.2049999237060547,-0.8299995064735413,-0.717703640460968,0.0,0.0,0.0
1759182026.3074768,0,-1.2049999237060547,-0.8299995064735413,-0.7177036405232649,0.0,True,0.010320663452148438,-1.2049999237060547,-0.8299995064735413,-0.717703640460968,0.0,0.0,0.0
1759182026.3175526,0,-1.2049999237060547,-0.8299995064735413,-0.7177036405201473,0.0,True,0.010075807571411133,-1.2049999237060547,-0.8299995064735413,-0.717703640460968,0.0,0.0,0.0
1759182026.32911,0,-1.2049999237060547,-0.8299995064735413,-0.7177036405192645,0.0,True,0.011557340621948242,-1.2049999237060547,-0.8299995064735413,-0.717703640460968,0.0,0.0,0.0
1759182026.3394167,0,-1.2049999237060547,-0.8299995064735413,-0.7177036405166604,0.0,True,0.010306835174560547,-1.2049999237060547,-0.8299995064735413,-0.717703640460968,0.0,0.0,0.0
1759182026.3509946,0,-1.2049999237060547,-0.8299995064735413,-0.7177036405156834,0.0,True,0.011577844619750977,-1.2049999237060547,-0.8299995064735413,-0.717703640460968,0.0,0.0,0.0
1759182026.3626497,0,-1.2049999237060547,-0.8299995064735413,-0.7177036405145838,0.0,True,0.011655092239379883,-1.2049999237060547,-0.8299995064735413,-0.717703640460968,0.0,0.0,0.0
1759182026.3737361,0,-1.2049999237060547,-0.8299995064735413,-0.7177036405126174,0.0,True,0.011086463928222656,-1.2049999237060547,-0.8299995064735413,-0.717703640460968,0.0,0.0,0.0
1759182026.3841915,0,-1.2049999237060547,-0.8299995064735413,-0.717703640510031,0.0,True,0.01045536994934082,-1.2049999237060547,-0.8299995064735413,-0.717703640460968,0.0,0.0,0.0
1759182026.3951855,0,-1.2049999237060547,-0.8299995064735413,-0.7177036405082635,0.0,True,0.01099395751953125,-1.2049999237060547,-0.8299995064735413,-0.717703640460968,0.0,0.0,0.0
1759182026.405589,0,-1.2049999237060547,-0.8299995064735413,-0.7177036405060448,0.0,True,0.010403633117675781,-1.2049999237060547,-0.8299995064735413,-0.717703640460968,0.0,0.0,0.0
1759182026.416982,0,-1.2049999237060547,-0.8299995064735413,-0.7177036405049648,0.0,True,0.011392831802368164,-1.2049999237060547,-0.8299995064735413,-0.717703640460968,0.0,0.0,0.0
1759182026.428434,0,-1.2049999237060547,-0.8299995064735413,-0.717703640503867,0.0,True,0.011451959609985352,-1.2049999237060547,-0.8299995064735413,-0.717703640460968,0.0,0.0,0.0
1759182026.4400082,0,-1.2049999237060547,-0.8299995064735413,-0.7177036405027515,0.0,True,0.011574268341064453,-1.2049999237060547,-0.8299995064735413,-0.717703640460968,0.0,0.0,0.0
1759182026.4504406,0,-1.2049999237060547,-0.8299995064735413,-0.7177036405005914,0.0,True,0.01043248176574707,-1.2049999237060547,-0.8299995064735413,-0.717703640460968,0.0,0.0,0.0
1759182026.461051,0,-1.2049999237060547,-0.8299995064735413,-0.7177036404988044,0.0,True,0.010610342025756836,-1.2049999237060547,-0.8299995064735413,-0.717703640460968,0.0,0.0,0.0
1759182026.4716513,0,-1.2049999237060547,-0.8299995064735413,-0.7177036404972164,0.0,True,0.01060032844543457,-1.2049999237060547,-0.8299995064735413,-0.717703640460968,0.0,0.0,0.0
1759182026.482822,0,-1.2049999237060547,-0.8299995064735413,-0.7177036404962038,0.0,True,0.011170625686645508,-1.2049999237060547,-0.8299995064735413,-0.717703640460968,0.0,0.0,0.0
1759182026.4932466,0,-1.2049999237060547,-0.8299995064735413,-0.7177036404946442,0.0,True,0.010424613952636719,-1.2049999237060547,-0.8299995064735413,-0.717703640460968,0.0,0.0,0.0
1759182026.5039499,0,-1.2049999237060547,-0.8299995064735413,-0.7177036404934078,0.0,True,0.010703325271606445,-1.2049999237060547,-0.8299995064735413,-0.717703640460968,0.0,0.0,0.0
1759182026.5146396,0,-1.2049999237060547,-0.8299995064735413,-0.7177036404922532,0.0,True,0.010689735412597656,-1.2049999237060547,-0.8299995064735413,-0.717703640460968,0.0,0.0,0.0
1759182026.5254238,0,-1.2049999237060547,-0.8299995064735413,-0.7177036404912158,0.0,True,0.010784149169921875,-1.2049999237060547,-0.8299995064735413,-0.717703640460968,0.0,0.0,0.0
1759182026.5722182,0,-1.2049999237060547,-0.8299995064735413,-0.717703640509999,0.0,True,0.04679441452026367,-1.2049999237060547,-0.8299995064735413,-0.717703640460968,0.0,0.0,0.0
1759182026.5834904,0,-1.2049999237060547,-0.8299995064735413,-0.7177036405025685,0.0,True,0.011272192001342773,-1.2049999237060547,-0.8299995064735413,-0.717703640460968,0.0,0.0,0.0
1759182026.5941741,0,-1.2049999237060547,-0.8299995064735413,-0.7177036404957313,0.0,True,0.010683774948120117,-1.2049999237060547,-0.8299995064735413,-0.717703640460968,0.0,0.0,0.0
1759182026.6051838,0,-1.2049999237060547,-0.8299995064735413,-0.7177036404910311,0.0,True,0.011009693145751953,-1.2049999237060547,-0.8299995064735413,-0.717703640460968,0.0,0.0,0.0
1759182026.61667,0,-1.2049999237060547,-0.8299995064735413,-0.7177036404878763,0.0,True,0.011486053466796875,-1.2049999237060547,-0.8299995064735413,-0.717703640460968,0.0,0.0,0.0
1759182026.6275105,0,-1.2049999237060547,-0.8299995064735413,-0.7177036404852633,0.0,True,0.010840654373168945,-1.2049999237060547,-0.8299995064735413,-0.717703640460968,0.0,0.0,0.0
1759182026.638949,0,-1.2049999237060547,-0.8299995064735413,-0.7177036404835064,0.0,True,0.011438369750976562,-1.2049999237060547,-0.8299995064735413,-0.717703640460968,0.0,0.0,0.0
1759182026.6493335,0,-1.2049999237060547,-0.8299995064735413,-0.7177036404817088,0.0,True,0.010384559631347656,-1.2049999237060547,-0.8299995064735413,-0.717703640460968,0.0,0.0,0.0
1759182026.6601815,0,-1.2049999237060547,-0.8299995064735413,-0.7177036404804582,0.0,True,0.010848045349121094,-1.2049999237060547,-0.8299995064735413,-0.717703640460968,0.0,0.0,0.0
1759182026.6707392,0,-1.2049999237060547,-0.8299995064735413,-0.7177036404793355,0.0,True,0.01055765151977539,-1.2049999237060547,-0.8299995064735413,-0.717703640460968,0.0,0.0,0.0
1759182026.6814103,0,-1.2049999237060547,-0.8299995064735413,-0.717703640478442,0.0,True,0.010671138763427734,-1.2049999237060547,-0.8299995064735413,-0.717703640460968,0.0,0.0,0.0
1759182026.6915069,0,-1.2049999237060547,-0.8299995064735413,-0.717703640477481,0.0,True,0.010096549987792969,-1.2049999237060547,-0.8299995064735413,-0.717703640460968,0.0,0.0,0.0
1759182026.7016177,0,-1.2049999237060547,-0.8299995064735413,-0.7177036404766781,0.0,True,0.010110855102539062,-1.2049999237060547,-0.8299995064735413,-0.717703640460968,0.0,0.0,0.0
1759182026.7125714,0,-1.2049999237060547,-0.8299995064735413,-0.7177036404762749,0.0,True,0.010953664779663086,-1.2049999237060547,-0.8299995064735413,-0.717703640460968,0.0,0.0,0.0
1759182026.7239418,0,-1.2049999237060547,-0.8299995064735413,-0.7177036404760138,0.0,True,0.011370420455932617,-1.2049999237060547,-0.8299995064735413,-0.717703640460968,0.0,0.0,0.0
1759182026.7349653,0,-1.2049999237060547,-0.8299995064735413,-0.7177036404755928,0.0,True,0.011023521423339844,-1.2049999237060547,-0.8299995064735413,-0.717703640460968,0.0,0.0,0.0
1759182026.7506206,0,-1.2049999237060547,-0.8299995064735413,-0.7177036404765182,0.0,True,0.0156552791595459,-1.2049999237060547,-0.8299995064735413,-0.717703640460968,0.0,0.0,0.0
1759182026.7619536,0,-1.2049999237060547,-0.8299995064735413,-0.7177036404757899,0.0,True,0.011332988739013672,-1.2049999237060547,-0.8299995064735413,-0.717703640460968,0.0,0.0,0.0
1759182026.7726126,0,-1.2049999237060547,-0.8299995064735413,-0.7177036404748662,0.0,True,0.010658979415893555,-1.2049999237060547,-0.8299995064735413,-0.717703640460968,0.0,0.0,0.0
1759182026.783837,0,-1.2049999237060547,-0.8299995064735413,-0.7177036404742374,0.0,True,0.011224508285522461,-1.2049999237060547,-0.8299995064735413,-0.717703640460968,0.0,0.0,0.0
1759182026.795315,0,-1.2049999237060547,-0.8299995064735413,-0.7177036404737525,0.0,True,0.011477947235107422,-1.2049999237060547,-0.8299995064735413,-0.717703640460968,0.0,0.0,0.0
1759182026.8061125,0,-1.2049999237060547,-0.8299995064735413,-0.7177036404731325,0.0,True,0.010797500610351562,-1.2049999237060547,-0.8299995064735413,-0.717703640460968,0.0,0.0,0.0
1759182026.8172565,0,-1.2049999237060547,-0.8299995064735413,-0.7177036404726636,0.0,True,0.011143922805786133,-1.2049999237060547,-0.8299995064735413,-0.717703640460968,0.0,0.0,0.0
1759182026.827696,0,-1.2049999237060547,-0.8299995064735413,-0.7177036404720738,0.0,True,0.010439634323120117,-1.2049999237060547,-0.8299995064735413,-0.717703640460968,0.0,0.0,0.0
1759182026.8383417,0,-1.2049999237060547,-0.8299995064735413,-0.7177036404716048,0.0,True,0.010645627975463867,-1.2049999237060547,-0.8299995064735413,-0.717703640460968,0.0,0.0,0.0
1759182026.8489575,0,-1.2049999237060547,-0.8299995064735413,-0.7177036404711856,0.0,True,0.010615825653076172,-1.2049999237060547,-0.8299995064735413,-0.717703640460968,0.0,0.0,0.0
1759182026.8604224,0,-1.2049999237060547,-0.8299995064735413,-0.7177036404709796,0.0,True,0.011464834213256836,-1.2049999237060547,-0.8299995064735413,-0.717703640460968,0.0,0.0,0.0
1759182026.871099,0,-1.2049999237060547,-0.8299995064735413,-0.7177036404705959,0.0,True,0.01067662239074707,-1.2049999237060547,-0.8299995064735413,-0.717703640460968,0.0,0.0,0.0
1759182026.8822446,0,-1.2049999237060547,-0.8299995064735413,-0.7177036404703205,0.0,True,0.011145591735839844,-1.2049999237060547,-0.8299995064735413,-0.717703640460968,0.0,0.0,0.0
1759182026.8933537,0,-1.2049999237060547,-0.8299995064735413,-0.7177036404700381,0.0,True,0.011109113693237305,-1.2049999237060547,-0.8299995064735413,-0.717703640460968,0.0,0.0,0.0
1759182026.9049706,0,-1.2049999237060547,-0.8299995064735413,-0.7177036404698498,0.0,True,0.011616945266723633,-1.2049999237060547,-0.8299995064735413,-0.717703640460968,0.0,0.0,0.0
1759182026.9155293,0,-1.2049999237060547,-0.8299995064735413,-0.7177036404694466,0.0,True,0.010558605194091797,-1.2049999237060547,-0.8299995064735413,-0.717703640460968,0.0,0.0,0.0
1759182026.9267886,0,-1.2049999237060547,-0.8299995064735413,-0.7177036404691979,0.0,True,0.011259317398071289,-1.2049999237060547,-0.8299995064735413,-0.717703640460968,0.0,0.0,0.0
1759182026.9373827,0,-1.2049999237060547,-0.8299995064735413,-0.7177036404688444,0.0,True,0.01059412956237793,-1.2049999237060547,-0.8299995064735413,-0.717703640460968,0.0,0.0,0.0
1759182026.9803975,0,-1.2049999237060547,-0.8299995064735413,-0.7177036404731876,0.0,True,0.0430147647857666,-1.2049999237060547,-0.8299995064735413,-0.717703640460968,0.0,0.0,0.0
1759182026.9919033,0,-1.2049999237060547,-0.8299995064735413,-0.7177036404715,0.0,True,0.011505842208862305,-1.2049999237060547,-0.8299995064735413,-0.717703640460968,0.0,0.0,0.0
1759182027.002015,0,-1.2049999237060547,-0.8299995064735413,-0.7177036404698036,0.0,True,0.010111808776855469,-1.2049999237060547,-0.8299995064735413,-0.717703640460968,0.0,0.0,0.0
1759182027.0126195,0,-1.2049999237060547,-0.8299995064735413,-0.7177036404686454,0.0,True,0.010604381561279297,-1.2049999237060547,-0.8299995064735413,-0.717703640460968,0.0,0.0,0.0
1759182027.0234795,0,-1.2049999237060547,-0.8299995064735413,-0.7177036404678461,0.0,True,0.010859966278076172,-1.2049999237060547,-0.8299995064735413,-0.717703640460968,0.0,0.0,0.0
1759182027.0347357,0,-1.2049999237060547,-0.8299995064735413,-0.7177036404672954,0.0,True,0.011256217956542969,-1.2049999237060547,-0.8299995064735413,-0.717703640460968,0.0,0.0,0.0
1759182027.0450656,0,-1.2049999237060547,-0.8299995064735413,-0.717703640466766,0.0,True,0.010329961776733398,-1.2049999237060547,-0.8299995064735413,-0.717703640460968,0.0,0.0,0.0
1759182027.0557556,0,-1.2049999237060547,-0.8299995064735413,-0.7177036404663895,0.0,True,0.010689973831176758,-1.2049999237060547,-0.8299995064735413,-0.717703640460968,0.0,0.0,0.0
1759182027.0670197,0,-1.2049999237060547,-0.8299995064735413,-0.7177036404661443,0.0,True,0.01126408576965332,-1.2049999237060547,-0.8299995064735413,-0.717703640460968,0.0,0.0,0.0
1759182027.0782392,0,-1.2049999237060547,-0.8299995064735413,-0.7177036404659329,0.0,True,0.011219501495361328,-1.2049999237060547,-0.8299995064735413,-0.717703640460968,0.0,0.0,0.0
1759182027.0897012,0,-1.2049999237060547,-0.8299995064735413,-0.7177036404657624,0.0,True,0.011461973190307617,-1.2049999237060547,-0.8299995064735413,-0.717703640460968,0.0,0.0,0.0
1759182027.1002135,0,-1.2049999237060547,-0.8299995064735413,-0.7177036404655137,0.0,True,0.010512351989746094,-1.2049999237060547,-0.8299995064735413,-0.717703640460968,0.0,0.0,0.0
1759182027.110602,0,-1.2049999237060547,-0.8299995064735413,-0.7177036404652863,0.0,True,0.010388374328613281,-1.2049999237060547,-0.8299995064735413,-0.717703640460968,0.0,0.0,0.0
1759182027.121146,0,-1.2049999237060547,-0.8299995064735413,-0.7177036404651069,0.0,True,0.010544061660766602,-1.2049999237060547,-0.8299995064735413,-0.717703640460968,0.0,0.0,0.0
1759182027.1314943,0,-1.2049999237060547,-0.8299995064735413,-0.7177036404649311,0.0,True,0.010348320007324219,-1.2049999237060547,-0.8299995064735413,-0.717703640460968,0.0,0.0,0.0
1759182027.1461027,0,-1.2049999237060547,-0.8299995064735413,-0.7177036404651247,0.0,True,0.014608383178710938,-1.2049999237060547,-0.8299995064735413,-0.717703640460968,0.0,0.0,0.0
1759182027.1528046,0,-1.2049999237060547,-0.8299995064735413,-0.7177036404646042,0.0,True,0.006701946258544922,-1.2049999237060547,-0.8299995064735413,-0.717703640460968,0.0,0.0,0.0
1759182027.1631076,0,-1.2049999237060547,-0.8299995064735413,-0.7177036404644568,0.0,True,0.010303020477294922,-1.2049999237060547,-0.8299995064735413,-0.717703640460968,0.0,0.0,0.0
1759182027.1744869,0,-1.2049999237060547,-0.8299995064735413,-0.7177036404644284,0.0,True,0.011379241943359375,-1.2049999237060547,-0.8299995064735413,-0.717703640460968,0.0,0.0,0.0
1759182027.1845572,0,-1.2049999237060547,-0.8299995064735413,-0.717703640464288,0.0,True,0.010070323944091797,-1.2049999237060547,-0.8299995064735413,-0.717703640460968,0.0,0.0,0.0
1759182027.196096,0,-1.2049999237060547,-0.8299995064735413,-0.7177036404642614,0.0,True,0.01153874397277832,-1.2049999237060547,-0.8299995064735413,-0.717703640460968,0.0,0.0,0.0
1759182027.2072911,0,-1.2049999237060547,-0.8299995064735413,-0.7177036404641939,0.0,True,0.011195182800292969,-1.2049999237060547,-0.8299995064735413,-0.717703640460968,0.0,0.0,0.0
1759182027.217977,0,-1.2049999237060547,-0.8299995064735413,-0.7177036404640802,0.0,True,0.010685920715332031,-1.2049999237060547,-0.8299995064735413,-0.717703640460968,0.0,0.0,0.0
1759182027.229225,0,-1.2049999237060547,-0.8299995064735413,-0.7177036404640056,0.0,True,0.011247873306274414,-1.2049999237060547,-0.8299995064735413,-0.717703640460968,0.0,0.0,0.0
1759182027.2405362,0,-1.2049999237060547,-0.8299995064735413,-0.717703640463931,0.0,True,0.01131129264831543,-1.2049999237060547,-0.8299995064735413,-0.717703640460968,0.0,0.0,0.0
1759182027.2510886,0,-1.2049999237060547,-0.8299995064735413,-0.7177036404638031,0.0,True,0.010552406311035156,-1.2049999237060547,-0.8299995064735413,-0.717703640460968,0.0,0.0,0.0
1759182027.2620106,0,-1.2049999237060547,-0.8299995064735413,-0.7177036404637089,0.0,True,0.010921955108642578,-1.2049999237060547,-0.8299995064735413,-0.717703640460968,0.0,0.0,0.0
1759182027.2725713,0,-1.2049999237060547,-0.8299995064735413,-0.7177036404636006,0.0,True,0.010560750961303711,-1.2049999237060547,-0.8299995064735413,-0.717703640460968,0.0,0.0,0.0
1759182027.2841895,0,-1.2049999237060547,-0.8299995064735413,-0.7177036404635544,0.0,True,0.01161813735961914,-1.2049999237060547,-0.8299995064735413,-0.717703640460968,0.0,0.0,0.0
1759182027.295491,0,-1.2049999237060547,-0.8299995064735413,-0.7177036404634869,0.0,True,0.011301517486572266,-1.2049999237060547,-0.8299995064735413,-0.717703640460968,0.0,0.0,0.0
1759182027.3061357,0,-1.2049999237060547,-0.8299995064735413,-0.7177036404633803,0.0,True,0.010644674301147461,-1.2049999237060547,-0.8299995064735413,-0.717703640460968,0.0,0.0,0.0
1759182027.3161626,0,-1.2049999237060547,-0.8299995064735413,-0.7177036404632489,0.0,True,0.010026931762695312,-1.2049999237060547,-0.8299995064735413,-0.717703640460968,0.0,0.0,0.0
1759182027.32745,0,-1.2049999237060547,-0.8299995064735413,-0.7177036404631991,0.0,True,0.011287450790405273,-1.2049999237060547,-0.8299995064735413,-0.717703640460968,0.0,0.0,0.0
1759182027.3387933,0,-1.2049999237060547,-0.8299995064735413,-0.7177036404631494,0.0,True,0.011343240737915039,-1.2049999237060547,-0.8299995064735413,-0.717703640460968,0.0,0.0,0.0
1759182027.3517246,0,-1.2049999237060547,-0.8299995064735413,-0.71770364046316,0.0,True,0.012931346893310547,-1.2049999237060547,-0.8299995064735413,-0.717703640460968,0.0,0.0,0.0
1759182027.3633368,0,-1.2049999237060547,-0.8299995064735413,-0.7177036404630925,0.0,True,0.011612176895141602,-1.2049999237060547,-0.8299995064735413,-0.717703640460968,0.0,0.0,0.0
1759182027.3746262,0,-1.2049999237060547,-0.8299995064735413,-0.7177036404630037,0.0,True,0.011289358139038086,-1.2049999237060547,-0.8299995064735413,-0.717703640460968,0.0,0.0,0.0
1759182027.3860261,0,-1.2049999237060547,-0.8299995064735413,-0.7177036404629256,0.0,True,0.011399984359741211,-1.2049999237060547,-0.8299995064735413,-0.717703640460968,0.0,0.0,0.0
1759182027.3968704,0,-1.2049999237060547,-0.8299995064735413,-0.7177036404628314,0.0,True,0.010844230651855469,-1.2049999237060547,-0.8299995064735413,-0.717703640460968,0.0,0.0,0.0
1759182027.4072218,0,-1.2049999237060547,-0.8299995064735413,-0.7177036404627302,0.0,True,0.010351419448852539,-1.2049999237060547,-0.8299995064735413,-0.717703640460968,0.0,0.0,0.0
1759182027.4175584,0,-1.2049999237060547,-0.8299995064735413,-0.7177036404626413,0.0,True,0.010336637496948242,-1.2049999237060547,-0.8299995064735413,-0.717703640460968,0.0,0.0,0.0
1759182027.4280224,0,-1.2049999237060547,-0.8299995064735413,-0.7177036404625703,0.0,True,0.010463953018188477,-1.2049999237060547,-0.8299995064735413,-0.717703640460968,0.0,0.0,0.0
1759182027.4382744,0,-1.2049999237060547,-0.8299995064735413,-0.7177036404625028,0.0,True,0.010251998901367188,-1.2049999237060547,-0.8299995064735413,-0.717703640460968,0.0,0.0,0.0
1759182027.4485195,0,-1.2049999237060547,-0.8299995064735413,-0.7177036404624406,0.0,True,0.010245084762573242,-1.2049999237060547,-0.8299995064735413,-0.717703640460968,0.0,0.0,0.0
1759182027.4588957,0,-1.2049999237060547,-0.8299995064735413,-0.7177036404623891,0.0,True,0.010376214981079102,-1.2049999237060547,-0.8299995064735413,-0.717703640460968,0.0,0.0,0.0
1759182027.4697978,0,-1.2049999237060547,-0.8299995064735413,-0.7177036404623571,0.0,True,0.010902166366577148,-1.2049999237060547,-0.8299995064735413,-0.717703640460968,0.0,0.0,0.0
1759182027.4799619,0,-1.2049999237060547,-0.8299995064735413,-0.7177036404623021,0.0,True,0.010164022445678711,-1.2049999237060547,-0.8299995064735413,-0.717703640460968,0.0,0.0,0.0
1759182027.4913068,0,-1.2049999237060547,-0.8299995064735413,-0.7177036404622843,0.0,True,0.01134490966796875,-1.2049999237060547,-0.8299995064735413,-0.717703640460968,0.0,0.0,0.0
1759182027.5024652,0,-1.2049999237060547,-0.8299995064735413,-0.7177036404622577,0.0,True,0.011158466339111328,-1.2049999237060547,-0.8299995064735413,-0.717703640460968,0.0,0.0,0.0
1759182027.5129764,0,-1.2049999237060547,-0.8299995064735413,-0.7177036404622044,0.0,True,0.010511159896850586,-1.2049999237060547,-0.8299995064735413,-0.717703640460968,0.0,0.0,0.0
1759182027.523469,0,-1.2049999237060547,-0.8299995064735413,-0.7177036404621582,0.0,True,0.010492563247680664,-1.2049999237060547,-0.8299995064735413,-0.717703640460968,0.0,0.0,0.0
1759182027.5521777,0,-1.2049999237060547,-0.8299995064735413,-0.7177036404625383,0.0,True,0.028708696365356445,-1.2049999237060547,-0.8299995064735413,-0.717703640460968,0.0,0,0
1759182027.5622475,0,-1.2049999237060547,-0.8299995064735413,-0.7177036404623607,0.0,True,0.010069847106933594,-1.2049999237060547,-0.8299995064735413,-0.717703640460968,0.0,0,0
1759182027.5733967,0,-1.2049999237060547,-0.8299995064735413,-0.7177036404622186,0.0,True,0.011149168014526367,-1.2049999237060547,-0.8299995064735413,-0.717703640460968,0.0,0,0
1759182027.583903,0,-1.2049999237060547,-0.8299995064735413,-0.7177036404620996,0.0,True,0.010506391525268555,-1.2049999237060547,-0.8299995064735413,-0.717703640460968,0.0,0,0
1759182027.5944095,0,-1.2049999237060547,-0.8299995064735413,-0.7177036404620072,0.0,True,0.010506391525268555,-1.2049999237060547,-0.8299995064735413,-0.717703640460968,0.0,0,0
1759182027.6048832,0,-1.2049999237060547,-0.8299995064735413,-0.7177036404619344,0.0,True,0.01047372817993164,-1.2049999237060547,-0.8299995064735413,-0.717703640460968,0.0,0,0
1759182027.6150622,0,-1.2049999237060547,-0.8299995064735413,-0.7177036404618704,0.0,True,0.01017904281616211,-1.2049999237060547,-0.8299995064735413,-0.717703640460968,0.0,0,0
1759182027.6266036,0,-1.2049999237060547,-0.8299995064735413,-0.7177036404618455,0.0,True,0.011541366577148438,-1.2049999237060547,-0.8299995064735413,-0.717703640460968,0.0,0,0
1759182027.636864,0,-1.2049999237060547,-0.8299995064735413,-0.7177036404617958,0.0,True,0.010260343551635742,-1.2049999237060547,-0.8299995064735413,-0.717703640460968,0.0,0,0
1759182027.646872,0,-1.2049999237060547,-0.8299995064735413,-0.7177036404617496,0.0,True,0.010008096694946289,-1.2049999237060547,-0.8299995064735413,-0.717703640460968,0.0,0,0
1759182027.656946,0,-1.2049999237060547,-0.8299995064735413,-0.7177036404617141,0.0,True,0.01007390022277832,-1.2049999237060547,-0.8299995064735413,-0.717703640460968,0.0,0,0
1759182027.6682463,0,-1.2049999237060547,-0.8299995064735413,-0.7177036404616999,0.0,True,0.011300325393676758,-1.2049999237060547,-0.8299995064735413,-0.717703640460968,0.0,0,0
1759182027.6795516,0,-1.2049999237060547,-0.8299995064735413,-0.7177036404616857,0.0,True,0.01130533218383789,-1.2049999237060547,-0.8299995064735413,-0.717703640460968,0.0,0,0
1759182027.6909976,0,-1.2049999237060547,-0.8299995064735413,-0.7177036404616715,0.0,True,0.011445999145507812,-1.2049999237060547,-0.8299995064735413,-0.717703640460968,0.0,0,0
1759182027.7013166,0,-1.2049999237060547,-0.8299995064735413,-0.7177036404616395,0.0,True,0.010318994522094727,-1.2049999237060547,-0.8299995064735413,-0.717703640460968,0.0,0,0
1759182027.711359,0,-1.2049999237060547,-0.8299995064735413,-0.7177036404616057,0.0,True,0.010042428970336914,-1.2049999237060547,-0.8299995064735413,-0.717703640460968,0.0,0,0
1759182027.7218163,0,-1.2049999237060547,-0.8299995064735413,-0.7177036404615809,0.0,True,0.010457277297973633,-1.2049999237060547,-0.8299995064735413,-0.717703640460968,0.0,0,0
1759182027.7332194,0,-1.2049999237060547,-0.8299995064735413,-0.717703640461572,0.0,True,0.011403083801269531,-1.2049999237060547,-0.8299995064735413,-0.717703640460968,0.0,0,0
1759182027.7434628,0,-1.2049999237060547,-0.8299995064735413,-0.7177036404615471,0.0,True,0.010243415832519531,-1.2049999237060547,-0.8299995064735413,-0.717703640460968,0.0,0,0
1759182027.7664485,0,-1.2049999237060547,-0.8299995064735413,-0.717703640461675,0.0,True,0.02298569679260254,-1.2049999237060547,-0.8299995064735413,-0.717703640460968,0.0,0,0
1759182027.7777793,0,-1.2049999237060547,-0.8299995064735413,-0.7177036404616217,0.0,True,0.011330842971801758,-1.2049999237060547,-0.8299995064735413,-0.717703640460968,0.0,0,0
1759182027.7878878,0,-1.2049999237060547,-0.8299995064735413,-0.7177036404615578,0.0,True,0.010108470916748047,-1.2049999237060547,-0.8299995064735413,-0.717703640460968,0.0,0,0
1759182027.7984412,0,-1.2049999237060547,-0.8299995064735413,-0.717703640461508,0.0,True,0.010553359985351562,-1.2049999237060547,-0.8299995064735413,-0.717703640460968,0.0,0,0
1759182027.8101013,0,-1.2049999237060547,-0.8299995064735413,-0.7177036404614832,0.0,True,0.011660099029541016,-1.2049999237060547,-0.8299995064735413,-0.717703640460968,0.0,0,0
1759182027.8211966,0,-1.2049999237060547,-0.8299995064735413,-0.7177036404614583,0.0,True,0.011095285415649414,-1.2049999237060547,-0.8299995064735413,-0.717703640460968,0.0,0,0
1759182027.8322058,0,-1.2049999237060547,-0.8299995064735413,-0.7177036404614334,0.0,True,0.01100921630859375,-1.2049999237060547,-0.8299995064735413,-0.717703640460968,0.0,0,0
1759182027.843204,0,-1.2049999237060547,-0.8299995064735413,-0.7177036404614103,0.0,True,0.010998249053955078,-1.2049999237060547,-0.8299995064735413,-0.717703640460968,0.0,0,0
1759182027.854556,0,-1.2049999237060547,-0.8299995064735413,-0.7177036404613961,0.0,True,0.011352062225341797,-1.2049999237060547,-0.8299995064735413,-0.717703640460968,0.0,0,0
1759182027.864668,0,-1.2049999237060547,-0.8299995064735413,-0.7177036404613695,0.0,True,0.010111808776855469,-1.2049999237060547,-0.8299995064735413,-0.717703640460968,0.0,0,0
1759182027.8747487,0,-1.2049999237060547,-0.8299995064735413,-0.7177036404613482,0.0,True,0.010080814361572266,-1.2049999237060547,-0.8299995064735413,-0.717703640460968,0.0,0,0
1759182027.8854077,0,-1.2049999237060547,-0.8299995064735413,-0.717703640461334,0.0,True,0.010658979415893555,-1.2049999237060547,-0.8299995064735413,-0.717703640460968,0.0,0,0
1759182027.896407,0,-1.2049999237060547,-0.8299995064735413,-0.7177036404613268,0.0,True,0.010999202728271484,-1.2049999237060547,-0.8299995064735413,-0.717703640460968,0.0,0,0
1759182027.907968,0,-1.2049999237060547,-0.8299995064735413,-0.7177036404613197,0.0,True,0.011561155319213867,-1.2049999237060547,-0.8299995064735413,-0.717703640460968,0.0,0,0
1759182027.9195027,0,-1.2049999237060547,-0.8299995064735413,-0.7177036404613126,0.0,True,0.011534690856933594,-1.2049999237060547,-0.8299995064735413,-0.717703640460968,0.0,0,0
1759182027.929786,0,-1.2049999237060547,-0.8299995064735413,-0.7177036404612966,0.0,True,0.010283231735229492,-1.2049999237060547,-0.8299995064735413,-0.717703640460968,0.0,0,0
1759182027.9406476,0,-1.2049999237060547,-0.8299995064735413,-0.7177036404612842,0.0,True,0.010861635208129883,-1.2049999237060547,-0.8299995064735413,-0.717703640460968,0.0,0,0
1759182027.951208,0,-1.2049999237060547,-0.8299995064735413,-0.71770364046127,0.0,True,0.01056051254272461,-1.2049999237060547,-0.8299995064735413,-0.717703640460968,0.0,0,0
1759182027.9698658,0,-1.2049999237060547,-0.8299995064735413,-0.7177036404613091,0.0,True,0.018657684326171875,-1.2049999237060547,-0.8299995064735413,-0.717703640460968,0.0,0,0
1759182027.9809597,0,-1.2049999237060547,-0.8299995064735413,-0.717703640461286,0.0,True,0.011093854904174805,-1.2049999237060547,-0.8299995064735413,-0.717703640460968,0.0,0,0
1759182027.9913397,0,-1.2049999237060547,-0.8299995064735413,-0.7177036404612611,0.0,True,0.010380029678344727,-1.2049999237060547,-0.8299995064735413,-0.717703640460968,0.0,0,0
1759182028.0027318,0,-1.2049999237060547,-0.8299995064735413,-0.7177036404612469,0.0,True,0.01139211654663086,-1.2049999237060547,-0.8299995064735413,-0.717703640460968,0.0,0,0
1759182028.0133607,0,-1.2049999237060547,-0.8299995064735413,-0.7177036404612309,0.0,True,0.010628938674926758,-1.2049999237060547,-0.8299995064735413,-0.717703640460968,0.0,0,0
1759182028.0248737,0,-1.2049999237060547,-0.8299995064735413,-0.7177036404612203,0.0,True,0.011512994766235352,-1.2049999237060547,-0.8299995064735413,-0.717703640460968,0.0,0,0
1759182028.0352755,0,-1.2049999237060547,-0.8299995064735413,-0.717703640461206,0.0,True,0.010401725769042969,-1.2049999237060547,-0.8299995064735413,-0.717703640460968,0.0,0,0
1759182028.046255,0,-1.2049999237060547,-0.8299995064735413,-0.7177036404611954,0.0,True,0.010979652404785156,-1.2049999237060547,-0.8299995064735413,-0.717703640460968,0.0,0,0
1759182028.0570474,0,-1.2049999237060547,-0.8299995064735413,-0.7177036404611883,0.0,True,0.010792255401611328,-1.2049999237060547,-0.8299995064735413,-0.717703640460968,0.0,0,0
1759182028.0681322,0,-1.2049999237060547,-0.8299995064735413,-0.7177036404611812,0.0,True,0.011084794998168945,-1.2049999237060547,-0.8299995064735413,-0.717703640460968,0.0,0,0
1759182028.079471,0,-1.2049999237060547,-0.8299995064735413,-0.7177036404611741,0.0,True,0.011338949203491211,-1.2049999237060547,-0.8299995064735413,-0.717703640460968,0.0,0,0
1759182028.0902355,0,-1.2049999237060547,-0.8299995064735413,-0.717703640461167,0.0,True,0.010764360427856445,-1.2049999237060547,-0.8299995064735413,-0.717703640460968,0.0,0,0
1759182028.1010964,0,-1.2049999237060547,-0.8299995064735413,-0.7177036404611599,0.0,True,0.010860919952392578,-1.2049999237060547,-0.8299995064735413,-0.717703640460968,0.0,0,0
1759182028.1112401,0,-1.2049999237060547,-0.8299995064735413,-0.7177036404611492,0.0,True,0.010143756866455078,-1.2049999237060547,-0.8299995064735413,-0.717703640460968,0.0,0,0
1759182028.121247,0,-1.2049999237060547,-0.8299995064735413,-0.7177036404611385,0.0,True,0.010006904602050781,-1.2049999237060547,-0.8299995064735413,-0.717703640460968,0.0,0,0
1759182028.1325884,0,-1.2049999237060547,-0.8299995064735413,-0.7177036404611368,0.0,True,0.011341333389282227,-1.2049999237060547,-0.8299995064735413,-0.717703640460968,0.0,0,0
1759182028.1428218,0,-1.2049999237060547,-0.8299995064735413,-0.7177036404611279,0.0,True,0.010233402252197266,-1.2049999237060547,-0.8299995064735413,-0.717703640460968,0.0,0,0
1759182028.152949,0,-1.2049999237060547,-0.8299995064735413,-0.7177036404611208,0.0,True,0.01012730598449707,-1.2049999237060547,-0.8299995064735413,-0.717703640460968,0.0,0,0
1759182028.1667876,0,-1.2049999237060547,-0.8299995064735413,-0.7177036404611279,0.0,True,0.013838529586791992,-1.2049999237060547,-0.8299995064735413,-0.717703640460968,0.0,0,0
1759182028.1781876,0,-1.2049999237060547,-0.8299995064735413,-0.7177036404611243,0.0,True,0.011399984359741211,-1.2049999237060547,-0.8299995064735413,-0.717703640460968,0.0,0,0
1759182028.189588,0,-1.2049999237060547,-0.8299995064735413,-0.7177036404611172,0.0,True,0.011400461196899414,-1.2049999237060547,-0.8299995064735413,-0.717703640460968,0.0,0,0
1759182028.20114,0,-1.2049999237060547,-0.8299995064735413,-0.7177036404611137,0.0,True,0.011551856994628906,-1.2049999237060547,-0.8299995064735413,-0.717703640460968,0.0,0,0
1759182028.2113733,0,-1.2049999237060547,-0.8299995064735413,-0.7177036404611066,0.0,True,0.010233402252197266,-1.2049999237060547,-0.8299995064735413,-0.717703640460968,0.0,0,0
1759182028.222898,0,-1.2049999237060547,-0.8299995064735413,-0.7177036404611012,0.0,True,0.011524677276611328,-1.2049999237060547,-0.8299995064735413,-0.717703640460968,0.0,0,0
1759182028.233285,0,-1.2049999237060547,-0.8299995064735413,-0.7177036404610924,0.0,True,0.010386943817138672,-1.2049999237060547,-0.8299995064735413,-0.717703640460968,0.0,0,0
1759182028.244306,0,-1.2049999237060547,-0.8299995064735413,-0.7177036404610888,0.0,True,0.011021137237548828,-1.2049999237060547,-0.8299995064735413,-0.717703640460968,0.0,0,0
1759182028.2543714,0,-1.2049999237060547,-0.8299995064735413,-0.7177036404610817,0.0,True,0.010065317153930664,-1.2049999237060547,-0.8299995064735413,-0.717703640460968,0.0,0,0
1759182028.2650163,0,-1.2049999237060547,-0.8299995064735413,-0.7177036404610782,0.0,True,0.010644912719726562,-1.2049999237060547,-0.8299995064735413,-0.717703640460968,0.0,0,0
1759182028.2763796,0,-1.2049999237060547,-0.8299995064735413,-0.7177036404610764,0.0,True,0.01136326789855957,-1.2049999237060547,-0.8299995064735413,-0.717703640460968,0.0,0,0
1759182028.287592,0,-1.2049999237060547,-0.8299995064735413,-0.7177036404610746,0.0,True,0.011212348937988281,-1.2049999237060547,-0.8299995064735413,-0.717703640460968,0.0,0,0
1759182028.2991183,0,-1.2049999237060547,-0.8299995064735413,-0.717703640461071,0.0,True,0.011526346206665039,-1.2049999237060547,-0.8299995064735413,-0.717703640460968,0.0,0,0
1759182028.309903,0,-1.2049999237060547,-0.8299995064735413,-0.7177036404610675,0.0,True,0.010784626007080078,-1.2049999237060547,-0.8299995064735413,-0.717703640460968,0.0,0,0
1759182028.3212411,0,-1.2049999237060547,-0.8299995064735413,-0.7177036404610639,0.0,True,0.011338233947753906,-1.2049999237060547,-0.8299995064735413,-0.717703640460968,0.0,0,0
1759182028.3321006,0,-1.2049999237060547,-0.8299995064735413,-0.7177036404610604,0.0,True,0.010859489440917969,-1.2049999237060547,-0.8299995064735413,-0.717703640460968,0.0,0,0
1759182028.3425794,0,-1.2049999237060547,-0.8299995064735413,-0.7177036404610568,0.0,True,0.010478734970092773,-1.2049999237060547,-0.8299995064735413,-0.717703640460968,0.0,0,0
1759182028.3541434,0,-1.2049999237060547,-0.8299995064735413,-0.7177036404610568,0.0,True,0.011564016342163086,-1.2049999237060547,-0.8299995064735413,-0.717703640460968,0.0,0,0
1759182028.3863723,0,-1.2049999237060547,-0.8299995064735413,-0.7177036404610888,0.0,True,0.032228946685791016,-1.2049999237060547,-0.8299995064735413,-0.717703640460968,0.0,0,0
1759182028.3975642,0,-1.2049999237060547,-0.8299995064735413,-0.7177036404610746,0.0,True,0.011191844940185547,-1.2049999237060547,-0.8299995064735413,-0.717703640460968,0.0,0,0
1759182028.4082675,0,-1.2049999237060547,-0.8299995064735413,-0.7177036404610604,0.0,True,0.010703325271606445,-1.2049999237060547,-0.8299995064735413,-0.717703640460968,0.0,0,0
1759182028.418336,0,-1.2049999237060547,-0.8299995064735413,-0.7177036404610497,0.0,True,0.010068416595458984,-1.2049999237060547,-0.8299995064735413,-0.717703640460968,0.0,0,0
1759182028.4298062,0,-1.2049999237060547,-0.8299995064735413,-0.7177036404610426,0.0,True,0.011470317840576172,-1.2049999237060547,-0.8299995064735413,-0.717703640460968,0.0,0,0
1759182028.4411068,0,-1.2049999237060547,-0.8299995064735413,-0.7177036404610391,0.0,True,0.01130056381225586,-1.2049999237060547,-0.8299995064735413,-0.717703640460968,0.0,0,0
1759182028.4520156,0,-1.2049999237060547,-0.8299995064735413,-0.7177036404610355,0.0,True,0.010908842086791992,-1.2049999237060547,-0.8299995064735413,-0.717703640460968,0.0,0,0
1759182028.4634595,0,-1.2049999237060547,-0.8299995064735413,-0.717703640461032,0.0,True,0.011443853378295898,-1.2049999237060547,-0.8299995064735413,-0.717703640460968,0.0,0,0
1759182028.4735405,0,-1.2049999237060547,-0.8299995064735413,-0.7177036404610266,0.0,True,0.010081052780151367,-1.2049999237060547,-0.8299995064735413,-0.717703640460968,0.0,0,0
1759182028.4843974,0,-1.2049999237060547,-0.8299995064735413,-0.7177036404610231,0.0,True,0.010856866836547852,-1.2049999237060547,-0.8299995064735413,-0.717703640460968,0.0,0,0
1759182028.4956806,0,-1.2049999237060547,-0.8299995064735413,-0.7177036404610213,0.0,True,0.011283159255981445,-1.2049999237060547,-0.8299995064735413,-0.717703640460968,0.0,0,0
1759182028.5065918,0,-1.2049999237060547,-0.8299995064735413,-0.7177036404610178,0.0,True,0.010911226272583008,-1.2049999237060547,-0.8299995064735413,-0.717703640460968,0.0,0,0
1759182028.5171492,0,-1.2049999237060547,-0.8299995064735413,-0.717703640461016,0.0,True,0.010557413101196289,-1.2049999237060547,-0.8299995064735413,-0.717703640460968,0.0,0,0
1759182028.528067,0,-1.2049999237060547,-0.8299995064735413,-0.7177036404610142,0.0,True,0.010917901992797852,-1.2049999237060547,-0.8299995064735413,-0.717703640460968,0.0,0,0
1759182028.5387242,0,-1.2049999237060547,-0.8299995064735413,-0.7177036404610142,0.0,True,0.010657072067260742,-1.2049999237060547,-0.8299995064735413,-0.717703640460968,0.0,0,0
1759182028.550028,0,-1.2049999237060547,-0.8299995064735413,-0.7177036404610142,0.0,True,0.011303901672363281,-1.2049999237060547,-0.8299995064735413,-0.717703640460968,0.0,0.5235987755982988,0.030211354729910756
1759182028.5735335,0,-1.204987541353635,-0.8300103392666125,-0.7177017630730287,0.00013143955607764258,True,0.023505449295043945,-1.2049813270568848,-0.8300157785415649,-0.7176996469497681,0.00013143955607764258,0.5235987755982988,0.030198699774259957
1759182028.5849655,0,-1.2049832683432113,-0.8300140783815647,-0.7177011914825435,0.00013143955607764258,True,0.01143193244934082,-1.2049813270568848,-0.8300157785415649,-0.7176996469497681,0.00013143955607764258,0.5235987755982988,0.030383762257595388
1759182028.5964863,0,-1.2049816328348413,-0.8300155095324188,-0.7177005705975184,0.00013143955607764258,True,0.011520862579345703,-1.2049813270568848,-0.8300157785415649,-0.7176996469497681,0.00013143955607764258,0.5235987755982988,0.0295727772828754
1759182028.6066062,0,-1.2049810611108769,-0.8300160099268684,-0.7177001639203979,0.00013143955607764258,True,0.010119915008544922,-1.2049813270568848,-0.8300157785415649,-0.7176996469497681,0.00013143955607764258,0.5235987755982988,0.03042905677981706
1759182028.6172817,0,-1.2049808217216134,-0.8300162194022955,-0.7176998227536071,0.00013143955607764258,True,0.010675430297851562,-1.2049813270568848,-0.8300157785415649,-0.7176996469497681,0.00013143955607764258,0.5235987755982988,0.030243750134133354
1759182028.6277947,0,-1.2049807364236291,-0.8300162940537816,-0.7176995927279286,0.00013143955607764258,True,0.010513067245483398,-1.2049813270568848,-0.8300157785415649,-0.7176996469497681,0.00013143955607764258,0.5235987755982988,0.03359647096480751
1759182028.6392627,0,-1.2049806677288353,-0.830016354095619,-0.7176993884474356,0.00013143955607764258,True,0.011467933654785156,-1.2049813270568848,-0.8300157785415649,-0.7176996469497681,0.00013143955607764258,0.5235987755982988,0.03455895145112302
1759182028.6498842,0,-1.2049806735006603,-0.8300163490836715,-0.7176992937668984,0.00013143955607764258,True,0.01062154769897461,-1.2049813270568848,-0.8300157785415649,-0.7176996469497681,0.00013143955607764258,0.5235987755982988,0.0321041964625516
1759182028.6599553,0,-1.2049806965259309,-0.8300163289926625,-0.7176992330160132,0.00013143955607764258,True,0.010071039199829102,-1.2049813270568848,-0.8300157785415649,-0.7176996469497681,0.00013143955607764258,0.5235987755982988,0.03214583634422629
1759182028.670931,0,-1.2049806711005917,-0.8300163511930079,-0.7176991437083231,0.00013143955607764258,True,0.010975837707519531,-1.2049813270568848,-0.8300157785415649,-0.7176996469497681,0.00013143955607764258,0.5235987755982988,0.03291741704001718
1759182028.682069,0,-1.2049806552572644,-0.8300163650257476,-0.717699091834783,0.00013143955607764258,True,0.011137962341308594,-1.2049813270568848,-0.8300157785415649,-0.7176996469497681,0.00013143955607764258,0.5235987755982988,0.0346090468290642
1759182028.6925616,0,-1.2049806736151363,-0.8300163489997113,-0.7176990857549939,0.00013143955607764258,True,0.010492563247680664,-1.2049813270568848,-0.8300157785415649,-0.7176996469497681,0.00013143955607764258,0.5235987755982988,0.034224255920514035
1759182028.7041576,0,-1.204980638895714,-0.8300163793101759,-0.7176990290390322,0.00013143955607764258,True,0.011595964431762695,-1.2049813270568848,-0.8300157785415649,-0.7176996469497681,0.00013143955607764258,0.5235987755982988,0.031589085858215876
1759182028.7152097,0,-1.20498064620224,-0.8300163729315645,-0.7176990319640808,0.00013143955607764258,True,0.011052131652832031,-1.2049813270568848,-0.8300157785415649,-0.7176996469497681,0.00013143955607764258,0.5235987755982988,0.03419290325877266
1759182028.7266595,0,-1.2049806339524307,-0.8300163836257389,-0.7176990123665838,0.00013143955607764258,True,0.011449813842773438,-1.2049813270568848,-0.8300157785415649,-0.7176996469497681,0.00013143955607764258,0.5235987755982988,0.03237681726351341
1759182028.7380066,0,-1.2049806331598174,-0.830016384317687,-0.7176990116370625,0.00013143955607764258,True,0.011347055435180664,-1.2049813270568848,-0.8300157785415649,-0.7176996469497681,0.00013143955607764258,0.5235987755982988,0.03510241583439882
1759182028.749286,0,-1.2049806354179446,-0.8300163823463239,-0.7176990145363256,0.00013143955607764258,True,0.01127934455871582,-1.2049813270568848,-0.8300157785415649,-0.7176996469497681,0.00013143955607764258,0.5235987755982988,0.03187829942925517
1759182028.764889,0,-1.1998391807213142,-0.834441217279626,-0.713369567424591,0.055819917500279856,True,0.015603065490722656,-1.197067141532898,-0.836821973323822,-0.7026674747467041,0.055819917500279856,0.5235987755982988,0.033319353302416366
1759182028.7696748,0,-1.1980487941725757,-0.8359793619279732,-0.7103108752952316,0.055819917500279856,True,0.004785776138305664,-1.197067141532898,-0.836821973323822,-0.7026674747467041,0.055819917500279856,0.5235987755982988,0.03403698718473939
1759182028.7810585,0,-1.197258072576488,-0.8366583824759436,-0.707822548922934,0.055819917500279856,True,0.011383771896362305,-1.197067141532898,-0.836821973323822,-0.7026674747467041,0.055819917500279856,0.5235987755982988,0.030207579886575752
1759182028.791524,0,-1.1969705361195768,-0.8369045649722567,-0.7060828978212097,0.055819917500279856,True,0.010465383529663086,-1.197067141532898,-0.836821973323822,-0.7026674747467041,0.055819917500279856,0.5235987755982988,0.029483579765204992
1759182028.8029163,0,-1.1968454240214705,-0.8370111367223987,-0.704783679408095,0.055819917500279856,True,0.011392354965209961,-1.197067141532898,-0.836821973323822,-0.7026674747467041,0.055819917500279856,0.5235987755982988,0.031708378681287536
1759182028.8133473,0,-1.19681304636789,-0.8370383272826032,-0.7038835493615672,0.055819917500279856,True,0.010431051254272461,-1.197067141532898,-0.836821973323822,-0.7026674747467041,0.055819917500279856,0.5235987755982988,0.03244630624212483
1759182028.8243082,0,-1.1967919432906722,-0.8370558760740416,-0.7032094718936079,0.055819917500279856,True,0.010960817337036133,-1.197067141532898,-0.836821973323822,-0.7026674747467041,0.055819917500279856,0.5235987755982988,0.030063103203184678
1759182028.8344562,0,-1.196796999111344,-0.8370512528191507,-0.7027590468324618,0.055819917500279856,True,0.010148048400878906,-1.197067141532898,-0.836821973323822,-0.7026674747467041,0.055819917500279856,0.5235987755982988,0.030879708865540395
1759182028.845487,0,-1.1967845077674553,-0.837061583884979,-0.7024007600651156,0.055819917500279856,True,0.011030912399291992,-1.197067141532898,-0.836821973323822,-0.7026674747467041,0.055819917500279856,0.5235987755982988,0.030753979945713154
1759182028.8567975,0,-1.1967751370102944,-0.8370693176331411,-0.7021436013252114,0.055819917500279856,True,0.011310338973999023,-1.197067141532898,-0.836821973323822,-0.7026674747467041,0.055819917500279856,0.5235987755982988,0.029133080148127356
1759182028.867563,0,-1.1967803848427623,-0.837064721401747,-0.7019870506024297,0.055819917500279856,True,0.010765552520751953,-1.197067141532898,-0.836821973323822,-0.7026674747467041,0.055819917500279856,0.5235987755982988,0.030131896346552788
1759182028.878804,0,-1.1967746287233818,-0.8370694864212324,-0.701860986986345,0.055819917500279856,True,0.011240959167480469,-1.197067141532898,-0.836821973323822,-0.7026674747467041,0.055819917500279856,0.5235987755982988,0.02940147627692852
1759182028.8890188,0,-1.1967891152485177,-0.8370571539658251,-0.7018161974321941,0.055819917500279856,True,0.010214805603027344,-1.197067141532898,-0.836821973323822,-0.7026674747467041,0.055819917500279856,0.5235987755982988,0.03006347139469428
1759182028.9003627,0,-1.196776261088464,-0.8370679837609327,-0.7017451936469392,0.055819917500279856,True,0.011343955993652344,-1.197067141532898,-0.836821973323822,-0.7026674747467041,0.055819917500279856,0.5235987755982988,0.02825721162240099
1759182028.9111185,0,-1.1967809160842753,-0.8370640096321182,-0.7017290155324645,0.055819917500279856,True,0.010755777359008789,-1.197067141532898,-0.836821973323822,-0.7026674747467041,0.055819917500279856,0.5235987755982988,0.029299018440830733
1759182028.9214938,0,-1.1967888866399523,-0.8370572499605035,-0.7017334057686604,0.055819917500279856,True,0.010375261306762695,-1.197067141532898,-0.836821973323822,-0.7026674747467041,0.055819917500279856,0.5235987755982988,0.028302982431273153
1759182028.9324567,0,-1.1967823639770376,-0.8370627602774527,-0.701721131275967,0.055819917500279856,True,0.010962963104248047,-1.197067141532898,-0.836821973323822,-0.7026674747467041,0.055819917500279856,0.5235987755982988,0.02886118699224135
1759182028.9435492,0,-1.1967777632866212,-0.8370666455422475,-0.7017194506230986,0.055819917500279856,True,0.011092424392700195,-1.197067141532898,-0.836821973323822,-0.7026674747467041,0.055819917500279856,0.5235987755982988,0.027794808940052616
1759182028.9546413,0,-1.19677600973567,-0.8370681261509588,-0.7017269813893776,0.055819917500279856,True,0.011092185974121094,-1.197067141532898,-0.836821973323822,-0.7026674747467041,0.055819917500279856,0.5235987755982988,0.028272938461026804
1759182028.9905643,0,-1.1861315417472746,-0.8456733185425492,-0.6867577781158314,0.08759214102709692,True,0.035923004150390625,-1.181038737297058,-0.8497369885444641,-0.6565167903900146,0.08759214102709692,0.5235987755982988,0.030003408385666147
1759182029.0014427,0,-1.1827024102941415,-0.8484153792542989,-0.6768332119213039,0.08759214102709692,True,0.010878324508666992,-1.181038737297058,-0.8497369885444641,-0.6565167903900146,0.08759214102709692,0.5235987755982988,0.029900338648445053
1759182029.0127587,0,-1.18137896906065,-0.8494691965230238,-0.66958817704956,0.08759214102709692,True,0.011316061019897461,-1.181038737297058,-0.8497369885444641,-0.6565167903900146,0.08759214102709692,0.5235987755982988,0.03155363790473028
1759182029.0228183,0,-1.1809047564291364,-0.8498435397198624,-0.6646261564738118,0.08759214102709692,True,0.010059595108032227,-1.181038737297058,-0.8497369885444641,-0.6565167903900146,0.08759214102709692,0.5235987755982988,0.0282557528684252
1759182029.0334604,0,-1.180707277530334,-0.8499972669940804,-0.6610379734055307,0.08759214102709692,True,0.010642051696777344,-1.181038737297058,-0.8497369885444641,-0.6565167903900146,0.08759214102709692,0.5235987755982988,0.02999642321247256
1759182029.043873,0,-1.180637137532432,-0.8500502917669607,-0.6585157633752985,0.08759214102709692,True,0.01041269302368164,-1.181038737297058,-0.8497369885444641,-0.6565167903900146,0.08759214102709692,0.5235987755982988,0.03084635046269535
1759182029.0546227,0,-1.1806009081549345,-0.8500767675944941,-0.6566790279213119,0.08759214102709692,True,0.010749578475952148,-1.181038737297058,-0.8497369885444641,-0.6565167903900146,0.08759214102709692,0.5235987755982988,0.031448639292609555
1759182029.0652092,0,-1.1805909967956398,-0.8500830389772283,-0.6553986775262501,0.08759214102709692,True,0.01058650016784668,-1.181038737297058,-0.8497369885444641,-0.6565167903900146,0.08759214102709692,0.5235987755982988,0.03006203105283095
1759182029.0753822,0,-1.1805979050913562,-0.8500766512537101,-0.6545469091997802,0.08759214102709692,True,0.01017308235168457,-1.181038737297058,-0.8497369885444641,-0.6565167903900146,0.08759214102709692,0.5235987755982988,0.02994318033843722
1759182029.0865312,0,-1.180574476347047,-0.8500938719292301,-0.6538385239364519,0.08759214102709692,True,0.011148929595947266,-1.181038737297058,-0.8497369885444641,-0.6565167903900146,0.08759214102709692,0.5235987755982988,0.028176545001054612
1759182029.0965638,0,-1.180595008758842,-0.850077520547011,-0.6534906125532736,0.08759214102709692,True,0.01003265380859375,-1.181038737297058,-0.8497369885444641,-0.6565167903900146,0.08759214102709692,0.5235987755982988,0.02805649850176619
1759182029.107232,0,-1.1805859018251907,-0.8500841191507529,-0.6531858766325911,0.08759214102709692,True,0.010668277740478516,-1.181038737297058,-0.8497369885444641,-0.6565167903900146,0.08759214102709692,0.5235987755982988,0.030408436276788846
1759182029.118359,0,-1.180570174509696,-0.8500958873782894,-0.6529476398475289,0.08759214102709692,True,0.011126995086669922,-1.181038737297058,-0.8497369885444641,-0.6565167903900146,0.08759214102709692,0.5235987755982988,0.029507243266541958
1759182029.128567,0,-1.180588533901436,-0.8500816241270193,-0.6529103905106624,0.08759214102709692,True,0.010207891464233398,-1.181038737297058,-0.8497369885444641,-0.6565167903900146,0.08759214102709692,0.5235987755982988,0.02822255686548253
1759182029.1398008,0,-1.1805682823420593,-0.8500970283366345,-0.652796372033956,0.08759214102709692,True,0.011233806610107422,-1.181038737297058,-0.8497369885444641,-0.6565167903900146,0.08759214102709692,0.5235987755982988,0.028009314396804402
1759182029.1511593,0,-1.1805572093447219,-0.8501054155511318,-0.6527414597985555,0.08759214102709692,True,0.011358499526977539,-1.181038737297058,-0.8497369885444641,-0.6565167903900146,0.08759214102709692,0.5235987755982988,0.02894407055510699
1759182029.1817045,0,-1.167950243250386,-0.8592284457169577,-0.6335212809183677,0.12524992867642412,True,0.03054523468017578,-1.1620380878448486,-0.863431990146637,-0.5980029106140137,0.12524992867642412,0.5235987755982988,0.03149292231766963
