timestamp,vehicle_id,x,y,theta,velocity,gps_available,dt,gps_x,gps_y,gps_theta,gps_velocity,control_steering,control_acceleration
1759663726.8930335,1,-1.735,-0.35,-0.7801621756414647,0.0,False,0.01,nan,nan,nan,nan,0.0,0.0
1759663726.9039614,1,-1.735,-0.35,-0.7801621756414647,0.0,False,0.010927915573120117,nan,nan,nan,nan,0.0,0.0
1759663728.250968,1,-1.7350000141675657,-0.3499999940968477,-0.7230004746724248,0.0,True,0.1,-1.7350000143051147,-0.3499999940395355,-0.7177028059959412,0.0,0.0,0.0
1759663728.3714626,1,-1.7350000142591175,-0.349999994058701,-0.7180952630358632,0.0,True,0.1,-1.7350000143051147,-0.3499999940395355,-0.7177028059959412,0.0,0.0,0.0
1759663728.495781,1,-1.7350000142878588,-0.3499999940467255,-0.7176953057988307,0.0,True,0.1,-1.7350000143051147,-0.3499999940395355,-0.7177028059959412,0.0,0.0,0.0
1759663728.6095483,1,-1.7350000142985407,-0.3499999940422747,-0.7176717948527447,0.0,True,0.1,-1.7350000143051147,-0.3499999940395355,-0.7177028059959412,0.0,0.0,0.0
1759663728.7156653,1,-1.7350000143026045,-0.3499999940405814,-0.7176765435622947,0.0,True,0.1,-1.7350000143051147,-0.3499999940395355,-0.7177028059959412,0.0,0.0,0.0
1759663728.8240876,1,-1.735000014304156,-0.349999994039935,-0.7176816907581713,0.0,True,0.1,-1.7350000143051147,-0.3499999940395355,-0.7177028059959412,0.0,0.0,0.0
1759663728.929823,1,-1.7350000143047486,-0.3499999940396881,-0.7176857066249394,0.0,True,0.1,-1.7350000143051147,-0.3499999940395355,-0.7177028059959412,0.0,0.0,0.0
1759663729.0511775,1,-1.7350000143049749,-0.3499999940395938,-0.7176888947162325,0.0,True,0.1,-1.7350000143051147,-0.3499999940395355,-0.7177028059959412,0.0,0.0,0.0
1759663729.1541164,1,-1.7350000143050612,-0.3499999940395578,-0.717691513340867,0.0,True,0.1,-1.7350000143051147,-0.3499999940395355,-0.7177028059959412,0.0,0.0,0.0
1759663729.2736626,1,-1.7350000143050943,-0.349999994039544,-0.7176937107722647,0.0,True,0.1,-1.7350000143051147,-0.3499999940395355,-0.7177028059959412,0.0,0.0,0.0
1759663729.383927,1,-1.735000014305107,-0.34999999403953874,-0.7176955690513775,0.0,True,0.1,-1.7350000143051147,-0.3499999940395355,-0.7177028059959412,0.0,0.0,0.0
1759663729.506281,1,-1.7350000143051119,-0.34999999403953674,-0.7176971355294555,0.0,True,0.1,-1.7350000143051147,-0.3499999940395355,-0.7177028059959412,0.0,0.0,0.0
1759663729.6214643,1,-1.7350000143051136,-0.34999999403953597,-0.7176984416835133,0.0,True,0.1,-1.7350000143051147,-0.3499999940395355,-0.7177028059959412,0.0,0.0,0.0
1759663729.7421558,1,-1.7350000143051143,-0.3499999940395357,-0.7176995135538391,0.0,True,0.1,-1.7350000143051147,-0.3499999940395355,-0.7177028059959412,0.0,0.12114226175651055,-0.05
1759663729.8593988,1,-1.7370002086764478,-0.34826365820624916,-0.7162057866702263,0.024888358389730577,True,0.1,-1.7393951416015625,-0.34617894887924194,-0.7141755223274231,0.024888358389730577,0.12114226175651055,-0.05
1759663729.9667363,1,-1.7377633079881636,-0.34759939652606975,-0.7151471976676618,0.024888358389730577,True,0.1,-1.7393951416015625,-0.34617894887924194,-0.7141755223274231,0.024888358389730577,0.12489994727142317,-0.05
1759663730.0811918,1,-1.7425533553680683,-0.3434803865665916,-0.7116405202695155,0.05126365075006968,True,0.1,-1.7479058504104614,-0.3388572335243225,-0.7072662115097046,0.05126365075006968,0.12489994727142317,-0.05
1759663730.1990979,1,-1.7443786289840073,-0.34190202522248125,-0.7091325062823479,0.05126365075006968,True,0.1,-1.7479058504104614,-0.3388572335243225,-0.7072662115097046,0.05126365075006968,0.13232716237249065,-0.05
1759663730.3147242,1,-1.750584533757637,-0.3366212791546,-0.7046474113120187,0.049508466512296394,True,0.1,-1.7567423582077026,-0.3313653767108917,-0.6998170018196106,0.049508466512296394,0.13232716237249065,-0.05
1759663730.4209707,1,-1.7529496292683535,-0.3345979504158388,-0.7014474233528656,0.049508466512296394,True,0.1,-1.7567423582077026,-0.3313653767108917,-0.6998170018196106,0.049508466512296394,0.14056255784341687,-0.05
1759663730.5560856,1,-1.7595985895810782,-0.32902195432256537,-0.6962652907934235,0.04812729176428489,True,0.1,-1.7659803628921509,-0.32365667819976807,-0.6915765404701233,0.04812729176428489,0.14056255784341687,-0.05
1759663730.6615906,1,-1.7621323229381303,-0.326885039395241,-0.692649463660219,0.04812729176428489,True,0.1,-1.7659803628921509,-0.32365667819976807,-0.6915765404701233,0.04812729176428489,0.15002575720884437,-0.05
1759663730.7815037,1,-1.7684411779750873,-0.3216787956145008,-0.6871968130364348,0.052241761869635785,True,0.1,-1.7748252153396606,-0.3163996934890747,-0.683241605758667,0.052241761869635785,0.15003007440062532,-0.05
1759663730.9025996,1,-1.7708442420853399,-0.31968206251126374,-0.6834885369975581,0.052241761869635785,True,0.1,-1.7748252153396606,-0.3163996934890747,-0.683241605758667,0.052241761869635785,0.15990357274286637,-0.05
1759663731.0207636,1,-1.7775041715338873,-0.3142818579241711,-0.6776212019100072,0.050604384488205194,True,0.1,-1.7840453386306763,-0.3089694380760193,-0.6739740967750549,0.050604384488205194,0.20520612306810548,-0.05
1759663731.1290197,1,-1.7800411337396789,-0.31221063551622547,-0.6736950909491171,0.050604384488205194,True,0.1,-1.7840453386306763,-0.3089694380760193,-0.6739740967750549,0.050604384488205194,0.21494463184476942,-0.05
1759663731.2285655,1,-1.7861914136731463,-0.3073211747929362,-0.6667410117392976,0.04801697632451281,True,0.09954571723937988,-1.7923009395599365,-0.30245596170425415,-0.6625612378120422,0.04801697632451281,0.3477567480539854,-0.05
1759663731.3367796,1,-1.7885267547996067,-0.3054495058946408,-0.6618447744993787,0.04801697632451281,True,0.1,-1.7923009395599365,-0.30245596170425415,-0.6625612378120422,0.04801697632451281,0.4795399515818559,-0.05
1759663731.4450605,1,-1.794698782570991,-0.30069964583146486,-0.6503941723283582,0.049522826318638226,True,0.1,-1.8009275197982788,-0.2958827614784241,-0.6400394439697266,0.049522826318638226,0.4795399515818559,-0.05
1759663731.5507329,1,-1.7970434964209736,-0.29886875748770014,-0.6422560004624973,0.049522826318638226,True,0.1,-1.8009275197982788,-0.2958827614784241,-0.6400394439697266,0.049522826318638226,0.5095962190152221,-0.05
1759663731.6570911,1,-1.803155916752222,-0.29438085353399257,-0.6266709548861442,0.05220986650431469,True,0.1,-1.8095170259475708,-0.2896738350391388,-0.6134578585624695,0.05220986650431469,0.6,-0.05
1759663731.7835243,1,-1.8054727256911958,-0.29264228797748654,-0.6160057744836767,0.05220986650431469,True,0.1,-1.8095170259475708,-0.2896738350391388,-0.6134578585624695,0.05220986650431469,0.6,-0.05
1759663731.9026322,1,-1.8127423323376894,-0.2876426047283888,-0.5953027000979265,0.049212588634695825,True,0.1,-1.8197182416915894,-0.28279614448547363,-0.5765494108200073,0.049212588634695825,0.6,-0.05
1759663732.0091481,1,-1.815497496696088,-0.28570172880159034,-0.5807796081728362,0.049212588634695825,True,0.1,-1.8197182416915894,-0.28279614448547363,-0.5765494108200073,0.049212588634695825,0.6,-0.05
1759663732.1353242,1,-1.8225513901831922,-0.2811825641054051,-0.558581533208752,0.04897986376940773,True,0.1,-1.8294425010681152,-0.27672985196113586,-0.5421679019927979,0.04897986376940773,0.6,-0.05
1759663732.2431836,1,-1.825223965296207,-0.279422391022996,-0.5434744442156045,0.04897986376940773,True,0.1,-1.8294425010681152,-0.27672985196113586,-0.5421679019927979,0.04897986376940773,0.6,-0.014174466677995113
1759663732.366173,1,-1.8306444034960005,-0.27612634982637657,-0.5267054486362568,0.030382618952626287,True,0.1,-1.8356021642684937,-0.273119181394577,-0.5207492709159851,0.030382618952626287,0.6,-0.014174466677995113
1759663732.4670568,1,-1.8327052086246938,-0.2748511358786441,-0.5156512529875457,0.030382618952626287,True,0.1,-1.8356021642684937,-0.273119181394577,-0.5207492709159851,0.030382618952626287,0.6,0.03661595834428655
1759663732.5873783,1,-1.8320554552739932,-0.27519483658836574,-0.5140292224958358,0.0163093360329916,True,0.1,-1.8325306177139282,-0.2749099135398865,-0.5314160585403442,0.0163093360329916,0.6,0.07459281474417
1759663732.704549,1,-1.8318068249324406,-0.27532533022201794,-0.5144438988279738,0.0163093360329916,True,0.1,-1.8325306177139282,-0.2749099135398865,-0.5314160585403442,0.0163093360329916,0.6,0.07536202754251649
1759663732.818513,1,-1.8204683147529523,-0.2823213588330561,-0.5347981015031635,0.07545284954326556,True,0.1,-1.8175114393234253,-0.2843347489833832,-0.5846208930015564,0.07545284954326556,0.6,0.1191839770898759
1759663732.9262822,1,-1.8161667580173733,-0.2850439172451852,-0.5524145023298104,0.07545284954326556,True,0.1,-1.8175114393234253,-0.2843347489833832,-0.5846208930015564,0.07545284954326556,0.6,0.08024245560489807
1759663733.0437107,1,-1.8024642366630896,-0.294714066669388,-0.5903467429819731,0.10204346413092444,True,0.1,-1.7993441820144653,-0.29734867811203003,-0.6515219807624817,0.10204346413092444,0.5665884296927004,0.12208740931367087
1759663733.159379,1,-1.7973072063533915,-0.2985259001040077,-0.6197888692503124,0.10204346413092444,True,0.1,-1.7993441820144653,-0.29734867811203003,-0.6515219807624817,0.10204346413092444,0.37403008418063877,0.13160469743738162
1759663733.2711902,1,-1.7807778662343934,-0.31210064027777307,-0.664256140197315,0.1320396786580756,True,0.1,-1.7771761417388916,-0.3157098889350891,-0.7188578844070435,0.1320396786580756,0.37403008418063877,0.13160469743738162
1759663733.3719802,1,-1.7745929007759718,-0.31745597570492756,-0.6970585793650592,0.1320396786580756,True,0.1,-1.7771761417388916,-0.3157098889350891,-0.7188578844070435,0.1320396786580756,0.18377187389010885,0.13873345483823543
1759663733.485825,1,-1.7590486164354424,-0.33185490828183006,-0.7324570279488327,0.13309738374418073,True,0.1,-1.755726933479309,-0.3354470729827881,-0.7583938241004944,0.13309738374418073,0.18377187389010885,0.13873345483823543
1759663733.590753,1,-1.7532240142813391,-0.33748385534642383,-0.7564907974846626,0.13309738374418073,True,0.1,-1.755726933479309,-0.3354470729827881,-0.7583938241004944,0.13309738374418073,0.06436114055085085,0.1539205241027948
1759663733.705567,1,-1.7362145655289636,-0.35416386157622876,-0.7776148258887261,0.1487212290952287,True,0.1,-1.732372522354126,-0.3581489026546478,-0.7775723934173584,0.1487212290952287,0.06436114055085085,0.1539205241027948
1759663733.8259225,1,-1.729796471791691,-0.3606166494758007,-0.7907299258350022,0.1487212290952287,True,0.1,-1.732372522354126,-0.3581489026546478,-0.7775723934173584,0.1487212290952287,-0.0055867007477345965,0.1632966889786588
1759663733.9397094,1,-1.7111009285318637,-0.37932313385517674,-0.7991697867355967,0.1567236591458263,True,0.1,-1.7063541412353516,-0.3839941620826721,-0.7828235626220703,0.1567236591458263,-0.0055867007477345965,0.1632966889786588
1759663734.0384457,1,-1.7040460235938364,-0.3864468960221543,-0.8030699325388007,0.1567236591458263,True,0.09873628616333008,-1.7063541412353516,-0.3839941620826721,-0.7828235626220703,0.1567236591458263,-0.04027236995131389,0.16970415314570514
1759663734.1492717,1,-1.6859080413953595,-0.4045150132673248,-0.8021083292962548,0.1595153272814783,True,0.1,-1.6815475225448608,-0.40859103202819824,-0.7783968448638916,0.1595153272814783,-0.04027236995131389,0.16970415314570514
1759663734.2529817,1,-1.6789747328805549,-0.41141137710791015,-0.7997448942655652,0.1595153272814783,True,0.1,-1.6815475225448608,-0.40859103202819824,-0.7783968448638916,0.1595153272814783,-0.05579172985797953,0.1837245266667613
1759663734.3613248,1,-1.6587761288738796,-0.4312033152009979,-0.7932121509062924,0.18720014228450688,True,0.1,-1.6543638706207275,-0.43514612317085266,-0.769159734249115,0.18720014228450688,-0.05579172985797953,0.1837245266667613
1759663734.46926,1,-1.6510278186036484,-0.4387306954581916,-0.787369232146844,0.18720014228450688,True,0.1,-1.6543638706207275,-0.43514612317085266,-0.769159734249115,0.18720014228450688,-0.057044602992670335,0.18081013303667073
1759663734.5791829,1,-1.6304423706958755,-0.45839353960506435,-0.7782657681390326,0.1814526630610277,True,0.1,-1.6256438493728638,-0.46261027455329895,-0.7579447031021118,0.1814526630610277,-0.057044602992670335,0.18081013303667073
1759663734.7005618,1,-1.6225359722382544,-0.46586029454179717,-0.7711792914864048,0.1814526630610277,True,0.1,-1.6256438493728638,-0.46261027455329895,-0.7579447031021118,0.1814526630610277,-0.053722554312019,0.1962046927687994
1759663734.8261597,1,-1.5983247326236976,-0.4884195984285949,-0.7612069621994273,0.18613075179115043,True,0.1,-1.5916216373443604,-0.49435582756996155,-0.7450042366981506,0.18613075179115043,-0.0663099898375048,0.24421918334263823
1759663734.9519227,1,-1.589029715085046,-0.49698736935669935,-0.7536802804982159,0.18613075179115043,True,0.1,-1.5916216373443604,-0.49435582756996155,-0.7450042366981506,0.18613075179115043,-0.043508636326068384,0.19313057511291612
1759663735.0794053,1,-1.5590530550499808,-0.5241321728230125,-0.7429116254731447,0.22168988535561326,True,0.1,-1.5505313873291016,-0.5315477848052979,-0.7292507886886597,0.22168988535561326,-0.06280905220625854,0.24018035353807976
1759663735.216867,1,-1.547541717575674,-0.5344343735390975,-0.7353123087052893,0.22168988535561326,True,0.1,-1.5505313873291016,-0.5315477848052979,-0.7292507886886597,0.22168988535561326,-0.07844980563051607,0.22970880887138642
1759663735.3372145,1,-1.514319451943468,-0.5634707357493536,-0.7221080397679742,0.23116223613180314,True,0.1,-1.5044007301330566,-0.5718529224395752,-0.7077071070671082,0.23116223613180314,-0.07844980563051607,0.22970880887138642
1759663735.4633412,1,-1.5015529937875103,-0.5744754082217222,-0.7130715310212619,0.23116223613180314,True,0.1,-1.5044007301330566,-0.5718529224395752,-0.7077071070671082,0.23116223613180314,-0.10068367382427112,0.2157011448183459
1759663735.5931773,1,-1.4690169147450312,-0.6015881821944494,-0.6975618647108135,0.23218241383952468,True,0.1,-1.4597910642623901,-0.6089914441108704,-0.6804861426353455,0.23218241383952468,-0.1724608430939938,0.2699305233182719
1759663735.7116625,1,-1.4565048901512414,-0.6118447018204612,-0.6859142687413708,0.23218241383952468,True,0.1,-1.4597910642623901,-0.6089914441108704,-0.6804861426353455,0.23218241383952468,-0.12836583158085269,0.20859007692083406
1759663735.8396957,1,-1.422322392913235,-0.6381692288172313,-0.6618784358745131,0.23783591319520547,True,0.1,-1.412610411643982,-0.6451764702796936,-0.6340878009796143,0.23783591319520547,-0.20368190622029303,0.26390880311693166
1759663735.9622555,1,-1.4091345789315057,-0.6480586179675386,-0.6442282790690737,0.23783591319520547,True,0.1,-1.412610411643982,-0.6451764702796936,-0.6340878009796143,0.23783591319520547,-0.1835707911264084,0.24844269092836793
1759663736.0811133,1,-1.3717448558130243,-0.6738424331689663,-0.6104964386822651,0.26278592692891267,True,0.1,-1.3616715669631958,-0.6800888776779175,-0.5743664503097534,0.26278592692891267,-0.1835707911264084,0.24844269092836793
1759663736.1975844,1,-1.3572732401342422,-0.6834264117583572,-0.5863074446274137,0.26278592692891267,True,0.1,-1.3616715669631958,-0.6800888776779175,-0.5743664503097534,0.26278592692891267,-0.14383109996823862,0.24112354705040612
1759663736.3259375,1,-1.3212150041685478,-0.7053286058811152,-0.5528795660938997,0.23657288742244464,True,0.1,-1.3111445903778076,-0.7108288407325745,-0.5262425541877747,0.23657288742244464,-0.14383109996823862,0.24112354705040612
1759663736.4577696,1,-1.307286550899919,-0.7134496847349628,-0.5300945382796325,0.23657288742244464,True,0.1,-1.3111445903778076,-0.7108288407325745,-0.5262425541877747,0.23657288742244464,-0.10591679871139092,0.24411855981771952
1759663736.5765233,1,-1.2679756053690991,-0.7350519306296599,-0.5021188670689405,0.24767227542319606,True,0.1,-1.2569175958633423,-0.7407166361808777,-0.4869202971458435,0.24767227542319606,-0.14888500159725915,0.29717136617305306
1759663736.698798,1,-1.252837434167139,-0.7430851940856557,-0.4829014072808704,0.24767227542319606,True,0.1,-1.2569175958633423,-0.7407166361808777,-0.4869202971458435,0.24767227542319606,-0.07814514070643597,0.22710772477571475
1759663736.8251698,1,-1.210928668158179,-0.7640286057907887,-0.45862883788326414,0.2582275371092893,True,0.1,-1.199188470840454,-0.7696119546890259,-0.4496452212333679,0.2582275371092893,-0.12982478613536053,0.2872499828670043
1759663736.9447029,1,-1.1948193607070128,-0.7718271604502943,-0.4420360029924879,0.2582275371092893,True,0.1,-1.199188470840454,-0.7696119546890259,-0.4496452212333679,0.2582275371092893,-0.062048872549643974,0.2142755551057822
1759663737.0622544,1,-1.1557026075955792,-0.7897714490714248,-0.422386202001789,0.25195611559363035,True,0.1,-1.145622730255127,-0.7942437529563904,-0.4195753037929535,0.25195611559363035,-0.12554360729661163,0.28099125255156
1759663737.1899567,1,-1.1406849102979943,-0.796458612589166,-0.40987767322372903,0.25195611559363035,True,0.1,-1.145622730255127,-0.7942437529563904,-0.4195753037929535,0.25195611559363035,-0.13015006937499152,0.27848784568745694
1759663737.3103888,1,-1.0937951551762015,-0.816057018106763,-0.3861840331488029,0.2810761046493457,True,0.1,-1.0807734727859497,-0.821304976940155,-0.37465018033981323,0.2810761046493457,-0.13015006937499152,0.27848784568745694
1759663737.4213507,1,-1.0757910865203217,-0.8233178716322241,-0.3701558707645276,0.2810761046493457,True,0.1,-1.0807734727859497,-0.821304976940155,-0.37465018033981323,0.2810761046493457,-0.10355341211337965,0.25179170961576686
1759663737.547043,1,-1.033987548192895,-0.8388045974093157,-0.3474729173478721,0.2611303490235837,True,0.1,-1.023215651512146,-0.8425849676132202,-0.3388664126396179,0.2611303490235837,-0.10355341211337965,0.25179170961576686
1759663737.676549,1,-1.0179440704554352,-0.8445157372963995,-0.3327843628745377,0.2611303490235837,True,0.1,-1.023215651512146,-0.8425849676132202,-0.3388664126396179,0.2611303490235837,-0.09198787886711202,0.25908974144762875
1759663737.802787,1,-0.9725540425951203,-0.8595643626789341,-0.31232277998483937,0.25393161013041887,True,0.1,-0.9593507647514343,-0.8637857437133789,-0.3055269718170166,0.25393161013041887,-0.12944432629888425,0.32009873126376287
1759663737.9226015,1,-0.9551579481407484,-0.8651353207205685,-0.29839586690438935,0.25393161013041887,True,0.1,-0.9593507647514343,-0.8637857437133789,-0.3055269718170166,0.25393161013041887,-0.07043515290531666,0.2492440666055171
1759663738.0439649,1,-0.9062766653409458,-0.8794529362750699,-0.277932427770029,0.29251211390892967,True,0.1,-0.8933619260787964,-0.8830395340919495,-0.2699788808822632,0.29251211390892967,-0.10076122469104476,0.3103698818783349
1759663738.1662974,1,-0.8875445438478718,-0.8847135087750649,-0.2639775971798102,0.29251211390892967,True,0.1,-0.8933619260787964,-0.8830395340919495,-0.2699788808822632,0.29251211390892967,-0.06289664776172899,0.28666782455335305
1759663738.2923527,1,-0.8358492958643482,-0.8980228096000039,-0.24497683817600446,0.29641799209941,True,0.1,-0.8215966820716858,-0.9015118479728699,-0.23995362222194672,0.29641799209941,-0.06289664776172899,0.28666782455335305
1759663738.416437,1,-0.8160524994787786,-0.9029088711728113,-0.23250239608999657,0.29641799209941,True,0.1,-0.8215966820716858,-0.9015118479728699,-0.23995362222194672,0.29641799209941,-0.03125932140438614,0.26625056305579814
1759663738.5444999,1,-0.7683539546613625,-0.9140234899392728,-0.21979386344640517,0.27248599082226627,True,0.1,-0.7552677989006042,-0.9170365929603577,-0.22391828894615173,0.27248599082226627,-0.03125932140438614,0.26625056305579814
1759663738.661024,1,-0.7501063585419449,-0.9181448393894216,-0.21238033101523257,0.27248599082226627,True,0.1,-0.7552677989006042,-0.9170365929603577,-0.22391828894615173,0.27248599082226627,-0.02976307709148429,0.26403844724358094
1759663738.8018992,1,-0.7006400413584655,-0.929051897875643,-0.20504748319290123,0.2797918936978072,True,0.1,-0.6869766712188721,-0.9321706891059875,-0.2128414511680603,0.2797918936978072,-0.05891620678794318,0.3263040388312758
1759663738.92814,1,-0.6817305106050023,-0.9331464038442323,-0.20077721051276498,0.2797918936978072,True,0.1,-0.6869766712188721,-0.9321706891059875,-0.2128414511680603,0.2797918936978072,-0.04081771759275554,0.247328326515853
1759663739.057274,1,-0.6302600424783061,-0.9437139803834509,-0.19233939899099184,0.27647639402214536,True,0.1,-0.6151989698410034,-0.9468643665313721,-0.19377776980400085,0.27647639402214536,-0.07323387060777442,0.31279556396489994
1759663739.1735766,1,-0.610583465899779,-0.9476663818162475,-0.18690113498934124,0.27647639402214536,True,0.1,-0.6151989698410034,-0.9468643665313721,-0.19377776980400085,0.27647639402214536,-0.06792912897432579,0.29142927079319725
1759663739.3093162,1,-0.5558506292956045,-0.9576582110201131,-0.17406314138589885,0.30374244459285327,True,0.1,-0.5404762625694275,-0.9603822827339172,-0.16702969372272491,0.30374244459285327,-0.06792912897432579,0.29142927079319725
1759663739.4256709,1,-0.5349192854157478,-0.9613349097307787,-0.1651964481316277,0.30374244459285327,True,0.1,-0.5404762625694275,-0.9603822827339172,-0.16702969372272491,0.30374244459285327,-0.048986750564539605,0.2727732322709466
1759663739.5465505,1,-0.4866910459503679,-0.9689405265333876,-0.15275969508784826,0.28516276514020217,True,0.1,-0.47427335381507874,-0.9707722067832947,-0.14755967259407043,0.28516276514020217,-0.048986750564539605,0.2727732322709466
1759663739.6672304,1,-0.468249232308978,-0.9717180121001052,-0.14453969025706215,0.28516276514020217,True,0.1,-0.47427335381507874,-0.9707722067832947,-0.14755967259407043,0.28516276514020217,-0.03241750302489521,0.2706867571941798
1759663739.7959924,1,-0.4198490765836288,-0.9784872107686765,-0.13486692714947068,0.2731609221298776,True,0.1,-0.4066457152366638,-0.9802621006965637,-0.13366292417049408,0.2731609221298776,-0.04504026704575459,0.33216482784990325
1759663739.9102771,1,-0.40134877698152577,-0.9809789674834783,-0.12851188041218897,0.2731609221298776,True,0.1,-0.4066457152366638,-0.9802621006965637,-0.13366292417049408,0.2731609221298776,-0.019636858116021116,0.26113399669788817
1759663740.0381186,1,-0.3496041823261034,-0.9875238556271381,-0.12086191570881155,0.2877987229823165,True,0.1,-0.3352668583393097,-0.9893072843551636,-0.1217074990272522,0.2877987229823165,-0.028787103981974482,0.3247197159619574
1759663740.160336,1,-0.3298298155156436,-0.9899459421704213,-0.11589354731535906,0.2877987229823165,True,0.1,-0.3352668583393097,-0.9893072843551636,-0.1217074990272522,0.2877987229823165,-0.00608448831433428,0.24084753422275712
1759663740.2574086,1,-0.2840105742955839,-0.9953274631035212,-0.11132487912470346,0.288211581998929,True,0.09707260131835938,-0.2728689908981323,-0.9966646432876587,-0.11522939056158066,0.288211581998929,-0.018433791988854864,0.3129740569833191
1759663740.3509583,1,-0.26688949199485573,-0.9972949370256139,-0.10870394322762067,0.288211581998929,True,0.09354972839355469,-0.2728689908981323,-0.9966646432876587,-0.11522939056158066,0.288211581998929,-0.006234128570254072,0.24380584856985246
1759663740.4491985,1,-0.25983350798816485,-0.9980751599101577,-0.10772300561538195,0.288211581998929,True,0.09824013710021973,-0.2728689908981323,-0.9966646432876587,-0.11522939056158066,0.288211581998929,-0.020012143776289903,0.30808191703408006
1759663740.5482101,1,-0.20411608334875808,-1.0043112825984015,-0.10508850361030042,0.3025335139043328,True,0.09901165962219238,-0.18808728456497192,-1.0061839818954468,-0.10855650156736374,0.3025335139043328,-0.020012143776289903,0.30808191703408006
1759663740.638085,1,-0.18388089329959548,-1.006553916371628,-0.10388917817812882,0.3025335139043328,True,0.0898747444152832,-0.18808728456497192,-1.0061839818954468,-0.10855650156736374,0.3025335139043328,-0.025322017009370867,0.2762838634924236
1759663740.7346761,1,-0.17537850190097679,-1.0074787555697577,-0.10338361986329048,0.3025335139043328,True,0.09659123420715332,-0.18808728456497192,-1.0061839818954468,-0.10855650156736374,0.3025335139043328,-0.025322017009370867,0.2762838634924236
1759663740.8351462,1,-0.12222123508979686,-1.013014408167862,-0.09978050308792419,0.2773867506517764,True,0.1,-0.1064215824007988,-1.01468026638031,-0.0986090749502182,0.2773867506517764,-0.04135470127239671,0.33970025721975705
1759663740.925,1,-0.10298318981892379,-1.0149877121425204,-0.09725703920973316,0.2773867506517764,True,0.08985376358032227,-0.1064215824007988,-1.01468026638031,-0.0986090749502182,0.2773867506517764,-0.024625607635174518,0.25779094367195976
1759663741.022592,1,-0.09481651578678532,-1.0157969297626173,-0.09594225987292049,0.2773867506517764,True,0.09759211540222168,-0.1064215824007988,-1.01468026638031,-0.0986090749502182,0.2773867506517764,-0.03040948304204072,0.32166448571341766
1759663741.1203766,1,-0.0366060474527788,-1.021095558208714,-0.08995859538784146,0.3102336053612383,True,0.09778451919555664,-0.019294127821922302,-1.0225913524627686,-0.08441686630249023,0.3102336053612383,-0.03040948304204072,0.32166448571341766
1759663741.2172747,1,-0.014470553653226272,-1.0230485332797328,-0.08518991591151348,0.3102336053612383,True,0.09689807891845703,-0.019294127821922302,-1.0225913524627686,-0.08441686630249023,0.3102336053612383,0.011500583891582039,0.28248052269283064
1759663741.3077765,1,-0.006766166157209048,-1.0236776806354677,-0.08271319981336944,0.3102336053612383,True,0.09050178527832031,-0.019294127821922302,-1.0225913524627686,-0.08441686630249023,0.3102336053612383,0.011500583891582039,0.28248052269283064
1759663741.4062347,1,0.0494361446740649,-1.0282625370038478,-0.08065940088359014,0.3036829159833781,True,0.09845829010009766,0.06575548648834229,-1.029563307762146,-0.08379112184047699,0.3036829159833781,0.039286316898326845,0.3470377209639607
1759663741.4987826,1,0.07022196945995543,-1.0299365733569037,-0.07986175268362672,0.3036829159833781,True,0.09254789352416992,0.06575548648834229,-1.029563307762146,-0.08379112184047699,0.3036829159833781,0.04512482342290269,0.25541570980768336
1759663741.5896523,1,0.07796773726368836,-1.0305563474493313,-0.07928399792996821,0.3036829159833781,True,0.09086966514587402,0.06575548648834229,-1.029563307762146,-0.08379112184047699,0.3036829159833781,0.08011793553780677,0.3195630646045208
1759663741.702924,1,0.1380304546528757,-1.0362468737240191,-0.08922347875091674,0.30621743562843307,True,0.1,0.15628831088542938,-1.0382286310195923,-0.1099124550819397,0.30621743562843307,0.08011793553780677,0.3195630646045208
1759663741.7985342,1,0.16045139656833374,-1.0384856035569285,-0.09744305413534704,0.30621743562843307,True,0.09561014175415039,0.15628831088542938,-1.0382286310195923,-0.1099124550819397,0.30621743562843307,0.06715189052017934,0.2822557401150335
1759663741.892209,1,0.16878173964061632,-1.0394071511192238,-0.10302140795695891,0.30621743562843307,True,0.09367489814758301,0.15628831088542938,-1.0382286310195923,-0.1099124550819397,0.30621743562843307,0.06715189052017934,0.2822557401150335
1759663741.9850724,1,0.22213950982842695,-1.0462058556938787,-0.1179601857006265,0.2942699426209597,True,0.09286332130432129,0.23832066357135773,-1.0486356019973755,-0.13954384624958038,0.2942699426209597,0.06715189052017934,0.2822557401150335
1759663742.0782537,1,0.24253923757567308,-1.0489543823746137,-0.12931706160377487,0.2942699426209597,True,0.09318137168884277,0.23832066357135773,-1.0486356019973755,-0.13954384624958038,0.2942699426209597,0.032339544682479016,0.2549075049571111
1759663742.1674397,1,0.24987152781087751,-1.0500607893844829,-0.136312197177773,0.2942699426209597,True,0.08918595314025879,0.23832066357135773,-1.0486356019973755,-0.13954384624958038,0.2942699426209597,0.040971113074469656,0.3213418045706614
1759663742.2619889,1,0.30146961773271774,-1.0579551373006555,-0.14784861137448857,0.283100678975225,True,0.09454917907714844,0.31697288155555725,-1.0605618953704834,-0.1581743210554123,0.283100678975225,0.040971113074469656,0.3213418045706614
1759663742.3600764,1,0.3215408731339808,-1.0611371187404843,-0.15636922438790712,0.283100678975225,True,0.09808754920959473,0.31697288155555725,-1.0605618953704834,-0.1581743210554123,0.283100678975225,0.005518184038088236,0.23873962280748193
1759663742.4499965,1,0.3283219433666343,-1.0622997596765664,-0.16108825919457104,0.283100678975225,True,0.0899200439453125,0.31697288155555725,-1.0605618953704834,-0.1581743210554123,0.283100678975225,-0.0005571261267096617,0.29959885517934504
1759663742.5462193,1,0.38191856422522563,-1.071214099288577,-0.1663336624050853,0.2910747497993118,True,0.0962228775024414,0.39795851707458496,-1.0739394426345825,-0.16483943164348602,0.2910747497993118,-0.0005571261267096617,0.29959885517934504
1759663742.6394105,1,0.402050048446002,-1.074612754855505,-0.16976088174810755,0.2910747497993118,True,0.09319114685058594,0.39795851707458496,-1.0739394426345825,-0.16483943164348602,0.2910747497993118,-0.0348637544621635,0.26989354148688804
1759663742.7355542,1,0.41005752427463016,-1.075999540548609,-0.17134270951282105,0.2910747497993118,True,0.09614372253417969,0.39795851707458496,-1.0739394426345825,-0.16483943164348602,0.2910747497993118,-0.0348637544621635,0.26989354148688804
1759663742.8338125,1,0.46169121974647587,-1.0844364951372534,-0.1682615454246168,0.2717106230823224,True,0.09825825691223145,0.47734132409095764,-1.086853265762329,-0.1548556089401245,0.2717106230823224,-0.0606895217827379,0.3267376070531149
1759663742.938528,1,0.48159680301525715,-1.0876597598914142,-0.16495151276586384,0.2717106230823224,True,0.1,0.47734132409095764,-1.086853265762329,-0.1548556089401245,0.2717106230823224,-0.045674262336156346,0.24741233092137632
1759663743.0263445,1,0.4879585399445637,-1.0886487922807897,-0.16254768765265126,0.2717106230823224,True,0.08781647682189941,0.47734132409095764,-1.086853265762329,-0.1548556089401245,0.2717106230823224,-0.0769192219972279,0.30742900760603786
1759663743.1226332,1,0.5447322279392756,-1.0967744949306437,-0.15061569663063068,0.3032575873821652,True,0.09628868103027344,0.5620055794715881,-1.0989115238189697,-0.12815579771995544,0.3032575873821652,-0.0769192219972279,0.30742900760603786
1759663743.2224305,1,0.5668396704043237,-1.0998109065374377,-0.14103881237883265,0.3032575873821652,True,0.09979724884033203,0.5620055794715881,-1.0989115238189697,-0.12815579771995544,0.3032575873821652,-0.06264887775206773,0.2662923237429712
1759663743.337152,1,0.6117555549329908,-1.1050857497103252,-0.1262822100455594,0.2790711322133642,True,0.1,0.6224338412284851,-1.1059561967849731,-0.10698693990707397,0.2790711322133642,-0.06264887775206773,0.2662923237429712
1759663743.4718173,1,0.6289319519714202,-1.1069492545432604,-0.11572984508442374,0.2790711322133642,True,0.1,0.6224338412284851,-1.1059561967849731,-0.10698693990707397,0.2790711322133642,-0.057160938687813356,0.2665651308818311
1759663743.5798092,1,0.6748465913809192,-1.1113403260580372,-0.10149988300863022,0.27356970427285376,True,0.1,0.6864252090454102,-1.1121339797973633,-0.0876557007431984,0.27356970427285376,-0.057160938687813356,0.2665651308818311
1759663743.6702843,1,0.6914094490175966,-1.1127750736618307,-0.09216532149284973,0.27356970427285376,True,0.09047508239746094,0.6864252090454102,-1.1121339797973633,-0.0876557007431984,0.27356970427285376,-0.059815096491380615,0.25912657527704785
1759663743.786723,1,0.7311912841755601,-1.1158842082370615,-0.0799645275540577,0.24780640153023575,True,0.1,0.7405251264572144,-1.116422176361084,-0.0717342346906662,0.24780640153023575,-0.059815096491380615,0.25912657527704785
1759663743.8794007,1,0.7457051705722115,-1.1169050834252559,-0.07228146336538188,0.24780640153023575,True,0.09267783164978027,0.7405251264572144,-1.116422176361084,-0.0717342346906662,0.24780640153023575,-0.0742492841024518,0.26707044667630686
1759663743.9679902,1,0.7508678068148333,-1.1172030619711204,-0.0678564717878789,0.24780640153023575,True,0.08858942985534668,0.7405251264572144,-1.116422176361084,-0.0717342346906662,0.24780640153023575,-0.0742492841024518,0.26707044667630686
1759663744.0609844,1,0.7990256748704708,-1.1200045500911469,-0.05627320842060968,0.2742047372192951,True,0.09299421310424805,0.8130630850791931,-1.1207045316696167,-0.045772865414619446,0.2742047372192951,-0.12305658844800504,0.32127679493105304
1759663744.1690784,1,0.8181594084581935,-1.1210081210795864,-0.04705790687713396,0.2742047372192951,True,0.1,0.8130630850791931,-1.1207045316696167,-0.045772865414619446,0.2742047372192951,-0.07873486432062649,0.2375809357232037
1759663744.2859013,1,0.8650284669086176,-1.122330044239401,-0.029723663357579255,0.2883545794928761,True,0.1,0.8761909008026123,-1.122365117073059,-0.012706391513347626,0.2883545794928761,-0.13275823488266703,0.2886771042621922
1759663744.3979,1,0.8829372151774347,-1.1226564439891284,-0.016578866810259996,0.2883545794928761,True,0.1,0.8761909008026123,-1.122365117073059,-0.012706391513347626,0.2883545794928761,-0.07298826237513545,0.21911173872005316
1759663744.4989133,1,0.9222969768004842,-1.1224208121048698,0.0021956135657870135,0.25082986734157686,True,0.1,0.931121826171875,-1.122065782546997,0.01750549115240574,0.25082986734157686,-0.1304774763659733,0.26735768484516165
1759663744.6107326,1,0.9373318180590133,-1.1221543893215844,0.014920238247491113,0.25082986734157686,True,0.1,0.931121826171875,-1.122065782546997,0.01750549115240574,0.25082986734157686,-0.14667997969772095,0.277212837693126
1759663744.7116723,1,0.9792935470562619,-1.1205365057130994,0.03792029481258652,0.2650112031671936,True,0.1,0.9888514280319214,-1.1198413372039795,0.05751523748040199,0.2650112031671936,-0.14667997969772095,0.277212837693126
1759663744.825355,1,0.9953147313753232,-1.1196918851512232,0.053628411654369046,0.2650112031671936,True,0.1,0.9888514280319214,-1.1198413372039795,0.05751523748040199,0.2650112031671936,-0.14904300547590665,0.26644866916258886
1759663744.9440289,1,1.0402629651587498,-1.115981415009266,0.08094520708245412,0.26763063568736595,True,0.1,1.0515294075012207,-1.1146427392959595,0.10403486341238022,0.26763063568736595,-0.14904300547590665,0.26644866916258886
1759663745.0606802,1,1.0574125136578694,-1.11429503234867,0.09975601321963268,0.26763063568736595,True,0.1,1.0515294075012207,-1.1146427392959595,0.10403486341238022,0.26763063568736595,-0.13327349707105363,0.2479254182942076
1759663745.165568,1,1.0987723417429456,-1.1090178685273606,0.12654682958241814,0.26120826645703304,True,0.1,1.1082769632339478,-1.1074259281158447,0.14457252621650696,0.26120826645703304,-0.13327349707105363,0.2479254182942076
1759663745.287173,1,1.114540101535782,-1.1067438574409578,0.14425610718231585,0.26120826645703304,True,0.1,1.1082769632339478,-1.1074259281158447,0.14457252621650696,0.26120826645703304,-0.13927814858994125,0.24343617112734067
1759663745.390408,1,1.1539472602973364,-1.100135636668948,0.1690916141795089,0.25355163387649454,True,0.1,1.1628029346466064,-1.098361611366272,0.18218660354614258,0.25355163387649454,-0.13927814858994125,0.24343617112734067
1759663745.5071146,1,1.1689621635060767,-1.0973806117394134,0.18521806959816445,0.25355163387649454,True,0.1,1.1628029346466064,-1.098361611366272,0.18218660354614258,0.25355163387649454,-0.1460592601091779,0.23611066436162415
1759663745.6267068,1,1.2088125999807375,-1.0890868510080338,0.2096028723308141,0.2428966306281074,True,0.1,1.2186989784240723,-1.0867927074432373,0.22381719946861267,0.2428966306281074,-0.22632729623463987,0.28233705033929124
1759663745.7510824,1,1.223991475675176,-1.085710178048819,0.22684515758982116,0.2428966306281074,True,0.1,1.2186989784240723,-1.0867927074432373,0.22381719946861267,0.2428966306281074,-0.15357882809139056,0.2293031326308642
1759663745.873631,1,1.267907698898427,-1.074099332933517,0.2591124493686028,0.25303768496950935,True,0.1,1.2798306941986084,-1.0705240964889526,0.28578248620033264,0.25303768496950935,-0.2400009710676141,0.2745591884818298
1759663745.9871314,1,1.2846105021051852,-1.0693808936232247,0.2829304644805699,0.25303768496950935,True,0.1,1.2798306941986084,-1.0705240964889526,0.28578248620033264,0.25303768496950935,-0.1269615521794023,0.20841572220339447
1759663746.106956,1,1.32373772549167,-1.0565094858278075,0.31648265175625223,0.2418859890559166,True,0.1,1.3335868120193481,-1.0528043508529663,0.3403748869895935,0.2418859890559166,-0.22520349690010022,0.256515748761145
1759663746.2065406,1,1.338556130817726,-1.0513175653911133,0.33931061428713427,0.2418859890559166,True,0.09958457946777344,1.3335868120193481,-1.0528043508529663,0.3403748869895935,0.2418859890559166,-0.22766607364567548,0.25149728110000685
1759663746.2983887,1,1.343477744198455,-1.049385289381969,0.35192458133512705,0.2418859890559166,True,0.09184813499450684,1.3335868120193481,-1.0528043508529663,0.3403748869895935,0.2418859890559166,-0.22766607364567548,0.25149728110000685
1759663746.3994877,1,1.388949801103125,-1.03088462421709,0.39110626809252036,0.2505219644072693,True,0.1,1.4025503396987915,-1.0248733758926392,0.4247812330722809,0.2505219644072693,-0.22766607364567548,0.25149728110000685
1759663746.4809747,1,1.4045528690103577,-1.0241694902152076,0.4169586554550717,0.2505219644072693,True,0.08148694038391113,1.4025503396987915,-1.0248733758926392,0.4247812330722809,0.2505219644072693,-0.1721298439668697,0.2219122788032804
1759663746.572405,1,1.4113036040221638,-1.0210361618112873,0.43341375524292847,0.2505219644072693,True,0.0914304256439209,1.4025503396987915,-1.0248733758926392,0.4247812330722809,0.2505219644072693,-0.1721298439668697,0.2219122788032804
1759663746.6613073,1,1.4468705306783083,-1.0034326961185382,0.4629214291269399,0.24188468419003903,True,0.08890223503112793,1.4568204879760742,-0.9981991648674011,0.4829033315181732,0.24188468419003903,-0.2892733055947918,0.2800659301953924
1759663746.7573478,1,1.4609441528688263,-0.9962050918333125,0.485367003543117,0.24188468419003903,True,0.09604048728942871,1.4568204879760742,-0.9981991648674011,0.4829033315181732,0.24188468419003903,-0.18779975342233435,0.22263724056443734
1759663746.8490226,1,1.4658723975872598,-0.993457602479899,0.49657565934492,0.24188468419003903,True,0.0916748046875,1.4568204879760742,-0.9981991648674011,0.4829033315181732,0.24188468419003903,-0.28412370317873936,0.273679905496639
1759663746.9364362,1,1.505654115064045,-0.9699662065856411,0.5365613354897034,0.2536068810876855,True,0.08741354942321777,1.5182353258132935,-0.96205073595047,0.5752553939819336,0.2536068810876855,-0.28412370317873936,0.273679905496639
1759663747.0258071,1,1.520853858945693,-0.9606207686460071,0.5668500135534931,0.2536068810876855,True,0.0893709659576416,1.5182353258132935,-0.96205073595047,0.5752553939819336,0.2536068810876855,-0.1143916869489523,0.19784549586692585
1759663747.1028686,1,1.5255199659747931,-0.9574757531894643,0.582210602442971,0.2536068810876855,True,0.07706141471862793,1.5182353258132935,-0.96205073595047,0.5752553939819336,0.2536068810876855,-0.21783584610292195,0.25610567387737715
1759663747.1957006,1,1.5606597101378432,-0.9325748890521532,0.618651604841391,0.24207161893426707,True,0.09283208847045898,1.570824384689331,-0.9248943328857422,0.6467909812927246,0.24207161893426707,-0.3063634116691869,0.3119719746995432
1759663747.2985413,1,1.5744512087530136,-0.9224330581288741,0.6468643064662647,0.24207161893426707,True,0.1,1.570824384689331,-0.9248943328857422,0.6467909812927246,0.24207161893426707,-0.1793817898247454,0.2504129495841414
1759663747.3986123,1,1.6076097078845497,-0.8952898679020134,0.6894776355545176,0.2783568900913197,True,0.1,1.6144355535507202,-0.8889632225036621,0.7164329886436462,0.2783568900913197,-0.1793817898247454,0.2504129495841414
1759663747.4964073,1,1.619823790140327,-0.8847321810300964,0.7180480097648534,0.2783568900913197,True,0.09779500961303711,1.6144355535507202,-0.8889632225036621,0.7164329886436462,0.2783568900913197,-0.13902205318277083,0.23763165086557106
1759663747.5864146,1,1.6236827602179027,-0.8810304555170213,0.7332167649216901,0.2783568900913197,True,0.09000730514526367,1.6144355535507202,-0.8889632225036621,0.7164329886436462,0.2783568900913197,-0.13902205318277083,0.23763165086557106
1759663747.6809895,1,1.6558794494666806,-0.851002215192145,0.7610776074015533,0.2457234797860448,True,0.0945749282836914,1.665151596069336,-0.8421065211296082,0.7702065706253052,0.2457234797860448,-0.2234356268813915,0.2957190598527267
1759663747.7788548,1,1.6682415997150013,-0.8391486730788341,0.7810091954793945,0.2457234797860448,True,0.09786534309387207,1.665151596069336,-0.8421065211296082,0.7702065706253052,0.2457234797860448,-0.12892470252785948,0.23492962230332978
1759663747.872288,1,1.6725419313553271,-0.8347848433895348,0.7901074872039784,0.2457234797860448,True,0.09343314170837402,1.665151596069336,-0.8421065211296082,0.7702065706253052,0.2457234797860448,-0.21085206551975588,0.29400079991888534
1759663747.9721982,1,1.7095104440200968,-0.7958352514944418,0.8237597542150521,0.2838508277081047,True,0.09991025924682617,1.7200918197631836,-0.7842829823493958,0.8466506004333496,0.2838508277081047,-0.21085206551975588,0.29400079991888534
1759663748.0692081,1,1.723166715873092,-0.7809506546834024,0.8475026654339679,0.2838508277081047,True,0.09700989723205566,1.7200918197631836,-0.7842829823493958,0.8466506004333496,0.2838508277081047,-0.15192743796988495,0.2578144290201736
1759663748.1645494,1,1.7280851846820238,-0.7752410629710796,0.8606925657764073,0.2838508277081047,True,0.09534120559692383,1.7200918197631836,-0.7842829823493958,0.8466506004333496,0.2838508277081047,-0.15192743796988495,0.2578144290201736
1759663748.26166,1,1.7601212896659706,-0.7359348684169135,0.8928510330344768,0.26359836695353794,True,0.09711074829101562,1.769670844078064,-0.72369384765625,0.9149585962295532,0.26359836695353794,-0.22322009768291373,0.31546537453322304
1759663748.3621328,1,1.7723129278168221,-0.7205070931604165,0.9168328090924636,0.26359836695353794,True,0.1,1.769670844078064,-0.72369384765625,0.9149585962295532,0.26359836695353794,-0.0999875633949383,0.23976886490480268
1759663748.4563324,1,1.7764278770254815,-0.714932070122851,0.9286353212201961,0.26359836695353794,True,0.09419965744018555,1.769670844078064,-0.72369384765625,0.9149585962295532,0.26359836695353794,-0.1737875453595894,0.2997264745408998
1759663748.5513036,1,1.8082188080807384,-0.6698970517218784,0.9618067084882078,0.29426222807438884,True,0.0949711799621582,1.8175910711288452,-0.6559468507766724,0.9864285588264465,0.29426222807438884,-0.1737875453595894,0.2997264745408998
1759663748.6503105,1,1.8203439444757097,-0.6521246490596242,0.9858893360422574,0.29426222807438884,True,0.09900689125061035,1.8175910711288452,-0.6559468507766724,0.9864285588264465,0.29426222807438884,-0.12096757220611032,0.26647558334030685
1759663748.753811,1,1.8431636272756333,-0.6157859845080071,1.0159501741568446,0.2799565181952707,True,0.1,1.8477729558944702,-0.6077925562858582,1.0281208753585815,0.2799565181952707,-0.12096757220611032,0.26647558334030685
1759663748.8512452,1,1.8514742292296513,-0.6019730273848913,1.0349516215670178,0.2799565181952707,True,0.09743428230285645,1.8477729558944702,-0.6077925562858582,1.0281208753585815,0.2799565181952707,-0.11782737777289043,0.273084403408396
1759663748.9468908,1,1.854388751822264,-0.5967636288576738,1.0452333189748897,0.2799565181952707,True,0.09564566612243652,1.8477729558944702,-0.6077925562858582,1.0281208753585815,0.2799565181952707,-0.11782737777289043,0.273084403408396
1759663749.0451334,1,1.8794511103821272,-0.5524737465309314,1.0676696205648328,0.2661261854573399,True,0.09824252128601074,1.8868904113769531,-0.5391116738319397,1.0757029056549072,0.2661261854573399,-0.1833055081083188,0.3351278428368717
1759663749.1421616,1,1.8887828167346337,-0.5355627866231122,1.0835521905274996,0.2661261854573399,True,0.09702825546264648,1.8868904113769531,-0.5391116738319397,1.0757029056549072,0.2661261854573399,-0.10065499905243414,0.25503303079832684
1759663749.2529564,1,1.9100480296598967,-0.4937670632836636,1.108335924336977,0.3017310989764644,True,0.1,1.9145302772521973,-0.48445114493370056,1.1205241680145264,0.3017310989764644,-0.16277878910772792,0.319813026401331
1759663749.3634179,1,1.9179332831461031,-0.47768161085658684,1.1261343385418607,0.3017310989764644,True,0.1,1.9145302772521973,-0.48445114493370056,1.1205241680145264,0.3017310989764644,-0.08111537401487467,0.24207910857969278
1759663749.4876392,1,1.9371745324331244,-0.4350997905909973,1.1510150406199937,0.2811960120083921,True,0.1,1.941650629043579,-0.4245002567768097,1.1620620489120483,0.2811960120083921,-0.13475608425618724,0.3038859691842497
1759663749.5992606,1,1.944296698362606,-0.4187310045038098,1.1683394209275804,0.2811960120083921,True,0.1,1.941650629043579,-0.4245002567768097,1.1620620489120483,0.2811960120083921,-0.05838235692574578,0.2394500421985497
1759663749.7153268,1,1.960825001466416,-0.3782817700738902,1.1889138855880859,0.2604562616524898,True,0.1,1.9647799730300903,-0.36811283230781555,1.1929517984390259,0.2604562616524898,-0.10892727186466189,0.30568928160452036
1759663749.8306174,1,1.9669603501321447,-0.362758498734508,1.2026617179983798,0.2604562616524898,True,0.1,1.9647799730300903,-0.36811283230781555,1.1929517984390259,0.2604562616524898,-0.05234639494364046,0.2463776613115194
1759663749.9586675,1,1.9843414319002086,-0.31648548158904527,1.2203257324864225,0.27503955774399497,True,0.1,1.9890081882476807,-0.30376288294792175,1.2220218181610107,0.27503955774399497,-0.0935362112774083,0.3092743894645785
1759663750.0695093,1,1.9908137573287237,-0.2987486167934559,1.231760658834352,0.27503955774399497,True,0.1,1.9890081882476807,-0.30376288294792175,1.2220218181610107,0.27503955774399497,-0.0771630113900379,0.29032639784563163
1759663750.1994958,1,2.007942210333998,-0.24902775876275013,1.2491748824132944,0.30464275462618035,True,0.1,2.0123112201690674,-0.23607058823108673,1.2523629665374756,0.30464275462618035,-0.0771630113900379,0.29032639784563163
1759663750.3196096,1,2.014300959704981,-0.2299735391466763,1.2604436158103143,0.30464275462618035,True,0.1,2.0123112201690674,-0.23607058823108673,1.2523629665374756,0.30464275462618035,-0.061455509080490245,0.27115122604761416
1759663750.436935,1,2.0288444838892286,-0.18379410423510925,1.2752430031368496,0.286511318238962,True,0.1,2.0324597358703613,-0.1721261739730835,1.275519609451294,0.286511318238962,-0.061455509080490245,0.27115122604761416
1759663750.553602,1,2.034250644703843,-0.16610886804303754,1.284386515692825,0.286511318238962,True,0.1,2.0324597358703613,-0.1721261739730835,1.275519609451294,0.286511318238962,-0.05739874164059344,0.2666484990513476
1759663750.6704786,1,2.0470319768562546,-0.12288458518836205,1.2961341042596848,0.2668774211382837,True,0.1,2.0503053665161133,-0.11200251430273056,1.2950725555419922,0.2668774211382837,-0.09588433259848017,0.3353294015601236
1759663750.7967236,1,2.051806126397674,-0.10634351476930495,1.3038333905312545,0.2668774211382837,True,0.1,2.0503053665161133,-0.11200251430273056,1.2950725555419922,0.2668774211382837,-0.06294383434274664,0.27342251470004214
1759663750.919141,1,2.0660368743720148,-0.05304227714640504,1.3192621505881892,0.3050601563303713,True,0.1,2.0699055194854736,-0.03829912096261978,1.3270442485809326,0.3050601563303713,-0.09574237193663215,0.33816187102614786
1759663751.0339258,1,2.0713113296316754,-0.03264063815499199,1.330503911723829,0.3050601563303713,True,0.1,2.0699055194854736,-0.03829912096261978,1.3270442485809326,0.3050601563303713,-0.03776605736448424,0.2422375216187522
1759663751.1535656,1,2.0825922123394625,0.01563963653968751,1.345448951029474,0.290915512335102,True,0.1,2.085322618484497,0.028006337583065033,1.3512662649154663,0.290915512335102,-0.0663581360426182,0.3039308296161404
1759663751.2691844,1,2.0867463781801496,0.034117442667568124,1.3554358732407028,0.290915512335102,True,0.1,2.085322618484497,0.028006337583065033,1.3512662649154663,0.290915512335102,-0.050163665160315674,0.3023401885478069
1759663751.395779,1,2.097559349060356,0.08556587486856071,1.3689219783665134,0.2929333449471376,True,0.1,2.100405216217041,0.0996696949005127,1.3722786903381348,0.2929333449471376,-0.050163665160315674,0.3023401885478069
1759663751.5075133,1,2.1015480997943734,0.10524713359789244,1.3776201466626459,0.2929333449471376,True,0.1,2.100405216217041,0.0996696949005127,1.3722786903381348,0.2929333449471376,-0.038056915068757746,0.28834415536793634
1759663751.633606,1,2.11120667825959,0.1553623323936037,1.3883423885292583,0.29841871671286885,True,0.1,2.113661050796509,0.16822995245456696,1.3882622718811035,0.29841871671286885,-0.038056915068757746,0.28834415536793634
1759663751.741514,1,2.1147808172492835,0.17452636222892468,1.395006106812195,0.29841871671286885,True,0.1,2.113661050796509,0.16822995245456696,1.3882622718811035,0.29841871671286885,-0.030814608508908492,0.26762889433311876
1759663751.8612008,1,2.122884114224985,0.2201727141464877,1.4023484607183532,0.2899085802497304,True,0.1,2.1247825622558594,0.23073826730251312,1.3995178937911987,0.2899085802497304,-0.05667840462848872,0.341623018731198
1759663751.9836698,1,2.125904377265456,0.237621000360056,1.4070007206975355,0.2899085802497304,True,0.1,2.1247825622558594,0.23073826730251312,1.3995178937911987,0.2899085802497304,-0.03747355658268958,0.27480368116530235
1759663752.108892,1,2.1347062539857475,0.2919187768733794,1.4159425968273105,0.30780945499703943,True,0.1,2.137073278427124,0.30670276284217834,1.4182655811309814,0.30780945499703943,-0.058803097435209395,0.3408896512134885
1759663752.219921,1,2.137972303535722,0.31267397318722434,1.422301344882614,0.30780945499703943,True,0.1,2.137073278427124,0.30670276284217834,1.4182655811309814,0.30780945499703943,-0.024772374976720357,0.2505417807975369
1759663752.3237088,1,2.144751833138643,0.35952014997065135,1.4309303025609168,0.2942515994165867,True,0.1,2.1462743282318115,0.3704836070537567,1.4328886270523071,0.2942515994165867,-0.04181168838757365,0.3064851473113335
1759663752.423979,1,2.1472495680127976,0.3774270199291185,1.436604925860852,0.2942515994165867,True,0.1,2.1462743282318115,0.3704836070537567,1.4328886270523071,0.2942515994165867,-0.03263677603219506,0.3078022420790568
1759663752.5337996,1,2.1535191076982594,0.4250900824759834,1.4441431816878207,0.32022291741361253,True,0.1,2.1547677516937256,0.43493160605430603,1.4448633193969727,0.32022291741361253,-0.03263677603219506,0.3078022420790568
1759663752.629757,1,2.1557644371123286,0.44281655142188353,1.44879126189719,0.32022291741361253,True,0.09595727920532227,2.1547677516937256,0.43493160605430603,1.4448633193969727,0.32022291741361253,-0.027221569331022266,0.29767092757665303
1759663752.7299957,1,2.1566298524461964,0.4500847766683561,1.4512772549680353,0.32022291741361253,True,0.1,2.1547677516937256,0.43493160605430603,1.4448633193969727,0.32022291741361253,-0.027221569331022266,0.29767092757665303
1759663752.8322453,1,2.163421238870071,0.5072882468357417,1.4572392852105551,0.3023221612229841,True,0.1,2.1654069423675537,0.5240887403488159,1.4578547477722168,0.3023221612229841,-0.027221569331022266,0.29767092757665303
1759663752.9314368,1,2.165940196958576,0.5290527650612016,1.4611565936400313,0.3023221612229841,True,0.09919142723083496,2.1654069423675537,0.5240887403488159,1.4578547477722168,0.3023221612229841,-0.015762577050232096,0.2688044571712433
1759663753.0286582,1,2.1668349745611177,0.5371446819760174,1.4630684027129153,0.3023221612229841,True,0.09722137451171875,2.1654069423675537,0.5240887403488159,1.4578547477722168,0.3023221612229841,-0.015762577050232096,0.2688044571712433
1759663753.1280296,1,2.1726028664033317,0.5904615648513242,1.4668971496636267,0.278743056748348,True,0.09937143325805664,2.1743381023406982,0.6063922643661499,1.4661520719528198,0.278743056748348,-0.026607589571099766,0.33375419739008755
1759663753.227187,1,2.1747664003365883,0.6108080641969953,1.46947770396587,0.278743056748348,True,0.09915733337402344,2.1743381023406982,0.6063922643661499,1.4661520719528198,0.278743056748348,-0.01173488732701955,0.2505633523252886
1759663753.3203712,1,2.1755017922801723,0.6179497762319842,1.470421313327975,0.278743056748348,True,0.09318423271179199,2.1743381023406982,0.6063922643661499,1.4661520719528198,0.278743056748348,-0.023308335867351815,0.31490159033338105
1759663753.4173224,1,2.181211215148938,0.6751677527344465,1.4742141729620624,0.2932213808769291,True,0.09695124626159668,2.182992935180664,0.6930478811264038,1.4756702184677124,0.2932213808769291,-0.03701258690016829,0.3885001375021421
1759663753.5169852,1,2.183383104097948,0.6973291008077734,1.4770868254499625,0.2932213808769291,True,0.09966278076171875,2.182992935180664,0.6930478811264038,1.4756702184677124,0.2932213808769291,-0.02072058246015729,0.28802370566311786
1759663753.6094553,1,2.1841073188111895,0.7049947886082374,1.4784627526471263,0.2932213808769291,True,0.09247016906738281,2.182992935180664,0.6930478811264038,1.4756702184677124,0.2932213808769291,-0.02072058246015729,0.28802370566311786
1759663753.7041707,1,2.189515652178146,0.7665284315791832,1.4836790206483288,0.3297018485604669,True,0.09471535682678223,2.191096067428589,0.7853390574455261,1.4883395433425903,0.3297018485604669,-0.033608959601462374,0.35459547250816587
1759663753.7950523,1,2.191482700899844,0.7895562799652311,1.4876956579907086,0.3297018485604669,True,0.0908815860748291,2.191096067428589,0.7853390574455261,1.4883395433425903,0.3297018485604669,-0.01036468636841903,0.2407195420028018
1759663753.8952825,1,2.1922827381089993,0.799500452876798,1.4899614781672987,0.3297018485604669,True,0.1,2.191096067428589,0.7853390574455261,1.4883395433425903,0.3297018485604669,-0.021665010669011053,0.3049349773224076
1759663753.9952617,1,2.1965513924678226,0.855437436312141,1.4950910390974226,0.29259934368071955,True,0.09997916221618652,2.1977427005767822,0.8719865083694458,1.4983203411102295,0.29259934368071955,-0.021665010669011053,0.3049349773224076
1759663754.0938044,1,2.198115697647112,0.8766475826398834,1.4986316878439627,0.29259934368071955,True,0.09854269027709961,2.1977427005767822,0.8719865083694458,1.4983203411102295,0.29259934368071955,-0.011420419527141235,0.2894445969529688
1759663754.1955252,1,2.201247309987453,0.9217365142168583,1.5025057200817367,0.2938290816692515,True,0.1,2.2018821239471436,0.9314900040626526,1.5031864643096924,0.2938290816692515,-0.011420419527141235,0.2894445969529688
1759663754.2932637,1,2.202384643014407,0.9387086342634421,1.5048984219188695,0.2938290816692515,True,0.09773850440979004,2.2018821239471436,0.9314900040626526,1.5031864643096924,0.2938290816692515,-0.009244543902203972,0.2891615962284785
1759663754.3885183,1,2.202775733231167,0.9449149145817919,1.5061112357246014,0.2938290816692515,True,0.09525465965270996,2.2018821239471436,0.9314900040626526,1.5031864643096924,0.2938290816692515,-0.009244543902203972,0.2891615962284785
1759663754.4916627,1,2.2064049072931025,1.0007812794298154,1.508251424596076,0.2899605106174392,True,0.1,2.2074966430664062,1.0174250602722168,1.5075876712799072,0.2899605106174392,-0.017156028035186566,0.3522750223105154
1759663754.5832582,1,2.2077114191997995,1.0211926654079133,1.5095836760112809,0.2899605106174392,True,0.09159541130065918,2.2074966430664062,1.0174250602722168,1.5075876712799072,0.2899605106174392,-0.009653401405325113,0.2588602152548855
1759663754.6807146,1,2.2082360642965706,1.029637916194801,1.5101365930579664,0.2899605106174392,True,0.09745645523071289,2.2074966430664062,1.0174250602722168,1.5075876712799072,0.2899605106174392,-0.018255662048368038,0.3232289567415432
1759663754.777621,1,2.2117588801567707,1.0886597097485466,1.5129227322150207,0.3165360592513004,True,0.09690642356872559,2.2127959728240967,1.1062136888504028,1.5144912004470825,0.3165360592513004,-0.018255662048368038,0.3232289567415432
1759663754.8742018,1,2.213071013959714,1.1111665549025709,1.5148760155030914,0.3165360592513004,True,0.09658074378967285,2.2127959728240967,1.1062136888504028,1.5144912004470825,0.3165360592513004,-0.01472390984725891,0.28695809801041366
1759663754.982803,1,2.2156041960377557,1.1582427283647492,1.5179714105888733,0.3067995587906376,True,0.1,2.216118812561035,1.168405294418335,1.5196144580841064,0.3067995587906376,-0.01472390984725891,0.28695809801041366
1759663755.0665092,1,2.2164371754827443,1.1743192875327213,1.5198567425124807,0.3067995587906376,True,0.08370614051818848,2.216118812561035,1.168405294418335,1.5196144580841064,0.3067995587906376,-0.012693254702195844,0.28809099409496103
1759663755.1564755,1,2.216774606621963,1.1811935781020941,1.5209890940761355,0.3067995587906376,True,0.0899662971496582,2.216118812561035,1.168405294418335,1.5196144580841064,0.3067995587906376,-0.012693254702195844,0.28809099409496103
1759663755.2512827,1,2.219155422766234,1.2305736383742734,1.5235233241224995,0.2858847004396615,True,0.09480714797973633,2.219799041748047,1.2443615198135376,1.5246778726577759,0.2858847004396615,-0.012693254702195844,0.28809099409496103
1759663755.3523533,1,2.2200661684941476,1.2500027870988069,1.5252959810118618,0.2858847004396615,True,0.1,2.219799041748047,1.2443615198135376,1.5246778726577759,0.2858847004396615,-0.010223575649504824,0.27527538058985496
1759663755.442595,1,2.2203468762987173,1.2563604350271655,1.5261269600354401,0.2858847004396615,True,0.09024167060852051,2.219799041748047,1.2443615198135376,1.5246778726577759,0.2858847004396615,-0.015419727663786631,0.3396593592878631
1759663755.539134,1,2.2228543397810845,1.314489127710487,1.5287583837485812,0.29762727654918475,True,0.09653902053833008,2.223618507385254,1.332674264907837,1.5304487943649292,0.29762727654918475,-0.015419727663786631,0.3396593592878631
1759663755.6318924,1,2.223767427868744,1.3362640455847898,1.5306551255377903,0.29762727654918475,True,0.0927584171295166,2.223618507385254,1.332674264907837,1.5304487943649292,0.29762727654918475,-0.004933263729206772,0.23856647805232292
1759663755.7271087,1,2.2241075340896703,1.344861329529458,1.5316555341536269,0.29762727654918475,True,0.09521627426147461,2.223618507385254,1.332674264907837,1.5304487943649292,0.29762727654918475,-0.009875828795479435,0.3095719903027105
1759663755.821896,1,2.2261691694941224,1.399605792777183,1.533843477699163,0.2969477040475205,True,0.0947873592376709,2.2267680168151855,1.4160571098327637,1.534846305847168,0.2969477040475205,-0.009875828795479435,0.3095719903027105
1759663755.9159322,1,2.226931249870859,1.4204320056126332,1.5353466523804409,0.2969477040475205,True,0.09403610229492188,2.2267680168151855,1.4160571098327637,1.534846305847168,0.2969477040475205,-0.005311846610300819,0.2828390406529542
1759663756.0088103,1,2.2272023268359358,1.4282562022521899,1.5361576549726168,0.2969477040475205,True,0.09287810325622559,2.2267680168151855,1.4160571098327637,1.534846305847168,0.2969477040475205,-0.005311846610300819,0.2828390406529542
1759663756.103512,1,2.229045864677702,1.4822973871215814,1.5375927854446276,0.2936366937358712,True,0.09470176696777344,2.2295939922332764,1.4985206127166748,1.537703514099121,0.2936366937358712,-0.008745908290768156,0.34991965477374953
1759663756.202949,1,2.229753375264923,1.5034705722234634,1.5386210712212511,0.2936366937358712,True,0.09943699836730957,2.2295939922332764,1.4985206127166748,1.537703514099121,0.2936366937358712,-0.0035674511553551724,0.2602589928287913
1759663756.3105845,1,2.2312556790344744,1.5506333297638881,1.5398467582480153,0.3070284365500138,True,0.1,2.2315776348114014,1.5608158111572266,1.5397096872329712,0.3070284365500138,-0.007544721216865113,0.32374836105803245
1759663756.4238775,1,2.2318161252892743,1.568648320286803,1.5406579213656952,0.3070284365500138,True,0.1,2.2315776348114014,1.5608158111572266,1.5397096872329712,0.3070284365500138,-0.003914043981195547,0.25077625257430514
1759663756.533664,1,2.233195464847544,1.614833877576351,1.5417329600784306,0.2941533424811851,True,0.1,2.233503818511963,1.6252065896987915,1.541663408279419,0.2941533424811851,-0.008627977124211483,0.31820634074090925
