timestamp,observer_vehicle_id,vehicle_0_x,vehicle_0_y,vehicle_0_theta,vehicle_0_velocity,vehicle_1_x,vehicle_1_y,vehicle_1_theta,vehicle_1_velocity
1759505305.9345686,0,-1.205,-0.83,-0.7801621756414646,0.0,0.0,0.0,0.0,0.0
1759505305.945421,0,-1.205,-0.83,-0.7801621756414646,0.0,0.0,0.0,0.0,0.0
1759505305.956025,0,-1.205,-0.83,-0.7801621756414646,0.0,0.0,0.0,0.0,0.0
1759505305.9667032,0,-1.205,-0.83,-0.7801621756414646,0.0,0.0,0.0,0.0,0.0
1759505305.9769664,0,-1.205,-0.83,-0.7801621756414646,0.0,0.0,0.0,0.0,0.0
1759505305.9869936,0,-1.205,-0.83,-0.7801621756414646,0.0,0.0,0.0,0.0,0.0
1759505305.9969938,0,-1.205,-0.83,-0.7801621756414646,0.0,0.0,0.0,0.0,0.0
1759505306.0075414,0,-1.205,-0.83,-0.7801621756414646,0.0,0.0,0.0,0.0,0.0
1759505306.018423,0,-1.205,-0.83,-0.7801621756414646,0.0,0.0,0.0,0.0,0.0
1759505306.0289829,0,-1.205,-0.83,-0.7801621756414646,0.0,0.0,0.0,0.0,0.0
1759505306.0394952,0,-1.205,-0.83,-0.7801621756414646,0.0,0.0,0.0,0.0,0.0
1759505306.0503094,0,-1.205,-0.83,-0.7801621756414646,0.0,0.0,0.0,0.0,0.0
1759505306.060357,0,-1.205,-0.83,-0.7801621756414646,0.0,0.0,0.0,0.0,0.0
1759505306.070556,0,-1.205,-0.83,-0.7801621756414646,0.0,0.0,0.0,0.0,0.0
1759505306.0813382,0,-1.205,-0.83,-0.7801621756414646,0.0,0.0,0.0,0.0,0.0
1759505306.0919409,0,-1.205,-0.83,-0.7801621756414646,0.0,0.0,0.0,0.0,0.0
1759505306.1027198,0,-1.205,-0.83,-0.7801621756414646,0.0,0.0,0.0,0.0,0.0
1759505306.1132596,0,-1.205,-0.83,-0.7801621756414646,0.0,0.0,0.0,0.0,0.0
1759505306.1237752,0,-1.205,-0.83,-0.7801621756414646,0.0,0.0,0.0,0.0,0.0
1759505306.1339083,0,-1.2049998061124942,-0.8299996287763611,-0.7229998178657411,0.0,0.0,0.0,0.0,0.0
1759505306.1441522,0,-1.2049998050368294,-0.8299996267168561,-0.7181192393927844,0.0,0.0,0.0,0.0,0.0
1759505306.1545196,0,-1.204999804699359,-0.8299996260707242,-0.7176595455951897,0.0,0.0,0.0,0.0,0.0
1759505306.164999,0,-1.2049998045739476,-0.829999625830607,-0.717597685376079,0.0,0.0,0.0,0.0,0.0
1759505306.1757228,0,-1.2049998045262351,-0.8299996257392549,-0.7175886977411388,0.0,0.0,0.0,0.0,0.0
1759505306.1862118,0,-1.204999804508021,-0.8299996257043817,-0.7175956695407866,0.0,0.0,0.0,0.0,0.0
1759505306.1975524,0,-1.2049998045010644,-0.8299996256910624,-0.7176055503964882,0.0,0.0,0.0,0.0,0.0
1759505306.2086313,0,-1.2049998044984074,-0.829999625685975,-0.717617582925973,0.0,0.0,0.0,0.0,0.0
1759505306.2192955,0,-1.2049998044973924,-0.8299996256840317,-0.7176291979794929,0.0,0.0,0.0,0.0,0.0
1759505306.229671,0,-1.2049998044970047,-0.8299996256832896,-0.7176391419069574,0.0,-0.3442780592441559,-0.06945090532302857,1.7425409845322701,0.0
1759505306.2403786,0,-1.2049998044968566,-0.829999625683006,-0.7176467681364329,0.0,-0.6172623609707788,-0.12451978463387468,-3.1386090940075335,0.0
1759505306.2509055,0,-1.2049998044968,-0.8299996256828978,-0.7176532643566205,0.0,-0.8343094123617424,-0.16830449240726789,-0.7835516249337979,0.0
1759505306.2620726,0,-1.2049998044967785,-0.8299996256828563,-0.7176581074400463,0.0,-1.007197732389494,-0.20318109875292384,1.1140436953074906,0.0
1759505306.2729611,0,-1.2049998044967702,-0.8299996256828406,-0.7176625802282892,0.0,-1.1453150470384366,-0.2310433812469468,2.651383011476867,0.0
1759505306.2837245,0,-1.2049998044967671,-0.8299996256828346,-0.717666515552148,0.0,-1.255952002720644,-0.2533620754767869,-2.3789561057733537,0.0
1759505306.2943592,0,-1.2049998044967658,-0.8299996256828323,-0.7176699424409848,0.0,-1.3448123005104309,-0.2712877839646402,-0.18584880466027065,0.0
1759505306.3050613,0,-1.2049998044967654,-0.8299996256828314,-0.7176728042955851,0.0,-1.4163544210035282,-0.28571991201800273,1.6015897047464593,0.0
1759505306.3154821,0,-1.2049998044967651,-0.829999625682831,-0.7176754187373646,0.0,-1.4741149642961175,-0.29737189481477866,3.0661296161817706,0.0
1759505306.3641536,0,-1.2049998044967651,-0.8299996256828309,-0.7176630213527773,0.0,-1.5188657833168215,-0.30639943755670745,-1.981158414628127,0.0
1759505306.3671715,0,-1.2049998044967651,-0.8299996256828308,-0.7176745355236669,0.0,-1.5558098325987393,-0.3138521276135785,0.11976096785449133,0.0
1759505306.3778908,0,-1.2049998044967651,-0.8299996256828308,-0.7176800592296075,0.0,-1.586054838021058,-0.31995342553738915,1.863363392747191,0.0
1759505306.3884785,0,-1.2049998044967651,-0.8299996256828308,-0.7176836110034728,0.0,-1.6108794767590984,-0.3249612777323829,-2.9650517420494995,0.0
1759505306.3993049,0,-1.2049998044967651,-0.8299996256828308,-0.7176860131348626,0.0,-1.6312978471000394,-0.3290802573400655,-0.7103974024986399,0.0
1759505306.4098318,0,-1.2049998044967651,-0.8299996256828308,-0.7176878589079756,0.0,-1.6481389736396346,-0.3324776027515112,1.1733717922851865,0.0
1759505306.4206994,0,-1.2049998044967651,-0.8299996256828308,-0.717689170265082,0.0,-1.6620563238682953,-0.33528513737977134,2.755329029429373,0.0
1759505306.432101,0,-1.2049998044967651,-0.8299996256828308,-0.7176900729033271,0.0,-1.6735774241812365,-0.33760927865327534,-2.191449247883491,0.0
1759505306.4426625,0,-1.2049998044967651,-0.8299996256828308,-0.7176910456443366,0.0,-1.6831490800149416,-0.33954016023356165,-0.07683553538658991,0.0
1759505306.453276,0,-1.2049998044967651,-0.8299996256828308,-0.7176918456157999,0.0,-1.69111909397697,-0.34114794402993626,1.7096122300074292,0.0
1759505306.464227,0,-1.2049998044967651,-0.8299996256828308,-0.7176924414291648,0.0,-1.6977679273711352,-0.34248920725066123,-3.0564041836779388,0.0
1759505306.4752629,0,-1.2049998044967651,-0.8299996256828308,-0.7176929508145307,0.0,-1.703327151725685,-0.3436106646132505,-0.8222505884145066,0.0
1759505306.485867,0,-1.2049998044967651,-0.8299996256828308,-0.717693509297062,0.0,-1.7079891401411282,-0.34455112337140914,1.0780935896450787,0.0
1759505306.4967318,0,-1.2049998044967651,-0.8299996256828308,-0.7176939539995217,0.0,-1.7119062282087614,-0.34534131404787693,2.7026245658712083,0.0
1759505306.5070052,0,-1.2049998044967651,-0.8299996256828308,-0.7176944745083951,0.0,-1.715207813483233,-0.346007339895753,-2.1845899166209763,0.0
1759505306.5176108,0,-1.2049998044967651,-0.8299996256828308,-0.7176948692117708,0.0,-1.7179954083807811,-0.34656967892407686,-0.0930332549266237,0.0
1759505306.5287995,0,-1.2049998044967651,-0.8299996256828308,-0.7176951224673651,0.0,-1.720352337481162,-0.3470451401258828,1.7053397259470338,0.0
1759505306.5391316,0,-1.2049998044967651,-0.8299996256828308,-0.7176955311489159,0.0,-1.7223523151143512,-0.3474485938271025,-3.0237298721939876,0.0
1759505306.5497932,0,-1.2049998044967651,-0.8299996256828308,-0.7176958485570726,0.0,-1.7240522488247871,-0.347791519935836,-0.8288287755400006,0.0
1759505306.561355,0,-1.2049998044967651,-0.8299996256828308,-0.7176959999207497,0.0,-1.7254983847421095,-0.34808324764250054,1.0708059219450912,0.0
1759505306.5717125,0,-1.2049998044967651,-0.8299996256828308,-0.7176963666316105,0.0,-1.7267338119285063,-0.3483324692651166,2.723214489232049,0.0
1759505306.5819998,0,-1.2049998044967651,-0.8299996256828308,-0.7176967142417947,0.0,-1.7277915980130683,-0.34854585550695905,-2.1153335983997485,0.0
1759505306.5930963,0,-1.2049998044967651,-0.8299996256828308,-0.7176969052929998,0.0,-1.7286980265013472,-0.348728708516122,-0.0546313804370013,0.0
1759505306.604421,0,-1.2049998044967651,-0.8299996256828308,-0.7176970689406765,0.0,-1.7294762016144734,-0.34888568908649326,1.748447365400683,0.0
1759505306.6147642,0,-1.2049998044967651,-0.8299996256828308,-0.717697381671325,0.0,-1.7301468598723497,-0.3490209803777075,-2.949203851192377,0.0
1759505306.6251183,0,-1.2049998044967651,-0.8299996256828308,-0.7176976655242165,0.0,-1.730726041900608,-0.34913781825084317,-0.7979371198409264,0.0
1759505306.6352098,0,-1.2049998044967651,-0.8299996256828308,-0.7176979502795859,0.0,-1.7312274771902605,-0.3492389723438566,1.096431829564245,0.0
1759505306.6458304,0,-1.2049998044967651,-0.8299996256828308,-0.7176981369820865,0.0,-1.7316620691009155,-0.34932664218174087,2.7724004132286626,0.0
1759505306.6572335,0,-1.2049998044967651,-0.8299996256828308,-0.7176982245891992,0.0,-1.7320389837953096,-0.3494026768463161,-2.0199270960706457,0.0
1759505306.6680434,0,-1.2049998044967651,-0.8299996256828308,-0.7176984035060876,0.0,-1.7323669361294856,-0.34946883437770604,0.009258534583935576,0.0
1759505306.6786299,0,-1.2049998044967651,-0.8299996256828308,-0.7176986089740929,0.0,-1.7326565731552421,-0.34952726259615835,1.8142483744618592,0.0
1759505306.6892505,0,-1.2049998044967651,-0.8299996256828308,-0.717698798308442,0.0,-1.7329143501081654,-0.3495792637105809,-2.8624959752263752,0.0
1759505306.6996665,0,-1.2049998044967651,-0.8299996256828308,-0.7176989962003404,0.0,-1.7331437715962672,-0.349625544702417,-0.7416131392693177,0.0
1759505306.7105694,0,-1.2049998044967651,-0.8299996256828308,-0.7176991309153955,0.0,-1.733347956720678,-0.34966673478515115,1.145972584732464,0.0
1759505306.7212703,0,-1.2049998044967651,-0.8299996256828308,-0.717699284628285,0.0,-1.7335296814814036,-0.3497033939587845,2.82592387909405,0.0
1759505306.7356095,0,-1.2049998044967651,-0.8299996256828308,-0.7176991113677609,0.0,-1.7335296814814036,-0.3497033939587845,2.82592387909405,0.0
1759505306.7466295,0,-1.2049998044967651,-0.8299996256828308,-0.7176993215377738,0.0,-1.7335296814814036,-0.3497033939587845,2.82592387909405,0.0
1759505306.7570393,0,-1.2049998044967651,-0.8299996256828308,-0.7176995825969924,0.0,-1.7335296814814036,-0.3497033939587845,2.82592387909405,0.0
1759505306.7685664,0,-1.2049998044967651,-0.8299996256828308,-0.7176997162851748,0.0,-1.7335296814814036,-0.3497033939587845,2.82592387909405,0.0
1759505306.778938,0,-1.2049998044967651,-0.8299996256828308,-0.7176999318633825,0.0,-1.7335296814814036,-0.3497033939587845,2.82592387909405,0.0
1759505306.7896094,0,-1.2049998044967651,-0.8299996256828308,-0.7177000984223447,0.0,-1.7335296814814036,-0.3497033939587845,2.82592387909405,0.0
1759505306.7998838,0,-1.2049998044967651,-0.8299996256828308,-0.717700273565546,0.0,-1.7335296814814036,-0.3497033939587845,2.82592387909405,0.0
1759505306.8110452,0,-1.2049998044967651,-0.8299996256828308,-0.7177003651537746,0.0,-1.7335296814814036,-0.3497033939587845,2.82592387909405,0.0
1759505306.8214872,0,-1.2049998044967651,-0.8299996256828308,-0.7177005048991134,0.0,-1.7335296814814036,-0.3497033939587845,2.82592387909405,0.0
1759505306.8318295,0,-1.2049998044967651,-0.8299996256828308,-0.7177006401536019,0.0,-1.7335296814814036,-0.3497033939587845,2.82592387909405,0.0
1759505306.8431797,0,-1.2049998044967651,-0.8299996256828308,-0.7177006984486205,0.0,-1.7335296814814036,-0.3497033939587845,2.82592387909405,0.0
1759505306.853842,0,-1.2049998044967651,-0.8299996256828308,-0.7177008060308623,0.0,-1.7335296814814036,-0.3497033939587845,2.82592387909405,0.0
1759505306.865508,0,-1.2049998044967651,-0.8299996256828308,-0.7177008522822774,0.0,-1.7335296814814036,-0.3497033939587845,2.82592387909405,0.0
1759505306.8756623,0,-1.2049998044967651,-0.8299996256828308,-0.7177009950868332,0.0,-1.7335296814814036,-0.3497033939587845,2.82592387909405,0.0
1759505306.8867965,0,-1.2049998044967651,-0.8299996256828308,-0.7177010703825282,0.0,-1.7335296814814036,-0.3497033939587845,2.82592387909405,0.0
1759505306.8971965,0,-1.2049998044967651,-0.8299996256828308,-0.7177011828838928,0.0,-1.7335296814814036,-0.3497033939587845,2.82592387909405,0.0
1759505306.9078445,0,-1.2049998044967651,-0.8299996256828308,-0.7177012731613246,0.0,-1.7335296814814036,-0.3497033939587845,2.82592387909405,0.0
1759505306.9183383,0,-1.2049998044967651,-0.8299996256828308,-0.7177013644678905,0.0,-1.7335296814814036,-0.3497033939587845,2.82592387909405,0.0
1759505306.930029,0,-1.2049998044967651,-0.8299996256828308,-0.7177013925473332,0.0,-1.7335296814814036,-0.3497033939587845,2.82592387909405,0.0
1759505306.9390812,0,-1.2049998044967651,-0.8299996256828308,-0.7177015525613584,0.0,-1.7335296814814036,-0.3497033939587845,2.82592387909405,0.0
1759505306.949856,0,-1.2049998044967651,-0.8299996256828308,-0.7177016111729699,0.0,-1.7335296814814036,-0.3497033939587845,2.82592387909405,0.0
1759505306.9603884,0,-1.2049998044967651,-0.8299996256828308,-0.7177016757753165,0.0,-1.7335296814814036,-0.3497033939587845,2.82592387909405,0.0
1759505306.971095,0,-1.2049998044967651,-0.8299996256828308,-0.7177017319215846,0.0,-1.7335296814814036,-0.3497033939587845,2.82592387909405,0.0
1759505306.9821355,0,-1.2049998044967651,-0.8299996256828308,-0.7177017751065584,0.0,-1.7335296814814036,-0.3497033939587845,2.82592387909405,0.0
1759505306.993557,0,-1.2049998044967651,-0.8299996256828308,-0.7177018080528939,0.0,-1.7335296814814036,-0.3497033939587845,2.82592387909405,0.0
1759505307.0042553,0,-1.2049998044967651,-0.8299996256828308,-0.717701876167542,0.0,-1.7335296814814036,-0.3497033939587845,2.82592387909405,0.0
1759505307.014417,0,-1.2049998044967651,-0.8299996256828308,-0.7177019615795466,0.0,-1.7335296814814036,-0.3497033939587845,2.82592387909405,0.0
1759505307.0257578,0,-1.2049998044967651,-0.8299996256828308,-0.7177019958177961,0.0,-1.7335296814814036,-0.3497033939587845,2.82592387909405,0.0
1759505307.0369418,0,-1.2049998044967651,-0.8299996256828308,-0.7177020387757196,0.0,-1.7335296814814036,-0.3497033939587845,2.82592387909405,0.0
1759505307.0473464,0,-1.2049998044967651,-0.8299996256828308,-0.7177021104401149,0.0,-1.7335296814814036,-0.3497033939587845,2.82592387909405,0.0
1759505307.0575907,0,-1.2049998044967651,-0.8299996256828308,-0.717702180933621,0.0,-1.7335296814814036,-0.3497033939587845,2.82592387909405,0.0
1759505307.0680554,0,-1.2049998044967651,-0.8299996256828308,-0.7177022362795711,0.0,-1.7335296814814036,-0.3497033939587845,2.82592387909405,0.0
1759505307.0790844,0,-1.2049998044967651,-0.8299996256828308,-0.7177022702123281,0.0,-1.7335296814814036,-0.3497033939587845,2.82592387909405,0.0
1759505307.0901983,0,-1.2049998044967651,-0.8299996256828308,-0.7177023036198023,0.0,-1.7335296814814036,-0.3497033939587845,2.82592387909405,0.0
1759505307.101734,0,-1.2049998044967651,-0.8299996256828308,-0.7177023286066166,0.0,-1.7335296814814036,-0.3497033939587845,2.82592387909405,0.0
1759505307.1128716,0,-1.2049998044967651,-0.8299996256828308,-0.7177023697015876,0.0,-1.7335296814814036,-0.3497033939587845,2.82592387909405,0.0
1759505307.1239562,0,-1.2049998044967651,-0.8299996256828308,-0.7177024132524643,0.0,-1.7335296814814036,-0.3497033939587845,2.82592387909405,0.0
1759505307.1381,0,-1.2049998044967651,-0.8299996256828308,-0.7177023818293868,0.0,-1.7335296814814036,-0.3497033939587845,2.82592387909405,0.0
1759505307.148587,0,-1.2049998044967651,-0.8299996256828308,-0.7177024582778468,0.0,-1.7335296814814036,-0.3497033939587845,2.82592387909405,0.0
1759505307.1587641,0,-1.2049998044967651,-0.8299996256828308,-0.7177025353244009,0.0,-1.7335296814814036,-0.3497033939587845,2.82592387909405,0.0
1759505307.170005,0,-1.2049998044967651,-0.8299996256828308,-0.7177025755839654,0.0,-1.7335296814814036,-0.3497033939587845,2.82592387909405,0.0
1759505307.180276,0,-1.2049998044967651,-0.8299996256828308,-0.7177026325711058,0.0,-1.7335296814814036,-0.3497033939587845,2.82592387909405,0.0
1759505307.1915617,0,-1.2049998044967651,-0.8299996256828308,-0.7177026615277011,0.0,-1.7335296814814036,-0.3497033939587845,2.82592387909405,0.0
1759505307.2018902,0,-1.2049998044967651,-0.8299996256828308,-0.7177027086956791,0.0,-1.7335296814814036,-0.3497033939587845,2.82592387909405,0.0
1759505307.2123573,0,-1.2049998044967651,-0.8299996256828308,-0.7177027482710976,0.0,-1.7335296814814036,-0.3497033939587845,2.82592387909405,0.0
1759505307.2232609,0,-1.2049998044967651,-0.8299996256828308,-0.717702775462131,0.0,-1.7335296814814036,-0.3497033939587845,2.82592387909405,0.0
1759505307.2339041,0,-1.2049998044967651,-0.8299996256828308,-0.7177028065753159,0.0,-1.7335296814814036,-0.3497033939587845,2.82592387909405,0.0
1759505307.2451668,0,-1.2049998044967651,-0.8299996256828308,-0.7177028255483648,0.0,-1.7335296814814036,-0.3497033939587845,2.82592387909405,0.0
1759505307.256722,0,-1.2049998044967651,-0.8299996256828308,-0.7177028413793849,0.0,-1.7335296814814036,-0.3497033939587845,2.82592387909405,0.0
1759505307.2674544,0,-1.2049998044967651,-0.8299996256828308,-0.7177028736276441,0.0,-1.7335296814814036,-0.3497033939587845,2.82592387909405,0.0
1759505307.2774882,0,-1.2049998044967651,-0.8299996256828308,-0.7177029150171244,0.0,-1.7335296814814036,-0.3497033939587845,2.82592387909405,0.0
1759505307.287508,0,-1.2049998044967651,-0.8299996256828308,-0.7177029508460429,0.0,-1.7335296814814036,-0.3497033939587845,2.82592387909405,0.0
1759505307.2976246,0,-1.2049998044967651,-0.8299996256828308,-0.7177029800109835,0.0,-1.7335296814814036,-0.3497033939587845,2.82592387909405,0.0
1759505307.3091269,0,-1.2049998044967651,-0.8299996256828308,-0.7177029861553645,0.0,-1.7335296814814036,-0.3497033939587845,2.82592387909405,0.0
1759505307.3203773,0,-1.2049998044967651,-0.8299996256828308,-0.7177029992182042,0.0,-1.7335296814814036,-0.3497033939587845,2.82592387909405,0.0
1759505307.3377445,0,-1.2049998044967651,-0.8299996256828308,-0.717702936713529,0.0,-1.7335296814814036,-0.3497033939587845,2.82592387909405,0.0
1759505307.3482587,0,-1.2049998044967651,-0.8299996256828308,-0.7177029860052784,0.0,-1.7335296814814036,-0.3497033939587845,2.82592387909405,0.0
1759505307.3596447,0,-1.2049998044967651,-0.8299996256828308,-0.7177030221665675,0.0,-1.7335296814814036,-0.3497033939587845,2.82592387909405,0.0
1759505307.371265,0,-1.2049998044967651,-0.8299996256828308,-0.7177030502116041,0.0,-1.7335296814814036,-0.3497033939587845,2.82592387909405,0.0
1759505307.3819847,0,-1.2049998044967651,-0.8299996256828308,-0.7177030852506191,0.0,-1.7338220944096914,-0.34976236261743887,2.121183922334908,0.0
1759505307.3923237,0,-1.2049998044967651,-0.8299996256828308,-0.7177031192289896,0.0,-1.7340539179119523,-0.3498091126741239,1.5624696208987061,0.0
1759505307.4039438,0,-1.2049998044967651,-0.8299996256828308,-0.7177031343514244,0.0,-1.7342379180674297,-0.34984621856552284,1.119013641116234,0.0
1759505307.4153297,0,-1.2049998044967651,-0.8299996256828308,-0.7177031513597019,0.0,-1.734384397792244,-0.3498757580012206,0.7659850813453649,0.0
1759505307.425825,0,-1.2049998044967651,-0.8299996256828308,-0.7177031766962081,0.0,-1.734501430954692,-0.34989935917592946,0.48392523424509926,0.0
1759505307.436037,0,-1.2049998044967651,-0.8299996256828308,-0.7177032016214149,0.0,-1.7345951969633346,-0.34991826824328637,0.25794120110677365,0.0
1759505307.446501,0,-1.2049998044967651,-0.8299996256828308,-0.7177032205363005,0.0,-1.7346704816826382,-0.34993345033164514,0.07649864267612125,0.0
1759505307.4576914,0,-1.2049998044967651,-0.8299996256828308,-0.7177032308472846,0.0,-1.7347310280254786,-0.3499456602453608,-0.0694231785142663,0.0
1759505307.4690852,0,-1.2049998044967651,-0.8299996256828308,-0.7177032398407519,0.0,-1.7347798369929086,-0.34995550317315643,-0.18705692951656955,0.0
1759505307.4801426,0,-1.2049998044967651,-0.8299996256828308,-0.717703252752969,0.0,-1.7348193024011893,-0.34996346185748406,-0.2821719105402444,0.0
1759505307.491107,0,-1.2049998044967651,-0.8299996256828308,-0.7177032664367076,0.0,-1.7348512976021946,-0.3499699140827591,-0.35928305848075964,0.0
1759505307.5020447,0,-1.2049998044967651,-0.8299996256828308,-0.7177032797875391,0.0,-1.7348773027013535,-0.3499751583304213,-0.4219575529503376,0.0
1759505307.5133874,0,-1.2049998044967651,-0.8299996256828308,-0.7177032895711655,0.0,-1.7348984820843063,-0.349979429413137,-0.47300166209357114,0.0
1759505307.524895,0,-1.2049998044967651,-0.8299996256828308,-0.7177032985496492,0.0,-1.734915772339565,-0.3499829162054836,-0.5146726436562827,0.0
1759505307.555278,0,-1.2049998044967651,-0.8299996256828308,-0.7177031887850092,0.0,-1.734929606273902,-0.3499857059882628,-0.5480135986661638,0.0
1759505307.5661688,0,-1.2049998044967651,-0.8299996256828308,-0.7177032401743215,0.0,-1.7349435842162813,-0.34998852481203263,-0.5817016252719877,0.0
1759505307.5770178,0,-1.2049998044967651,-0.8299996256828308,-0.7177032875689378,0.0,-1.7349546647083343,-0.3499907593293552,-0.6084065508579728,0.0
1759505307.5871527,0,-1.2049998044967651,-0.8299996256828308,-0.7177033269164959,0.0,-1.7349634775355214,-0.34999253654420415,-0.6296462117964291,0.0
1759505307.5985103,0,-1.2049998044967651,-0.8299996256828308,-0.7177033498444629,0.0,-1.7349704947646123,-0.3499939516546419,-0.6465583290375048,0.0
1759505307.6088562,0,-1.2049998044967651,-0.8299996256828308,-0.71770337280525,0.0,-1.7349761031876234,-0.34999508266202956,-0.6600751041454871,0.0
1759505307.6188617,0,-1.2049998044967651,-0.8299996256828308,-0.7177033927755794,0.0,-1.7349805982168862,-0.3499959891398922,-0.6709085058931378,0.0
1759505307.629845,0,-1.2049998044967651,-0.8299996256828308,-0.7177034038686383,0.0,-1.7349842055794125,-0.34999671660885434,-0.6796025555226674,0.0
1759505307.640482,0,-1.2049998044967651,-0.8299996256828308,-0.7177034148852535,0.0,-1.7349871090896059,-0.3499973021373482,-0.6866002613360404,0.0
1759505307.6515088,0,-1.2049998044967651,-0.8299996256828308,-0.7177034227984436,0.0,-1.7349894508656927,-0.3499977743852598,-0.6922441403116342,0.0
1759505307.661992,0,-1.2049998044967651,-0.8299996256828308,-0.7177034325224412,0.0,-1.734991345556008,-0.34999815647283405,-0.6968105046599997,0.0
1759505307.6723292,0,-1.2049998044967651,-0.8299996256828308,-0.7177034418353295,0.0,-1.7349928824869907,-0.3499984664138446,-0.7005146386755415,0.0
1759505307.682813,0,-1.2049998044967651,-0.8299996256828308,-0.7177034494021992,0.0,-1.734994131973261,-0.3499987183880982,-0.7035260065559513,0.0
1759505307.6941187,0,-1.2049998044967651,-0.8299996256828308,-0.7177034529637343,0.0,-1.7349951492500806,-0.349998923534464,-0.7059777299666518,0.0
1759505307.704963,0,-1.2049998044967651,-0.8299996256828308,-0.7177034587829478,0.0,-1.734995980049852,-0.34999909107544247,-0.7079800278761217,0.0
1759505307.7156725,0,-1.2049998044967651,-0.8299996256828308,-0.7177034651260872,0.0,-1.734996660333925,-0.34999922826308166,-0.7096195701871921,0.0
1759505307.7257175,0,-1.2049998044967651,-0.8299996256828308,-0.7177034735572967,0.0,-1.7349973290346818,-0.3499993631148028,-0.7112311957235573,0.0
1759505307.7380788,0,-1.2049998044967651,-0.8299996256828308,-0.7177034728556642,0.0,-1.7349978577739964,-0.34999946974158,-0.7125055023143313,0.0
1759505307.7487924,0,-1.2049998044967651,-0.8299996256828308,-0.717703479209927,0.0,-1.7349982777818238,-0.3499995544413173,-0.7135177567992563,0.0
1759505307.7593338,0,-1.2049998044967651,-0.8299996256828308,-0.7177034860680322,0.0,-1.73499861232748,-0.34999962190655803,-0.7143240402036868,0.0
1759505307.7696524,0,-1.2049998044967651,-0.8299996256828308,-0.7177034929603572,0.0,-1.7349988795287932,-0.34999967579098484,-0.7149680180298196,0.0
1759505307.7811658,0,-1.2049998044967651,-0.8299996256828308,-0.7177034953991352,0.0,-1.734999093191471,-0.3499997188786882,-0.7154829632037252,0.0
1759505307.792158,0,-1.2049998044967651,-0.8299996256828308,-0.71770349983192,0.0,-1.7349992645994377,-0.34999975344521006,-0.7158960709407532,0.0
1759505307.8026066,0,-1.2049998044967651,-0.8299996256828308,-0.7177035059124481,0.0,-1.7349994025437923,-0.3499997812633835,-0.7162285285343715,0.0
1759505307.8128264,0,-1.2049998044967651,-0.8299996256828308,-0.7177035120726742,0.0,-1.7349995138562424,-0.34999980371090633,-0.7164968009800353,0.0
1759505307.823618,0,-1.2049998044967651,-0.8299996256828308,-0.7177035159491538,0.0,-1.7349996038348188,-0.34999982185619144,-0.7167136569800907,0.0
1759505307.8343506,0,-1.2049998044967651,-0.8299996256828308,-0.7177035198223116,0.0,-1.7349996767545433,-0.34999983656134953,-0.7168893997006283,0.0
1759505307.8447416,0,-1.2049998044967651,-0.8299996256828308,-0.717703524486021,0.0,-1.7349997360186389,-0.34999984851268234,-0.7170322311971634,0.0
1759505307.855714,0,-1.2049998044967651,-0.8299996256828308,-0.717703527394832,0.0,-1.7349997842669775,-0.3499998582425525,-0.7171485137852551,0.0
1759505307.8659687,0,-1.2049998044967651,-0.8299996256828308,-0.7177035320779517,0.0,-1.7349998298265952,-0.34999986743020894,-0.7172583163275039,0.0
1759505307.8762732,0,-1.2049998044967651,-0.8299996256828308,-0.7177035362753958,0.0,-1.7349998659828287,-0.3499998747215576,-0.7173454559167276,0.0
1759505307.8865619,0,-1.2049998044967651,-0.8299996256828308,-0.7177035401221747,0.0,-1.7349998947475362,-0.3499998805223142,-0.7174147813016388,0.0
1759505307.8969524,0,-1.2049998044967651,-0.8299996256828308,-0.7177035434436583,0.0,-1.7349999176853412,-0.3499998851480043,-0.7174700633567767,0.0
1759505307.9072084,0,-1.2049998044967651,-0.8299996256828308,-0.717703546866904,0.0,-1.7349999360242097,-0.3499998888462623,-0.717514261584959,0.0
1759505307.9174604,0,-1.2049998044967651,-0.8299996256828308,-0.7177035500838933,0.0,-1.7349999507217713,-0.34999989181020613,-0.7175496839544163,0.0
1759505307.927818,0,-1.2049998044967651,-0.8299996256828308,-0.7177035528975466,0.0,-1.7349999625280907,-0.34999989419109545,-0.7175781381856675,0.0
1759505307.9633276,0,-1.2049998044967651,-0.8299996256828308,-0.7177035116730509,0.0,-1.7349999717744662,-0.3499998960557406,-0.7176004227346778,0.0
1759505307.9740858,0,-1.2049998044967651,-0.8299996256828308,-0.717703527307112,0.0,-1.7349999792781072,-0.349999897568942,-0.7176185071464662,0.0
1759505307.984675,0,-1.2049998044967651,-0.8299996256828308,-0.7177035421214306,0.0,-1.7349999853837073,-0.34999989880021126,-0.7176332221603275,0.0
1759505307.9958677,0,-1.2049998044967651,-0.8299996256828308,-0.7177035521650232,0.0,-1.7349999911210794,-0.34999989995722286,-0.7176470497136465,0.0
1759505308.0062745,0,-1.2049998044967651,-0.8299996256828308,-0.7177035607733764,0.0,-1.7349999956720288,-0.34999990087497773,-0.7176580178878026,0.0
1759505308.0168576,0,-1.2049998044967651,-0.8299996256828308,-0.7177035671046674,0.0,-1.7349999992902025,-0.3499999016046269,-0.7176667379933698,0.0
1759505308.0271487,0,-1.2049998044967651,-0.8299996256828308,-0.7177035724187117,0.0,-1.735000002174895,-0.34999990218636057,-0.7176736903470797,0.0
1759505308.0371785,0,-1.2049998044967651,-0.8299996256828308,-0.7177035769851727,0.0,-1.7350000044810423,-0.3499999026514235,-0.717679248357892,0.0
1759505308.0474677,0,-1.2049998044967651,-0.8299996256828308,-0.7177035803257343,0.0,-1.7350000063285382,-0.3499999030239937,-0.7176837009794557,0.0
1759505308.0582705,0,-1.2049998044967651,-0.8299996256828308,-0.7177035824671432,0.0,-1.7350000078113639,-0.3499999033230237,-0.7176872747148391,0.0
1759505308.0692923,0,-1.2049998044967651,-0.8299996256828308,-0.7177035841520976,0.0,-1.7350000090042212,-0.3499999035635781,-0.7176901496022934,0.0
1759505308.079815,0,-1.2049998044967651,-0.8299996256828308,-0.7177035863924672,0.0,-1.735000009966803,-0.3499999037576945,-0.7176924695061714,0.0
1759505308.0904658,0,-1.2049998044967651,-0.8299996256828308,-0.7177035883158425,0.0,-1.7350000107453496,-0.34999990391469804,-0.7176943458694823,0.0
1759505308.1010792,0,-1.2049998044967651,-0.8299996256828308,-0.7177035901417259,0.0,-1.7350000113766233,-0.3499999040420021,-0.7176958672923286,0.0
1759505308.1115673,0,-1.2049998044967651,-0.8299996256828308,-0.7177035919854334,0.0,-1.7350000118898066,-0.34999990414549187,-0.7176971041078047,0.0
1759505308.1220765,0,-1.2049998044967651,-0.8299996256828308,-0.7177035936738285,0.0,-1.735000012369257,-0.34999990424217897,-0.7176982596243114,0.0
1759505308.15091,0,-1.2049998044967651,-0.8299996256828308,-0.7177035781552359,0.0,-1.7350000127423708,-0.34999990431742195,-0.7176991588601985,0.0
1759505308.1539574,0,-1.2049998044967651,-0.8299996256828308,-0.7177035912520484,0.0,-1.7350000130426189,-0.3499999043779706,-0.7176998824833755,0.0
1759505308.1642077,0,-1.2049998044967651,-0.8299996256828308,-0.7177035957286773,0.0,-1.7350000132825925,-0.34999990442636425,-0.7177004608399526,0.0
1759505308.1745958,0,-1.2049998044967651,-0.8299996256828308,-0.7177035986256008,0.0,-1.7350000134748278,-0.34999990446513085,-0.7177009241432384,0.0
1759505308.1850991,0,-1.2049998044967651,-0.8299996256828308,-0.7177036008236842,0.0,-1.7350000136291786,-0.34999990449625756,-0.7177012961414674,0.0
1759505308.1955428,0,-1.2049998044967651,-0.8299996256828308,-0.7177036027113566,0.0,-1.7350000137534236,-0.3499999045213131,-0.7177015955823894,0.0
1759505308.205903,0,-1.2049998044967651,-0.8299996256828308,-0.7177036044026099,0.0,-1.7350000138536879,-0.34999990454153257,-0.7177018372275347,0.0
1759505308.2308712,0,-1.2049998044967651,-0.8299996256828308,-0.7177035954036555,0.0,-1.7350000139334758,-0.3499999045576228,-0.7177020295232263,0.0
1759505308.241712,0,-1.2049998044967651,-0.8299996256828308,-0.7177035994327241,0.0,-1.7351265183809248,-0.3498929320389247,-0.7181439427059261,0.0020406325761920434
1759505308.252468,0,-1.2049998044967651,-0.8299996256828308,-0.7177036033501647,0.0,-1.7351861851987025,-0.3498664018561857,-0.7185742431404046,0.003791353132062472
1759505308.2637005,0,-1.2049998044967651,-0.8299996256828308,-0.7177036060911668,0.0,-1.7352307849149664,-0.3498647299343389,-0.7189220889268294,0.005196017982840942
1759505308.2744164,0,-1.2049998044967651,-0.8299996256828308,-0.7177036085675716,0.0,-1.7352639455530863,-0.3498793300863351,-0.719205105749769,0.006328856916749749
1759505308.2846205,0,-1.2049998044967651,-0.8299996256828308,-0.7177036108614665,0.0,-1.735288404689393,-0.3499041837188675,-0.7194369346287848,0.007247340369173453
1759505308.2949755,0,-1.2049998044967651,-0.8299996256828308,-0.7177036126136453,0.0,-1.735306183694054,-0.3499351632647266,-0.719628403365224,0.007996447270605533
1759505308.306087,0,-1.2049998044967651,-0.8299996256828308,-0.7177036136255879,0.0,-1.7353187743518728,-0.34996950968196044,-0.719788269331967,0.00861194027137899
1759505308.3176079,0,-1.2049998044967651,-0.8299996256828308,-0.7177036143207225,0.0,-1.7353273386334562,-0.35000536709764996,-0.7199233549240233,0.009121972324900494
1759505308.3289554,0,-1.2049998044967651,-0.8299996256828308,-0.7177036151320735,0.0,-1.7353328034836835,-0.3500414785764016,-0.7200388050583078,0.009548323807758866
1759505308.3476863,0,-1.2049998044967651,-0.8299996256828308,-0.7177036123570737,0.0,-1.735335322182854,-0.3500779827818291,-0.7201422549019315,0.009915304678059374
1759505308.3577557,0,-1.2049998044967651,-0.8299996256828308,-0.7177036147915334,0.0,-1.7353545856352905,-0.3500928527676181,-0.7201868032420032,0.010176957395948833
1759505308.369046,0,-1.2049998044967651,-0.8299996256828308,-0.7177036164364452,0.0,-1.7353689149067328,-0.3501090989085051,-0.7202282252965113,0.010398911304169705
1759505308.380495,0,-1.2049998044967651,-0.8299996256828308,-0.7177036176987333,0.0,-1.735379385057941,-0.3501261256241116,-0.7202674092499015,0.010590214720807963
1759505308.3915784,0,-1.2049998044967651,-0.8299996256828308,-0.7177036189314253,0.0,-1.7353868571948416,-0.3501434834439467,-0.7203047824372167,0.010757325081420513
1759505308.4023561,0,-1.2049998044967651,-0.8299996256828308,-0.7177036201135909,0.0,-1.735391990762949,-0.35016088601717615,-0.7203406995896499,0.010905303413371144
1759505308.4136417,0,-1.2049998044967651,-0.8299996256828308,-0.7177036209194796,0.0,-1.7353952439129645,-0.3501782742403729,-0.7203758664081416,0.011039070861588647
1759505308.4250062,0,-1.2049998044967651,-0.8299996256828308,-0.7177036216170105,0.0,-1.7353969968891436,-0.35019559252892013,-0.7204106265038452,0.011162019563053493
1759505308.4352958,0,-1.2049998044967651,-0.8299996256828308,-0.7177036226721665,0.0,-1.735397616383649,-0.35021265164643156,-0.720444622960277,0.011275362508406798
1759505308.4463155,0,-1.2049998044967651,-0.8299996256828308,-0.7177036233208973,0.0,-1.7353972781715814,-0.35022958601914067,-0.7204785431634291,0.011382287295472669
1759505308.457269,0,-1.2049998044967651,-0.8299996256828308,-0.7177036239317189,0.0,-1.7353961654298546,-0.3502464160907473,-0.720512513214065,0.011484350364877889
1759505308.46825,0,-1.2049998044967651,-0.8299996256828308,-0.7177036244984762,0.0,-1.7353944149505096,-0.3502631894923326,-0.7205466887221489,0.011582913339790276
1759505308.4798074,0,-1.2049998044967651,-0.8299996256828308,-0.7177036248541189,0.0,-1.7365072583524819,-0.3493877968672504,-0.7195630072950149,0.019859159821519593
1759505308.4906614,0,-1.2049998044967651,-0.8299996256828308,-0.717703625462624,0.0,-1.737373864925938,-0.34878756040344017,-0.7187921484162839,0.026440950535513662
1759505308.5015602,0,-1.2049998044967651,-0.8299996256828308,-0.71770362602539,0.0,-1.7380483212342412,-0.3483877339761248,-0.718188905851914,0.03169050427913161
1759505308.512669,0,-1.2049998044967651,-0.8299996256828308,-0.7177036264875376,0.0,-1.7385723164412399,-0.3481336388285125,-0.7177182994601773,0.035889558462582086
1759505308.5239396,0,-1.2049998044967651,-0.8299996256828308,-0.7177036268911596,0.0,-1.7389782759558146,-0.34798511513976843,-0.7173529061895316,0.03925874231504231
1759505308.560957,0,-1.2049998044967651,-0.8299996256828308,-0.7177036208859651,0.0,-1.739265738235139,-0.3479400267819513,-0.7171047633836166,0.04191975697088373
1759505308.5649924,0,-1.2049998044967651,-0.8299996256828308,-0.7177036249890545,0.0,-1.7394933246988742,-0.34793597141783017,-0.7169065685434632,0.0440937466053617
1759505308.5761287,0,-1.2049998044967651,-0.8299996256828308,-0.7177036267502963,0.0,-1.7396664930086334,-0.34796784604432146,-0.7167576380822707,0.04586492422534366
1759505308.5868862,0,-1.2049998044967651,-0.8299996256828308,-0.7177036280436191,0.0,-1.7397967023217225,-0.34802464133671296,-0.7166479905532349,0.047313938161301784
1759505308.598068,0,-1.2049998044967651,-0.8299996256828308,-0.7177036289343484,0.0,-1.7400016102763731,-0.3479599569051156,-0.716420448294129,0.048634638005718045
1759505308.6093915,0,-1.2049998044967651,-0.8299996256828308,-0.7177036296096322,0.0,-1.7403314621479677,-0.3477962256536364,-0.7160175328674577,0.0500564213978088
1759505308.6207912,0,-1.2049998044967651,-0.8299996256828308,-0.7177036301554693,0.0,-1.7405855845085816,-0.34769158492285474,-0.7157058024990891,0.05120001356839437
1759505308.6322281,0,-1.2049998044967651,-0.8299996256828308,-0.7177036306198943,0.0,-1.7407804185067441,-0.3476310656148191,-0.7154659258957037,0.05212539433514646
1759505308.6436179,0,-1.2049998044967651,-0.8299996256828308,-0.7177036310421663,0.0,-1.7409287447415172,-0.3476034852717117,-0.7152827838135976,0.052879219885490915
1759505308.6537,0,-1.2049998044967651,-0.8299996256828308,-0.7177036316575974,0.0,-1.7410412683709502,-0.34759928086174424,-0.7151434637933445,0.05349697971201861
1759505308.6643274,0,-1.2049998044967651,-0.8299996256828308,-0.7177036320757502,0.0,-1.7411251227219477,-0.34761312159814245,-0.7150395522670082,0.05400746620205072
1759505308.6750216,0,-1.2049998044967651,-0.8299996256828308,-0.7177036324181731,0.0,-1.7411861816414733,-0.3476406223476824,-0.7149640092391609,0.054433073954485794
1759505308.686507,0,-1.2049998044967651,-0.8299996256828308,-0.7177036325944535,0.0,-1.741228615515595,-0.3476792800887136,-0.7149118981637324,0.05479220189396082
1759505308.697542,0,-1.2049998044967651,-0.8299996256828308,-0.7177036328544677,0.0,-1.741256406980392,-0.34772606899743413,-0.714878305503878,0.055098220228097815
1759505308.7088156,0,-1.2049998044967651,-0.8299996256828308,-0.7177036330741888,0.0,-1.741272284731752,-0.34777941363730214,-0.7148599184217741,0.05536238803061779
1759505308.7197165,0,-1.2049998044967651,-0.8299996256828308,-0.7177036333499949,0.0,-1.7422702822305045,-0.34692433782471144,-0.7139935876328481,0.055571085652408744
1759505308.729793,0,-1.2049998044967651,-0.8299996256828308,-0.7177036337280391,0.0,-1.7436291390878367,-0.34577794197444256,-0.7129035826809659,0.055940560744235215
1759505308.7505217,0,-1.2049998044967651,-0.8299996256828308,-0.7177036326135955,0.0,-1.744678327277648,-0.34490691332468765,-0.7120687284442158,0.05625957281918577
1759505308.7613225,0,-1.2049998044967651,-0.8299996256828308,-0.7177036332029729,0.0,-1.7455052102598136,-0.3442289318919545,-0.711414059902062,0.056529419682721786
1759505308.77278,0,-1.2049998044967651,-0.8299996256828308,-0.7177036336913486,0.0,-1.7461553504438863,-0.3437047318121543,-0.7109031459359656,0.0567615157354069
1759505308.784021,0,-1.2049998044967651,-0.8299996256828308,-0.7177036341170524,0.0,-1.7466658789425962,-0.343301907342124,-0.7105059346572943,0.05696384503519811
1759505308.7952402,0,-1.2049998044967651,-0.8299996256828308,-0.7177036344727553,0.0,-1.747065528530976,-0.3429955202065592,-0.710199218825238,0.05714288916211603
1759505308.8061206,0,-1.2049998044967651,-0.8299996256828308,-0.7177036348110075,0.0,-1.747377251345066,-0.3427655005047675,-0.709964319499409,0.05730333493304276
1759505308.8172357,0,-1.2049998044967651,-0.8299996256828308,-0.7177036350721817,0.0,-1.7476183548959765,-0.3425970505153151,-0.7097873504349764,0.05744961108123701
1759505308.8281727,0,-1.2049998044967651,-0.8299996256828308,-0.717703635318891,0.0,-1.7478030066340569,-0.3424778449982976,-0.7096567746598822,0.057584694328669916
1759505308.8395698,0,-1.2049998044967651,-0.8299996256828308,-0.7177036354911746,0.0,-1.7483495142873462,-0.3419825596436201,-0.7090852583514564,0.057675997929558125
1759505308.8508742,0,-1.2049998044967651,-0.8299996256828308,-0.7177036356642326,0.0,-1.7487759365093636,-0.34160240525589763,-0.7086400342275404,0.057765144959605656
1759505308.8617644,0,-1.2049998044967651,-0.8299996256828308,-0.7177036358697606,0.0,-1.7491083956541824,-0.34131241697509124,-0.7082937220298128,0.057852375791227734
1759505308.8729253,0,-1.2049998044967651,-0.8299996256828308,-0.7177036360324891,0.0,-1.749366516537639,-0.3410941507020191,-0.7080258124680828,0.057938832931005615
1759505308.8837893,0,-1.2049998044967651,-0.8299996256828308,-0.7177036362114073,0.0,-1.7495661006732453,-0.34093245179453896,-0.7078197018218638,0.05802461971637428
1759505308.8950477,0,-1.2049998044967651,-0.8299996256828308,-0.7177036363425806,0.0,-1.7497189176884242,-0.34081636842164403,-0.7076630931710925,0.05811081706985906
1759505308.9065742,0,-1.2049998044967651,-0.8299996256828308,-0.71770363644894,0.0,-1.749834307404197,-0.34073715309759733,-0.7075462026210817,0.05819813522190757
1759505308.9178329,0,-1.2049998044967651,-0.8299996256828308,-0.7177036365826481,0.0,-1.7499199975214932,-0.34068728258024544,-0.7074608595401906,0.05828636444833295
1759505308.9293003,0,-1.2049998044967651,-0.8299996256828308,-0.717703636698964,0.0,-1.7499817102329418,-0.34066142298310076,-0.7074010638943784,0.058376052944468675
1759505308.9411068,0,-1.2049998044967651,-0.8299996256828308,-0.7177036367915477,0.0,-1.750023863477138,-0.3406555417124875,-0.7073621961660287,0.05846786998160767
1759505308.9521277,0,-1.2049998044967651,-0.8299996256828308,-0.7177036369481885,0.0,-1.7500507215771963,-0.34066510784173115,-0.7073396479722126,0.058560641724958354
1759505308.963325,0,-1.2049998044967651,-0.8299996256828308,-0.7177036370820638,0.0,-1.7500649987035364,-0.3406876678771485,-0.7073305832924633,0.058654886837267196
1759505308.9741366,0,-1.2049998044967651,-0.8299996256828308,-0.7177036372320948,0.0,-1.7511335457969135,-0.33973724714082376,-0.7063655961838692,0.05875961115971248
1759505308.984961,0,-1.2049998044967651,-0.8299996256828308,-0.7177036373664656,0.0,-1.752610927192704,-0.3384610277563073,-0.7051136557796976,0.059080262673686615
1759505308.995722,0,-1.2049998044967651,-0.8299996256828308,-0.7177036374916632,0.0,-1.7537737528301067,-0.33746396923365907,-0.7041301482631289,0.059351053722159784
1759505309.006503,0,-1.2049998044967651,-0.8299996256828308,-0.7177036376043517,0.0,-1.7546889932531318,-0.33668670245914795,-0.7033582453128338,0.05958295172390042
1759505309.0179927,0,-1.2049998044967651,-0.8299996256828308,-0.7177036376673768,0.0,-1.755407638626064,-0.3360844292553799,-0.7027548454237295,0.059785427118395365
1759505309.029574,0,-1.2049998044967651,-0.8299996256828308,-0.7177036377312866,0.0,-1.7559707520032672,-0.3356207843696273,-0.7022850138678132,0.05996517641959386
1759505309.0406485,0,-1.2049998044967651,-0.8299996256828308,-0.7177036378307661,0.0,-1.7564113224226245,-0.33526624226272145,-0.7019204726570887,0.06012663596354438
1759505309.0514822,0,-1.2049998044967651,-0.8299996256828308,-0.7177036379397671,0.0,-1.7567547002921202,-0.3349982469037375,-0.7016395414260087,0.0602736024367646
1759505309.0624123,0,-1.2049998044967651,-0.8299996256828308,-0.7177036380348607,0.0,-1.7570203239499906,-0.33479969372087615,-0.7014256784639684,0.06040953252783957
1759505309.0736845,0,-1.2049998044967651,-0.8299996256828308,-0.7177036381065349,0.0,-1.7572232132271088,-0.3346575279359432,-0.7012661679392643,0.060537542341422924
1759505309.0844872,0,-1.2049998044967651,-0.8299996256828308,-0.7177036382002164,0.0,-1.7573762530145292,-0.33456008812963733,-0.7011498350906535,0.06065893488755488
1759505309.095368,0,-1.2049998044967651,-0.8299996256828308,-0.7177036382841759,0.0,-1.7579435185692986,-0.33403628525473933,-0.7005124628702878,0.06072802667630656
1759505309.106207,0,-1.2049998044967651,-0.8299996256828308,-0.7177036383643376,0.0,-1.7583858398720777,-0.33363347497392265,-0.7000145488206617,0.06079989283055806
1759505309.117504,0,-1.2049998044967651,-0.8299996256828308,-0.7177036384201152,0.0,-1.7587295723626466,-0.3333267127443829,-0.6996268070600411,0.06087499750444429
1759505309.1283906,0,-1.2049998044967651,-0.8299996256828308,-0.7177036384944735,0.0,-1.7589960774743665,-0.33309530370077395,-0.6993254659343067,0.06095240989189207
1759505309.1702392,0,-1.2049998044967651,-0.8299996256828308,-0.7177036374581114,0.0,-1.759174457577103,-0.3329659185142551,-0.6991226785472326,0.061080446942670084
1759505309.1807792,0,-1.2049998044967651,-0.8299996256828308,-0.7177036378976887,0.0,-1.7593108725080877,-0.33287557598085865,-0.698966896783014,0.06120178286632749
1759505309.1917365,0,-1.2049998044967651,-0.8299996256828308,-0.7177036382747436,0.0,-1.7594133017126206,-0.33281725114728566,-0.6988492295361173,0.06131883025715269
1759505309.2018583,0,-1.2049998044967651,-0.8299996256828308,-0.717703638570633,0.0,-1.7594890531298704,-0.33278377639414986,-0.6987615234104648,0.061431510859223826
1759505309.2127109,0,-1.2049998044967651,-0.8299996256828308,-0.7177036387634725,0.0,-1.7595426728802002,-0.33277149465668177,-0.6986986937105477,0.06154227508307436
1759505309.2240512,0,-1.2049998044967651,-0.8299996256828308,-0.7174070748833744,0.005235987755982988,-1.7606591330890042,-0.33179442005595616,-0.6976372866031502,0.0613636549995413
1759505309.234833,0,-1.2049998044967651,-0.8299996256828308,-0.7173810254649531,0.005235987755982988,-1.762188222185298,-0.3304883377888792,-0.6962669561613304,0.06119303059049762
1759505309.2458544,0,-1.2049998044967651,-0.8299996256828308,-0.7173900392494326,0.005235987755982988,-1.7633903387104721,-0.3294644637469874,-0.6951909428670633,0.061075213263101676
1759505309.2572875,0,-1.2049998044967651,-0.8299996256828308,-0.7174015699626171,0.005235987755982988,-1.7643346735895102,-0.32866427658296476,-0.6943472733813157,0.06099997587369937
1759505309.2684884,0,-1.2049998044967651,-0.8299996256828308,-0.717387234365598,0.005235987755982988,-1.7650763936857907,-0.32804058274846926,-0.6936863640057029,0.06095827651983917
1759505309.2798402,0,-1.2049998044967651,-0.8299996256828308,-0.7173775669980944,0.005235987755982988,-1.7656577523952788,-0.32755732596739867,-0.6931702850887337,0.06094372039596562
1759505309.2905989,0,-1.2049998044967651,-0.8299996256828308,-0.7173793219521709,0.005235987755982988,-1.7661129303700702,-0.3271848117422958,-0.6927681781502889,0.06095006974295061
1759505309.3008175,0,-1.2049998044967651,-0.8299996256828308,-0.7173930314250592,0.005235987755982988,-1.7664684789733114,-0.32689990282736114,-0.6924560607914262,0.060972504900328205
1759505309.310943,0,-1.2049998044967651,-0.8299996256828308,-0.7173786718915524,0.005235987755982988,-1.7667445744773158,-0.32668519270035723,-0.6922157819110346,0.061007966839087005
1759505309.3217547,0,-1.2049998044967651,-0.8299996256828308,-0.7173855219412235,0.005235987755982988,-1.7669561138002314,-0.32652824456535207,-0.6920340931340662,0.06105536997407631
1759505309.332028,0,-1.2049998044967651,-0.8299996256828308,-0.7173758368639723,0.005235987755982988,-1.7671164698412196,-0.3264171258831762,-0.6918988254682997,0.06111182478718799
1759505309.3468626,0,-1.200477229431593,-0.8293707226839123,-0.7147399790380207,0.022852345489445883,-1.7676901181621725,-0.3258913265437918,-0.6912285477671218,0.061105325655262645
1759505309.3580813,0,-1.1999466013020306,-0.829832141358985,-0.7141501728937513,0.022852345489445883,-1.7681370010149517,-0.32548665076423555,-0.6907043188196005,0.06111918077885841
1759505309.368433,0,-1.199748058826384,-0.8300046194376416,-0.7137295228722048,0.022852345489445883,-1.7684852396226758,-0.3251762991853107,-0.6902939111003825,0.061147942289163336
1759505309.3788333,0,-1.1996719094638004,-0.8300706552554555,-0.7133943716679293,0.022852345489445883,-1.7687556457935512,-0.3249407926099642,-0.68997337082365,0.06118889153308459
1759505309.389339,0,-1.1996422526998303,-0.8300962893871835,-0.7131486301898966,0.022852345489445883,-1.768964407133149,-0.32476496256578247,-0.6897240391775373,0.06124001683797302
1759505309.400943,0,-1.199625501422632,-0.8301107255119833,-0.7130109074595312,0.022852345489445883,-1.769123340391212,-0.3246382249728554,-0.6895321736681465,0.06130147764028621
1759505309.4121425,0,-1.1996210570464538,-0.8301144976117923,-0.7129065302746581,0.022852345489445883,-1.769243003346642,-0.32455029657804263,-0.6893856437676588,0.06137089517182336
1759505309.4223285,0,-1.1996243082798002,-0.830111614057107,-0.7127954278112082,0.022852345489445883,-1.769332125068675,-0.32449232570916087,-0.6892744787909264,0.061445313248641505
1759505309.4326253,0,-1.1996249926908948,-0.8301109744461871,-0.7127340779328031,0.022852345489445883,-1.7693966604739997,-0.32445874516323797,-0.6891917658294777,0.06152430527012665
1759505309.443323,0,-1.199623279047438,-0.8301124271997182,-0.7127065708911289,0.022852345489445883,-1.7694410878223157,-0.3244455228669942,-0.6891322633785167,0.0616080738261503
1759505309.454852,0,-1.1996185392584027,-0.8301165123794201,-0.7126822806606189,0.022852345489445883,-1.7694686199295864,-0.32445002953538293,-0.6890921452946405,0.061697609564102134
1759505309.4661396,0,-1.1996179092258317,-0.8301170411045526,-0.7126732569278368,0.022852345489445883,-1.7704819841607875,-0.323575749193136,-0.6880853845113141,0.06129322009728563
1759505309.4773183,0,-1.2001291730708066,-0.8305692901379852,-0.7129123788889046,0.02371499763037041,-1.7719075266189794,-0.32237284297012375,-0.6867475401355734,0.060661358889115086
1759505309.488818,0,-1.200127707689683,-0.8305705524502012,-0.7128808260117346,0.02371499763037041,-1.7730285945116946,-0.3214259163017195,-0.6856965856479974,0.06018096597759555
1759505309.4999778,0,-1.2001288130918648,-0.8305695894683481,-0.7128821235626944,0.02371499763037041,-1.7739108590005903,-0.32068130580591847,-0.6848706695657797,0.05981929094611636
1759505309.511431,0,-1.2001277967910038,-0.8305704679489412,-0.7129012560781547,0.02371499763037041,-1.774604163242118,-0.32009833437695057,-0.6842228986980372,0.05955230819071236
1759505309.5216691,0,-1.2001333673926773,-0.8305656388231475,-0.7129140740131242,0.02371499763037041,-1.7751498655857554,-0.31964208920014175,-0.6837141838236781,0.05935800040895249
1759505309.5330045,0,-1.200130114956278,-0.8305684589366765,-0.7129039956920107,0.02371499763037041,-1.7755766142414309,-0.31928945888894095,-0.683317684335068,0.059224103483806675
1759505309.5501554,0,-1.1934394350665214,-0.8367118135230633,-0.7057481050480837,0.07234224366075745,-1.7759007281331955,-0.31903009979448377,-0.6830186791071475,0.05915080486828665
1759505309.5615191,0,-1.1910320552572833,-0.8387266651984665,-0.7002962421974077,0.07234224366075745,-1.7761509563745619,-0.31883596516677826,-0.6827892944255012,0.05911438086393231
1759505309.5730844,0,-1.1901048782619736,-0.8394967182391635,-0.696244531291335,0.07234224366075745,-1.7764763289747745,-0.3185189162927963,-0.6824758951910775,0.05995976666381933
1759505309.5837998,0,-1.189959375891499,-0.8403443153533919,-0.6931795238770796,0.07405281570167785,-1.7770216818740598,-0.3180428597629755,-0.6818016632376199,0.06073070229371005
1759505309.595295,0,-1.189812343235938,-0.8404616867909075,-0.6910782807409694,0.07405281570167785,-1.777445111767697,-0.3176850630179048,-0.6812727869969722,0.061375026013029244
1759505309.6066422,0,-1.1897576471937725,-0.8405030864635881,-0.689555219406092,0.07405281570167785,-1.7777730746458826,-0.3174191705117791,-0.6808580664198207,0.061920288555087695
1759505309.617999,0,-1.1897355757399637,-0.8405182855311968,-0.6884506990951426,0.07405281570167785,-1.778025911032063,-0.3172251527074369,-0.6805334118588303,0.06238826635554318
1759505309.629269,0,-1.1897281320966477,-0.8405221647206567,-0.6876812228584243,0.07405281570167785,-1.7782195188487775,-0.3170874506139672,-0.6802799518266558,0.06279573078552345
1759505309.640825,0,-1.1897192255580344,-0.8405278028728375,-0.6871578275692288,0.07405281570167785,-1.7783659643719447,-0.3169945299856673,-0.6800832383509365,0.06315676623905665
1759505309.6523004,0,-1.189717046886504,-0.840528401264825,-0.68677091787484,0.07405281570167785,-1.778474985224464,-0.3169370082881383,-0.6799316434611936,0.06348154533684447
1759505309.663557,0,-1.1897202377060627,-0.8405249840297028,-0.6865172448843847,0.07405281570167785,-1.7785543048851946,-0.3169074384655458,-0.6798159438681038,0.0637776851460288
1759505309.6750634,0,-1.1897164489204635,-0.8405275130192111,-0.6863246329428447,0.07405281570167785,-1.7786096138918817,-0.31690060889708,-0.6797292165768848,0.0640524652808162
1759505309.685865,0,-1.189728631637012,-0.8405172488739372,-0.6862541937538769,0.07405281570167785,-1.7786461146417705,-0.31691129576535326,-0.679665339692725,0.06430900285083113
1759505309.6965346,0,-1.1897358155035918,-0.8405112116169414,-0.6862118313117596,0.07405281570167785,-1.778667478337455,-0.3169360809432731,-0.6796198667387038,0.06455128210945188
1759505309.7072446,0,-1.1897377650878966,-0.8405095330022448,-0.6862042387990652,0.07405281570167785,-1.7797069630875504,-0.316071243995318,-0.6781537105465549,0.06484709378481182
1759505309.7186406,0,-1.1898624581797757,-0.8410043825371688,-0.6858745212866529,0.07542773135576508,-1.7811331371110262,-0.31491664056960467,-0.6762933196992382,0.0655755444441935
1759505309.7298887,0,-1.1898605251982048,-0.8410059429383371,-0.68589943727349,0.07542773135576508,-1.7822515103581325,-0.31402153768574853,-0.6748290678574944,0.06618604588720847
1759505309.7486746,0,-1.1780265677501702,-0.8505184885595154,-0.6701042732547868,0.12277156725891104,-1.7831136882300358,-0.31334625498085433,-0.6736948743280251,0.06672229887637199
1759505309.7601018,0,-1.173786595519054,-0.8537145908336445,-0.6581911003982467,0.12277156725891104,-1.7837892599182215,-0.31282755483031255,-0.6728018886833631,0.06718460401936831
1759505309.7709894,0,-1.1721724092287682,-0.8549099230452957,-0.6495375959967271,0.12277156725891104,-1.784318113775638,-0.3124316010386003,-0.6720989973602441,0.06758777739803193
1759505309.7817898,0,-1.1715496835176478,-0.8553562291497828,-0.6433464960852572,0.12277156725891104,-1.7847306037542683,-0.31213292811200644,-0.6715472053424807,0.06794447113465613
1759505309.7918193,0,-1.1713322632414847,-0.855501307742085,-0.6389733847418774,0.12277156725891104,-1.7850515063278931,-0.3119103988433345,-0.6711146573777375,0.06826278145764315
1759505309.802221,0,-1.1712316898357353,-0.8555622136367339,-0.6357813163255641,0.12277156725891104,-1.7852986378388265,-0.31174945806679183,-0.6707783263479066,0.0685520738752119
1759505309.812378,0,-1.171198637170919,-0.8555764088194694,-0.6335488885384474,0.12277156725891104,-1.785486921511938,-0.31163758790753454,-0.6705189213429696,0.06881813467053563
1759505309.8231757,0,-1.1711611592703488,-0.8555958959759102,-0.6318610919230089,0.12277156725891104,-1.7856270054619272,-0.3115664118770289,-0.6703225677630849,0.06906806966898392
1759505309.8334193,0,-1.171164709992962,-0.8555879309541973,-0.6307378801549809,0.12277156725891104,-1.785889776036213,-0.31131177332881865,-0.6699783508931996,0.07081154632085386
1759505309.84385,0,-1.1708793652219236,-0.8562865926471733,-0.6286751800248662,0.12481780864354518,-1.786379212967477,-0.31090578244537087,-0.6691176308009447,0.07245483340798899
1759505309.8553636,0,-1.170837911910213,-0.8563131824315124,-0.6279476982847165,0.12481780864354518,-1.7867548235625859,-0.3106138723812706,-0.6684415704758472,0.07381156255052473
1759505309.8668172,0,-1.1708235797560818,-0.8563212470063214,-0.6275038813430294,0.12481780864354518,-1.7870416043382784,-0.3104093199944389,-0.6679105557168208,0.07494430399624155
1759505309.878297,0,-1.1708168093363533,-0.8563246240825004,-0.6272474412426201,0.12481780864354518,-1.7872587609183728,-0.3102720226957643,-0.6674938993771502,0.07590202056187666
1759505309.8886976,0,-1.1708521834049284,-0.8562988066021184,-0.6272210661118094,0.12481780864354518,-1.7874221914609376,-0.3101851642722808,-0.6671666103669924,0.07671856352260237
1759505309.9001079,0,-1.1708300377979797,-0.8563141416771477,-0.6271035382805354,0.12481780864354518,-1.7875422787384474,-0.31013883226126787,-0.666911219891325,0.07742837140704834
1759505309.9115438,0,-1.1708206590439059,-0.8563206108772241,-0.6270580295898474,0.12481780864354518,-1.7876280071940338,-0.3101241933559453,-0.6667130443129325,0.07805489388407394
1759505309.922733,0,-1.1708258528416007,-0.8563169613876175,-0.6271372409013715,0.12481780864354518,-1.7876866080512592,-0.3101341425899936,-0.6665603334300038,0.07861540791259694
1759505309.9330475,0,-1.1708588664393604,-0.8562938460290077,-0.6272934075899688,0.12481780864354518,-1.7877242618789762,-0.310162353152542,-0.6664433688325229,0.0791206134174584
1759505309.9464884,0,-1.158800379381354,-0.8643144916053644,-0.6110034985311107,0.12606863754700548,-1.7877424285919694,-0.3102094846015357,-0.6663575396112819,0.07959702349115914
1759505309.9567366,0,-1.154291452098065,-0.8672740228132703,-0.5983628373079066,0.12606863754700548,-1.7877474872539314,-0.31026762360161464,-0.6662944418416703,0.08003736795086047
1759505309.9680908,0,-1.1525158727746732,-0.8684180442442252,-0.5888847739672095,0.12606863754700548,-1.7877409397333404,-0.31033629567356946,-0.6662506008081966,0.0804551202799458
1759505309.9789555,0,-1.1514385673037202,-0.8695503274985945,-0.5806960455542561,0.12779348316040542,-1.7895512867757244,-0.30889876022204793,-0.6627289500868199,0.07979159059332845
1759505309.9893498,0,-1.1511935734696674,-0.8696910469773423,-0.575947835479905,0.12779348316040542,-1.7909738732213953,-0.3077647171398651,-0.6599522637038144,0.07931413198496866
1759505310.0006492,0,-1.15106173293081,-0.8697608028795611,-0.5723327703183003,0.12779348316040542,-1.7920898634229239,-0.30687414548855074,-0.6577653245560607,0.07898863504562235
1759505310.0121107,0,-1.151001862867715,-0.8697874069708531,-0.5697738380187345,0.12779348316040542,-1.7929644178013922,-0.30617772490786055,-0.6560433984763256,0.07878471120028502
1759505310.0235922,0,-1.1509757964276086,-0.8697953425980374,-0.5679355191649365,0.12779348316040542,-1.793648540678419,-0.30563632226561077,-0.6546886827883546,0.0786780041329381
1759505310.0349884,0,-1.1509673536111604,-0.8697945783303566,-0.5666789039727713,0.12779348316040542,-1.7941821664883473,-0.30521889559809945,-0.653624487394418,0.07864900527779639
1759505310.0458498,0,-1.1509830393502307,-0.8697809196138319,-0.5659603778800726,0.12779348316040542,-1.7945972044534693,-0.3049000568152711,-0.6527895714887904,0.07868020585531628
1759505310.0571215,0,-1.1509730538464664,-0.8697843168509317,-0.565396771469878,0.12779348316040542,-1.7949170862496855,-0.30466160610322274,-0.6521386099426666,0.07876257928244211
1759505310.0680256,0,-1.1509825789009045,-0.8697767942954877,-0.5651052908388035,0.12779348316040542,-1.7951614476681417,-0.30448760523602225,-0.6516338085481642,0.07888519538734423
1759505310.0794501,0,-1.150966566810935,-0.8697855126889993,-0.5648557795126785,0.12779348316040542,-1.7953444384126467,-0.30436704589238184,-0.6512475989515362,0.07904390696542334
1759505310.090066,0,-1.150990614895941,-0.8697703747948461,-0.5648911637725289,0.12779348316040542,-1.7954791235589076,-0.30428873251917765,-0.6509549683423357,0.07922879840245979
1759505310.1011963,0,-1.1509806538239766,-0.8697763545764492,-0.5648654614879544,0.12779348316040542,-1.7955739934850903,-0.30424610550033127,-0.650739221063553,0.07943865687865179
1759505310.1118083,0,-1.1509963325952912,-0.8697669623192966,-0.5649657692431977,0.12779348316040542,-1.7956371878168491,-0.30423208744450736,-0.6505847305447471,0.07966733596895557
1759505310.1220458,0,-1.1504338809943557,-0.8705208787062151,-0.5630515594503063,0.12885148162285603,-1.7962028686031553,-0.30371617534519424,-0.6491933584010835,0.08100230968126218
1759505310.133379,0,-1.1504009113537028,-0.8705415012560148,-0.56308083033844,0.12864675626343774,-1.7966371985216578,-0.3033343459225126,-0.648100312381633,0.08213109348811502
1759505310.1486826,0,-1.137476236957894,-0.8779450612782029,-0.5456527397311439,0.13180837878657226,-1.7969644840455736,-0.3030628957448409,-0.6472482110254013,0.08312131266240586
1759505310.1601322,0,-1.1326727368616674,-0.8806507607343761,-0.5324158016467501,0.13112297067657672,-1.797212496369309,-0.3028712236578169,-0.6465785561128224,0.08398455103052183
1759505310.171597,0,-1.130824503849969,-0.8816687562709927,-0.5226170452563283,0.13177549385934192,-1.7973981851226573,-0.30274194208510097,-0.6460530362538717,0.0847493953914653
1759505310.1829371,0,-1.1301145102449484,-0.8820436099715274,-0.5156691657885605,0.13137666477603202,-1.7975348293501785,-0.302661496816947,-0.645641547461938,0.08543740485778215
1759505310.194318,0,-1.1298353797023835,-0.8821795454684423,-0.510668909541568,0.13128160831258065,-1.797632579354637,-0.30261970511966585,-0.6453207541609317,0.08606644828172097
1759505310.2052023,0,-1.1297440236947438,-0.8822153897009568,-0.5072471122806712,0.13088517286854504,-1.7976998506350972,-0.3026079250726239,-0.6450717083091072,0.08664729627331494
1759505310.2159455,0,-1.1297117216231813,-0.8822222575131669,-0.5048293464841778,0.1309275188147006,-1.7977428804187288,-0.30261995634237837,-0.6448799547796595,0.0871904600380247
1759505310.2273421,0,-1.1296713513351024,-0.8822356323940106,-0.5030052343893295,0.13088375606543703,-1.797765810499698,-0.302652176701779,-0.644734945794052,0.08770934086796105
1759505310.2390387,0,-1.1296424699031034,-0.8822448554805347,-0.5016888714291765,0.1308749219369326,-1.7977721884208517,-0.3027013616258437,-0.6446279275568217,0.08821263413668999
1759505310.2497585,0,-1.1287620038061064,-0.8830965609658584,-0.49794896772739833,0.1326857624763984,-1.7997029551040764,-0.3012587679822614,-0.6391777117215458,0.08868415618882751
1759505310.2604625,0,-1.1287724419303535,-0.8830888042468988,-0.4975753727146931,0.13201107362613163,-1.8012138200406616,-0.3001312919636337,-0.6348793901120862,0.08912729909547014
1759505310.2714767,0,-1.1287638384913796,-0.8830918297175381,-0.49730469322929377,0.13158466999868534,-1.8023950148373995,-0.2992533456468361,-0.6314889597710586,0.0895514694861838
1759505310.28225,0,-1.1287699100419553,-0.8830877592047858,-0.49712336968845494,0.1322844689120558,-1.8033179417761598,-0.29857230587967004,-0.6288127772895266,0.0899607428922669
1759505310.2934027,0,-1.1287572661425576,-0.883094066559536,-0.4971326880046919,0.13109629791633215,-1.8040366625242261,-0.2980485503625271,-0.6267032240399194,0.09036215372959613
1759505310.3039775,0,-1.1287754549939797,-0.8830846907241066,-0.4972308391469978,0.13108605924179395,-1.804595266206795,-0.2976488565920128,-0.6250400244400759,0.09075530451157474
1759505310.3153744,0,-1.1287497608713606,-0.8830980137618909,-0.4971113133956083,0.13219338661440824,-1.8050254593350725,-0.2973501778862085,-0.6237353431331715,0.09114873123126473
