timestamp,vehicle_id,x,y,theta,velocity,gps_available,dt,gps_x,gps_y,gps_theta,gps_velocity,control_steering,control_acceleration
1759505305.9345686,0,-1.205,-0.83,-0.7801621756414647,0.0,False,0.01,nan,nan,nan,nan,0.0,0.0
1759505305.945421,0,-1.205,-0.83,-0.7801621756414647,0.0,False,0.010852336883544922,nan,nan,nan,nan,0.0,0.0
1759505305.956025,0,-1.205,-0.83,-0.7801621756414647,0.0,False,0.010603904724121094,nan,nan,nan,nan,0.0,0.0
1759505305.9667032,0,-1.205,-0.83,-0.7801621756414647,0.0,False,0.010678291320800781,nan,nan,nan,nan,0.0,0.0
1759505305.9769664,0,-1.205,-0.83,-0.7801621756414647,0.0,False,0.010263204574584961,nan,nan,nan,nan,0.0,0.0
1759505305.9869936,0,-1.205,-0.83,-0.7801621756414647,0.0,False,0.010027170181274414,nan,nan,nan,nan,0.0,0.0
1759505305.9969938,0,-1.205,-0.83,-0.7801621756414647,0.0,False,0.010000228881835938,nan,nan,nan,nan,0.0,0.0
1759505306.0075414,0,-1.205,-0.83,-0.7801621756414647,0.0,False,0.010547637939453125,nan,nan,nan,nan,0.0,0.0
1759505306.018423,0,-1.205,-0.83,-0.7801621756414647,0.0,False,0.010881662368774414,nan,nan,nan,nan,0.0,0.0
1759505306.0289829,0,-1.205,-0.83,-0.7801621756414647,0.0,False,0.010559797286987305,nan,nan,nan,nan,0.0,0.0
1759505306.0394952,0,-1.205,-0.83,-0.7801621756414647,0.0,False,0.010512351989746094,nan,nan,nan,nan,0.0,0.0
1759505306.0503094,0,-1.205,-0.83,-0.7801621756414647,0.0,False,0.010814189910888672,nan,nan,nan,nan,0.0,0.0
1759505306.060357,0,-1.205,-0.83,-0.7801621756414647,0.0,False,0.010047674179077148,nan,nan,nan,nan,0.0,0.0
1759505306.070556,0,-1.205,-0.83,-0.7801621756414647,0.0,False,0.010198831558227539,nan,nan,nan,nan,0.0,0.0
1759505306.0813382,0,-1.205,-0.83,-0.7801621756414647,0.0,False,0.010782241821289062,nan,nan,nan,nan,0.0,0.0
1759505306.0919409,0,-1.205,-0.83,-0.7801621756414647,0.0,False,0.010602712631225586,nan,nan,nan,nan,0.0,0.0
1759505306.1027198,0,-1.205,-0.83,-0.7801621756414647,0.0,False,0.01077890396118164,nan,nan,nan,nan,0.0,0.0
1759505306.1132596,0,-1.205,-0.83,-0.7801621756414647,0.0,False,0.010539770126342773,nan,nan,nan,nan,0.0,0.0
1759505306.1237752,0,-1.205,-0.83,-0.7801621756414647,0.0,False,0.010515689849853516,nan,nan,nan,nan,0.0,0.0
1759505306.1339083,0,-1.2049998061124942,-0.8299996287763611,-0.7229998178657411,0.0,True,0.010133028030395508,-1.2049998044967651,-0.8299996256828308,-0.717703640460968,0.0,0.0,0.0
1759505306.1441522,0,-1.2049998050368294,-0.8299996267168561,-0.7181192393927844,0.0,True,0.010243892669677734,-1.2049998044967651,-0.8299996256828308,-0.717703640460968,0.0,0.0,0.0
1759505306.1545196,0,-1.204999804699359,-0.8299996260707242,-0.7176595455951897,0.0,True,0.010367393493652344,-1.2049998044967651,-0.8299996256828308,-0.717703640460968,0.0,0.0,0.0
1759505306.164999,0,-1.2049998045739476,-0.829999625830607,-0.717597685376079,0.0,True,0.010479450225830078,-1.2049998044967651,-0.8299996256828308,-0.717703640460968,0.0,0.0,0.0
1759505306.1757228,0,-1.2049998045262351,-0.8299996257392549,-0.7175886977411388,0.0,True,0.01072382926940918,-1.2049998044967651,-0.8299996256828308,-0.717703640460968,0.0,0.0,0.0
1759505306.1862118,0,-1.204999804508021,-0.8299996257043817,-0.7175956695407866,0.0,True,0.01048898696899414,-1.2049998044967651,-0.8299996256828308,-0.717703640460968,0.0,0.0,0.0
1759505306.1975524,0,-1.2049998045010644,-0.8299996256910624,-0.7176055503964882,0.0,True,0.011340618133544922,-1.2049998044967651,-0.8299996256828308,-0.717703640460968,0.0,0.0,0.0
1759505306.2086313,0,-1.2049998044984074,-0.829999625685975,-0.717617582925973,0.0,True,0.011078834533691406,-1.2049998044967651,-0.8299996256828308,-0.717703640460968,0.0,0.0,0.0
1759505306.2192955,0,-1.2049998044973924,-0.8299996256840317,-0.7176291979794929,0.0,True,0.010664224624633789,-1.2049998044967651,-0.8299996256828308,-0.717703640460968,0.0,0.0,0.0
1759505306.229671,0,-1.2049998044970047,-0.8299996256832896,-0.7176391419069574,0.0,True,0.010375499725341797,-1.2049998044967651,-0.8299996256828308,-0.717703640460968,0.0,0.0,0.0
1759505306.2403786,0,-1.2049998044968566,-0.829999625683006,-0.7176467681364329,0.0,True,0.010707616806030273,-1.2049998044967651,-0.8299996256828308,-0.717703640460968,0.0,0.0,0.0
1759505306.2509055,0,-1.2049998044968,-0.8299996256828978,-0.7176532643566205,0.0,True,0.010526895523071289,-1.2049998044967651,-0.8299996256828308,-0.717703640460968,0.0,0.0,0.0
1759505306.2620726,0,-1.2049998044967785,-0.8299996256828563,-0.7176581074400463,0.0,True,0.011167049407958984,-1.2049998044967651,-0.8299996256828308,-0.717703640460968,0.0,0.0,0.0
1759505306.2729611,0,-1.2049998044967702,-0.8299996256828406,-0.7176625802282892,0.0,True,0.01088857650756836,-1.2049998044967651,-0.8299996256828308,-0.717703640460968,0.0,0.0,0.0
1759505306.2837245,0,-1.2049998044967671,-0.8299996256828346,-0.717666515552148,0.0,True,0.010763406753540039,-1.2049998044967651,-0.8299996256828308,-0.717703640460968,0.0,0.0,0.0
1759505306.2943592,0,-1.2049998044967658,-0.8299996256828323,-0.7176699424409847,0.0,True,0.010634660720825195,-1.2049998044967651,-0.8299996256828308,-0.717703640460968,0.0,0.0,0.0
1759505306.3050613,0,-1.2049998044967654,-0.8299996256828314,-0.7176728042955851,0.0,True,0.010702133178710938,-1.2049998044967651,-0.8299996256828308,-0.717703640460968,0.0,0.0,0.0
1759505306.3154821,0,-1.2049998044967651,-0.829999625682831,-0.7176754187373646,0.0,True,0.010420799255371094,-1.2049998044967651,-0.8299996256828308,-0.717703640460968,0.0,0.0,0.0
1759505306.3641536,0,-1.2049998044967651,-0.8299996256828309,-0.7176630213527773,0.0,True,0.04867148399353027,-1.2049998044967651,-0.8299996256828308,-0.717703640460968,0.0,0.0,0.0
1759505306.3671715,0,-1.2049998044967651,-0.8299996256828308,-0.7176745355236669,0.0,True,0.003017902374267578,-1.2049998044967651,-0.8299996256828308,-0.717703640460968,0.0,0.0,0.0
1759505306.3778908,0,-1.2049998044967651,-0.8299996256828308,-0.7176800592296075,0.0,True,0.01071929931640625,-1.2049998044967651,-0.8299996256828308,-0.717703640460968,0.0,0.0,0.0
1759505306.3884785,0,-1.2049998044967651,-0.8299996256828308,-0.7176836110034728,0.0,True,0.010587692260742188,-1.2049998044967651,-0.8299996256828308,-0.717703640460968,0.0,0.0,0.0
1759505306.3993049,0,-1.2049998044967651,-0.8299996256828308,-0.7176860131348626,0.0,True,0.010826349258422852,-1.2049998044967651,-0.8299996256828308,-0.717703640460968,0.0,0.0,0.0
1759505306.4098318,0,-1.2049998044967651,-0.8299996256828308,-0.7176878589079756,0.0,True,0.010526895523071289,-1.2049998044967651,-0.8299996256828308,-0.717703640460968,0.0,0.0,0.0
1759505306.4206994,0,-1.2049998044967651,-0.8299996256828308,-0.717689170265082,0.0,True,0.010867595672607422,-1.2049998044967651,-0.8299996256828308,-0.717703640460968,0.0,0.0,0.0
1759505306.432101,0,-1.2049998044967651,-0.8299996256828308,-0.7176900729033271,0.0,True,0.011401653289794922,-1.2049998044967651,-0.8299996256828308,-0.717703640460968,0.0,0.0,0.0
1759505306.4426625,0,-1.2049998044967651,-0.8299996256828308,-0.7176910456443366,0.0,True,0.010561466217041016,-1.2049998044967651,-0.8299996256828308,-0.717703640460968,0.0,0.0,0.0
1759505306.453276,0,-1.2049998044967651,-0.8299996256828308,-0.7176918456157999,0.0,True,0.010613441467285156,-1.2049998044967651,-0.8299996256828308,-0.717703640460968,0.0,0.0,0.0
1759505306.464227,0,-1.2049998044967651,-0.8299996256828308,-0.7176924414291648,0.0,True,0.010951042175292969,-1.2049998044967651,-0.8299996256828308,-0.717703640460968,0.0,0.0,0.0
1759505306.4752629,0,-1.2049998044967651,-0.8299996256828308,-0.7176929508145307,0.0,True,0.011035919189453125,-1.2049998044967651,-0.8299996256828308,-0.717703640460968,0.0,0.0,0.0
1759505306.485867,0,-1.2049998044967651,-0.8299996256828308,-0.717693509297062,0.0,True,0.010604143142700195,-1.2049998044967651,-0.8299996256828308,-0.717703640460968,0.0,0.0,0.0
1759505306.4967318,0,-1.2049998044967651,-0.8299996256828308,-0.7176939539995217,0.0,True,0.010864734649658203,-1.2049998044967651,-0.8299996256828308,-0.717703640460968,0.0,0.0,0.0
1759505306.5070052,0,-1.2049998044967651,-0.8299996256828308,-0.7176944745083951,0.0,True,0.010273456573486328,-1.2049998044967651,-0.8299996256828308,-0.717703640460968,0.0,0.0,0.0
1759505306.5176108,0,-1.2049998044967651,-0.8299996256828308,-0.7176948692117708,0.0,True,0.010605573654174805,-1.2049998044967651,-0.8299996256828308,-0.717703640460968,0.0,0.0,0.0
1759505306.5287995,0,-1.2049998044967651,-0.8299996256828308,-0.7176951224673651,0.0,True,0.011188745498657227,-1.2049998044967651,-0.8299996256828308,-0.717703640460968,0.0,0.0,0.0
1759505306.5391316,0,-1.2049998044967651,-0.8299996256828308,-0.7176955311489159,0.0,True,0.010332107543945312,-1.2049998044967651,-0.8299996256828308,-0.717703640460968,0.0,0.0,0.0
1759505306.5497932,0,-1.2049998044967651,-0.8299996256828308,-0.7176958485570726,0.0,True,0.010661602020263672,-1.2049998044967651,-0.8299996256828308,-0.717703640460968,0.0,0.0,0.0
1759505306.561355,0,-1.2049998044967651,-0.8299996256828308,-0.7176959999207497,0.0,True,0.011561870574951172,-1.2049998044967651,-0.8299996256828308,-0.717703640460968,0.0,0.0,0.0
1759505306.5717125,0,-1.2049998044967651,-0.8299996256828308,-0.7176963666316105,0.0,True,0.010357379913330078,-1.2049998044967651,-0.8299996256828308,-0.717703640460968,0.0,0.0,0.0
1759505306.5819998,0,-1.2049998044967651,-0.8299996256828308,-0.7176967142417947,0.0,True,0.010287284851074219,-1.2049998044967651,-0.8299996256828308,-0.717703640460968,0.0,0.0,0.0
1759505306.5930963,0,-1.2049998044967651,-0.8299996256828308,-0.7176969052929998,0.0,True,0.011096477508544922,-1.2049998044967651,-0.8299996256828308,-0.717703640460968,0.0,0.0,0.0
1759505306.604421,0,-1.2049998044967651,-0.8299996256828308,-0.7176970689406765,0.0,True,0.011324644088745117,-1.2049998044967651,-0.8299996256828308,-0.717703640460968,0.0,0.0,0.0
1759505306.6147642,0,-1.2049998044967651,-0.8299996256828308,-0.717697381671325,0.0,True,0.010343313217163086,-1.2049998044967651,-0.8299996256828308,-0.717703640460968,0.0,0.0,0.0
1759505306.6251183,0,-1.2049998044967651,-0.8299996256828308,-0.7176976655242164,0.0,True,0.010354042053222656,-1.2049998044967651,-0.8299996256828308,-0.717703640460968,0.0,0.0,0.0
1759505306.6352098,0,-1.2049998044967651,-0.8299996256828308,-0.7176979502795859,0.0,True,0.010091543197631836,-1.2049998044967651,-0.8299996256828308,-0.717703640460968,0.0,0.0,0.0
1759505306.6458304,0,-1.2049998044967651,-0.8299996256828308,-0.7176981369820865,0.0,True,0.010620594024658203,-1.2049998044967651,-0.8299996256828308,-0.717703640460968,0.0,0.0,0.0
1759505306.6572335,0,-1.2049998044967651,-0.8299996256828308,-0.7176982245891992,0.0,True,0.011403083801269531,-1.2049998044967651,-0.8299996256828308,-0.717703640460968,0.0,0.0,0.0
1759505306.6680434,0,-1.2049998044967651,-0.8299996256828308,-0.7176984035060876,0.0,True,0.010809898376464844,-1.2049998044967651,-0.8299996256828308,-0.717703640460968,0.0,0.0,0.0
1759505306.6786299,0,-1.2049998044967651,-0.8299996256828308,-0.7176986089740929,0.0,True,0.01058650016784668,-1.2049998044967651,-0.8299996256828308,-0.717703640460968,0.0,0.0,0.0
1759505306.6892505,0,-1.2049998044967651,-0.8299996256828308,-0.717698798308442,0.0,True,0.010620594024658203,-1.2049998044967651,-0.8299996256828308,-0.717703640460968,0.0,0.0,0.0
1759505306.6996665,0,-1.2049998044967651,-0.8299996256828308,-0.7176989962003404,0.0,True,0.010416030883789062,-1.2049998044967651,-0.8299996256828308,-0.717703640460968,0.0,0.0,0.0
1759505306.7105694,0,-1.2049998044967651,-0.8299996256828308,-0.7176991309153955,0.0,True,0.010902881622314453,-1.2049998044967651,-0.8299996256828308,-0.717703640460968,0.0,0.0,0.0
1759505306.7212703,0,-1.2049998044967651,-0.8299996256828308,-0.717699284628285,0.0,True,0.01070094108581543,-1.2049998044967651,-0.8299996256828308,-0.717703640460968,0.0,0.0,0.0
1759505306.7356095,0,-1.2049998044967651,-0.8299996256828308,-0.7176991113677609,0.0,True,0.014339208602905273,-1.2049998044967651,-0.8299996256828308,-0.717703640460968,0.0,0.0,0.0
1759505306.7466295,0,-1.2049998044967651,-0.8299996256828308,-0.7176993215377738,0.0,True,0.01101994514465332,-1.2049998044967651,-0.8299996256828308,-0.717703640460968,0.0,0.0,0.0
1759505306.7570393,0,-1.2049998044967651,-0.8299996256828308,-0.7176995825969925,0.0,True,0.010409832000732422,-1.2049998044967651,-0.8299996256828308,-0.717703640460968,0.0,0.0,0.0
1759505306.7685664,0,-1.2049998044967651,-0.8299996256828308,-0.7176997162851748,0.0,True,0.011527061462402344,-1.2049998044967651,-0.8299996256828308,-0.717703640460968,0.0,0.0,0.0
1759505306.778938,0,-1.2049998044967651,-0.8299996256828308,-0.7176999318633825,0.0,True,0.010371685028076172,-1.2049998044967651,-0.8299996256828308,-0.717703640460968,0.0,0.0,0.0
1759505306.7896094,0,-1.2049998044967651,-0.8299996256828308,-0.7177000984223447,0.0,True,0.010671377182006836,-1.2049998044967651,-0.8299996256828308,-0.717703640460968,0.0,0.0,0.0
1759505306.7998838,0,-1.2049998044967651,-0.8299996256828308,-0.717700273565546,0.0,True,0.010274410247802734,-1.2049998044967651,-0.8299996256828308,-0.717703640460968,0.0,0.0,0.0
1759505306.8110452,0,-1.2049998044967651,-0.8299996256828308,-0.7177003651537746,0.0,True,0.011161327362060547,-1.2049998044967651,-0.8299996256828308,-0.717703640460968,0.0,0.0,0.0
1759505306.8214872,0,-1.2049998044967651,-0.8299996256828308,-0.7177005048991134,0.0,True,0.010442018508911133,-1.2049998044967651,-0.8299996256828308,-0.717703640460968,0.0,0.0,0.0
1759505306.8318295,0,-1.2049998044967651,-0.8299996256828308,-0.7177006401536019,0.0,True,0.01034235954284668,-1.2049998044967651,-0.8299996256828308,-0.717703640460968,0.0,0.0,0.0
1759505306.8431797,0,-1.2049998044967651,-0.8299996256828308,-0.7177006984486205,0.0,True,0.011350154876708984,-1.2049998044967651,-0.8299996256828308,-0.717703640460968,0.0,0.0,0.0
1759505306.853842,0,-1.2049998044967651,-0.8299996256828308,-0.7177008060308623,0.0,True,0.010662317276000977,-1.2049998044967651,-0.8299996256828308,-0.717703640460968,0.0,0.0,0.0
1759505306.865508,0,-1.2049998044967651,-0.8299996256828308,-0.7177008522822774,0.0,True,0.011666059494018555,-1.2049998044967651,-0.8299996256828308,-0.717703640460968,0.0,0.0,0.0
1759505306.8756623,0,-1.2049998044967651,-0.8299996256828308,-0.7177009950868332,0.0,True,0.010154247283935547,-1.2049998044967651,-0.8299996256828308,-0.717703640460968,0.0,0.0,0.0
1759505306.8867965,0,-1.2049998044967651,-0.8299996256828308,-0.7177010703825282,0.0,True,0.011134147644042969,-1.2049998044967651,-0.8299996256828308,-0.717703640460968,0.0,0.0,0.0
1759505306.8971965,0,-1.2049998044967651,-0.8299996256828308,-0.7177011828838928,0.0,True,0.010400056838989258,-1.2049998044967651,-0.8299996256828308,-0.717703640460968,0.0,0.0,0.0
1759505306.9078445,0,-1.2049998044967651,-0.8299996256828308,-0.7177012731613246,0.0,True,0.010648012161254883,-1.2049998044967651,-0.8299996256828308,-0.717703640460968,0.0,0.0,0.0
1759505306.9183383,0,-1.2049998044967651,-0.8299996256828308,-0.7177013644678905,0.0,True,0.010493755340576172,-1.2049998044967651,-0.8299996256828308,-0.717703640460968,0.0,0.0,0.0
1759505306.930029,0,-1.2049998044967651,-0.8299996256828308,-0.7177013925473332,0.0,True,0.011690616607666016,-1.2049998044967651,-0.8299996256828308,-0.717703640460968,0.0,0.0,0.0
1759505306.9390812,0,-1.2049998044967651,-0.8299996256828308,-0.7177015525613584,0.0,True,0.009052276611328125,-1.2049998044967651,-0.8299996256828308,-0.717703640460968,0.0,0.0,0.0
1759505306.949856,0,-1.2049998044967651,-0.8299996256828308,-0.7177016111729699,0.0,True,0.010774850845336914,-1.2049998044967651,-0.8299996256828308,-0.717703640460968,0.0,0.0,0.0
1759505306.9603884,0,-1.2049998044967651,-0.8299996256828308,-0.7177016757753165,0.0,True,0.010532379150390625,-1.2049998044967651,-0.8299996256828308,-0.717703640460968,0.0,0.0,0.0
1759505306.971095,0,-1.2049998044967651,-0.8299996256828308,-0.7177017319215846,0.0,True,0.010706663131713867,-1.2049998044967651,-0.8299996256828308,-0.717703640460968,0.0,0.0,0.0
1759505306.9821355,0,-1.2049998044967651,-0.8299996256828308,-0.7177017751065584,0.0,True,0.011040449142456055,-1.2049998044967651,-0.8299996256828308,-0.717703640460968,0.0,0.0,0.0
1759505306.993557,0,-1.2049998044967651,-0.8299996256828308,-0.7177018080528939,0.0,True,0.011421442031860352,-1.2049998044967651,-0.8299996256828308,-0.717703640460968,0.0,0.0,0.0
1759505307.0042553,0,-1.2049998044967651,-0.8299996256828308,-0.717701876167542,0.0,True,0.010698318481445312,-1.2049998044967651,-0.8299996256828308,-0.717703640460968,0.0,0.0,0.0
1759505307.014417,0,-1.2049998044967651,-0.8299996256828308,-0.7177019615795466,0.0,True,0.010161638259887695,-1.2049998044967651,-0.8299996256828308,-0.717703640460968,0.0,0.0,0.0
1759505307.0257578,0,-1.2049998044967651,-0.8299996256828308,-0.7177019958177961,0.0,True,0.011340856552124023,-1.2049998044967651,-0.8299996256828308,-0.717703640460968,0.0,0.0,0.0
1759505307.0369418,0,-1.2049998044967651,-0.8299996256828308,-0.7177020387757196,0.0,True,0.011183977127075195,-1.2049998044967651,-0.8299996256828308,-0.717703640460968,0.0,0.0,0.0
1759505307.0473464,0,-1.2049998044967651,-0.8299996256828308,-0.7177021104401149,0.0,True,0.010404586791992188,-1.2049998044967651,-0.8299996256828308,-0.717703640460968,0.0,0.0,0.0
1759505307.0575907,0,-1.2049998044967651,-0.8299996256828308,-0.717702180933621,0.0,True,0.010244369506835938,-1.2049998044967651,-0.8299996256828308,-0.717703640460968,0.0,0.0,0.0
1759505307.0680554,0,-1.2049998044967651,-0.8299996256828308,-0.7177022362795711,0.0,True,0.010464668273925781,-1.2049998044967651,-0.8299996256828308,-0.717703640460968,0.0,0.0,0.0
1759505307.0790844,0,-1.2049998044967651,-0.8299996256828308,-0.7177022702123281,0.0,True,0.01102900505065918,-1.2049998044967651,-0.8299996256828308,-0.717703640460968,0.0,0.0,0.0
1759505307.0901983,0,-1.2049998044967651,-0.8299996256828308,-0.7177023036198023,0.0,True,0.011113882064819336,-1.2049998044967651,-0.8299996256828308,-0.717703640460968,0.0,0.0,0.0
1759505307.101734,0,-1.2049998044967651,-0.8299996256828308,-0.7177023286066166,0.0,True,0.01153564453125,-1.2049998044967651,-0.8299996256828308,-0.717703640460968,0.0,0.0,0.0
1759505307.1128716,0,-1.2049998044967651,-0.8299996256828308,-0.7177023697015876,0.0,True,0.011137723922729492,-1.2049998044967651,-0.8299996256828308,-0.717703640460968,0.0,0.0,0.0
1759505307.1239562,0,-1.2049998044967651,-0.8299996256828308,-0.7177024132524643,0.0,True,0.011084556579589844,-1.2049998044967651,-0.8299996256828308,-0.717703640460968,0.0,0.0,0.0
1759505307.1381,0,-1.2049998044967651,-0.8299996256828308,-0.7177023818293868,0.0,True,0.014143705368041992,-1.2049998044967651,-0.8299996256828308,-0.717703640460968,0.0,0.0,0.0
1759505307.148587,0,-1.2049998044967651,-0.8299996256828308,-0.7177024582778468,0.0,True,0.010487079620361328,-1.2049998044967651,-0.8299996256828308,-0.717703640460968,0.0,0.0,0.0
1759505307.1587641,0,-1.2049998044967651,-0.8299996256828308,-0.7177025353244009,0.0,True,0.010177135467529297,-1.2049998044967651,-0.8299996256828308,-0.717703640460968,0.0,0.0,0.0
1759505307.170005,0,-1.2049998044967651,-0.8299996256828308,-0.7177025755839654,0.0,True,0.011240959167480469,-1.2049998044967651,-0.8299996256828308,-0.717703640460968,0.0,0.0,0.0
1759505307.180276,0,-1.2049998044967651,-0.8299996256828308,-0.7177026325711058,0.0,True,0.010270833969116211,-1.2049998044967651,-0.8299996256828308,-0.717703640460968,0.0,0.0,0.0
1759505307.1915617,0,-1.2049998044967651,-0.8299996256828308,-0.7177026615277011,0.0,True,0.011285781860351562,-1.2049998044967651,-0.8299996256828308,-0.717703640460968,0.0,0.0,0.0
1759505307.2018902,0,-1.2049998044967651,-0.8299996256828308,-0.7177027086956791,0.0,True,0.010328531265258789,-1.2049998044967651,-0.8299996256828308,-0.717703640460968,0.0,0.0,0.0
1759505307.2123573,0,-1.2049998044967651,-0.8299996256828308,-0.7177027482710976,0.0,True,0.010467052459716797,-1.2049998044967651,-0.8299996256828308,-0.717703640460968,0.0,0.0,0.0
1759505307.2232609,0,-1.2049998044967651,-0.8299996256828308,-0.717702775462131,0.0,True,0.010903596878051758,-1.2049998044967651,-0.8299996256828308,-0.717703640460968,0.0,0.0,0.0
1759505307.2339041,0,-1.2049998044967651,-0.8299996256828308,-0.7177028065753159,0.0,True,0.010643243789672852,-1.2049998044967651,-0.8299996256828308,-0.717703640460968,0.0,0.0,0.0
1759505307.2451668,0,-1.2049998044967651,-0.8299996256828308,-0.7177028255483648,0.0,True,0.011262655258178711,-1.2049998044967651,-0.8299996256828308,-0.717703640460968,0.0,0.0,0.0
1759505307.256722,0,-1.2049998044967651,-0.8299996256828308,-0.7177028413793849,0.0,True,0.011555194854736328,-1.2049998044967651,-0.8299996256828308,-0.717703640460968,0.0,0.0,0.0
1759505307.2674544,0,-1.2049998044967651,-0.8299996256828308,-0.7177028736276441,0.0,True,0.010732412338256836,-1.2049998044967651,-0.8299996256828308,-0.717703640460968,0.0,0.0,0.0
1759505307.2774882,0,-1.2049998044967651,-0.8299996256828308,-0.7177029150171244,0.0,True,0.010033845901489258,-1.2049998044967651,-0.8299996256828308,-0.717703640460968,0.0,0.0,0.0
1759505307.287508,0,-1.2049998044967651,-0.8299996256828308,-0.7177029508460429,0.0,True,0.010019779205322266,-1.2049998044967651,-0.8299996256828308,-0.717703640460968,0.0,0.0,0.0
1759505307.2976246,0,-1.2049998044967651,-0.8299996256828308,-0.7177029800109835,0.0,True,0.0101165771484375,-1.2049998044967651,-0.8299996256828308,-0.717703640460968,0.0,0.0,0.0
1759505307.3091269,0,-1.2049998044967651,-0.8299996256828308,-0.7177029861553645,0.0,True,0.011502265930175781,-1.2049998044967651,-0.8299996256828308,-0.717703640460968,0.0,0.0,0.0
1759505307.3203773,0,-1.2049998044967651,-0.8299996256828308,-0.7177029992182042,0.0,True,0.011250495910644531,-1.2049998044967651,-0.8299996256828308,-0.717703640460968,0.0,0.0,0.0
1759505307.3377445,0,-1.2049998044967651,-0.8299996256828308,-0.717702936713529,0.0,True,0.017367124557495117,-1.2049998044967651,-0.8299996256828308,-0.717703640460968,0.0,0.0,0.0
1759505307.3482587,0,-1.2049998044967651,-0.8299996256828308,-0.7177029860052784,0.0,True,0.010514259338378906,-1.2049998044967651,-0.8299996256828308,-0.717703640460968,0.0,0.0,0.0
1759505307.3596447,0,-1.2049998044967651,-0.8299996256828308,-0.7177030221665675,0.0,True,0.011385917663574219,-1.2049998044967651,-0.8299996256828308,-0.717703640460968,0.0,0.0,0.0
1759505307.371265,0,-1.2049998044967651,-0.8299996256828308,-0.717703050211604,0.0,True,0.011620283126831055,-1.2049998044967651,-0.8299996256828308,-0.717703640460968,0.0,0.0,0.0
1759505307.3819847,0,-1.2049998044967651,-0.8299996256828308,-0.7177030852506192,0.0,True,0.010719776153564453,-1.2049998044967651,-0.8299996256828308,-0.717703640460968,0.0,0.0,0.0
1759505307.3923237,0,-1.2049998044967651,-0.8299996256828308,-0.7177031192289896,0.0,True,0.010339021682739258,-1.2049998044967651,-0.8299996256828308,-0.717703640460968,0.0,0.0,0.0
1759505307.4039438,0,-1.2049998044967651,-0.8299996256828308,-0.7177031343514244,0.0,True,0.011620044708251953,-1.2049998044967651,-0.8299996256828308,-0.717703640460968,0.0,0.0,0.0
1759505307.4153297,0,-1.2049998044967651,-0.8299996256828308,-0.7177031513597019,0.0,True,0.011385917663574219,-1.2049998044967651,-0.8299996256828308,-0.717703640460968,0.0,0.0,0.0
1759505307.425825,0,-1.2049998044967651,-0.8299996256828308,-0.7177031766962081,0.0,True,0.010495424270629883,-1.2049998044967651,-0.8299996256828308,-0.717703640460968,0.0,0.0,0.0
1759505307.436037,0,-1.2049998044967651,-0.8299996256828308,-0.7177032016214149,0.0,True,0.010211944580078125,-1.2049998044967651,-0.8299996256828308,-0.717703640460968,0.0,0.0,0.0
1759505307.446501,0,-1.2049998044967651,-0.8299996256828308,-0.7177032205363005,0.0,True,0.010463953018188477,-1.2049998044967651,-0.8299996256828308,-0.717703640460968,0.0,0.0,0.0
1759505307.4576914,0,-1.2049998044967651,-0.8299996256828308,-0.7177032308472846,0.0,True,0.011190414428710938,-1.2049998044967651,-0.8299996256828308,-0.717703640460968,0.0,0.0,0.0
1759505307.4690852,0,-1.2049998044967651,-0.8299996256828308,-0.7177032398407519,0.0,True,0.01139378547668457,-1.2049998044967651,-0.8299996256828308,-0.717703640460968,0.0,0.0,0.0
1759505307.4801426,0,-1.2049998044967651,-0.8299996256828308,-0.717703252752969,0.0,True,0.011057376861572266,-1.2049998044967651,-0.8299996256828308,-0.717703640460968,0.0,0.0,0.0
1759505307.491107,0,-1.2049998044967651,-0.8299996256828308,-0.7177032664367076,0.0,True,0.010964393615722656,-1.2049998044967651,-0.8299996256828308,-0.717703640460968,0.0,0.0,0.0
1759505307.5020447,0,-1.2049998044967651,-0.8299996256828308,-0.7177032797875391,0.0,True,0.010937690734863281,-1.2049998044967651,-0.8299996256828308,-0.717703640460968,0.0,0.0,0.0
1759505307.5133874,0,-1.2049998044967651,-0.8299996256828308,-0.7177032895711655,0.0,True,0.011342763900756836,-1.2049998044967651,-0.8299996256828308,-0.717703640460968,0.0,0.0,0.0
1759505307.524895,0,-1.2049998044967651,-0.8299996256828308,-0.7177032985496492,0.0,True,0.011507511138916016,-1.2049998044967651,-0.8299996256828308,-0.717703640460968,0.0,0.0,0.0
1759505307.555278,0,-1.2049998044967651,-0.8299996256828308,-0.7177031887850092,0.0,True,0.03038311004638672,-1.2049998044967651,-0.8299996256828308,-0.717703640460968,0.0,0.0,0.0
1759505307.5661688,0,-1.2049998044967651,-0.8299996256828308,-0.7177032401743215,0.0,True,0.010890722274780273,-1.2049998044967651,-0.8299996256828308,-0.717703640460968,0.0,0.0,0.0
1759505307.5770178,0,-1.2049998044967651,-0.8299996256828308,-0.7177032875689378,0.0,True,0.0108489990234375,-1.2049998044967651,-0.8299996256828308,-0.717703640460968,0.0,0.0,0.0
1759505307.5871527,0,-1.2049998044967651,-0.8299996256828308,-0.7177033269164959,0.0,True,0.01013493537902832,-1.2049998044967651,-0.8299996256828308,-0.717703640460968,0.0,0.0,0.0
1759505307.5985103,0,-1.2049998044967651,-0.8299996256828308,-0.7177033498444629,0.0,True,0.011357545852661133,-1.2049998044967651,-0.8299996256828308,-0.717703640460968,0.0,0.0,0.0
1759505307.6088562,0,-1.2049998044967651,-0.8299996256828308,-0.71770337280525,0.0,True,0.010345935821533203,-1.2049998044967651,-0.8299996256828308,-0.717703640460968,0.0,0.0,0.0
1759505307.6188617,0,-1.2049998044967651,-0.8299996256828308,-0.7177033927755794,0.0,True,0.010005474090576172,-1.2049998044967651,-0.8299996256828308,-0.717703640460968,0.0,0.0,0.0
1759505307.629845,0,-1.2049998044967651,-0.8299996256828308,-0.7177034038686383,0.0,True,0.01098322868347168,-1.2049998044967651,-0.8299996256828308,-0.717703640460968,0.0,0.0,0.0
1759505307.640482,0,-1.2049998044967651,-0.8299996256828308,-0.7177034148852535,0.0,True,0.010637044906616211,-1.2049998044967651,-0.8299996256828308,-0.717703640460968,0.0,0.0,0.0
1759505307.6515088,0,-1.2049998044967651,-0.8299996256828308,-0.7177034227984436,0.0,True,0.011026859283447266,-1.2049998044967651,-0.8299996256828308,-0.717703640460968,0.0,0.0,0.0
1759505307.661992,0,-1.2049998044967651,-0.8299996256828308,-0.7177034325224412,0.0,True,0.010483264923095703,-1.2049998044967651,-0.8299996256828308,-0.717703640460968,0.0,0.0,0.0
1759505307.6723292,0,-1.2049998044967651,-0.8299996256828308,-0.7177034418353294,0.0,True,0.010337114334106445,-1.2049998044967651,-0.8299996256828308,-0.717703640460968,0.0,0.0,0.0
1759505307.682813,0,-1.2049998044967651,-0.8299996256828308,-0.7177034494021992,0.0,True,0.010483741760253906,-1.2049998044967651,-0.8299996256828308,-0.717703640460968,0.0,0.0,0.0
1759505307.6941187,0,-1.2049998044967651,-0.8299996256828308,-0.7177034529637343,0.0,True,0.011305809020996094,-1.2049998044967651,-0.8299996256828308,-0.717703640460968,0.0,0.0,0.0
1759505307.704963,0,-1.2049998044967651,-0.8299996256828308,-0.7177034587829478,0.0,True,0.010844230651855469,-1.2049998044967651,-0.8299996256828308,-0.717703640460968,0.0,0.0,0.0
1759505307.7156725,0,-1.2049998044967651,-0.8299996256828308,-0.7177034651260872,0.0,True,0.010709524154663086,-1.2049998044967651,-0.8299996256828308,-0.717703640460968,0.0,0.0,0.0
1759505307.7257175,0,-1.2049998044967651,-0.8299996256828308,-0.7177034735572967,0.0,True,0.010045051574707031,-1.2049998044967651,-0.8299996256828308,-0.717703640460968,0.0,0.0,0.0
1759505307.7380788,0,-1.2049998044967651,-0.8299996256828308,-0.7177034728556642,0.0,True,0.012361288070678711,-1.2049998044967651,-0.8299996256828308,-0.717703640460968,0.0,0.0,0.0
1759505307.7487924,0,-1.2049998044967651,-0.8299996256828308,-0.717703479209927,0.0,True,0.010713577270507812,-1.2049998044967651,-0.8299996256828308,-0.717703640460968,0.0,0.0,0.0
1759505307.7593338,0,-1.2049998044967651,-0.8299996256828308,-0.7177034860680322,0.0,True,0.010541439056396484,-1.2049998044967651,-0.8299996256828308,-0.717703640460968,0.0,0.0,0.0
1759505307.7696524,0,-1.2049998044967651,-0.8299996256828308,-0.7177034929603572,0.0,True,0.010318517684936523,-1.2049998044967651,-0.8299996256828308,-0.717703640460968,0.0,0.0,0.0
1759505307.7811658,0,-1.2049998044967651,-0.8299996256828308,-0.7177034953991352,0.0,True,0.011513471603393555,-1.2049998044967651,-0.8299996256828308,-0.717703640460968,0.0,0.0,0.0
1759505307.792158,0,-1.2049998044967651,-0.8299996256828308,-0.71770349983192,0.0,True,0.010992050170898438,-1.2049998044967651,-0.8299996256828308,-0.717703640460968,0.0,0.0,0.0
1759505307.8026066,0,-1.2049998044967651,-0.8299996256828308,-0.7177035059124481,0.0,True,0.010448694229125977,-1.2049998044967651,-0.8299996256828308,-0.717703640460968,0.0,0.0,0.0
1759505307.8128264,0,-1.2049998044967651,-0.8299996256828308,-0.7177035120726742,0.0,True,0.010219812393188477,-1.2049998044967651,-0.8299996256828308,-0.717703640460968,0.0,0.0,0.0
1759505307.823618,0,-1.2049998044967651,-0.8299996256828308,-0.7177035159491538,0.0,True,0.010791540145874023,-1.2049998044967651,-0.8299996256828308,-0.717703640460968,0.0,0.0,0.0
1759505307.8343506,0,-1.2049998044967651,-0.8299996256828308,-0.7177035198223116,0.0,True,0.010732650756835938,-1.2049998044967651,-0.8299996256828308,-0.717703640460968,0.0,0.0,0.0
1759505307.8447416,0,-1.2049998044967651,-0.8299996256828308,-0.717703524486021,0.0,True,0.010390996932983398,-1.2049998044967651,-0.8299996256828308,-0.717703640460968,0.0,0.0,0.0
1759505307.855714,0,-1.2049998044967651,-0.8299996256828308,-0.717703527394832,0.0,True,0.01097249984741211,-1.2049998044967651,-0.8299996256828308,-0.717703640460968,0.0,0.0,0.0
1759505307.8659687,0,-1.2049998044967651,-0.8299996256828308,-0.7177035320779517,0.0,True,0.010254621505737305,-1.2049998044967651,-0.8299996256828308,-0.717703640460968,0.0,0.0,0.0
1759505307.8762732,0,-1.2049998044967651,-0.8299996256828308,-0.7177035362753958,0.0,True,0.010304450988769531,-1.2049998044967651,-0.8299996256828308,-0.717703640460968,0.0,0.0,0.0
1759505307.8865619,0,-1.2049998044967651,-0.8299996256828308,-0.7177035401221747,0.0,True,0.010288715362548828,-1.2049998044967651,-0.8299996256828308,-0.717703640460968,0.0,0.0,0.0
1759505307.8969524,0,-1.2049998044967651,-0.8299996256828308,-0.7177035434436583,0.0,True,0.010390520095825195,-1.2049998044967651,-0.8299996256828308,-0.717703640460968,0.0,0.0,0.0
1759505307.9072084,0,-1.2049998044967651,-0.8299996256828308,-0.717703546866904,0.0,True,0.010256052017211914,-1.2049998044967651,-0.8299996256828308,-0.717703640460968,0.0,0.0,0.0
1759505307.9174604,0,-1.2049998044967651,-0.8299996256828308,-0.7177035500838933,0.0,True,0.010251998901367188,-1.2049998044967651,-0.8299996256828308,-0.717703640460968,0.0,0.0,0.0
1759505307.927818,0,-1.2049998044967651,-0.8299996256828308,-0.7177035528975466,0.0,True,0.01035761833190918,-1.2049998044967651,-0.8299996256828308,-0.717703640460968,0.0,0.0,0.0
1759505307.9633276,0,-1.2049998044967651,-0.8299996256828308,-0.7177035116730508,0.0,True,0.035509586334228516,-1.2049998044967651,-0.8299996256828308,-0.717703640460968,0.0,0.0,0.0
1759505307.9740858,0,-1.2049998044967651,-0.8299996256828308,-0.717703527307112,0.0,True,0.010758161544799805,-1.2049998044967651,-0.8299996256828308,-0.717703640460968,0.0,0.0,0.0
1759505307.984675,0,-1.2049998044967651,-0.8299996256828308,-0.7177035421214306,0.0,True,0.010589122772216797,-1.2049998044967651,-0.8299996256828308,-0.717703640460968,0.0,0.0,0.0
1759505307.9958677,0,-1.2049998044967651,-0.8299996256828308,-0.7177035521650232,0.0,True,0.011192798614501953,-1.2049998044967651,-0.8299996256828308,-0.717703640460968,0.0,0.0,0.0
1759505308.0062745,0,-1.2049998044967651,-0.8299996256828308,-0.7177035607733764,0.0,True,0.010406732559204102,-1.2049998044967651,-0.8299996256828308,-0.717703640460968,0.0,0.0,0.0
1759505308.0168576,0,-1.2049998044967651,-0.8299996256828308,-0.7177035671046674,0.0,True,0.010583162307739258,-1.2049998044967651,-0.8299996256828308,-0.717703640460968,0.0,0.0,0.0
1759505308.0271487,0,-1.2049998044967651,-0.8299996256828308,-0.7177035724187117,0.0,True,0.010291099548339844,-1.2049998044967651,-0.8299996256828308,-0.717703640460968,0.0,0.0,0.0
1759505308.0371785,0,-1.2049998044967651,-0.8299996256828308,-0.7177035769851727,0.0,True,0.010029792785644531,-1.2049998044967651,-0.8299996256828308,-0.717703640460968,0.0,0.0,0.0
1759505308.0474677,0,-1.2049998044967651,-0.8299996256828308,-0.7177035803257343,0.0,True,0.010289192199707031,-1.2049998044967651,-0.8299996256828308,-0.717703640460968,0.0,0.0,0.0
1759505308.0582705,0,-1.2049998044967651,-0.8299996256828308,-0.7177035824671432,0.0,True,0.010802745819091797,-1.2049998044967651,-0.8299996256828308,-0.717703640460968,0.0,0.0,0.0
1759505308.0692923,0,-1.2049998044967651,-0.8299996256828308,-0.7177035841520976,0.0,True,0.011021852493286133,-1.2049998044967651,-0.8299996256828308,-0.717703640460968,0.0,0.0,0.0
1759505308.079815,0,-1.2049998044967651,-0.8299996256828308,-0.7177035863924672,0.0,True,0.010522603988647461,-1.2049998044967651,-0.8299996256828308,-0.717703640460968,0.0,0.0,0.0
1759505308.0904658,0,-1.2049998044967651,-0.8299996256828308,-0.7177035883158425,0.0,True,0.010650873184204102,-1.2049998044967651,-0.8299996256828308,-0.717703640460968,0.0,0.0,0.0
1759505308.1010792,0,-1.2049998044967651,-0.8299996256828308,-0.7177035901417259,0.0,True,0.010613441467285156,-1.2049998044967651,-0.8299996256828308,-0.717703640460968,0.0,0.0,0.0
1759505308.1115673,0,-1.2049998044967651,-0.8299996256828308,-0.7177035919854333,0.0,True,0.010488033294677734,-1.2049998044967651,-0.8299996256828308,-0.717703640460968,0.0,0.0,0.0
1759505308.1220765,0,-1.2049998044967651,-0.8299996256828308,-0.7177035936738285,0.0,True,0.010509252548217773,-1.2049998044967651,-0.8299996256828308,-0.717703640460968,0.0,0.0,0.0
1759505308.15091,0,-1.2049998044967651,-0.8299996256828308,-0.7177035781552359,0.0,True,0.028833389282226562,-1.2049998044967651,-0.8299996256828308,-0.717703640460968,0.0,0.0,0.0
1759505308.1539574,0,-1.2049998044967651,-0.8299996256828308,-0.7177035912520484,0.0,True,0.003047466278076172,-1.2049998044967651,-0.8299996256828308,-0.717703640460968,0.0,0.0,0.0
1759505308.1642077,0,-1.2049998044967651,-0.8299996256828308,-0.7177035957286773,0.0,True,0.010250329971313477,-1.2049998044967651,-0.8299996256828308,-0.717703640460968,0.0,0.0,0.0
1759505308.1745958,0,-1.2049998044967651,-0.8299996256828308,-0.7177035986256008,0.0,True,0.01038813591003418,-1.2049998044967651,-0.8299996256828308,-0.717703640460968,0.0,0.0,0.0
1759505308.1850991,0,-1.2049998044967651,-0.8299996256828308,-0.7177036008236843,0.0,True,0.010503292083740234,-1.2049998044967651,-0.8299996256828308,-0.717703640460968,0.0,0.0,0.0
1759505308.1955428,0,-1.2049998044967651,-0.8299996256828308,-0.7177036027113566,0.0,True,0.010443687438964844,-1.2049998044967651,-0.8299996256828308,-0.717703640460968,0.0,0.0,0.0
1759505308.205903,0,-1.2049998044967651,-0.8299996256828308,-0.7177036044026099,0.0,True,0.010360240936279297,-1.2049998044967651,-0.8299996256828308,-0.717703640460968,0.0,0.0,0.0
1759505308.2308712,0,-1.2049998044967651,-0.8299996256828308,-0.7177035954036555,0.0,True,0.02496814727783203,-1.2049998044967651,-0.8299996256828308,-0.717703640460968,0.0,0,0
1759505308.241712,0,-1.2049998044967651,-0.8299996256828308,-0.7177035994327241,0.0,True,0.010840892791748047,-1.2049998044967651,-0.8299996256828308,-0.717703640460968,0.0,0,0
1759505308.252468,0,-1.2049998044967651,-0.8299996256828308,-0.7177036033501647,0.0,True,0.01075601577758789,-1.2049998044967651,-0.8299996256828308,-0.717703640460968,0.0,0,0
1759505308.2637005,0,-1.2049998044967651,-0.8299996256828308,-0.7177036060911668,0.0,True,0.011232376098632812,-1.2049998044967651,-0.8299996256828308,-0.717703640460968,0.0,0,0
1759505308.2744164,0,-1.2049998044967651,-0.8299996256828308,-0.7177036085675716,0.0,True,0.010715961456298828,-1.2049998044967651,-0.8299996256828308,-0.717703640460968,0.0,0,0
1759505308.2846205,0,-1.2049998044967651,-0.8299996256828308,-0.7177036108614665,0.0,True,0.010204076766967773,-1.2049998044967651,-0.8299996256828308,-0.717703640460968,0.0,0,0
1759505308.2949755,0,-1.2049998044967651,-0.8299996256828308,-0.7177036126136453,0.0,True,0.010354995727539062,-1.2049998044967651,-0.8299996256828308,-0.717703640460968,0.0,0,0
1759505308.306087,0,-1.2049998044967651,-0.8299996256828308,-0.7177036136255879,0.0,True,0.01111149787902832,-1.2049998044967651,-0.8299996256828308,-0.717703640460968,0.0,0,0
1759505308.3176079,0,-1.2049998044967651,-0.8299996256828308,-0.7177036143207225,0.0,True,0.011520862579345703,-1.2049998044967651,-0.8299996256828308,-0.717703640460968,0.0,0,0
1759505308.3289554,0,-1.2049998044967651,-0.8299996256828308,-0.7177036151320735,0.0,True,0.011347532272338867,-1.2049998044967651,-0.8299996256828308,-0.717703640460968,0.0,0,0
1759505308.3476863,0,-1.2049998044967651,-0.8299996256828308,-0.7177036123570737,0.0,True,0.018730878829956055,-1.2049998044967651,-0.8299996256828308,-0.717703640460968,0.0,0,0
1759505308.3577557,0,-1.2049998044967651,-0.8299996256828308,-0.7177036147915334,0.0,True,0.01006937026977539,-1.2049998044967651,-0.8299996256828308,-0.717703640460968,0.0,0,0
1759505308.369046,0,-1.2049998044967651,-0.8299996256828308,-0.7177036164364452,0.0,True,0.011290311813354492,-1.2049998044967651,-0.8299996256828308,-0.717703640460968,0.0,0,0
1759505308.380495,0,-1.2049998044967651,-0.8299996256828308,-0.7177036176987333,0.0,True,0.011449098587036133,-1.2049998044967651,-0.8299996256828308,-0.717703640460968,0.0,0,0
1759505308.3915784,0,-1.2049998044967651,-0.8299996256828308,-0.7177036189314254,0.0,True,0.011083364486694336,-1.2049998044967651,-0.8299996256828308,-0.717703640460968,0.0,0,0
1759505308.4023561,0,-1.2049998044967651,-0.8299996256828308,-0.7177036201135909,0.0,True,0.010777711868286133,-1.2049998044967651,-0.8299996256828308,-0.717703640460968,0.0,0,0
1759505308.4136417,0,-1.2049998044967651,-0.8299996256828308,-0.7177036209194796,0.0,True,0.011285543441772461,-1.2049998044967651,-0.8299996256828308,-0.717703640460968,0.0,0,0
1759505308.4250062,0,-1.2049998044967651,-0.8299996256828308,-0.7177036216170105,0.0,True,0.011364459991455078,-1.2049998044967651,-0.8299996256828308,-0.717703640460968,0.0,0,0
1759505308.4352958,0,-1.2049998044967651,-0.8299996256828308,-0.7177036226721665,0.0,True,0.010289669036865234,-1.2049998044967651,-0.8299996256828308,-0.717703640460968,0.0,0,0
1759505308.4463155,0,-1.2049998044967651,-0.8299996256828308,-0.7177036233208973,0.0,True,0.011019706726074219,-1.2049998044967651,-0.8299996256828308,-0.717703640460968,0.0,0,0
1759505308.457269,0,-1.2049998044967651,-0.8299996256828308,-0.7177036239317189,0.0,True,0.010953426361083984,-1.2049998044967651,-0.8299996256828308,-0.717703640460968,0.0,0,0
1759505308.46825,0,-1.2049998044967651,-0.8299996256828308,-0.7177036244984762,0.0,True,0.010981082916259766,-1.2049998044967651,-0.8299996256828308,-0.717703640460968,0.0,0,0
1759505308.4798074,0,-1.2049998044967651,-0.8299996256828308,-0.7177036248541189,0.0,True,0.011557340621948242,-1.2049998044967651,-0.8299996256828308,-0.717703640460968,0.0,0,0
1759505308.4906614,0,-1.2049998044967651,-0.8299996256828308,-0.7177036254626241,0.0,True,0.010854005813598633,-1.2049998044967651,-0.8299996256828308,-0.717703640460968,0.0,0,0
1759505308.5015602,0,-1.2049998044967651,-0.8299996256828308,-0.71770362602539,0.0,True,0.010898828506469727,-1.2049998044967651,-0.8299996256828308,-0.717703640460968,0.0,0,0
1759505308.512669,0,-1.2049998044967651,-0.8299996256828308,-0.7177036264875376,0.0,True,0.011108875274658203,-1.2049998044967651,-0.8299996256828308,-0.717703640460968,0.0,0,0
1759505308.5239396,0,-1.2049998044967651,-0.8299996256828308,-0.7177036268911596,0.0,True,0.011270523071289062,-1.2049998044967651,-0.8299996256828308,-0.717703640460968,0.0,0,0
1759505308.560957,0,-1.2049998044967651,-0.8299996256828308,-0.7177036208859651,0.0,True,0.0370173454284668,-1.2049998044967651,-0.8299996256828308,-0.717703640460968,0.0,0,0
1759505308.5649924,0,-1.2049998044967651,-0.8299996256828308,-0.7177036249890545,0.0,True,0.004035472869873047,-1.2049998044967651,-0.8299996256828308,-0.717703640460968,0.0,0,0
1759505308.5761287,0,-1.2049998044967651,-0.8299996256828308,-0.7177036267502963,0.0,True,0.011136293411254883,-1.2049998044967651,-0.8299996256828308,-0.717703640460968,0.0,0,0
1759505308.5868862,0,-1.2049998044967651,-0.8299996256828308,-0.7177036280436191,0.0,True,0.0107574462890625,-1.2049998044967651,-0.8299996256828308,-0.717703640460968,0.0,0,0
1759505308.598068,0,-1.2049998044967651,-0.8299996256828308,-0.7177036289343484,0.0,True,0.011181831359863281,-1.2049998044967651,-0.8299996256828308,-0.717703640460968,0.0,0,0
1759505308.6093915,0,-1.2049998044967651,-0.8299996256828308,-0.7177036296096322,0.0,True,0.01132345199584961,-1.2049998044967651,-0.8299996256828308,-0.717703640460968,0.0,0,0
1759505308.6207912,0,-1.2049998044967651,-0.8299996256828308,-0.7177036301554693,0.0,True,0.01139974594116211,-1.2049998044967651,-0.8299996256828308,-0.717703640460968,0.0,0,0
1759505308.6322281,0,-1.2049998044967651,-0.8299996256828308,-0.7177036306198943,0.0,True,0.011436939239501953,-1.2049998044967651,-0.8299996256828308,-0.717703640460968,0.0,0,0
1759505308.6436179,0,-1.2049998044967651,-0.8299996256828308,-0.7177036310421663,0.0,True,0.011389732360839844,-1.2049998044967651,-0.8299996256828308,-0.717703640460968,0.0,0,0
1759505308.6537,0,-1.2049998044967651,-0.8299996256828308,-0.7177036316575975,0.0,True,0.010082244873046875,-1.2049998044967651,-0.8299996256828308,-0.717703640460968,0.0,0,0
1759505308.6643274,0,-1.2049998044967651,-0.8299996256828308,-0.7177036320757502,0.0,True,0.010627269744873047,-1.2049998044967651,-0.8299996256828308,-0.717703640460968,0.0,0,0
1759505308.6750216,0,-1.2049998044967651,-0.8299996256828308,-0.7177036324181731,0.0,True,0.010694265365600586,-1.2049998044967651,-0.8299996256828308,-0.717703640460968,0.0,0,0
1759505308.686507,0,-1.2049998044967651,-0.8299996256828308,-0.7177036325944535,0.0,True,0.01148533821105957,-1.2049998044967651,-0.8299996256828308,-0.717703640460968,0.0,0,0
1759505308.697542,0,-1.2049998044967651,-0.8299996256828308,-0.7177036328544677,0.0,True,0.011034965515136719,-1.2049998044967651,-0.8299996256828308,-0.717703640460968,0.0,0,0
1759505308.7088156,0,-1.2049998044967651,-0.8299996256828308,-0.7177036330741888,0.0,True,0.011273622512817383,-1.2049998044967651,-0.8299996256828308,-0.717703640460968,0.0,0,0
1759505308.7197165,0,-1.2049998044967651,-0.8299996256828308,-0.7177036333499949,0.0,True,0.01090097427368164,-1.2049998044967651,-0.8299996256828308,-0.717703640460968,0.0,0,0
1759505308.729793,0,-1.2049998044967651,-0.8299996256828308,-0.7177036337280391,0.0,True,0.010076522827148438,-1.2049998044967651,-0.8299996256828308,-0.717703640460968,0.0,0,0
1759505308.7505217,0,-1.2049998044967651,-0.8299996256828308,-0.7177036326135955,0.0,True,0.020728588104248047,-1.2049998044967651,-0.8299996256828308,-0.717703640460968,0.0,0,0
1759505308.7613225,0,-1.2049998044967651,-0.8299996256828308,-0.7177036332029729,0.0,True,0.010800838470458984,-1.2049998044967651,-0.8299996256828308,-0.717703640460968,0.0,0,0
1759505308.77278,0,-1.2049998044967651,-0.8299996256828308,-0.7177036336913485,0.0,True,0.011457443237304688,-1.2049998044967651,-0.8299996256828308,-0.717703640460968,0.0,0,0
1759505308.784021,0,-1.2049998044967651,-0.8299996256828308,-0.7177036341170524,0.0,True,0.011240959167480469,-1.2049998044967651,-0.8299996256828308,-0.717703640460968,0.0,0,0
1759505308.7952402,0,-1.2049998044967651,-0.8299996256828308,-0.7177036344727554,0.0,True,0.011219263076782227,-1.2049998044967651,-0.8299996256828308,-0.717703640460968,0.0,0,0
1759505308.8061206,0,-1.2049998044967651,-0.8299996256828308,-0.7177036348110075,0.0,True,0.010880470275878906,-1.2049998044967651,-0.8299996256828308,-0.717703640460968,0.0,0,0
1759505308.8172357,0,-1.2049998044967651,-0.8299996256828308,-0.7177036350721817,0.0,True,0.011115074157714844,-1.2049998044967651,-0.8299996256828308,-0.717703640460968,0.0,0,0
1759505308.8281727,0,-1.2049998044967651,-0.8299996256828308,-0.717703635318891,0.0,True,0.010936975479125977,-1.2049998044967651,-0.8299996256828308,-0.717703640460968,0.0,0,0
1759505308.8395698,0,-1.2049998044967651,-0.8299996256828308,-0.7177036354911746,0.0,True,0.011397123336791992,-1.2049998044967651,-0.8299996256828308,-0.717703640460968,0.0,0,0
1759505308.8508742,0,-1.2049998044967651,-0.8299996256828308,-0.7177036356642326,0.0,True,0.011304378509521484,-1.2049998044967651,-0.8299996256828308,-0.717703640460968,0.0,0,0
1759505308.8617644,0,-1.2049998044967651,-0.8299996256828308,-0.7177036358697606,0.0,True,0.01089024543762207,-1.2049998044967651,-0.8299996256828308,-0.717703640460968,0.0,0,0
1759505308.8729253,0,-1.2049998044967651,-0.8299996256828308,-0.7177036360324891,0.0,True,0.011160850524902344,-1.2049998044967651,-0.8299996256828308,-0.717703640460968,0.0,0,0
1759505308.8837893,0,-1.2049998044967651,-0.8299996256828308,-0.7177036362114073,0.0,True,0.010864019393920898,-1.2049998044967651,-0.8299996256828308,-0.717703640460968,0.0,0,0
1759505308.8950477,0,-1.2049998044967651,-0.8299996256828308,-0.7177036363425806,0.0,True,0.011258363723754883,-1.2049998044967651,-0.8299996256828308,-0.717703640460968,0.0,0,0
1759505308.9065742,0,-1.2049998044967651,-0.8299996256828308,-0.71770363644894,0.0,True,0.01152658462524414,-1.2049998044967651,-0.8299996256828308,-0.717703640460968,0.0,0,0
1759505308.9178329,0,-1.2049998044967651,-0.8299996256828308,-0.7177036365826481,0.0,True,0.011258602142333984,-1.2049998044967651,-0.8299996256828308,-0.717703640460968,0.0,0,0
1759505308.9293003,0,-1.2049998044967651,-0.8299996256828308,-0.717703636698964,0.0,True,0.011467456817626953,-1.2049998044967651,-0.8299996256828308,-0.717703640460968,0.0,0,0
1759505308.9411068,0,-1.2049998044967651,-0.8299996256828308,-0.7177036367915477,0.0,True,0.011806488037109375,-1.2049998044967651,-0.8299996256828308,-0.717703640460968,0.0,0,0
1759505308.9521277,0,-1.2049998044967651,-0.8299996256828308,-0.7177036369481886,0.0,True,0.011020898818969727,-1.2049998044967651,-0.8299996256828308,-0.717703640460968,0.0,0,0
1759505308.963325,0,-1.2049998044967651,-0.8299996256828308,-0.7177036370820638,0.0,True,0.011197328567504883,-1.2049998044967651,-0.8299996256828308,-0.717703640460968,0.0,0,0
1759505308.9741366,0,-1.2049998044967651,-0.8299996256828308,-0.7177036372320948,0.0,True,0.010811567306518555,-1.2049998044967651,-0.8299996256828308,-0.717703640460968,0.0,0,0
1759505308.984961,0,-1.2049998044967651,-0.8299996256828308,-0.7177036373664656,0.0,True,0.010824441909790039,-1.2049998044967651,-0.8299996256828308,-0.717703640460968,0.0,0,0
1759505308.995722,0,-1.2049998044967651,-0.8299996256828308,-0.7177036374916632,0.0,True,0.010761022567749023,-1.2049998044967651,-0.8299996256828308,-0.717703640460968,0.0,0,0
1759505309.006503,0,-1.2049998044967651,-0.8299996256828308,-0.7177036376043517,0.0,True,0.010781049728393555,-1.2049998044967651,-0.8299996256828308,-0.717703640460968,0.0,0,0
1759505309.0179927,0,-1.2049998044967651,-0.8299996256828308,-0.7177036376673769,0.0,True,0.011489629745483398,-1.2049998044967651,-0.8299996256828308,-0.717703640460968,0.0,0,0
1759505309.029574,0,-1.2049998044967651,-0.8299996256828308,-0.7177036377312866,0.0,True,0.011581182479858398,-1.2049998044967651,-0.8299996256828308,-0.717703640460968,0.0,0,0
1759505309.0406485,0,-1.2049998044967651,-0.8299996256828308,-0.7177036378307662,0.0,True,0.011074542999267578,-1.2049998044967651,-0.8299996256828308,-0.717703640460968,0.0,0,0
1759505309.0514822,0,-1.2049998044967651,-0.8299996256828308,-0.717703637939767,0.0,True,0.010833740234375,-1.2049998044967651,-0.8299996256828308,-0.717703640460968,0.0,0,0
1759505309.0624123,0,-1.2049998044967651,-0.8299996256828308,-0.7177036380348607,0.0,True,0.010930061340332031,-1.2049998044967651,-0.8299996256828308,-0.717703640460968,0.0,0,0
1759505309.0736845,0,-1.2049998044967651,-0.8299996256828308,-0.7177036381065349,0.0,True,0.011272192001342773,-1.2049998044967651,-0.8299996256828308,-0.717703640460968,0.0,0,0
1759505309.0844872,0,-1.2049998044967651,-0.8299996256828308,-0.7177036382002164,0.0,True,0.010802745819091797,-1.2049998044967651,-0.8299996256828308,-0.717703640460968,0.0,0,0
1759505309.095368,0,-1.2049998044967651,-0.8299996256828308,-0.7177036382841759,0.0,True,0.010880708694458008,-1.2049998044967651,-0.8299996256828308,-0.717703640460968,0.0,0,0
1759505309.106207,0,-1.2049998044967651,-0.8299996256828308,-0.7177036383643376,0.0,True,0.010838985443115234,-1.2049998044967651,-0.8299996256828308,-0.717703640460968,0.0,0,0
1759505309.117504,0,-1.2049998044967651,-0.8299996256828308,-0.7177036384201152,0.0,True,0.011296987533569336,-1.2049998044967651,-0.8299996256828308,-0.717703640460968,0.0,0,0
1759505309.1283906,0,-1.2049998044967651,-0.8299996256828308,-0.7177036384944735,0.0,True,0.010886669158935547,-1.2049998044967651,-0.8299996256828308,-0.717703640460968,0.0,0,0
1759505309.1702392,0,-1.2049998044967651,-0.8299996256828308,-0.7177036374581114,0.0,True,0.04184865951538086,-1.2049998044967651,-0.8299996256828308,-0.717703640460968,0.0,0,0
1759505309.1807792,0,-1.2049998044967651,-0.8299996256828308,-0.7177036378976887,0.0,True,0.010540008544921875,-1.2049998044967651,-0.8299996256828308,-0.717703640460968,0.0,0,0
1759505309.1917365,0,-1.2049998044967651,-0.8299996256828308,-0.7177036382747435,0.0,True,0.01095724105834961,-1.2049998044967651,-0.8299996256828308,-0.717703640460968,0.0,0,0
1759505309.2018583,0,-1.2049998044967651,-0.8299996256828308,-0.717703638570633,0.0,True,0.010121822357177734,-1.2049998044967651,-0.8299996256828308,-0.717703640460968,0.0,0,0
1759505309.2127109,0,-1.2049998044967651,-0.8299996256828308,-0.7177036387634725,0.0,True,0.010852575302124023,-1.2049998044967651,-0.8299996256828308,-0.717703640460968,0.0,0,0
1759505309.2240512,0,-1.2049998044967651,-0.8299996256828308,-0.7177036388926048,0.0,True,0.01134037971496582,-1.2049998044967651,-0.8299996256828308,-0.717703640460968,0.0,0.5235987755982988,0.029656400923036376
1759505309.234833,0,-1.2049998044967651,-0.8299996256828308,-0.717703639008576,0.0,True,0.01078176498413086,-1.2049998044967651,-0.8299996256828308,-0.717703640460968,0.0,0.5235987755982988,0.03226135436229377
1759505309.2458544,0,-1.2049998044967651,-0.8299996256828308,-0.7177036390950828,0.0,True,0.01102137565612793,-1.2049998044967651,-0.8299996256828308,-0.717703640460968,0.0,0.5235987755982988,0.03135998456502205
1759505309.2572875,0,-1.2049998044967651,-0.8299996256828308,-0.7177036391555855,0.0,True,0.011433124542236328,-1.2049998044967651,-0.8299996256828308,-0.717703640460968,0.0,0.5235987755982988,0.030206919296853325
1759505309.2684884,0,-1.2049998044967651,-0.8299996256828308,-0.717703639214335,0.0,True,0.011200904846191406,-1.2049998044967651,-0.8299996256828308,-0.717703640460968,0.0,0.5235987755982988,0.03164048487369208
1759505309.2798402,0,-1.2049998044967651,-0.8299996256828308,-0.7177036392631013,0.0,True,0.011351823806762695,-1.2049998044967651,-0.8299996256828308,-0.717703640460968,0.0,0.5235987755982988,0.03260722650069182
1759505309.2905989,0,-1.2049998044967651,-0.8299996256828308,-0.7177036393214351,0.0,True,0.010758638381958008,-1.2049998044967651,-0.8299996256828308,-0.717703640460968,0.0,0.5235987755982988,0.03243173692641909
1759505309.3008175,0,-1.2049998044967651,-0.8299996256828308,-0.7177036393847764,0.0,True,0.010218620300292969,-1.2049998044967651,-0.8299996256828308,-0.717703640460968,0.0,0.5235987755982988,0.031060795971724148
1759505309.310943,0,-1.2049998044967651,-0.8299996256828308,-0.7177036394402183,0.0,True,0.010125398635864258,-1.2049998044967651,-0.8299996256828308,-0.717703640460968,0.0,0.5235987755982988,0.03249675486659923
1759505309.3217547,0,-1.2049998044967651,-0.8299996256828308,-0.7177036394722958,0.0,True,0.010811805725097656,-1.2049998044967651,-0.8299996256828308,-0.717703640460968,0.0,0.5235987755982988,0.031811753107226504
1759505309.332028,0,-1.2049998044967651,-0.8299996256828308,-0.7177036395130596,0.0,True,0.010273218154907227,-1.2049998044967651,-0.8299996256828308,-0.717703640460968,0.0,0.5235987755982988,0.03278026490872931
1759505309.3468626,0,-1.2034055696422836,-0.8313872092769117,-0.7168245828159758,0.018876092159599102,True,0.01483464241027832,-1.2025506496429443,-0.8321309685707092,-0.7147037386894226,0.018876092159599102,0.5235987755982988,0.03209725587223197
1759505309.3580813,0,-1.2028162189431943,-0.8319000203774689,-0.7161787090280853,0.018876092159599102,True,0.011218786239624023,-1.2025506496429443,-0.8321309685707092,-0.7147037386894226,0.018876092159599102,0.5235987755982988,0.03294922938902144
1759505309.368433,0,-1.2025957892641128,-0.8320917535244647,-0.7157050361377237,0.018876092159599102,True,0.01035165786743164,-1.2025506496429443,-0.8321309685707092,-0.7147037386894226,0.018876092159599102,0.5235987755982988,0.03238367141112697
1759505309.3788333,0,-1.2025113053392962,-0.8321651931322662,-0.7153587534803041,0.018876092159599102,True,0.01040029525756836,-1.2025506496429443,-0.8321309685707092,-0.7147037386894226,0.018876092159599102,0.5235987755982988,0.034733352670917095
1759505309.389339,0,-1.20247844521776,-0.8321937238211348,-0.7151072413545645,0.018876092159599102,True,0.01050567626953125,-1.2025506496429443,-0.8321309685707092,-0.7147037386894226,0.018876092159599102,0.5235987755982988,0.036671409157617914
1759505309.400943,0,-1.2024599026150544,-0.832209800779993,-0.7149156963809151,0.018876092159599102,True,0.011604070663452148,-1.2025506496429443,-0.8321309685707092,-0.7147037386894226,0.018876092159599102,0.5235987755982988,0.03320463456570993
1759505309.4121425,0,-1.202455012454672,-0.8322140173090721,-0.7147840987179599,0.018876092159599102,True,0.011199474334716797,-1.2025506496429443,-0.8321309685707092,-0.7147037386894226,0.018876092159599102,0.5235987755982988,0.0317985633870629
1759505309.4223285,0,-1.2024586562473425,-0.8322108298616776,-0.7146983100949491,0.018876092159599102,True,0.010185956954956055,-1.2025506496429443,-0.8321309685707092,-0.7147037386894226,0.018876092159599102,0.5235987755982988,0.03518783366107608
1759505309.4326253,0,-1.2024594403196127,-0.8322101316324398,-0.7146336021751001,0.018876092159599102,True,0.010296821594238281,-1.2025506496429443,-0.8321309685707092,-0.7147037386894226,0.018876092159599102,0.5235987755982988,0.035499108715187126
1759505309.443323,0,-1.2024575542565246,-0.832211755286292,-0.7145843190486509,0.018876092159599102,True,0.010697603225708008,-1.2025506496429443,-0.8321309685707092,-0.7147037386894226,0.018876092159599102,0.5235987755982988,0.03381433150216713
1759505309.454852,0,-1.202452302698947,-0.8322163022192163,-0.7145435576817434,0.018876092159599102,True,0.011529207229614258,-1.2025506496429443,-0.8321309685707092,-0.7147037386894226,0.018876092159599102,0.5235987755982988,0.03257483153148022
1759505309.4661396,0,-1.2024516112329087,-0.8322168942116738,-0.7145200720464437,0.018876092159599102,True,0.011287450790405273,-1.2025506496429443,-0.8321309685707092,-0.7147037386894226,0.018876092159599102,0.5235987755982988,0.0313634976327345
1759505309.4773183,0,-1.2024519379876144,-0.8322166052400461,-0.7145052309169948,0.018876092159599102,True,0.011178731918334961,-1.2025506496429443,-0.8321309685707092,-0.7147037386894226,0.018876092159599102,0.5235987755982988,0.030978613200837852
1759505309.488818,0,-1.2024503143128844,-0.8322180102440562,-0.7144930372662817,0.018876092159599102,True,0.011499643325805664,-1.2025506496429443,-0.8321309685707092,-0.7147037386894226,0.018876092159599102,0.5235987755982988,0.033036472353650176
1759505309.4999778,0,-1.2024515438127559,-0.8322169409502,-0.7144896020076636,0.018876092159599102,True,0.011159896850585938,-1.2025506496429443,-0.8321309685707092,-0.7147037386894226,0.018876092159599102,0.5235987755982988,0.03259754398204801
1759505309.511431,0,-1.2024504161403937,-0.8322179178739882,-0.7144854243332546,0.018876092159599102,True,0.01145315170288086,-1.2025506496429443,-0.8321309685707092,-0.7147037386894226,0.018876092159599102,0.5235987755982988,0.030308301739203354
1759505309.5216691,0,-1.2024566022682612,-0.8322125503338006,-0.7144946630126334,0.018876092159599102,True,0.010238170623779297,-1.2025506496429443,-0.8321309685707092,-0.7147037386894226,0.018876092159599102,0.5235987755982988,0.029857989386350755
1759505309.5330045,0,-1.2024529900037433,-0.832215684629056,-0.7144904775816716,0.018876092159599102,True,0.011335372924804688,-1.2025506496429443,-0.8321309685707092,-0.7147037386894226,0.018876092159599102,0.5235987755982988,0.030489132711144135
1759505309.5501554,0,-1.1951576148585368,-0.8383700640532445,-0.7065466942543388,0.07290636552669583,True,0.01715087890625,-1.1912328004837036,-0.8416675329208374,-0.6868791580200195,0.07290636552669583,0.5235987755982988,0.03113769764387974
1759505309.5615191,0,-1.1924911814447612,-0.8406133798440671,-0.7004729558247433,0.07290636552669583,True,0.011363744735717773,-1.1912328004837036,-0.8416675329208374,-0.6868791580200195,0.07290636552669583,0.5235987755982988,0.029687524047891142
1759505309.5730844,0,-1.1914671913810142,-0.841472434835024,-0.6959802426921371,0.07290636552669583,True,0.011565208435058594,-1.1912328004837036,-0.8416675329208374,-0.6868791580200195,0.07290636552669583,0.5235987755982988,0.03051443272059263
1759505309.5837998,0,-1.191093312775633,-0.8417843103993127,-0.6927873761704255,0.07290636552669583,True,0.010715484619140625,-1.1912328004837036,-0.8416675329208374,-0.6868791580200195,0.07290636552669583,0.5235987755982988,0.030530520838464026
1759505309.595295,0,-1.1909332050288257,-0.8419165905563364,-0.6904316764377203,0.07290636552669583,True,0.011495113372802734,-1.1912328004837036,-0.8416675329208374,-0.6868791580200195,0.07290636552669583,0.5235987755982988,0.028641858506020627
1759505309.6066422,0,-1.190874753264659,-0.841963928234193,-0.6887517009142581,0.07290636552669583,True,0.011347293853759766,-1.1912328004837036,-0.8416675329208374,-0.6868791580200195,0.07290636552669583,0.5235987755982988,0.02975019488216376
1759505309.617999,0,-1.1908518921870146,-0.8419817789717216,-0.6875467779342888,0.07290636552669583,True,0.011356830596923828,-1.1912328004837036,-0.8416675329208374,-0.6868791580200195,0.07290636552669583,0.5235987755982988,0.031759157779861824
1759505309.629269,0,-1.1908447964098159,-0.8419867718817499,-0.6866944904436192,0.07290636552669583,True,0.011269807815551758,-1.1912328004837036,-0.8416675329208374,-0.6868791580200195,0.07290636552669583,0.5235987755982988,0.03200090729143772
1759505309.640825,0,-1.1908357555456275,-0.8419935346673805,-0.6860736191477841,0.07290636552669583,True,0.011556148529052734,-1.1912328004837036,-0.8416675329208374,-0.6868791580200195,0.07290636552669583,0.5235987755982988,0.028462019585814523
1759505309.6523004,0,-1.1908339200447084,-0.8419945410150972,-0.6856485578367604,0.07290636552669583,True,0.011475324630737305,-1.1912328004837036,-0.8416675329208374,-0.6868791580200195,0.07290636552669583,0.5235987755982988,0.028897471032560282
