timestamp,observer_vehicle_id,vehicle_0_x,vehicle_0_y,vehicle_0_theta,vehicle_0_velocity,vehicle_1_x,vehicle_1_y,vehicle_1_theta,vehicle_1_velocity,vehicle_2_x,vehicle_2_y,vehicle_2_theta,vehicle_2_velocity
1759830088.9355898,2,0.0,0.0,0.0,0.0,1.578390121459961,1.1837924029362057,0.6198321333096146,0.0,16.0,6.0,-0.05483113549895436,0.0
1759830088.9464552,2,0.0,0.0,0.0,0.0,2.8314110848901692,2.123557976137123,1.1118921419760563,0.0,16.0,6.0,-0.05483113549895436,0.0
1759830088.9565125,2,0.0,0.0,0.0,0.0,3.829539169011606,2.8721539202420603,1.5038559862029681,0.0,16.0,6.0,-0.05483113549895436,0.0
1759830088.9673665,2,0.0,0.0,0.0,0.0,4.62586127249425,3.46939540292505,1.8165708350178447,0.0,16.0,6.0,-0.05483113549895436,0.0
1759830088.9784768,2,0.0,0.0,0.0,0.0,5.262633358071039,3.9469743911984945,2.0666305603473445,0.0,16.0,6.0,-0.05483113549895436,0.0
1759830088.9900665,2,0.0,0.0,0.0,0.0,5.7728878553160135,4.32966520330515,2.2670069623902287,0.0,16.0,6.0,-0.05483113549895436,0.0
1759830089.0005164,2,0.0,0.0,0.0,0.0,6.183374556687578,4.637530180399995,2.428204656386831,0.0,16.0,6.0,-0.05483113549895436,0.0
1759830089.0113025,2,-2.63308047158007e-07,1.1504096385880986,0.602353251520799,0.0,6.514284196981638,4.885712371173037,2.558152522562315,0.0,16.0,6.0,-0.05483113549895436,0.0
1759830089.0219305,2,-4.737713293023525e-07,2.0699371310480985,1.08381685923694,0.0,6.798050721043061,5.098537230391498,2.6695873367945246,0.0,16.0,6.0,-0.05483113549895436,0.0
1759830089.0332234,2,-6.422971347488855e-07,2.8062371151506493,1.4693427403163166,0.0,7.024904124228635,5.268677255737646,2.758672428580958,0.0,16.0,6.0,-0.05483113549895436,0.0
1759830089.0435772,2,-7.777357667502636e-07,3.397977129834184,1.7791771766281057,0.0,7.206922498400221,5.405191014668055,2.830150851836653,0.0,16.0,6.0,-0.05483113549895436,0.0
1759830089.0539284,2,-8.868473711802085e-07,3.874692683243367,2.0287849285233177,0.0,7.353322162527484,5.5149907453113025,2.8876418452850143,0.0,16.0,6.0,-0.05483113549895436,0.0
1759830089.0642455,2,-9.749649137256276e-07,4.259683842332841,2.2303658860411266,0.0,7.471362533241385,5.603521009275219,2.933996174168281,0.0,16.0,6.0,-0.05483113549895436,0.0
1759830089.0757093,2,-1.0462070012973913e-06,4.570945063173967,2.393341927059083,0.0,7.566644534289719,5.67498249870297,2.9714133153254814,0.0,16.0,6.0,-0.05483113549895436,0.0
1759830089.0857177,2,-1.1040524645630974e-06,4.823675578658475,2.52567135359923,0.0,7.643885404904675,5.732913142456358,3.0017457236198744,0.0,16.0,6.0,-0.05483113549895436,0.0
1759830089.0971365,2,-1.1539615804595629e-06,5.041731686705374,2.639845297636436,0.0,7.70654565373888,5.779908321612328,3.026352337143717,0.0,16.0,6.0,-0.05483113549895436,0.0
1759830089.1076438,2,-1.194158059829842e-06,5.217352666785512,2.7318002542346544,0.0,7.7607793767016835,5.820583607369266,3.047649862859516,0.0,16.0,6.0,-0.05483113549895436,0.0
1759830089.1183553,2,-1.2266039792937205e-06,5.359110956693379,2.8060247426184874,0.0,7.804477607672179,5.853357275387903,3.064810111999472,0.0,16.0,6.0,-0.05483113549895436,0.0
1759830089.1356304,2,-1.252666239528236e-06,5.472978632599183,2.8656457354581826,0.0,7.839517985797757,5.879637554804948,3.078570431473256,0.0,15.999989597002665,5.999987705548604,-2.8798532300155895,0.0
1759830089.1471684,2,-1.27381959529449e-06,5.565398992039921,2.914036936425669,0.0,7.86790830334309,5.900930289579559,3.0897192791822015,0.0,15.999989538803739,5.999987636768054,-3.1213776672497637,0.0
1759830089.158161,2,-1.291044704103235e-06,5.640656590177126,2.9534417340030137,0.0,7.890985783789876,5.918238397163599,3.098781781374949,0.0,15.999989520544293,5.999987615188711,3.139118717085182,0.0
1759830089.1686683,2,-1.3060255555563763e-06,5.706108884901747,2.987712485241903,0.0,7.909802353029977,5.932350821850564,3.1061710282379944,0.0,15.99998951375864,5.999987607169303,3.136285146685182,0.0
1759830089.1787271,2,-1.3181423772673137e-06,5.759048051158793,3.01543137585105,0.0,7.926136543592132,5.944601462824993,3.112585447616558,0.0,15.99998951117705,5.999987604118332,3.1360483078734074,0.0
1759830089.1901157,2,-1.3279509285725825e-06,5.801902236907989,3.0378697814949605,0.0,7.939344482108295,5.954507415137606,3.1177721911191867,0.0,15.999989510191542,5.999987602953641,3.1362540010045468,0.0
1759830089.2015395,2,-1.3359113707473985e-06,5.836681916086712,3.0560803841685136,0.0,7.950052051511811,5.962538090913802,3.121977042312632,0.0,15.999989509815144,5.999987602508806,3.1367743023146897,0.0
1759830089.211906,2,-1.342396683033571e-06,5.865016658772299,3.070916425014465,0.0,7.958765848235026,5.969073437417447,3.1253989410807135,0.0,15.999989509671375,5.999987602338897,3.137437811715982,0.0
1759830089.222373,2,-1.347692127195611e-06,5.888152791793558,3.083030479422143,0.0,7.965873137324354,5.974403903387189,3.1281899659980588,0.0,15.999989509616459,5.999987602273997,3.1379868548438186,0.0
1759830089.2333286,2,-1.3520238138641852e-06,5.907078206905846,3.092939806453911,0.0,7.971680608784107,5.978759506289699,3.130470553905378,0.0,15.999989509595483,5.999987602249208,3.138410346740107,0.0
1759830089.2442224,2,-1.3555761813356428e-06,5.922598726780119,3.1010663339950355,0.0,7.976438103977386,5.982327627117521,3.132338817242032,0.0,15.999989509587472,5.999987602239739,3.1387766875315997,0.0
1759830089.2543752,2,-1.3586911253746856e-06,5.936208115801286,3.1081921954735368,0.0,7.980348523359842,5.985260441188205,3.133874434802614,0.0,15.999989509584411,5.999987602236122,3.139120595458996,0.0
1759830089.264535,2,-1.3612286754560124e-06,5.947294833824023,3.1139971891259597,0.0,7.983778201510977,5.987832699392707,3.135221265789504,0.0,15.999989509583243,5.99998760223474,3.1393954627834404,0.0
1759830089.2748294,2,-1.3633003471720686e-06,5.956346099578583,3.118736422156317,0.0,7.986575915493596,5.989930984546158,3.1363199251150156,0.0,15.999989509582795,5.999987602234213,3.1396126662963866,0.0
1759830089.2862775,2,-1.3649933387852784e-06,5.9637428878306205,3.122609372542837,0.0,7.988860381852156,5.991644334042747,3.137217032640746,0.0,15.999989509582624,5.999987602234011,3.1397538828854223,0.0
1759830089.2972798,2,-1.3663811803486069e-06,5.969806456067593,3.125784250361004,0.0,7.990731572982933,5.993047727167768,3.1379518474211037,0.0,15.99998950958256,5.999987602233934,3.1399031620737112,0.0
1759830089.3082817,2,-1.3675216905087603e-06,5.974789417641724,3.128393323690801,0.0,7.992268054547053,5.994200088157695,3.1385552221082174,0.0,15.999989509582536,5.9999876022339045,3.140038302217473,0.0
1759830089.319225,2,-1.3684613238573239e-06,5.978894735624192,3.130542863778366,0.0,7.993532901767043,5.995148723421905,3.139051926275341,0.0,15.999989509582525,5.999987602233894,3.140160129244048,0.0
1759830089.3388193,2,-1.3692790305616562e-06,5.98246734832766,3.132413479953835,0.0,7.994565492672608,5.995923166477984,3.139457423633143,0.0,15.999990482475543,5.999988117852746,3.1400621398351944,1.174475759123776e-05
1759830089.3492148,2,-1.3699499498561276e-06,5.985398637482722,3.133948299807975,0.0,7.99548182750136,5.996610417490312,3.139817267352391,0.0,15.999990940501688,5.999988455497332,3.140256104552103,1.174475759123776e-05
1759830089.3596282,2,-1.3705017122411936e-06,5.987809322506752,3.135210531898102,0.0,7.996234245397695,5.997174730822868,3.140112741065439,0.0,15.99999111540341,5.999988584437174,3.14041575504317,1.174475759123776e-05
1759830089.3706603,2,-1.3709561976247195e-06,5.9897949981116145,3.136250229512703,0.0,7.996853053197975,5.99763883659931,3.1403557462349094,0.0,15.99999117945188,5.999988633672639,3.1405241915970628,1.174475759123776e-05
1759830089.3814316,2,-1.371331598528998e-06,5.991435148586611,3.137109010540312,0.0,7.997363396052064,5.998021593679039,3.1405561573345917,0.0,15.999991205104534,5.9999886524607575,3.1406150145148057,1.174475759123776e-05
1759830089.3918235,2,-1.3716425672117771e-06,5.992793790579627,3.1378203940290232,0.0,7.9977854963099055,5.998338168822102,3.1407219156599457,0.0,15.99999121662161,5.999988659620364,3.1406957007308804,1.174475759123776e-05
1759830089.4026532,2,-1.3719006119090552e-06,5.993921204307158,3.138410706646206,0.0,7.998135225047376,5.998600465333514,3.1408592537657025,0.0,15.99999121906728,5.99998866234662,3.1407543677120753,1.174475759123776e-05
1759830089.4132423,2,-1.3721300722826297e-06,5.994923731302757,3.138935628704645,0.0,7.998425773095767,5.998818376335171,3.140973351677375,0.0,15.999991221092273,5.999988663376802,3.1408083469022188,1.174475759123776e-05
1759830089.4237943,2,-1.3723192129488726e-06,5.995750098927459,3.1393683139056323,0.0,7.998684729139807,5.999012593337331,3.1410750434423123,0.0,15.999991222042429,5.999988663761363,3.14085561345558,1.174475759123776e-05
1759830089.4347916,2,-1.372475399974709e-06,5.996432489997098,3.139725613136983,0.0,7.9988981947345,5.999172692507904,3.1411588711558465,0.0,15.999991220413614,5.999988663903569,3.140890524589503,1.174475759123776e-05
1759830089.4458914,2,-1.3726046727660774e-06,5.996997291061109,3.140021342367648,0.0,7.999074569361303,5.999304973456981,3.1412281332854723,0.0,15.999991219338103,5.999988663952322,3.1409216360341645,1.174475759123776e-05
1759830089.4570696,2,-1.3727119204066904e-06,5.997465862837813,3.1402666860468043,0.0,7.999220641375699,5.999414527450364,3.1412854956112173,0.0,15.999991218581684,5.9999886639656355,3.140950550568924,1.174475759123776e-05
1759830089.4675057,2,-1.3728011995625398e-06,5.997855929159456,3.140470924353986,0.0,7.9993420303746,5.999505569185069,3.141333164942852,0.0,15.99999122163197,5.999988663960957,3.1409877477783876,1.174475759123776e-05
1759830089.477517,2,-1.3728757325280012e-06,5.998181568435524,3.1406414287292823,0.0,7.999443195017948,5.99958144265552,3.141372892191426,0.0,15.999991224711813,5.999988663950689,3.1410257331181306,1.174475759123776e-05
1759830089.4878783,2,-1.3729380623368294e-06,5.998453891342557,3.1407840167109997,0.0,7.9995276514590525,5.99964478497628,3.1414060581466297,0.0,15.99999122432207,5.999988663942763,3.141053958093609,1.174475759123776e-05
1759830089.499254,2,-1.3729940532771197e-06,5.998698519328974,3.14091210366202,0.0,7.999598222851701,5.999697713512354,3.1414337714579723,0.0,15.999991219624361,5.999988663940222,3.1410677359729995,1.174475759123776e-05
1759830089.510208,2,-1.3730405101258e-06,5.998901492261541,3.1410183800715714,0.0,7.999661672544264,5.999745300774213,3.1414586880852142,0.0,15.99999121972737,5.999988663934149,3.1410873930215306,1.174475759123776e-05
1759830089.5207052,2,-1.3730791720050073e-06,5.999070408475709,3.1411068244199374,0.0,7.999714391789201,5.999784840201631,3.141479390877009,0.0,15.999991221821148,5.999988663925855,3.1411117358751746,1.174475759123776e-05
1759830089.534842,2,-1.3731112667865193e-06,5.999210632621526,3.141180245632123,0.0,7.999758088639367,5.999817612834047,3.1414965505839088,0.0,15.999991270038153,5.999987909703759,3.141099386460599,7.609103588343616e-06
1759830089.5451488,2,-1.3731381273732003e-06,5.999327988236555,3.141241692906142,0.0,7.99979460138788,5.999844997391079,3.1415108891016783,0.0,15.999991283775056,5.999987571993914,3.141131692447223,7.609103588343616e-06
1759830089.5563595,2,-1.373160630090902e-06,5.9994263040442855,3.1412931709575043,0.0,7.999825142574611,5.999867903277487,3.1415228825934447,0.0,15.99999128639735,5.999987442999088,3.141153301377173,7.609103588343616e-06
1759830089.5674698,2,-1.373180937278223e-06,5.999515027439863,3.1413396264321625,0.0,7.999850753978942,5.9998871118276815,3.1415329401648697,0.0,15.999991287693561,5.999987393724802,3.1411734992572633,7.609103588343616e-06
1759830089.5787327,2,-1.3731978324154834e-06,5.999588843371276,3.141378276374591,0.0,7.999873860128887,5.999904441437385,3.141542013925544,0.0,15.999991287747486,5.9999873749017745,3.1411908467132044,7.609103588343616e-06
1759830089.5895913,2,-1.3732119308074711e-06,5.999650440144357,3.1414105283788376,0.0,7.999893115064267,5.999918882636624,3.1415495753183267,0.0,15.999991288946386,5.999987367709017,3.141210321592869,7.609103588343616e-06
1759830089.6010451,2,-1.3732237137631095e-06,5.999701920628467,3.1414374835050407,0.0,7.999909185932822,5.999930935786124,3.1415558863314312,0.0,15.999991287675435,5.999987364960804,3.1412235793944845,7.609103588343616e-06
1759830089.6115437,2,-1.373233598656796e-06,5.999745108358945,3.1414600965543467,0.0,7.999922649755536,5.999941033651555,3.141561173560388,0.0,15.99999128997012,5.9999873639073575,3.1412433669208433,7.609103588343616e-06
1759830089.6216478,2,-1.3732419145294058e-06,5.999781440936346,3.141479120252862,0.0,7.999933961159907,5.9999495172034845,3.141565615536935,0.0,15.999991291995775,5.999987363502041,3.1412636167715817,7.609103588343616e-06
1759830089.632408,2,-1.3732489192087457e-06,5.999812044826788,3.141495144417037,0.0,7.999943476311203,5.999956653565823,3.1415693521267976,0.0,15.999991290864427,5.999987363346501,3.1412764251454526,7.609103588343616e-06
1759830089.6428323,2,-1.3732552849965794e-06,5.999839857359524,3.141509707029314,0.0,7.999951502635015,5.999962673307725,3.1415725040556794,0.0,15.999991291410089,5.9999873632850225,3.141290233835713,7.609103588343616e-06
1759830089.6532147,2,-1.3732606127298242e-06,5.999863134565606,3.1415218949494244,0.0,7.999958288522582,5.999967762722592,3.1415751688665585,0.0,15.999991291742273,5.9999873632599385,3.1413030481261224,7.609103588343616e-06
1759830089.6633856,2,-1.3732650830123494e-06,5.999882665514849,3.1415321213334764,0.0,7.999964503722703,5.999972424121942,3.1415776095690804,0.0,15.999991292485703,5.9999873632485805,3.141315911797083,7.609103588343616e-06
1759830089.674818,2,-1.3732688355681024e-06,5.999899060670082,3.1415407058191525,0.0,7.999969711668102,5.99997633008037,3.1415796547237376,0.0,15.999991289103134,5.999987363245,3.141320143841339,7.609103588343616e-06
1759830089.685273,2,-1.3732719976184865e-06,5.999912875869726,3.1415479394428525,0.0,7.999974092181534,5.999979615464922,3.141581374946735,0.0,15.999991290654373,5.999987363241305,3.1413309344992832,7.609103588343616e-06
1759830089.6963685,2,-1.3732746656017258e-06,5.999924532458528,3.1415540428202333,0.0,7.999977781661874,5.999982382574737,3.141582823801767,0.0,15.999991289385624,5.999987363239634,3.141337867544525,7.609103588343616e-06
1759830089.7067466,2,-1.3732769243201304e-06,5.999934400943185,3.1415592099482033,0.0,7.999980899613811,5.999984721038318,3.1415840482181987,0.0,15.99999129098805,5.999987363236974,3.1413487773362476,7.609103588343616e-06
1759830089.7171543,2,-1.3732788406608875e-06,5.999942773558081,3.1415635938403725,0.0,7.999983540258013,5.999986701521155,3.141585085196387,0.0,15.999991291515574,5.999987363234773,3.1413587194061154,7.609103588343616e-06
1759830089.7344143,2,-1.3732805930180431e-06,5.999950429718171,3.141567602597575,0.0,7.999985930898751,5.999988494501423,3.1415860239984794,0.0,15.999991359117637,5.999987823161418,3.1413353955705396,2.3489515182370277e-06
1759830089.7396154,2,-1.3732820811453663e-06,5.999956931441284,3.141571006892816,0.0,7.999987959683825,5.999990016089987,3.141586820700235,0.0,15.999991375655823,5.9999879357214745,3.141376721297183,2.3489515182370277e-06
1759830089.7500095,2,-1.3732833371373558e-06,5.9999624189503304,3.1415738801466606,0.0,7.999989670885468,5.999991299491016,3.1415874926873126,0.0,15.999991377313172,5.999987978716681,3.1413868289398117,2.3489515182370277e-06
1759830089.7604938,2,-1.3732843994117077e-06,5.999967060094672,3.141576310244855,0.0,7.999991117228061,5.999992384247787,3.1415880606645206,0.0,15.999991377865578,5.999987995139176,3.1413935964867186,2.3489515182370277e-06
1759830089.770988,2,-1.3732852998239803e-06,5.999970994053275,3.141578370061355,0.0,7.99999234240179,5.999993303127939,3.1415885417889498,0.0,15.999991378067868,5.999988001411774,3.141399910763223,2.3489515182370277e-06
1759830089.7815602,2,-1.3732860646320483e-06,5.999974335548465,3.1415801196646482,0.0,7.9999933823995075,5.999994083126103,3.1415889501949548,0.0,15.99999137807544,5.999988003807488,3.141405743851159,2.3489515182370277e-06
1759830089.7925127,2,-1.3732867153191381e-06,5.999977178441829,3.1415816082005605,0.0,7.999994266656696,5.999994746318889,3.1415892974418185,0.0,15.999991377737292,5.999988004722481,3.141410037777071,2.3489515182370277e-06
1759830089.8033564,2,-1.3732873153296228e-06,5.999979799925875,3.141582980806792,0.0,7.999995020323453,5.999995311568868,3.141589593405958,0.0,15.999991377705932,5.999988005071755,3.1414151296867274,2.3489515182370277e-06
1759830089.814743,2,-1.3732878221631255e-06,5.999982014313749,3.1415841402579052,0.0,7.999995717655117,5.999995834567533,3.1415898672473657,0.0,15.999991377206973,5.999988005205138,3.1414184696157257,2.3489515182370277e-06
1759830089.824996,2,-1.3732882520207233e-06,5.999983892388987,3.1415851236160837,0.0,7.999996308554233,5.999996277741799,3.1415900992928245,0.0,15.999991378034043,5.999988005255556,3.1414264423661002,2.3489515182370277e-06
1759830089.8366058,2,-1.3732886166460827e-06,5.999985485460421,3.1415859577465755,0.0,7.999996809346785,5.999996653336153,3.1415902959535305,0.0,15.999991377132547,5.999988005274963,3.14142917185157,2.3489515182370277e-06
1759830089.8472402,2,-1.373288927135172e-06,5.999986842007039,3.1415866680329287,0.0,7.999997235414173,5.999996972886643,3.141590463269744,0.0,15.999991377663731,5.999988005281944,3.141435662784758,2.3489515182370277e-06
1759830089.8581166,2,-1.3732891920093007e-06,5.999987999258987,3.141587273968806,0.0,7.999997598572426,5.9999972452552885,3.141590605881606,0.0,15.999991377649721,5.999988005284445,3.1414411051644784,2.3489515182370277e-06
1759830089.8686128,2,-1.3732894186079202e-06,5.999988989282796,3.1415877923442097,0.0,7.99999790898477,5.99999747806451,3.1415907277802058,0.0,15.999991377985875,5.999988005285094,3.1414474425142345,2.3489515182370277e-06
1759830089.8795457,2,-1.3732896294091648e-06,5.999989910286868,3.141588274580953,0.0,7.999998174700539,5.999997677351306,3.141590832126508,0.0,15.999991377722539,5.999988005285243,3.1414519573203457,2.3489515182370277e-06
1759830089.889757,2,-1.3732898086054423e-06,5.999990693206826,3.1415886845170022,0.0,7.999998402922766,5.999997848517949,3.1415909217491356,0.0,15.99999137826982,5.9999880052849415,3.1414583910107385,2.3489515182370277e-06
1759830089.900427,2,-1.3732899611554311e-06,5.999991359707449,3.141589033496013,0.0,7.999998617146581,5.999998009185785,3.1415910058746013,0.0,15.999945692632254,5.999970907572676,3.134567326744913,2.2315039423257026e-06
1759830089.9107277,2,-1.3732900913818033e-06,5.999991928674768,3.14158933140669,0.0,7.999998799786649,5.999998146165815,3.141591077597163,0.0,15.99994569286129,5.999970907572371,3.134572020416214,2.2315039423257026e-06
1759830089.9216983,2,-1.3732902026718922e-06,5.9999924149082595,3.1415895859980236,0.0,7.99999895567116,5.999998263079179,3.1415911388128452,0.0,15.999952360864503,5.99997340589034,3.1355710714408698,2.33175375747467e-06
1759830089.9393947,2,-1.373290296977555e-06,5.999992826935712,3.141589801735155,0.0,7.9999990876131175,5.999998362035631,3.141591190626313,0.0,15.999957895622792,5.999976155439516,3.136398804047253,6.6459095749521205e-06
1759830089.949845,2,-1.373290378107015e-06,5.999993181395493,3.141589987329916,0.0,7.99999920097839,5.999998447059572,3.1415912351447357,0.0,15.999962975895233,5.999978360891735,3.1371675969693835,6.778463662816749e-06
1759830089.9607944,2,-1.3732904541947491e-06,5.9999935138276514,3.141590161391037,0.0,7.999999298508121,5.999998520206859,3.141591273444558,0.0,15.999967218823594,5.9999800625406525,3.1378101544848214,6.88928876638965e-06
1759830089.97119,2,-1.3732905192288976e-06,5.999993797965991,3.141590310165566,0.0,7.999999382674757,5.999998583331825,3.1415913064967067,0.0,15.999967220361224,5.999980106881738,3.1378169634572024,6.88928876638965e-06
1759830089.9817061,2,-1.3732905749234177e-06,5.999994041298899,3.1415904375744153,0.0,7.999999461874729,5.9999986427317955,3.1415913375984523,0.0,15.999970777181215,5.999981450026307,3.1383562063566384,6.982207619102842e-06
1759830089.9921079,2,-1.3732906227305159e-06,5.999994250171158,3.1415905469397054,0.0,7.999999529794226,5.99999869367141,3.1415913642703672,0.0,15.99997077757207,5.999981456494793,3.1383609205832346,6.982207619102842e-06
1759830090.0030942,2,-1.3732906638146676e-06,5.999994429670434,3.141590640925334,0.0,7.9999995881080945,5.999998737406804,3.1415913871701617,0.0,15.999973763591598,5.999982570168509,3.138813197182784,7.060271084644712e-06
1759830090.0146053,2,-1.3732906991679892e-06,5.99999458413135,3.1415907218009034,0.0,7.999999638241743,5.999998775007034,3.1415914068575925,0.0,15.999978392778843,5.999984287012361,3.139512953236921,7.181334786757217e-06
1759830090.025988,2,-1.3732907296652639e-06,5.999994717375886,3.1415907915676,0.0,7.999999681449781,5.999998807413057,3.1415914238253433,0.0,15.999980182931766,5.999984947910003,3.139785615586628,7.228165110988102e-06
1759830090.036239,2,-1.373290758422827e-06,5.999994843019512,3.1415908573544677,0.0,7.999999718844015,5.999998835458728,3.14159143851002,0.0,15.999980185537689,5.999984948046717,3.1397898427385194,7.228165110988102e-06
1759830090.0473464,2,-1.3732907830946578e-06,5.9999949508123125,3.1415909137946625,0.0,7.999999754186891,5.999998861965881,3.1415914523891297,0.0,15.99998018445806,5.9999849480988825,3.139792260258233,7.228165110988102e-06
1759830090.0581148,2,-1.3732908043200924e-06,5.999995043547589,3.1415909623507536,0.0,7.999999784557566,5.999998884743884,3.1415914643156615,0.0,15.999981819687221,5.999985551220237,3.1400423508286694,7.270917076865182e-06
1759830090.0681684,2,-1.3732908226415673e-06,5.999995123595281,3.1415910042636392,0.0,7.9999998107426915,5.999998904382724,3.1415914745985325,0.0,15.999983194031687,5.999986055949229,3.140254088260709,7.306819498443699e-06
1759830090.0789962,2,-1.3732908384674742e-06,5.999995192739676,3.1415910404675707,0.0,7.999999833335399,5.9999989213272515,3.1415914834706644,0.0,15.999983192877858,5.999986055951782,3.1402561780353357,7.306819498443699e-06
1759830090.089929,2,-1.3732908521643093e-06,5.999995252582021,3.1415910718009585,0.0,7.999999852866661,5.999998935975696,3.141591491140571,0.0,15.999984345902686,5.999986478793075,3.140433362759525,7.337010719069711e-06
1759830090.1003346,2,-1.3732908640546793e-06,5.999995304531806,3.1415910990018103,0.0,7.999999869802873,5.999998948677853,3.1415914977914037,0.0,15.999985319992346,5.999986834162559,3.140584096844141,7.362484951143404e-06
1759830090.110958,2,-1.3732908743936592e-06,5.999995349703467,3.1415911226536437,0.0,7.999999884512964,5.99999895971042,3.141591503568041,0.0,15.999986141117905,5.999987132901866,3.1407115028995314,7.383994609653556e-06
1759830090.1224556,2,-1.373290884317005e-06,5.999995393059198,3.141591145354657,0.0,7.999999897295499,5.99999896929732,3.1415915085877293,0.0,15.999986138946756,5.999987132901837,3.1407124059433054,7.383994609653556e-06
1759830090.1417644,2,-1.3732908927623494e-06,5.999995429957445,3.1415911646745402,0.0,7.999999909415457,5.9999989783872865,3.1415915133472234,0.0,15.99998692503494,5.9999876061999435,3.140810858912148,1.060053066055549e-06
1759830090.1531248,2,-1.3732909000748685e-06,5.999995461906307,3.1415911814029305,0.0,7.999999919899346,5.999998986250202,3.141591517464236,0.0,15.999987519985932,5.999987816721759,3.140904360011122,1.0753831552182271e-06
1759830090.1646492,2,-1.3732909064184655e-06,5.999995489621887,3.141591195914778,0.0,7.9999999289852495,5.9999989930646285,3.1415915210322605,0.0,15.999988069295082,5.99998801483511,3.1409920481479925,1.0896633537607333e-06
1759830090.1757195,2,-1.373290911938082e-06,5.999995513737445,3.141591208541658,0.0,7.999999936883299,5.999998998988165,3.141591524133816,0.0,15.999988529917864,5.999988180697593,3.1410669821373665,1.1016909801014105e-06
1759830090.1861339,2,-1.373290916840756e-06,5.99999553515754,3.1415912197571965,0.0,7.999999943826136,5.999999004195292,3.1415915268602608,0.0,15.9999889183774,5.999988320019875,3.1411308044899475,1.1118592415997473e-06
1759830090.1974905,2,-1.3732909212041356e-06,5.999995554221424,3.1415912297390256,0.0,7.999999950005261,5.999999008829635,3.1415915292867966,0.0,15.999988918597113,5.999988320019833,3.141132970729999,1.1118592415997473e-06
1759830090.207568,2,-1.3732909250875437e-06,5.999995571188281,3.1415912386228535,0.0,7.999999955504682,5.9999990129542,3.1415915314464136,0.0,15.999988918681039,5.99998832001979,3.1411359977363356,1.1118592415997473e-06
1759830090.2190208,2,-1.373290928543777e-06,5.999995586288783,3.1415912465294604,0.0,7.999999960399167,5.999999016625064,3.1415915333684725,0.0,15.99998924706231,5.99998843719146,3.1411884344449077,1.1204734735269129e-06
1759830090.229561,2,-1.373290928543777e-06,5.999995586288783,3.1415912465294604,0.0,7.999999964755259,5.999999019892132,3.141591535079105,0.0,15.999989525520267,5.999988535811052,3.14123374366835,1.1277849920866286e-06
1759830090.239707,2,-1.373290928543777e-06,5.999995586288783,3.1415912465294604,0.0,7.999999964755259,5.999999019892132,3.141591535079105,0.0,15.999989761957691,5.999988618831602,3.1412727245796486,1.1340011310321329e-06
1759830090.250623,2,-1.373290928543777e-06,5.999995586288783,3.1415912465294604,0.0,7.999999964755259,5.999999019892132,3.141591535079105,0.0,15.999989963339024,5.999988688849006,3.1413054747122207,1.1393019560940757e-06
1759830090.2610157,2,-1.373290928543777e-06,5.999995586288783,3.1415912465294604,0.0,7.999999964755259,5.999999019892132,3.141591535079105,0.0,15.999989963339706,5.999988688848987,3.141307014676155,1.1393019560940757e-06
1759830090.2712667,2,-1.3732909316879492e-06,5.999995600025872,3.141591253722185,0.0,7.999999964755259,5.999999019892132,3.141591535079105,0.0,15.999990150142972,5.999988755615652,3.1413379768352536,1.1441996512833095e-06
1759830090.2818713,2,-1.3732909344259616e-06,5.999995611988422,3.141591259985764,0.0,7.999999964755259,5.999999019892132,3.141591535079105,0.0,15.999990150143072,5.999988755615638,3.1413390691609955,1.1441996512833095e-06
1759830090.2927866,2,-1.3732909368549686e-06,5.999995622600909,3.1415912655424507,0.0,7.9999999686321805,5.999999022799822,3.141591536601568,0.0,15.999990308300152,5.999988811512439,3.141365023674117,1.1483514651477356e-06
1759830090.3040462,2,-1.373290939016785e-06,5.999995632046022,3.1415912704879023,0.0,7.999999972082641,5.999999025387668,3.14159153795656,0.0,15.999990308300166,5.999988811512431,3.141365650852596,1.1483514651477356e-06
1759830090.3147645,2,-1.3732909409408014e-06,5.999995640452173,3.141591274889354,0.0,7.999999975153551,5.9999990276908495,3.141591539162503,0.0,15.999990443744167,5.999988850760791,3.1413878877541994,1.110521841583794e-06
1759830090.3251736,2,-1.3732909426531761e-06,5.999995647933647,3.141591278806646,0.0,7.99999997788666,5.999999029740682,3.141591540235792,0.0,15.999990559404077,5.999988881322552,3.141407405357688,1.0776664818757998e-06
1759830090.3389533,2,-1.3732909426531761e-06,5.999995647933647,3.141591278806646,0.0,7.999999980319128,5.999999031565032,3.1415915411910196,0.0,15.999989468088186,5.999988611153022,3.1414222288248017,9.505181521913474e-06
1759830090.3502395,2,-1.3732909426531761e-06,5.999995647933647,3.141591278806646,0.0,7.999999980319128,5.999999031565032,3.1415915411910196,0.0,15.999989138428539,5.999988632692346,3.141436684911675,9.47995982807073e-06
1759830090.360767,2,-1.3732909426531761e-06,5.999995647933647,3.141591278806646,0.0,7.999999980319128,5.999999031565032,3.1415915411910196,0.0,15.999988982675843,5.9999886326920295,3.141438267325237,9.47995982807073e-06
1759830090.3714764,2,-1.3732909426531761e-06,5.999995647933647,3.141591278806646,0.0,7.999999980319128,5.999999031565032,3.1415915411910196,0.0,15.99998892259548,5.9999886326917355,3.1414395477201182,9.47995982807073e-06
1759830090.3818562,2,-1.3732909426531761e-06,5.999995647933647,3.141591278806646,0.0,7.999999980319128,5.999999031565032,3.1415915411910196,0.0,15.999988973276173,5.999988650737342,3.141452424844351,9.457670671074884e-06
1759830090.3921983,2,-1.3732909426531761e-06,5.999995647933647,3.141591278806646,0.0,7.999999980319128,5.999999031565032,3.1415915411910196,0.0,15.999989034472426,5.9999886670236595,3.141464744110362,9.42499083500151e-06
1759830090.4032295,2,-1.3732909426531761e-06,5.999995647933647,3.141591278806646,0.0,7.999999980319128,5.999999031565032,3.1415915411910196,0.0,15.99998908825904,5.999988681209661,3.1414750164957703,9.39720294156503e-06
1759830090.4147346,2,-1.3732909426531761e-06,5.999995647933647,3.141591278806646,0.0,7.999999980319128,5.999999031565032,3.1415915411910196,0.0,15.999989135225794,5.999988693635292,3.141483777796428,9.373504615226547e-06
1759830090.425233,2,-1.3732909426531761e-06,5.999995647933647,3.141591278806646,0.0,7.999999980319128,5.999999031565032,3.1415915411910196,0.0,15.999989137109687,5.999988693634996,3.1414847480734776,9.373504615226547e-06
1759830090.4360504,2,-1.3732909426531761e-06,5.999995647933647,3.141591278806646,0.0,7.999999980319128,5.999999031565032,3.1415915411910196,0.0,15.999989179920803,5.999988704414023,3.1414926795679228,9.353296200516176e-06
1759830090.4473844,2,-1.3732909426531761e-06,5.999995647933647,3.141591278806646,0.0,7.999999980319128,5.999999031565032,3.1415915411910196,0.0,15.999989351028868,5.999989214410961,3.1415675937190315,9.395806072990207e-06
1759830090.4576392,2,-1.3732909426531761e-06,5.999995647933647,3.141591278806646,0.0,7.999999980319128,5.999999031565032,3.1415915411910196,0.0,15.99998935414344,5.999989214410635,3.1415686757828674,9.395806072990207e-06
1759830090.4685578,2,-1.3732909426531761e-06,5.999995647933647,3.141591278806646,0.0,7.999999980319128,5.999999031565032,3.1415915411910196,0.0,15.999989352951035,5.999989214410479,3.141569356407686,9.395806072990207e-06
1759830090.4789455,2,-1.3732909426531761e-06,5.999995647933647,3.141591278806646,0.0,7.999999980319128,5.999999031565032,3.1415915411910196,0.0,15.999989354401302,5.999989214410232,3.141570231163996,9.395806072990207e-06
1759830090.4892914,2,-1.3732909426531761e-06,5.999995647933647,3.141591278806646,0.0,7.999999980319128,5.999999031565032,3.1415915411910196,0.0,15.999989355105138,5.999989214410012,3.1415710465694726,9.395806072990207e-06
1759830090.5003154,2,-1.3732909426531761e-06,5.999995647933647,3.141591278806646,0.0,7.999999980319128,5.999999031565032,3.1415915411910196,0.0,15.99998935294054,5.999989214409922,3.141571510108898,9.395806072990207e-06
1759830090.5106478,2,-1.3732909426531761e-06,5.999995647933647,3.141591278806646,0.0,7.999999980319128,5.999999031565032,3.1415915411910196,0.0,15.999989354596162,5.999989214409708,3.141572258655966,9.395806072990207e-06
1759830090.5207,2,-1.3732909426531761e-06,5.999995647933647,3.141591278806646,0.0,7.999999980319128,5.999999031565032,3.1415915411910196,0.0,15.9999893562341,5.999989214409482,3.1415730598933163,9.395806072990207e-06
1759830090.5356178,2,-1.3732909426531761e-06,5.999995647933647,3.141591278806646,0.0,7.999999980319128,5.999999031565032,3.1415915411910196,0.0,15.999990506434592,5.99998919085893,3.1415720217958096,1.0145471451124822e-05
1759830090.5431955,2,-1.3732909426531761e-06,5.999995647933647,3.141591278806646,0.0,7.999999980319128,5.999999031565032,3.1415915411910196,0.0,15.999990977081383,5.9999891908581375,3.1415739868154553,1.0145471451124822e-05
1759830090.5544095,2,-1.3732909426531761e-06,5.999995647933647,3.141591278806646,0.0,7.999999980319128,5.999999031565032,3.1415915411910196,0.0,15.999991142760637,5.999989190858111,3.141574401458591,1.0145471451124822e-05
1759830090.5648398,2,-1.3732909426531761e-06,5.999995647933647,3.141591278806646,0.0,7.999999980319128,5.999999031565032,3.1415915411910196,0.0,15.99999120908157,5.999989190857935,3.1415750119957533,1.0145471451124822e-05
1759830090.5762367,2,-1.3732909426531761e-06,5.999995647933647,3.141591278806646,0.0,7.999999980319128,5.999999031565032,3.1415915411910196,0.0,15.999991230668329,5.999989190857904,3.1415752809130097,1.0145471451124822e-05
1759830090.5865993,2,-1.3732909426531761e-06,5.999995647933647,3.141591278806646,0.0,7.999999980319128,5.999999031565032,3.1415915411910196,0.0,15.999991242921894,5.999989190857701,3.141575912231435,1.0145471451124822e-05
1759830090.598155,2,-1.3732909426531761e-06,5.999995647933647,3.141591278806646,0.0,7.999999980319128,5.999999031565032,3.1415915411910196,0.0,15.999991242979016,5.999989190857678,3.1415761503445037,1.0145471451124822e-05
1759830090.6095102,2,-1.3732909426531761e-06,5.999995647933647,3.141591278806646,0.0,7.999999980319128,5.999999031565032,3.1415915411910196,0.0,15.999991243777936,5.999989190857595,3.141576495211055,1.0145471451124822e-05
1759830090.619517,2,-1.3732909426531761e-06,5.999995647933647,3.141591278806646,0.0,7.999999980319128,5.999999031565032,3.1415915411910196,0.0,15.999991249308094,5.9999891908573355,3.1415772466775778,1.0145471451124822e-05
1759830090.6301692,2,-1.3732909426531761e-06,5.999995647933647,3.141591278806646,0.0,7.999999980319128,5.999999031565032,3.1415915411910196,0.0,15.999991248920347,5.999989190857207,3.1415777334591795,1.0145471451124822e-05
1759830090.6404917,2,-1.3732909426531761e-06,5.999995647933647,3.141591278806646,0.0,7.999999980319128,5.999999031565032,3.1415915411910196,0.0,15.999991250049215,5.9999891908570495,3.141578256725756,1.0145471451124822e-05
1759830090.6505427,2,-1.3732909426531761e-06,5.999995647933647,3.141591278806646,0.0,7.999999980319128,5.999999031565032,3.1415915411910196,0.0,15.999991251532864,5.999989190856884,3.141578796443394,1.0145471451124822e-05
1759830090.6619363,2,-1.3732909426531761e-06,5.999995647933647,3.141591278806646,0.0,7.999999980319128,5.999999031565032,3.1415915411910196,0.0,15.999991246896924,5.999989190856884,3.141578948757976,1.0145471451124822e-05
1759830090.6722476,2,-1.3732909426531761e-06,5.999995647933647,3.141591278806646,0.0,7.999999980319128,5.999999031565032,3.1415915411910196,0.0,15.999991249319974,5.99998919085674,3.141579395931096,1.0145471451124822e-05
1759830090.6826181,2,-1.3732909426531761e-06,5.999995647933647,3.141591278806646,0.0,7.999999980319128,5.999999031565032,3.1415915411910196,0.0,15.999991250016441,5.999989190856622,3.1415798064873126,1.0145471451124822e-05
1759830090.692876,2,-1.3732909426531761e-06,5.999995647933647,3.141591278806646,0.0,7.999999980319128,5.999999031565032,3.1415915411910196,0.0,15.999991250718638,5.999989190856506,3.141580207401322,1.0145471451124822e-05
1759830090.7029178,2,-1.3732909426531761e-06,5.999995647933647,3.141591278806646,0.0,7.999999980319128,5.999999031565032,3.1415915411910196,0.0,15.999991251824937,5.9999891908563825,3.1415806194265024,1.0145471451124822e-05
1759830090.7132998,2,-1.3732909426531761e-06,5.999995647933647,3.141591278806646,0.0,7.999999980319128,5.999999031565032,3.1415915411910196,0.0,15.999991250929108,5.999989190856306,3.1415809193818163,1.0145471451124822e-05
1759830090.7240942,2,-1.3732909426531761e-06,5.999995647933647,3.141591278806646,0.0,7.999999980319128,5.999999031565032,3.1415915411910196,0.0,15.999991248988568,5.999989190856265,3.1415811227343244,1.0145471451124822e-05
1759830090.739674,2,-1.3732909426531761e-06,5.999995647933647,3.141591278806646,0.0,7.999999980319128,5.999999031565032,3.1415915411910196,0.0,15.99999127912932,5.999990172306276,3.1415804423701488,7.046854554711084e-06
1759830090.750679,2,-1.3732909426531761e-06,5.999995647933647,3.141591278806646,0.0,7.999999980319128,5.999999031565032,3.1415915411910196,0.0,15.999991291120507,5.999990510004036,3.1415808977511546,7.046854554711084e-06
1759830090.7616162,2,-1.3732909426531761e-06,5.999995647933647,3.141591278806646,0.0,7.999999980319128,5.999999031565032,3.1415915411910196,0.0,15.999991295883055,5.999990638993043,3.141581380605494,7.046854554711084e-06
1759830090.7724118,2,-1.3732909426531761e-06,5.999995647933647,3.141591278806646,0.0,7.999999980319128,5.999999031565032,3.1415915411910196,0.0,15.99999129808344,5.999990688262404,3.1415818267038684,7.046854554711084e-06
1759830090.7830193,2,-1.3732909426531761e-06,5.999995647933647,3.141591278806646,0.0,7.999999980319128,5.999999031565032,3.1415915411910196,0.0,15.9999912994303,5.999990707081572,3.14158224449805,7.046854554711084e-06
1759830090.7942991,2,-1.3732909426531761e-06,5.999995647933647,3.141591278806646,0.0,7.999999980319128,5.999999031565032,3.1415915411910196,0.0,15.999991298135066,5.999990714269849,3.141582501870115,7.046854554711084e-06
1759830090.805488,2,-1.3732909426531761e-06,5.999995647933647,3.141591278806646,0.0,7.999999980319128,5.999999031565032,3.1415915411910196,0.0,15.999991297884868,5.999990717015493,3.1415827623205175,7.046854554711084e-06
1759830090.8158286,2,-1.3732909426531761e-06,5.999995647933647,3.141591278806646,0.0,7.999999980319128,5.999999031565032,3.1415915411910196,0.0,15.999991300073322,5.999990718064165,3.1415831403548786,7.046854554711084e-06
1759830090.8259945,2,-1.3732909426531761e-06,5.999995647933647,3.141591278806646,0.0,7.999999980319128,5.999999031565032,3.1415915411910196,0.0,15.99999130137904,5.9999907184646775,3.1415834974682326,7.046854554711084e-06
1759830090.8362124,2,-1.3732909426531761e-06,5.999995647933647,3.141591278806646,0.0,7.999999980319128,5.999999031565032,3.1415915411910196,0.0,15.999991301737914,5.999990718617629,3.14158379593451,7.046854554711084e-06
1759830090.8469214,2,-1.3732909426531761e-06,5.999995647933647,3.141591278806646,0.0,7.999999980319128,5.999999031565032,3.1415915411910196,0.0,15.999991300553022,5.9999907186760435,3.1415839909400045,7.046854554711084e-06
1759830090.8581352,2,-1.3732909426531761e-06,5.999995647933647,3.141591278806646,0.0,7.999999980319128,5.999999031565032,3.1415915411910196,0.0,15.999991298741879,5.999990718698355,3.141584113225994,7.046854554711084e-06
1759830090.8691368,2,-1.3732909426531761e-06,5.999995647933647,3.141591278806646,0.0,7.999999980319128,5.999999031565032,3.1415915411910196,0.0,15.999991298621259,5.999990718706852,3.141584279841487,7.046854554711084e-06
1759830090.880183,2,-1.3732909426531761e-06,5.999995647933647,3.141591278806646,0.0,7.999999980319128,5.999999031565032,3.1415915411910196,0.0,15.999991298455207,5.9999907187100785,3.1415844496143315,7.046854554711084e-06
1759830090.891759,2,-1.3732909426531761e-06,5.999995647933647,3.141591278806646,0.0,7.999999980319128,5.999999031565032,3.1415915411910196,0.0,15.99999129696584,5.99999071871131,3.141584562542457,7.046854554711084e-06
1759830090.9019427,2,-1.3732909426531761e-06,5.999995647933647,3.141591278806646,0.0,7.999999980319128,5.999999031565032,3.1415915411910196,0.0,15.999991300144135,5.999990718711714,3.1415848499910943,7.046854554711084e-06
1759830090.913204,2,-1.3732909426531761e-06,5.999995647933647,3.141591278806646,0.0,7.999999980319128,5.999999031565032,3.1415915411910196,0.0,15.999991298458113,5.999990718711877,3.141584990778391,7.046854554711084e-06
1759830090.924595,2,-1.3732909426531761e-06,5.999995647933647,3.141591278806646,0.0,7.999999980319128,5.999999031565032,3.1415915411910196,0.0,15.999991297464378,5.999990718711929,3.1415851184624,7.046854554711084e-06
1759830090.9455714,2,-1.3732909426531761e-06,5.999995647933647,3.141591278806646,0.0,7.999999980319128,5.999999031565032,3.1415915411910196,0.0,15.999991280558216,5.9999898507815645,3.1415843316372225,6.532015865794714e-06
1759830090.959325,2,-1.3732909426531761e-06,5.999995647933647,3.141591278806646,0.0,7.999999980319128,5.999999031565032,3.1415915411910196,0.0,15.999991290154762,5.999989513083546,3.141584544083347,6.532015865794714e-06
1759830090.9731846,2,-1.3732909426531761e-06,5.999995647933647,3.141591278806646,0.0,7.999999980319128,5.999999031565032,3.1415915411910196,0.0,15.999991293556239,5.999989384094351,3.14158481284419,6.532015865794714e-06
1759830090.9835818,2,-1.3732909426531761e-06,5.999995647933647,3.141591278806646,0.0,7.999999980319128,5.999999031565032,3.1415915411910196,0.0,15.999991303494081,5.999989334824728,3.141585354644697,6.532015865794714e-06
1759830090.99538,2,-1.3732909426531761e-06,5.999995647933647,3.141591278806646,0.0,7.999999980319128,5.999999031565032,3.1415915411910196,0.0,15.999991303794646,5.9999893160054025,3.141585674374994,6.532015865794714e-06
1759830091.0080252,2,-1.3732909426531761e-06,5.999995647933647,3.141591278806646,0.0,7.999999980319128,5.999999031565032,3.1415915411910196,0.0,15.999991301795943,5.9999893088170575,3.141585865656779,6.532015865794714e-06
1759830091.0208943,2,-1.3732909426531761e-06,5.999995647933647,3.141591278806646,0.0,7.999999980319128,5.999999031565032,3.1415915411910196,0.0,15.999991300473953,5.999989306071341,3.141586024140368,6.532015865794714e-06
1759830091.0337415,2,-1.3732909426531761e-06,5.999995647933647,3.141591278806646,0.0,7.999999980319128,5.999999031565032,3.1415915411910196,0.0,15.999991300023742,5.999989305022552,3.141586182357207,6.532015865794714e-06
1759830091.0461297,2,-1.3732909426531761e-06,5.999995647933647,3.141591278806646,0.0,7.999999980319128,5.999999031565032,3.1415915411910196,0.0,15.999991300996903,5.999989304621921,3.14158636905729,6.532015865794714e-06
1759830091.058823,2,-1.3732909426531761e-06,5.999995647933647,3.141591278806646,0.0,7.999999980319128,5.999999031565032,3.1415915411910196,0.0,15.999991300607219,5.999989304468882,3.1415865223575583,6.532015865794714e-06
1759830091.0705013,2,-1.3732909426531761e-06,5.999995647933647,3.141591278806646,0.0,7.999999980319128,5.999999031565032,3.1415915411910196,0.0,15.999991302991301,5.999989304410387,3.1415867305349803,6.532015865794714e-06
1759830091.0825014,2,-1.3732909426531761e-06,5.999995647933647,3.141591278806646,0.0,7.999999980319128,5.999999031565032,3.1415915411910196,0.0,15.9999913030989,5.9999893043880315,3.141586893432793,6.532015865794714e-06
1759830091.0944452,2,-1.3732909426531761e-06,5.999995647933647,3.141591278806646,0.0,7.999999980319128,5.999999031565032,3.1415915411910196,0.0,15.999991303280403,5.999989304379476,3.141587041200191,6.532015865794714e-06
1759830091.1062624,2,-1.3732909426531761e-06,5.999995647933647,3.141591278806646,0.0,7.999999980319128,5.999999031565032,3.1415915411910196,0.0,15.999991303665617,5.999989304376189,3.1415871821064822,6.532015865794714e-06
1759830091.1191626,2,-1.3732909426531761e-06,5.999995647933647,3.141591278806646,0.0,7.999999980319128,5.999999031565032,3.1415915411910196,0.0,15.99999130111092,5.999989304374943,3.141587252649762,6.532015865794714e-06
1759830091.1313775,2,-1.3732909426531761e-06,5.999995647933647,3.141591278806646,0.0,7.999999980319128,5.999999031565032,3.1415915411910196,0.0,15.99999130184475,5.999989304374445,3.1415873658205875,6.532015865794714e-06
1759830091.156027,2,-1.3732909426531761e-06,5.999995647933647,3.141591278806646,0.0,7.999999980319128,5.999999031565032,3.1415915411910196,0.0,15.999991261104363,5.999990172305147,3.1415868932352033,7.046854554742655e-06
1759830091.170277,2,-1.3732909426531761e-06,5.999995647933647,3.141591278806646,0.0,7.999999980319128,5.999999031565032,3.1415915411910196,0.0,15.999991275501667,5.999990510002939,3.1415870917037623,7.046854554742655e-06
1759830091.1822095,2,-1.3732909426531761e-06,5.999995647933647,3.141591278806646,0.0,7.999999980319128,5.999999031565032,3.1415915411910196,0.0,15.99999128723937,5.999990638991942,3.1415873995317583,7.046854554742655e-06
1759830091.1950042,2,-1.3732909426531761e-06,5.999995647933647,3.141591278806646,0.0,7.999999980319128,5.999999031565032,3.1415915411910196,0.0,15.999991289401613,5.999990688261347,3.141587609667413,7.046854554742655e-06
1759830091.2067978,2,-1.3732909426531761e-06,5.999995647933647,3.141591278806646,0.0,7.999999980319128,5.999999031565032,3.1415915411910196,0.0,15.999991292922218,5.9999907070805465,3.1415878153792196,7.046854554742655e-06
1759830091.2201102,2,-1.3732909426531761e-06,5.999995647933647,3.141591278806646,0.0,7.999999980319128,5.999999031565032,3.1415915411910196,0.0,15.999991290179082,5.999990714268851,3.141587924192409,7.046854554742655e-06
1759830091.232502,2,-1.3732909426531761e-06,5.999995647933647,3.141591278806646,0.0,7.999999980319128,5.999999031565032,3.1415915411910196,0.0,15.999991291609081,5.9999907170145095,3.141588052544149,7.046854554742655e-06
1759830091.2457507,2,-1.3732909426531761e-06,5.999995647933647,3.141591278806646,0.0,7.999999980319128,5.999999031565032,3.1415915411910196,0.0,15.99999128984888,5.99999071806326,3.1415881354454935,7.046854554742655e-06
1759830091.26175,2,-1.3732909426531761e-06,5.999995647933647,3.141591278806646,0.0,7.999999980319128,5.999999031565032,3.1415915411910196,0.0,15.999991281772763,5.999990718463884,3.1415881250132376,7.046854554742655e-06
1759830091.2744272,2,-1.3732909426531761e-06,5.999995647933647,3.141591278806646,0.0,7.999999980319128,5.999999031565032,3.1415915411910196,0.0,15.999991287630014,5.999990718616851,3.141588245650622,7.046854554742655e-06
1759830091.2882807,2,-1.3732909426531761e-06,5.999995647933647,3.141591278806646,0.0,7.999999980319128,5.999999031565032,3.1415915411910196,0.0,15.999991286700938,5.999990718675284,3.1415883222665943,7.046854554742655e-06
1759830091.301645,2,-1.3732909426531761e-06,5.999995647933647,3.141591278806646,0.0,7.999999980319128,5.999999031565032,3.1415915411910196,0.0,15.99999128766293,5.999990718697587,3.1415884090112876,7.046854554742655e-06
1759830091.3156152,2,-1.3732909426531761e-06,5.999995647933647,3.141591278806646,0.0,7.999999980319128,5.999999031565032,3.1415915411910196,0.0,15.99999128639972,5.999990718706106,3.1415884735007467,7.046854554742655e-06
1759830091.3284764,2,-1.3732909426531761e-06,5.999995647933647,3.141591278806646,0.0,7.999999980319128,5.999999031565032,3.1415915411910196,0.0,15.999991288901972,5.999990718709335,3.1415885661226834,7.046854554742655e-06
1759830091.341059,2,-1.3732909426531761e-06,5.999995647933647,3.141591278806646,0.0,7.999999980319128,5.999999031565032,3.1415915411910196,0.0,15.999991290607955,5.999990718710555,3.1415886559407067,7.046854554742655e-06
1759830091.366789,2,-1.3732909426531761e-06,5.999995647933647,3.141591278806646,0.0,7.999999980319128,5.999999031565032,3.1415915411910196,0.0,15.999991309251635,5.999990213884966,3.141588431992071,4.354677243863142e-06
1759830091.3840675,2,-1.3732909426531761e-06,5.999995647933647,3.141591278806646,0.0,7.999999980319128,5.999999031565032,3.1415915411910196,0.0,15.999991320147616,5.999989988753136,3.1415884961072003,4.354677243863142e-06
1759830091.398973,2,-1.3732909426531761e-06,5.999995647933647,3.141591278806646,0.0,7.999999980319128,5.999999031565032,3.1415915411910196,0.0,15.999991328256595,5.999989902760399,3.1415886299486218,4.354677243863142e-06
1759830091.4124968,2,-1.3732909426531761e-06,5.999995647933647,3.141591278806646,0.0,7.999999980319128,5.999999031565032,3.1415915411910196,0.0,15.99999133365209,5.999989869914078,3.1415887706124117,4.354677243863142e-06
1759830091.427562,2,-1.3732909426531761e-06,5.999995647933647,3.141591278806646,0.0,7.999999980319128,5.999999031565032,3.1415915411910196,0.0,15.99999133314916,5.999989857367902,3.141588854888445,4.354677243863142e-06
1759830091.442685,2,-1.3732909426531761e-06,5.999995647933647,3.141591278806646,0.0,7.999999980319128,5.999999031565032,3.1415915411910196,0.0,15.999991332861093,5.999989852575686,3.141588925745255,4.354677243863142e-06
1759830091.4567618,2,-1.3732909426531761e-06,5.999995647933647,3.141591278806646,0.0,7.999999980319128,5.999999031565032,3.1415915411910196,0.0,15.999991334490824,5.999989850745209,3.1415890068989647,4.354677243863142e-06
1759830091.4699247,2,-1.3732909426531761e-06,5.999995647933647,3.141591278806646,0.0,7.999999980319128,5.999999031565032,3.1415915411910196,0.0,15.999991336633787,5.999989850046017,3.1415890910774884,4.354677243863142e-06
1759830091.484362,2,-1.3732909426531761e-06,5.999995647933647,3.141591278806646,0.0,7.999999980319128,5.999999031565032,3.1415915411910196,0.0,15.999991335332657,5.999989849778952,3.1415891414533803,4.354677243863142e-06
1759830091.5011718,2,-1.3732909426531761e-06,5.999995647933647,3.141591278806646,0.0,7.999999980319128,5.999999031565032,3.1415915411910196,0.0,15.999991330888994,5.9999898496769575,3.1415891529646824,4.354677243863142e-06
1759830091.51248,2,-1.3732909426531761e-06,5.999995647933647,3.141591278806646,0.0,7.999999980319128,5.999999031565032,3.1415915411910196,0.0,15.999991338342948,5.999989849637958,3.141589248651476,4.354677243863142e-06
1759830091.5269842,2,-1.3732909426531761e-06,5.999995647933647,3.141591278806646,0.0,7.999999980319128,5.999999031565032,3.1415915411910196,0.0,15.999991335874073,5.999989849623077,3.141589285103331,4.354677243863142e-06
1759830091.541036,2,-1.3732909426531761e-06,5.999995647933647,3.141591278806646,0.0,7.999999980319128,5.999999031565032,3.1415915411910196,0.0,15.999991335683742,5.999989849617389,3.141589323209409,4.354677243863142e-06
1759830091.5668273,2,-1.3732909426531761e-06,5.999995647933647,3.141591278806646,0.0,7.999999980319128,5.999999031565032,3.1415915411910196,0.0,15.999991402530965,5.999989986421069,3.1415892232111506,0.0
1759830091.5824955,2,-1.3732909426531761e-06,5.999995647933647,3.141591278806646,0.0,7.999999980319128,5.999999031565032,3.1415915411910196,0.0,15.99999141143077,5.999989986420209,3.1415892835682993,0.0
1759830091.5956428,2,-1.3732909426531761e-06,5.999995647933647,3.141591278806646,0.0,7.999999980319128,5.999999031565032,3.1415915411910196,0.0,15.999991414830193,5.99998998641988,3.1415893706814852,0.0
1759830091.6095567,2,-1.3732909426531761e-06,5.999995647933647,3.141591278806646,0.0,7.999999980319128,5.999999031565032,3.1415915411910196,0.0,15.999991416128656,5.999989986419755,3.1415894321741007,0.0
1759830091.6240218,2,-1.3732909426531761e-06,5.999995647933647,3.141591278806646,0.0,7.999999980319128,5.999999031565032,3.1415915411910196,0.0,15.999991416624626,5.999989986419707,3.1415894758191563,0.0
1759830091.6359904,2,-1.3732909426531761e-06,5.999995647933647,3.141591278806646,0.0,7.999999980319128,5.999999031565032,3.1415915411910196,0.0,15.999991416814069,5.999989986419689,3.1415895353561467,0.0
1759830091.6505175,2,-1.3732909426531761e-06,5.999995647933647,3.141591278806646,0.0,7.999999980319128,5.999999031565032,3.1415915411910196,0.0,15.99999141688643,5.999989986419682,3.1415895605720223,0.0
1759830091.664171,2,-1.3732909426531761e-06,5.999995647933647,3.141591278806646,0.0,7.999999980319128,5.999999031565032,3.1415915411910196,0.0,15.999991416914071,5.9999899864196795,3.1415895902965048,0.0
1759830091.6779592,2,-1.3732909426531761e-06,5.999995647933647,3.141591278806646,0.0,7.999999980319128,5.999999031565032,3.1415915411910196,0.0,15.999991416924628,5.999989986419679,3.1415896160507817,0.0
1759830091.6908777,2,-1.3732909426531761e-06,5.999995647933647,3.141591278806646,0.0,7.999999980319128,5.999999031565032,3.1415915411910196,0.0,15.99999141692866,5.999989986419678,3.1415896461506794,0.0
1759830091.7059886,2,-1.3732909426531761e-06,5.999995647933647,3.141591278806646,0.0,7.999999980319128,5.999999031565032,3.1415915411910196,0.0,15.9999914169302,5.999989986419678,3.141589656068147,0.0
1759830091.7191699,2,-1.3732909426531761e-06,5.999995647933647,3.141591278806646,0.0,7.999999980319128,5.999999031565032,3.1415915411910196,0.0,15.999991416930788,5.999989986419678,3.141589681523829,0.0
1759830091.7324772,2,-1.3732909426531761e-06,5.999995647933647,3.141591278806646,0.0,7.999999980319128,5.999999031565032,3.1415915411910196,0.0,15.999991416931014,5.999989986419678,3.1415897039361713,0.0
1759830091.7463474,2,-1.3732909426531761e-06,5.999995647933647,3.141591278806646,0.0,7.999999980319128,5.999999031565032,3.1415915411910196,0.0,15.999991416931099,5.999989986419678,3.141589720223429,0.0
1759830091.7708235,2,-1.3732909426531761e-06,5.999995647933647,3.141591278806646,0.0,7.999999980319128,5.999999031565032,3.1415915411910196,0.0,15.999991326030873,5.999990428234253,3.141589671771996,4.6979030364740555e-06
1759830091.7877462,2,-1.3732909426531761e-06,5.999995647933647,3.141591278806646,0.0,7.999999980319128,5.999999031565032,3.1415915411910196,0.0,15.999991322808649,5.999990653366229,3.1415896902375575,4.6979030364740555e-06
1759830091.8007069,2,-1.3732909426531761e-06,5.999995647933647,3.141591278806646,0.0,7.999999980319128,5.999999031565032,3.1415915411910196,0.0,15.999991328687512,5.9999907393589655,3.141589734217007,4.6979030364740555e-06
1759830091.8145535,2,-1.3732909426531761e-06,5.999995647933647,3.141591278806646,0.0,7.999999980319128,5.999999031565032,3.1415915411910196,0.0,15.999991329343235,5.999990772205272,3.1415897652132596,4.6979030364740555e-06
1759830091.8278606,2,-1.3732909426531761e-06,5.999995647933647,3.141591278806646,0.0,7.999999980319128,5.999999031565032,3.1415915411910196,0.0,15.999991330561874,5.9999907847514375,3.141589792537969,4.6979030364740555e-06
1759830091.8407557,2,-1.3732909426531761e-06,5.999995647933647,3.141591278806646,0.0,7.999999980319128,5.999999031565032,3.1415915411910196,0.0,15.99999133176664,5.999990789543643,3.1415898166914946,4.6979030364740555e-06
1759830091.8543634,2,-1.3732909426531761e-06,5.999995647933647,3.141591278806646,0.0,7.999999980319128,5.999999031565032,3.1415915411910196,0.0,15.999991330948047,5.999990791374105,3.1415898331402055,4.6979030364740555e-06
1759830091.8795693,2,-1.3732909426531761e-06,5.999995647933647,3.141591278806646,0.0,7.999999980319128,5.999999031565032,3.1415915411910196,0.0,15.99999130982326,5.999990792073342,3.141589798351207,4.6979030364740555e-06
1759830091.8930476,2,-1.3732909426531761e-06,5.999995647933647,3.141591278806646,0.0,7.999999980319128,5.999999031565032,3.1415915411910196,0.0,15.99999132279873,5.999990792340364,3.1415898269436173,4.6979030364740555e-06
1759830091.9067643,2,-1.3732909426531761e-06,5.999995647933647,3.141591278806646,0.0,7.999999980319128,5.999999031565032,3.1415915411910196,0.0,15.999991327327093,5.999990792442357,3.1415898522788908,4.6979030364740555e-06
1759830091.919996,2,-1.3732909426531761e-06,5.999995647933647,3.141591278806646,0.0,7.999999980319128,5.999999031565032,3.1415915411910196,0.0,15.999991329926978,5.99999079248131,3.1415898742764394,4.6979030364740555e-06
1759830091.934668,2,-1.3732909426531761e-06,5.999995647933647,3.141591278806646,0.0,7.999999980319128,5.999999031565032,3.1415915411910196,0.0,15.99999132833554,5.999990792496195,3.141589886876993,4.6979030364740555e-06
1759830091.9476078,2,-1.3732909426531761e-06,5.999995647933647,3.141591278806646,0.0,7.999999980319128,5.999999031565032,3.1415915411910196,0.0,15.999991330836263,5.999990792501871,3.1415899037246025,4.6979030364740555e-06
1759830091.973091,2,-1.3732909426531761e-06,5.999995647933647,3.141591278806646,0.0,7.999999980319128,5.999999031565032,3.1415915411910196,0.0,15.999991309283006,5.999990203100962,3.141589878820941,4.697903036495103e-06
1759830091.9894748,2,-1.3732909426531761e-06,5.999995647933647,3.141591278806646,0.0,7.999999980319128,5.999999031565032,3.1415915411910196,0.0,15.999991317378443,5.9999899779698005,3.141589892745486,4.697903036495103e-06
1759830092.0041301,2,-1.3732909426531761e-06,5.999995647933647,3.141591278806646,0.0,7.999999980319128,5.999999031565032,3.1415915411910196,0.0,15.999991323572376,5.999989891977339,3.141589912365724,4.697903036495103e-06
1759830092.02041,2,-1.3732909426531761e-06,5.999995647933647,3.141591278806646,0.0,7.999999980319128,5.999999031565032,3.1415915411910196,0.0,15.99999132302303,5.999989859131148,3.1415899244248564,4.697903036495103e-06
1759830092.0313516,2,-1.3732909426531761e-06,5.999995647933647,3.141591278806646,0.0,7.999999980319128,5.999999031565032,3.1415915411910196,0.0,15.99999133239269,5.999989846584992,3.141589948303645,4.697903036495103e-06
1759830092.0465364,2,-1.3732909426531761e-06,5.999995647933647,3.141591278806646,0.0,7.999999980319128,5.999999031565032,3.1415915411910196,0.0,15.999991328357106,5.999989841792807,3.141589956572652,4.697903036495103e-06
1759830092.059809,2,-1.3732909426531761e-06,5.999995647933647,3.141591278806646,0.0,7.999999980319128,5.999999031565032,3.1415915411910196,0.0,15.999991330247259,5.999989839962344,3.141589967906624,4.697903036495103e-06
1759830092.073859,2,-1.3732909426531761e-06,5.999995647933647,3.141591278806646,0.0,7.999999980319128,5.999999031565032,3.1415915411910196,0.0,15.999991329574087,5.999989839263174,3.141589975808719,4.697903036495103e-06
1759830092.0877323,2,-1.3732909426531761e-06,5.999995647933647,3.141591278806646,0.0,7.999999980319128,5.999999031565032,3.1415915411910196,0.0,15.999991329633977,5.999989838996112,3.141589983121577,4.697903036495103e-06
1759830092.102212,2,-1.3732909426531761e-06,5.999995647933647,3.141591278806646,0.0,7.999999980319128,5.999999031565032,3.1415915411910196,0.0,15.999991328568889,5.999989838894106,3.1415899884723792,4.697903036495103e-06
1759830092.115283,2,-1.3732909426531761e-06,5.999995647933647,3.141591278806646,0.0,7.999999980319128,5.999999031565032,3.1415915411910196,0.0,15.999991330689667,5.999989838855136,3.141589996401466,4.697903036495103e-06
1759830092.129254,2,-1.3732909426531761e-06,5.999995647933647,3.141591278806646,0.0,7.999999980319128,5.999999031565032,3.1415915411910196,0.0,15.999991329884685,5.999989838840254,3.1415900016446354,4.697903036495103e-06
1759830092.143053,2,-1.3732909426531761e-06,5.999995647933647,3.141591278806646,0.0,7.999999980319128,5.999999031565032,3.1415915411910196,0.0,15.999991329886099,5.99998983883457,3.1415900067996674,4.697903036495103e-06
1759830092.1570997,2,-1.3732909426531761e-06,5.999995647933647,3.141591278806646,0.0,7.999999980319128,5.999999031565032,3.1415915411910196,0.0,15.999991329442127,5.999989838832399,3.141590011224416,4.697903036495103e-06
1759830092.1845434,2,-1.3732909426531761e-06,5.999995647933647,3.141591278806646,0.0,7.999999980319128,5.999999031565032,3.1415915411910196,0.0,15.999991312262642,5.999990439017505,3.1415899942471093,4.354677243863142e-06
1759830092.2003176,2,-1.3732909426531761e-06,5.999995647933647,3.141591278806646,0.0,7.999999980319128,5.999999031565032,3.1415915411910196,0.0,15.99999132379981,5.9999906641491245,3.1415900027072183,4.354677243863142e-06
1759830092.2137306,2,-1.3732909426531761e-06,5.999995647933647,3.141591278806646,0.0,7.999999980319128,5.999999031565032,3.1415915411910196,0.0,15.999991332134254,5.999990750141739,3.1415900147285623,4.354677243863142e-06
1759830092.2275393,2,-1.3732909426531761e-06,5.999995647933647,3.141591278806646,0.0,7.999999980319128,5.999999031565032,3.1415915411910196,0.0,15.99999133465942,5.999990782987997,3.141590023732924,4.354677243863142e-06
1759830092.241958,2,-1.3732909426531761e-06,5.999995647933647,3.141591278806646,0.0,7.999999980319128,5.999999031565032,3.1415915411910196,0.0,15.999991334609522,5.999990795534154,3.1415900300441617,4.354677243863142e-06
1759830092.2558239,2,-1.3732909426531761e-06,5.999995647933647,3.141591278806646,0.0,7.999999980319128,5.999999031565032,3.1415915411910196,0.0,15.999991335509712,5.999990800326356,3.1415900359920634,4.354677243863142e-06
1759830092.2723293,2,-1.3732909426531761e-06,5.999995647933647,3.141591278806646,0.0,7.999999980319128,5.999999031565032,3.1415915411910196,0.0,15.99999133146312,5.999990802156825,3.1415900379273918,4.354677243863142e-06
1759830092.286527,2,-1.3732909426531761e-06,5.999995647933647,3.141591278806646,0.0,7.999999980319128,5.999999031565032,3.1415915411910196,0.0,15.999991333756265,5.999990802855992,3.141590042810572,4.354677243863142e-06
1759830092.2998362,2,-1.3732909426531761e-06,5.999995647933647,3.141591278806646,0.0,7.999999980319128,5.999999031565032,3.1415915411910196,0.0,15.99999133610979,5.999990803123046,3.141590048193377,4.354677243863142e-06
1759830092.3138797,2,-1.3732909426531761e-06,5.999995647933647,3.141591278806646,0.0,7.999999980319128,5.999999031565032,3.1415915411910196,0.0,15.999991335787321,5.999990803225054,3.1415900519464923,4.354677243863142e-06
