timestamp,vehicle_id,x,y,theta,velocity,gps_available,dt,gps_x,gps_y,gps_theta,gps_velocity,control_steering,control_acceleration
1759830088.9355898,2,16.0,6.0,-0.05483113549895435,0.0,False,0.01,nan,nan,nan,nan,0.0,0.0
1759830088.9464552,2,16.0,6.0,-0.05483113549895435,0.0,False,0.010865449905395508,nan,nan,nan,nan,0.0,0.0
1759830088.9565125,2,16.0,6.0,-0.05483113549895435,0.0,False,0.010057210922241211,nan,nan,nan,nan,0.0,0.0
1759830088.9673665,2,16.0,6.0,-0.05483113549895435,0.0,False,0.010854005813598633,nan,nan,nan,nan,0.0,0.0
1759830088.9784768,2,16.0,6.0,-0.05483113549895435,0.0,False,0.011110305786132812,nan,nan,nan,nan,0.0,0.0
1759830088.9900665,2,16.0,6.0,-0.05483113549895435,0.0,False,0.011589765548706055,nan,nan,nan,nan,0.0,0.0
1759830089.0005164,2,16.0,6.0,-0.05483113549895435,0.0,False,0.010449886322021484,nan,nan,nan,nan,0.0,0.0
1759830089.0113025,2,16.0,6.0,-0.05483113549895435,0.0,False,0.010786056518554688,nan,nan,nan,nan,0.0,0.0
1759830089.0219305,2,16.0,6.0,-0.05483113549895435,0.0,False,0.010627985000610352,nan,nan,nan,nan,0.0,0.0
1759830089.0332234,2,16.0,6.0,-0.05483113549895435,0.0,False,0.01129293441772461,nan,nan,nan,nan,0.0,0.0
1759830089.0435772,2,16.0,6.0,-0.05483113549895435,0.0,False,0.010353803634643555,nan,nan,nan,nan,0.0,0.0
1759830089.0539284,2,16.0,6.0,-0.05483113549895435,0.0,False,0.010351181030273438,nan,nan,nan,nan,0.0,0.0
1759830089.0642455,2,16.0,6.0,-0.05483113549895435,0.0,False,0.010317087173461914,nan,nan,nan,nan,0.0,0.0
1759830089.0757093,2,16.0,6.0,-0.05483113549895435,0.0,False,0.01146388053894043,nan,nan,nan,nan,0.0,0.0
1759830089.0857177,2,16.0,6.0,-0.05483113549895435,0.0,False,0.01000833511352539,nan,nan,nan,nan,0.0,0.0
1759830089.0971365,2,16.0,6.0,-0.05483113549895435,0.0,False,0.011418819427490234,nan,nan,nan,nan,0.0,0.0
1759830089.1076438,2,16.0,6.0,-0.05483113549895435,0.0,False,0.010507345199584961,nan,nan,nan,nan,0.0,0.0
1759830089.1183553,2,16.0,6.0,-0.05483113549895435,0.0,False,0.010711431503295898,nan,nan,nan,nan,0.0,0.0
1759830089.1356304,2,15.999989597002665,5.999987705548604,-2.8798532300155895,0.0,True,0.017275094985961914,15.99998950958252,5.999987602233887,3.141590118408203,0.0,0.0,0.0
1759830089.1471684,2,15.999989538803739,5.999987636768054,-3.1213776672497637,0.0,True,0.011538028717041016,15.99998950958252,5.999987602233887,3.141590118408203,0.0,0.0,0.0
1759830089.158161,2,15.999989520544293,5.999987615188711,3.139118717085182,0.0,True,0.01099252700805664,15.99998950958252,5.999987602233887,3.141590118408203,0.0,0.0,0.0
1759830089.1686683,2,15.99998951375864,5.999987607169303,3.136285146685182,0.0,True,0.010507345199584961,15.99998950958252,5.999987602233887,3.141590118408203,0.0,0.0,0.0
1759830089.1787271,2,15.99998951117705,5.999987604118332,3.1360483078734074,0.0,True,0.010058879852294922,15.99998950958252,5.999987602233887,3.141590118408203,0.0,0.0,0.0
1759830089.1901157,2,15.999989510191542,5.999987602953641,3.1362540010045468,0.0,True,0.011388540267944336,15.99998950958252,5.999987602233887,3.141590118408203,0.0,0.0,0.0
1759830089.2015395,2,15.999989509815144,5.999987602508806,3.1367743023146897,0.0,True,0.011423826217651367,15.99998950958252,5.999987602233887,3.141590118408203,0.0,0.0,0.0
1759830089.211906,2,15.999989509671375,5.999987602338897,3.137437811715982,0.0,True,0.010366439819335938,15.99998950958252,5.999987602233887,3.141590118408203,0.0,0.0,0.0
1759830089.222373,2,15.999989509616459,5.999987602273997,3.1379868548438186,0.0,True,0.010467052459716797,15.99998950958252,5.999987602233887,3.141590118408203,0.0,0.0,0.0
1759830089.2333286,2,15.999989509595483,5.999987602249208,3.138410346740107,0.0,True,0.010955572128295898,15.99998950958252,5.999987602233887,3.141590118408203,0.0,0.0,0.0
1759830089.2442224,2,15.999989509587472,5.999987602239739,3.1387766875315997,0.0,True,0.010893821716308594,15.99998950958252,5.999987602233887,3.141590118408203,0.0,0.0,0.0
1759830089.2543752,2,15.999989509584411,5.999987602236122,3.139120595458996,0.0,True,0.010152816772460938,15.99998950958252,5.999987602233887,3.141590118408203,0.0,0.0,0.0
1759830089.264535,2,15.999989509583243,5.99998760223474,3.1393954627834404,0.0,True,0.010159730911254883,15.99998950958252,5.999987602233887,3.141590118408203,0.0,0.0,0.0
1759830089.2748294,2,15.999989509582795,5.999987602234213,3.1396126662963866,0.0,True,0.010294437408447266,15.99998950958252,5.999987602233887,3.141590118408203,0.0,0.0,0.0
1759830089.2862775,2,15.999989509582624,5.999987602234011,3.1397538828854223,0.0,True,0.011448144912719727,15.99998950958252,5.999987602233887,3.141590118408203,0.0,0.0,0.0
1759830089.2972798,2,15.99998950958256,5.999987602233934,3.1399031620737112,0.0,True,0.011002302169799805,15.99998950958252,5.999987602233887,3.141590118408203,0.0,0.0,0.0
1759830089.3082817,2,15.999989509582536,5.9999876022339045,3.140038302217473,0.0,True,0.011001825332641602,15.99998950958252,5.999987602233887,3.141590118408203,0.0,0.0,0.0
1759830089.319225,2,15.999989509582525,5.999987602233894,3.140160129244048,0.0,True,0.010943412780761719,15.99998950958252,5.999987602233887,3.141590118408203,0.0,0.0,0.0
1759830089.3388193,2,15.999990600487424,5.999988486465246,3.1400621398351944,1.174475759123776e-05,True,0.019594192504882812,15.999991416931152,5.999989032745361,3.141590118408203,1.174475759123776e-05,0.0,0.0
1759830089.3492148,2,15.999991058442097,5.999988824155496,3.140256104552103,1.174475759123776e-05,True,0.010395526885986328,15.999991416931152,5.999989032745361,3.141590118408203,1.174475759123776e-05,0.0,0.0
1759830089.3596282,2,15.999991233284986,5.999988953132913,3.14041575504317,1.174475759123776e-05,True,0.010413408279418945,15.999991416931152,5.999989032745361,3.141590118408203,1.174475759123776e-05,0.0,0.0
1759830089.3706603,2,15.999991297293489,5.999989002393893,3.1405241915970628,1.174475759123776e-05,True,0.0110321044921875,15.999991416931152,5.999989032745361,3.141590118408203,1.174475759123776e-05,0.0,0.0
1759830089.3814316,2,15.999991322912663,5.999989021203381,3.1406150145148057,1.174475759123776e-05,True,0.01077127456665039,15.999991416931152,5.999989032745361,3.141590118408203,1.174475759123776e-05,0.0,0.0
1759830089.3918235,2,15.999991334399995,5.999989028381967,3.1406957007308804,1.174475759123776e-05,True,0.010391950607299805,15.999991416931152,5.999989032745361,3.141590118408203,1.174475759123776e-05,0.0,0.0
1759830089.4026532,2,15.999991336824035,5.999989031122023,3.1407543677120753,1.174475759123776e-05,True,0.010829687118530273,15.999991416931152,5.999989032745361,3.141590118408203,1.174475759123776e-05,0.0,0.0
1759830089.4132423,2,15.999991338829128,5.9999890321649,3.1408083469022188,1.174475759123776e-05,True,0.010589122772216797,15.999991416931152,5.999989032745361,3.141590118408203,1.174475759123776e-05,0.0,0.0
1759830089.4237943,2,15.999991339761856,5.999989032560578,3.14085561345558,1.174475759123776e-05,True,0.010551929473876953,15.999991416931152,5.999989032745361,3.141590118408203,1.174475759123776e-05,0.0,0.0
1759830089.4347916,2,15.99999133812017,5.999989032710993,3.140890524589503,1.174475759123776e-05,True,0.010997295379638672,15.999991416931152,5.999989032745361,3.141590118408203,1.174475759123776e-05,0.0,0.0
1759830089.4458914,2,15.999991337033187,5.999989032767062,3.1409216360341645,1.174475759123776e-05,True,0.011099815368652344,15.999991416931152,5.999989032745361,3.141590118408203,1.174475759123776e-05,0.0,0.0
1759830089.4570696,2,15.999991336266106,5.999989032787174,3.140950550568924,1.174475759123776e-05,True,0.011178255081176758,15.999991416931152,5.999989032745361,3.141590118408203,1.174475759123776e-05,0.0,0.0
1759830089.4675057,2,15.999991339302674,5.999989032791242,3.1409877477783876,1.174475759123776e-05,True,0.010436058044433594,15.999991416931152,5.999989032745361,3.141590118408203,1.174475759123776e-05,0.0,0.0
1759830089.477517,2,15.999991342368512,5.999989032789905,3.1410257331181306,1.174475759123776e-05,True,0.01001119613647461,15.999991416931152,5.999989032745361,3.141590118408203,1.174475759123776e-05,0.0,0.0
1759830089.4878783,2,15.999991341968359,5.999989032788614,3.141053958093609,1.174475759123776e-05,True,0.010361433029174805,15.999991416931152,5.999989032745361,3.141590118408203,1.174475759123776e-05,0.0,0.0
1759830089.499254,2,15.999991337265568,5.999989032789312,3.1410677359729995,1.174475759123776e-05,True,0.011375665664672852,15.999991416931152,5.999989032745361,3.141590118408203,1.174475759123776e-05,0.0,0.0
1759830089.510208,2,15.999991337361328,5.99998903278786,3.1410873930215306,1.174475759123776e-05,True,0.010953903198242188,15.999991416931152,5.999989032745361,3.141590118408203,1.174475759123776e-05,0.0,0.0
1759830089.5207052,2,15.99999133944613,5.9999890327852885,3.1411117358751746,1.174475759123776e-05,True,0.010497331619262695,15.999991416931152,5.999989032745361,3.141590118408203,1.174475759123776e-05,0.0,0.0
1759830089.534842,2,15.999991346247075,5.999988148675703,3.141099386460599,7.609103588343616e-06,True,0.014136791229248047,15.999991416931152,5.999987602233887,3.141590118408203,7.609103588343616e-06,0.0,0.0
1759830089.5451488,2,15.99999135997626,5.9999878109707785,3.141131692447223,7.609103588343616e-06,True,0.010306835174560547,15.999991416931152,5.999987602233887,3.141590118408203,7.609103588343616e-06,0.0,0.0
1759830089.5563595,2,15.99999136259339,5.999987681979243,3.141153301377173,7.609103588343616e-06,True,0.01121068000793457,15.999991416931152,5.999987602233887,3.141590118408203,7.609103588343616e-06,0.0,0.0
1759830089.5674698,2,15.999991363884774,5.999987632708033,3.1411734992572633,7.609103588343616e-06,True,0.011110305786132812,15.999991416931152,5.999987602233887,3.141590118408203,7.609103588343616e-06,0.0,0.0
1759830089.5787327,2,15.999991363934555,5.9999876138876465,3.1411908467132044,7.609103588343616e-06,True,0.011262893676757812,15.999991416931152,5.999987602233887,3.141590118408203,7.609103588343616e-06,0.0,0.0
1759830089.5895913,2,15.999991365128801,5.999987606697855,3.141210321592869,7.609103588343616e-06,True,0.010858535766601562,15.999991416931152,5.999987602233887,3.141590118408203,7.609103588343616e-06,0.0,0.0
1759830089.6010451,2,15.999991363854681,5.99998760395166,3.1412235793944845,7.609103588343616e-06,True,0.011453866958618164,15.999991416931152,5.999987602233887,3.141590118408203,7.609103588343616e-06,0.0,0.0
1759830089.6115437,2,15.999991366144638,5.999987602901227,3.1412433669208433,7.609103588343616e-06,True,0.010498523712158203,15.999991416931152,5.999987602233887,3.141590118408203,7.609103588343616e-06,0.0,0.0
1759830089.6216478,2,15.999991368165453,5.999987602498994,3.1412636167715817,7.609103588343616e-06,True,0.010104179382324219,15.999991416931152,5.999987602233887,3.141590118408203,7.609103588343616e-06,0.0,0.0
1759830089.632408,2,15.999991367031045,5.999987602345404,3.1412764251454526,7.609103588343616e-06,True,0.010760068893432617,15.999991416931152,5.999987602233887,3.141590118408203,7.609103588343616e-06,0.0,0.0
1759830089.6428323,2,15.999991367573406,5.999987602286027,3.141290233835713,7.609103588343616e-06,True,0.010424375534057617,15.999991416931152,5.999987602233887,3.141590118408203,7.609103588343616e-06,0.0,0.0
1759830089.6532147,2,15.999991367902528,5.999987602262895,3.1413030481261224,7.609103588343616e-06,True,0.010382413864135742,15.999991416931152,5.999987602233887,3.141590118408203,7.609103588343616e-06,0.0,0.0
1759830089.6633856,2,15.999991368642883,5.999987602253495,3.141315911797083,7.609103588343616e-06,True,0.010170936584472656,15.999991416931152,5.999987602233887,3.141590118408203,7.609103588343616e-06,0.0,0.0
1759830089.674818,2,15.999991365259305,5.99998760225056,3.141320143841339,7.609103588343616e-06,True,0.011432409286499023,15.999991416931152,5.999987602233887,3.141590118408203,7.609103588343616e-06,0.0,0.0
1759830089.685273,2,15.999991366807965,5.999987602248507,3.1413309344992832,7.609103588343616e-06,True,0.010454893112182617,15.999991416931152,5.999987602233887,3.141590118408203,7.609103588343616e-06,0.0,0.0
1759830089.6963685,2,15.999991365537559,5.9999876022478915,3.141337867544525,7.609103588343616e-06,True,0.011095523834228516,15.999991416931152,5.999987602233887,3.141590118408203,7.609103588343616e-06,0.0,0.0
1759830089.7067466,2,15.999991367137376,5.999987602246892,3.1413487773362476,7.609103588343616e-06,True,0.010378122329711914,15.999991416931152,5.999987602233887,3.141590118408203,7.609103588343616e-06,0.0,0.0
1759830089.7171543,2,15.999991367662526,5.999987602246206,3.1413587194061154,7.609103588343616e-06,True,0.010407686233520508,15.999991416931152,5.999987602233887,3.141590118408203,7.609103588343616e-06,0.0,0.0
1759830089.7344143,2,15.999991382626133,5.999987896943818,3.1413353955705396,2.3489515182370277e-06,True,0.017260074615478516,15.999991416931152,5.999988079071045,3.141590118408203,2.3489515182370277e-06,0.0,0.0
1759830089.7396154,2,15.99999139916127,5.999988009505817,3.141376721297183,2.3489515182370277e-06,True,0.005201101303100586,15.999991416931152,5.999988079071045,3.141590118408203,2.3489515182370277e-06,0.0,0.0
1759830089.7500095,2,15.999991400817875,5.999988052501498,3.1413868289398117,2.3489515182370277e-06,True,0.010394096374511719,15.999991416931152,5.999988079071045,3.141590118408203,2.3489515182370277e-06,0.0,0.0
1759830089.7604938,2,15.999991401369781,5.999988068924312,3.1413935964867186,2.3489515182370277e-06,True,0.01048421859741211,15.999991416931152,5.999988079071045,3.141590118408203,2.3489515182370277e-06,0.0,0.0
1759830089.770988,2,15.999991401571606,5.999988075197207,3.141399910763223,2.3489515182370277e-06,True,0.010494232177734375,15.999991416931152,5.999988079071045,3.141590118408203,2.3489515182370277e-06,0.0,0.0
1759830089.7815602,2,15.999991401578747,5.999988077593194,3.141405743851159,2.3489515182370277e-06,True,0.010572195053100586,15.999991416931152,5.999988079071045,3.141590118408203,2.3489515182370277e-06,0.0,0.0
1759830089.7925127,2,15.999991401240282,5.999988078508389,3.141410037777071,2.3489515182370277e-06,True,0.010952472686767578,15.999991416931152,5.999988079071045,3.141590118408203,2.3489515182370277e-06,0.0,0.0
1759830089.8033564,2,15.999991401208545,5.999988078857902,3.1414151296867274,2.3489515182370277e-06,True,0.010843753814697266,15.999991416931152,5.999988079071045,3.141590118408203,2.3489515182370277e-06,0.0,0.0
1759830089.814743,2,15.999991400709341,5.999988078991442,3.1414184696157257,2.3489515182370277e-06,True,0.011386632919311523,15.999991416931152,5.999988079071045,3.141590118408203,2.3489515182370277e-06,0.0,0.0
1759830089.824996,2,15.999991401535821,5.999988079042235,3.1414264423661002,2.3489515182370277e-06,True,0.010252952575683594,15.999991416931152,5.999988079071045,3.141590118408203,2.3489515182370277e-06,0.0,0.0
1759830089.8366058,2,15.999991400634125,5.99998807906177,3.14142917185157,2.3489515182370277e-06,True,0.011609792709350586,15.999991416931152,5.999988079071045,3.141590118408203,2.3489515182370277e-06,0.0,0.0
1759830089.8472402,2,15.999991401164829,5.999988079069056,3.141435662784758,2.3489515182370277e-06,True,0.010634422302246094,15.999991416931152,5.999988079071045,3.141590118408203,2.3489515182370277e-06,0.0,0.0
1759830089.8581166,2,15.999991401150417,5.999988079071813,3.1414411051644784,2.3489515182370277e-06,True,0.01087641716003418,15.999991416931152,5.999988079071045,3.141590118408203,2.3489515182370277e-06,0.0,0.0
1759830089.8686128,2,15.999991401486104,5.99998807907276,3.1414474425142345,2.3489515182370277e-06,True,0.010496139526367188,15.999991416931152,5.999988079071045,3.141590118408203,2.3489515182370277e-06,0.0,0.0
1759830089.8795457,2,15.999991401222436,5.999988079073121,3.1414519573203457,2.3489515182370277e-06,True,0.01093292236328125,15.999991416931152,5.999988079071045,3.141590118408203,2.3489515182370277e-06,0.0,0.0
1759830089.889757,2,15.999991401769242,5.9999880790731215,3.1414583910107385,2.3489515182370277e-06,True,0.01021122932434082,15.999991416931152,5.999988079071045,3.141590118408203,2.3489515182370277e-06,0.0,0.0
1759830089.900427,2,15.999991401566318,5.99998807907312,3.1414629050596012,2.3489515182370277e-06,True,0.010670185089111328,15.999991416931152,5.999988079071045,3.141590118408203,2.3489515182370277e-06,0.0,0.0
1759830089.9107277,2,15.999991401820376,5.999988079073033,3.141468120249936,2.3489515182370277e-06,True,0.010300636291503906,15.999991416931152,5.999988079071045,3.141590118408203,2.3489515182370277e-06,0.0,0.0
1759830089.9216983,2,15.999991401316318,5.999988079073027,3.1414711798674873,2.3489515182370277e-06,True,0.010970592498779297,15.999991416931152,5.999988079071045,3.141590118408203,2.3489515182370277e-06,0.0,0.0
1759830089.9393947,2,15.999991363334196,5.9999889631823535,3.1414580929865004,7.046854554742655e-06,True,0.017696380615234375,15.999991416931152,5.9999895095825195,3.141590118408203,7.046854554742655e-06,0.0,0.0
1759830089.949845,2,15.999991368330123,5.99998930087999,3.14146735876675,7.046854554742655e-06,True,0.010450363159179688,15.999991416931152,5.9999895095825195,3.141590118408203,7.046854554742655e-06,0.0,0.0
1759830089.9607944,2,15.999991368895232,5.999989429868919,3.1414750515075944,7.046854554742655e-06,True,0.010949373245239258,15.999991416931152,5.9999895095825195,3.141590118408203,7.046854554742655e-06,0.0,0.0
1759830089.97119,2,15.999991370601851,5.999989479137906,3.1414826170324623,7.046854554742655e-06,True,0.010395526885986328,15.999991416931152,5.9999895095825195,3.141590118408203,7.046854554742655e-06,0.0,0.0
1759830089.9817061,2,15.999991370929001,5.999989497956812,3.1414885985010983,7.046854554742655e-06,True,0.010516166687011719,15.999991416931152,5.9999895095825195,3.141590118408203,7.046854554742655e-06,0.0,0.0
1759830089.9921079,2,15.999991371361997,5.999989505144795,3.1414938365306497,7.046854554742655e-06,True,0.010401725769042969,15.999991416931152,5.9999895095825195,3.141590118408203,7.046854554742655e-06,0.0,0.0
1759830090.0030942,2,15.999991369953836,5.999989507890373,3.1414971773028757,7.046854554742655e-06,True,0.010986328125,15.999991416931152,5.9999895095825195,3.141590118408203,7.046854554742655e-06,0.0,0.0
1759830090.0146053,2,15.999991368003494,5.999989508939129,3.141499314793643,7.046854554742655e-06,True,0.011511087417602539,15.999991416931152,5.9999895095825195,3.141590118408203,7.046854554742655e-06,0.0,0.0
1759830090.025988,2,15.999991367603785,5.99998950933962,3.141501904755474,7.046854554742655e-06,True,0.011382818222045898,15.999991416931152,5.9999895095825195,3.141590118408203,7.046854554742655e-06,0.0,0.0
1759830090.036239,2,15.9999913704981,5.999989509492233,3.1415066015909083,7.046854554742655e-06,True,0.01025080680847168,15.999991416931152,5.9999895095825195,3.141590118408203,7.046854554742655e-06,0.0,0.0
1759830090.0473464,2,15.999991369297852,5.999989509550599,3.141509287723924,7.046854554742655e-06,True,0.011107444763183594,15.999991416931152,5.9999895095825195,3.141590118408203,7.046854554742655e-06,0.0,0.0
1759830090.0581148,2,15.999991369751955,5.999989509572735,3.1415123889213916,7.046854554742655e-06,True,0.010768413543701172,15.999991416931152,5.9999895095825195,3.141590118408203,7.046854554742655e-06,0.0,0.0
1759830090.0681684,2,15.999991371849347,5.999989509580945,3.1415164304496592,7.046854554742655e-06,True,0.010053634643554688,15.999991416931152,5.9999895095825195,3.141590118408203,7.046854554742655e-06,0.0,0.0
1759830090.0789962,2,15.999991370566745,5.999989509584133,3.141518752421467,7.046854554742655e-06,True,0.010827779769897461,15.999991416931152,5.9999895095825195,3.141590118408203,7.046854554742655e-06,0.0,0.0
1759830090.089929,2,15.999991369793827,5.999989509585306,3.141520790633507,7.046854554742655e-06,True,0.01093292236328125,15.999991416931152,5.9999895095825195,3.141590118408203,7.046854554742655e-06,0.0,0.0
1759830090.1003346,2,15.999991370918131,5.99998950958559,3.1415236093236754,7.046854554742655e-06,True,0.010405540466308594,15.999991416931152,5.9999895095825195,3.141590118408203,7.046854554742655e-06,0.0,0.0
1759830090.110958,2,15.999991370761025,5.999989509585661,3.1415259141895557,7.046854554742655e-06,True,0.010623455047607422,15.999991416931152,5.9999895095825195,3.141590118408203,7.046854554742655e-06,0.0,0.0
1759830090.1224556,2,15.999991368348391,5.999989509585782,3.141526917571527,7.046854554742655e-06,True,0.01149749755859375,15.999991416931152,5.9999895095825195,3.141590118408203,7.046854554742655e-06,0.0,0.0
1759830090.1417644,2,15.999991398374188,5.9999895095837665,3.1415184139950068,0.0,True,0.019308805465698242,15.999991416931152,5.9999895095825195,3.141590118408203,0.0,0.0,0.0
1759830090.1531248,2,15.999991409843023,5.999989509582996,3.1415230134350303,0.0,True,0.011360406875610352,15.999991416931152,5.9999895095825195,3.141590118408203,0.0,0.0,0.0
1759830090.1646492,2,15.999991414223729,5.999989509582702,3.141527416603468,0.0,True,0.011524438858032227,15.999991416931152,5.9999895095825195,3.141590118408203,0.0,0.0,0.0
1759830090.1757195,2,15.999991415897009,5.999989509582589,3.141531600654611,0.0,True,0.01107025146484375,15.999991416931152,5.9999895095825195,3.141590118408203,0.0,0.0,0.0
1759830090.1861339,2,15.999991416536144,5.999989509582546,3.1415357562464923,0.0,True,0.010414361953735352,15.999991416931152,5.9999895095825195,3.141590118408203,0.0,0.0,0.0
1759830090.1974905,2,15.999991416780272,5.999989509582529,3.1415381631798827,0.0,True,0.011356592178344727,15.999991416931152,5.9999895095825195,3.141590118408203,0.0,0.0,0.0
1759830090.207568,2,15.999991416873522,5.999989509582523,3.141541526520257,0.0,True,0.010077476501464844,15.999991416931152,5.9999895095825195,3.141590118408203,0.0,0.0,0.0
1759830090.2190208,2,15.99999141690914,5.999989509582521,3.141543016219865,0.0,True,0.011452913284301758,15.999991416931152,5.9999895095825195,3.141590118408203,0.0,0.0,0.0
1759830090.229561,2,15.999991416922745,5.99998950958252,3.1415452665437105,0.0,True,0.010540246963500977,15.999991416931152,5.9999895095825195,3.141590118408203,0.0,0.0,0.0
1759830090.239707,2,15.99999141692794,5.9999895095825195,3.141547636819473,0.0,True,0.010145902633666992,15.999991416931152,5.9999895095825195,3.141590118408203,0.0,0.0,0.0
1759830090.250623,2,15.999991416929925,5.9999895095825195,3.1415489887014623,0.0,True,0.010915994644165039,15.999991416931152,5.9999895095825195,3.141590118408203,0.0,0.0,0.0
1759830090.2610157,2,15.999991416930683,5.9999895095825195,3.1415506997725,0.0,True,0.01039266586303711,15.999991416931152,5.9999895095825195,3.141590118408203,0.0,0.0,0.0
1759830090.2712667,2,15.999991416930973,5.9999895095825195,3.141552376625029,0.0,True,0.010251045227050781,15.999991416931152,5.9999895095825195,3.141590118408203,0.0,0.0,0.0
1759830090.2818713,2,15.999991416931083,5.9999895095825195,3.1415535903202976,0.0,True,0.010604619979858398,15.999991416931152,5.9999895095825195,3.141590118408203,0.0,0.0,0.0
1759830090.2927866,2,15.999991416931126,5.9999895095825195,3.141554501179497,0.0,True,0.010915279388427734,15.999991416931152,5.9999895095825195,3.141590118408203,0.0,0.0,0.0
1759830090.3040462,2,15.999991416931142,5.9999895095825195,3.1415551980444736,0.0,True,0.01125955581665039,15.999991416931152,5.9999895095825195,3.141590118408203,0.0,0.0,0.0
1759830090.3147645,2,15.999991416931149,5.9999895095825195,3.141556401282891,0.0,True,0.010718345642089844,15.999991416931152,5.9999895095825195,3.141590118408203,0.0,0.0,0.0
1759830090.3251736,2,15.99999141693115,5.9999895095825195,3.1415577943195245,0.0,True,0.010409116744995117,15.999991416931152,5.9999895095825195,3.141590118408203,0.0,0.0,0.0
1759830090.3389533,2,15.999990188671413,5.999989509584247,3.1415568212163194,9.395806072990207e-06,True,0.013779640197753906,15.99998950958252,5.9999895095825195,3.141590118408203,9.395806072990207e-06,0.0,0.0
1759830090.3502395,2,15.999989728466383,5.999989509584626,3.14155803805164,9.395806072990207e-06,True,0.011286258697509766,15.99998950958252,5.9999895095825195,3.141590118408203,9.395806072990207e-06,0.0,0.0
1759830090.360767,2,15.999989555407256,5.999989509584626,3.141559796288931,9.395806072990207e-06,True,0.010527372360229492,15.99998950958252,5.9999895095825195,3.141590118408203,9.395806072990207e-06,0.0,0.0
1759830090.3714764,2,15.99998948865083,5.999989509584583,3.14156121894991,9.395806072990207e-06,True,0.010709524154663086,15.99998950958252,5.9999895095825195,3.141590118408203,9.395806072990207e-06,0.0,0.0
1759830090.3818562,2,15.999989464335515,5.999989509584474,3.1415626494909095,9.395806072990207e-06,True,0.010379791259765625,15.99998950958252,5.9999895095825195,3.141590118408203,9.395806072990207e-06,0.0,0.0
1759830090.3921983,2,15.999989455183085,5.999989509584376,3.14156391258183,9.395806072990207e-06,True,0.010342121124267578,15.99998950958252,5.9999895095825195,3.141590118408203,9.395806072990207e-06,0.0,0.0
1759830090.4032295,2,15.999989449214324,5.999989509584364,3.1415646426292447,9.395806072990207e-06,True,0.011031150817871094,15.99998950958252,5.9999895095825195,3.141590118408203,9.395806072990207e-06,0.0,0.0
1759830090.4147346,2,15.999989445233417,5.999989509584379,3.1415651186778817,9.395806072990207e-06,True,0.011505126953125,15.99998950958252,5.9999895095825195,3.141590118408203,9.395806072990207e-06,0.0,0.0
1759830090.425233,2,15.999989447326278,5.999989509584264,3.141566196763492,9.395806072990207e-06,True,0.010498285293579102,15.99998950958252,5.9999895095825195,3.141590118408203,9.395806072990207e-06,0.0,0.0
1759830090.4360504,2,15.999989446979958,5.999989509584211,3.1415670430538576,9.395806072990207e-06,True,0.010817527770996094,15.99998950958252,5.9999895095825195,3.141590118408203,9.395806072990207e-06,0.0,0.0
1759830090.4473844,2,15.999989444994325,5.999989509584205,3.1415675937190315,9.395806072990207e-06,True,0.011333942413330078,15.99998950958252,5.9999895095825195,3.141590118408203,9.395806072990207e-06,0.0,0.0
1759830090.4576392,2,15.999989448108577,5.999989509584083,3.1415686757828674,9.395806072990207e-06,True,0.010254859924316406,15.99998950958252,5.9999895095825195,3.141590118408203,9.395806072990207e-06,0.0,0.0
1759830090.4685578,2,15.999989446915972,5.999989509584054,3.141569356407686,9.395806072990207e-06,True,0.010918617248535156,15.99998950958252,5.9999895095825195,3.141590118408203,9.395806072990207e-06,0.0,0.0
1759830090.4789455,2,15.999989448365982,5.999989509583972,3.141570231163996,9.395806072990207e-06,True,0.010387659072875977,15.99998950958252,5.9999895095825195,3.141590118408203,9.395806072990207e-06,0.0,0.0
1759830090.4892914,2,15.999989449069576,5.999989509583904,3.1415710465694726,9.395806072990207e-06,True,0.010345935821533203,15.99998950958252,5.9999895095825195,3.141590118408203,9.395806072990207e-06,0.0,0.0
1759830090.5003154,2,15.999989446904841,5.9999895095839015,3.141571510108898,9.395806072990207e-06,True,0.011023998260498047,15.99998950958252,5.9999895095825195,3.141590118408203,9.395806072990207e-06,0.0,0.0
1759830090.5106478,2,15.999989448560243,5.999989509583829,3.141572258655966,9.395806072990207e-06,True,0.010332345962524414,15.99998950958252,5.9999895095825195,3.141590118408203,9.395806072990207e-06,0.0,0.0
1759830090.5207,2,15.999989450197944,5.999989509583753,3.1415730598933163,9.395806072990207e-06,True,0.010052204132080078,15.99998950958252,5.9999895095825195,3.141590118408203,9.395806072990207e-06,0.0,0.0
1759830090.5356178,2,15.999990607895883,5.999989509584129,3.1415720217958096,1.0145471451124822e-05,True,0.014917850494384766,15.999991416931152,5.9999895095825195,3.141590118408203,1.0145471451124822e-05,0.0,0.0
1759830090.5431955,2,15.999991078542047,5.9999895095837354,3.1415739868154553,1.0145471451124822e-05,True,0.007577657699584961,15.999991416931152,5.9999895095825195,3.141590118408203,1.0145471451124822e-05,0.0,0.0
1759830090.5544095,2,15.99999124422117,5.999989509583793,3.141574401458591,1.0145471451124822e-05,True,0.011214017868041992,15.999991416931152,5.9999895095825195,3.141590118408203,1.0145471451124822e-05,0.0,0.0
1759830090.5648398,2,15.999991310541906,5.999989509583742,3.1415750119957533,1.0145471451124822e-05,True,0.010430335998535156,15.999991416931152,5.9999895095825195,3.141590118408203,1.0145471451124822e-05,0.0,0.0
1759830090.5762367,2,15.99999133212858,5.999989509583765,3.1415752809130097,1.0145471451124822e-05,True,0.01139688491821289,15.999991416931152,5.9999895095825195,3.141590118408203,1.0145471451124822e-05,0.0,0.0
1759830090.5865993,2,15.999991344381945,5.99998950958369,3.141575912231435,1.0145471451124822e-05,True,0.010362625122070312,15.999991416931152,5.9999895095825195,3.141590118408203,1.0145471451124822e-05,0.0,0.0
1759830090.598155,2,15.99999134443899,5.999989509583716,3.1415761503445037,1.0145471451124822e-05,True,0.011555671691894531,15.999991416931152,5.9999895095825195,3.141590118408203,1.0145471451124822e-05,0.0,0.0
1759830090.6095102,2,15.9999913452378,5.999989509583702,3.141576495211055,1.0145471451124822e-05,True,0.011355161666870117,15.999991416931152,5.9999895095825195,3.141590118408203,1.0145471451124822e-05,0.0,0.0
1759830090.619517,2,15.999991350767719,5.999989509583595,3.1415772466775778,1.0145471451124822e-05,True,0.010006904602050781,15.999991416931152,5.9999895095825195,3.141590118408203,1.0145471451124822e-05,0.0,0.0
1759830090.6301692,2,15.999991350379817,5.999989509583565,3.1415777334591795,1.0145471451124822e-05,True,0.01065206527709961,15.999991416931152,5.9999895095825195,3.141590118408203,1.0145471451124822e-05,0.0,0.0
1759830090.6404917,2,15.999991351508518,5.999989509583513,3.141578256725756,1.0145471451124822e-05,True,0.01032257080078125,15.999991416931152,5.9999895095825195,3.141590118408203,1.0145471451124822e-05,0.0,0.0
1759830090.6505427,2,15.999991352991994,5.999989509583458,3.141578796443394,1.0145471451124822e-05,True,0.01005101203918457,15.999991416931152,5.9999895095825195,3.141590118408203,1.0145471451124822e-05,0.0,0.0
1759830090.6619363,2,15.999991348356007,5.999989509583489,3.141578948757976,1.0145471451124822e-05,True,0.011393547058105469,15.999991416931152,5.9999895095825195,3.141590118408203,1.0145471451124822e-05,0.0,0.0
1759830090.6722476,2,15.999991350778915,5.999989509583436,3.141579395931096,1.0145471451124822e-05,True,0.010311365127563477,15.999991416931152,5.9999895095825195,3.141590118408203,1.0145471451124822e-05,0.0,0.0
1759830090.6826181,2,15.99999135147525,5.9999895095834015,3.1415798064873126,1.0145471451124822e-05,True,0.010370492935180664,15.999991416931152,5.9999895095825195,3.141590118408203,1.0145471451124822e-05,0.0,0.0
1759830090.692876,2,15.99999135217732,5.999989509583366,3.141580207401322,1.0145471451124822e-05,True,0.010257959365844727,15.999991416931152,5.9999895095825195,3.141590118408203,1.0145471451124822e-05,0.0,0.0
1759830090.7029178,2,15.999991353283487,5.999989509583326,3.1415806194265024,1.0145471451124822e-05,True,0.01004171371459961,15.999991416931152,5.9999895095825195,3.141590118408203,1.0145471451124822e-05,0.0,0.0
1759830090.7132998,2,15.999991352387562,5.999989509583311,3.1415809193818163,1.0145471451124822e-05,True,0.010381937026977539,15.999991416931152,5.9999895095825195,3.141590118408203,1.0145471451124822e-05,0.0,0.0
1759830090.7240942,2,15.999991350446958,5.999989509583312,3.1415811227343244,1.0145471451124822e-05,True,0.010794401168823242,15.999991416931152,5.9999895095825195,3.141590118408203,1.0145471451124822e-05,0.0,0.0
1759830090.739674,2,15.999991349600569,5.99999039368802,3.1415804423701488,7.046854554711084e-06,True,0.015579938888549805,15.999991416931152,5.999990940093994,3.141590118408203,7.046854554711084e-06,0.0,0.0
1759830090.750679,2,15.999991361591654,5.999990731385844,3.1415808977511546,7.046854554711084e-06,True,0.011004924774169922,15.999991416931152,5.999990940093994,3.141590118408203,7.046854554711084e-06,0.0,0.0
1759830090.7616162,2,15.999991366354095,5.999990860374919,3.141581380605494,7.046854554711084e-06,True,0.010937213897705078,15.999991416931152,5.999990940093994,3.141590118408203,7.046854554711084e-06,0.0,0.0
1759830090.7724118,2,15.999991368554381,5.999990909644343,3.1415818267038684,7.046854554711084e-06,True,0.01079559326171875,15.999991416931152,5.999990940093994,3.141590118408203,7.046854554711084e-06,0.0,0.0
1759830090.7830193,2,15.99999136990115,5.99999092846357,3.14158224449805,7.046854554711084e-06,True,0.010607481002807617,15.999991416931152,5.999990940093994,3.141590118408203,7.046854554711084e-06,0.0,0.0
1759830090.7942991,2,15.999991368605858,5.9999909356518835,3.141582501870115,7.046854554711084e-06,True,0.011279821395874023,15.999991416931152,5.999990940093994,3.141590118408203,7.046854554711084e-06,0.0,0.0
1759830090.805488,2,15.999991368355603,5.999990938397564,3.1415827623205175,7.046854554711084e-06,True,0.011188983917236328,15.999991416931152,5.999990940093994,3.141590118408203,7.046854554711084e-06,0.0,0.0
1759830090.8158286,2,15.999991370543974,5.999990939446289,3.1415831403548786,7.046854554711084e-06,True,0.010340452194213867,15.999991416931152,5.999990940093994,3.141590118408203,7.046854554711084e-06,0.0,0.0
1759830090.8259945,2,15.999991371849612,5.999990939846852,3.1415834974682326,7.046854554711084e-06,True,0.010165929794311523,15.999991416931152,5.999990940093994,3.141590118408203,7.046854554711084e-06,0.0,0.0
1759830090.8362124,2,15.99999137220842,5.9999909399998455,3.14158379593451,7.046854554711084e-06,True,0.010217905044555664,15.999991416931152,5.999990940093994,3.141590118408203,7.046854554711084e-06,0.0,0.0
1759830090.8469214,2,15.999991371023485,5.999990940058288,3.1415839909400045,7.046854554711084e-06,True,0.010709047317504883,15.999991416931152,5.999990940093994,3.141590118408203,7.046854554711084e-06,0.0,0.0
1759830090.8581352,2,15.999991369212314,5.999990940080616,3.141584113225994,7.046854554711084e-06,True,0.01121377944946289,15.999991416931152,5.999990940093994,3.141590118408203,7.046854554711084e-06,0.0,0.0
1759830090.8691368,2,15.999991369091658,5.999990940089137,3.141584279841487,7.046854554711084e-06,True,0.0110015869140625,15.999991416931152,5.999990940093994,3.141590118408203,7.046854554711084e-06,0.0,0.0
1759830090.880183,2,15.999991368925567,5.999990940092387,3.1415844496143315,7.046854554711084e-06,True,0.011046171188354492,15.999991416931152,5.999990940093994,3.141590118408203,7.046854554711084e-06,0.0,0.0
1759830090.891759,2,15.999991367436175,5.999990940093635,3.141584562542457,7.046854554711084e-06,True,0.011575937271118164,15.999991416931152,5.999990940093994,3.141590118408203,7.046854554711084e-06,0.0,0.0
1759830090.9019427,2,15.999991370614408,5.9999909400940785,3.1415848499910943,7.046854554711084e-06,True,0.01018381118774414,15.999991416931152,5.999990940093994,3.141590118408203,7.046854554711084e-06,0.0,0.0
1759830090.913204,2,15.999991368928354,5.999990940094262,3.141584990778391,7.046854554711084e-06,True,0.011261224746704102,15.999991416931152,5.999990940093994,3.141590118408203,7.046854554711084e-06,0.0,0.0
1759830090.924595,2,15.99999136793459,5.999990940094332,3.1415851184624,7.046854554711084e-06,True,0.011391162872314453,15.999991416931152,5.999990940093994,3.141590118408203,7.046854554711084e-06,0.0,0.0
1759830090.9455714,2,15.999991345880082,5.999990055989808,3.1415843316372225,6.532015865794714e-06,True,0.02097630500793457,15.999991416931152,5.9999895095825195,3.141590118408203,6.532015865794714e-06,0.0,0.0
1759830090.959325,2,15.999991355476585,5.999989718291817,3.141584544083347,6.532015865794714e-06,True,0.013753652572631836,15.999991416931152,5.9999895095825195,3.141590118408203,6.532015865794714e-06,0.0,0.0
1759830090.9731846,2,15.999991358878006,5.999989589302658,3.14158481284419,6.532015865794714e-06,True,0.01385951042175293,15.999991416931152,5.9999895095825195,3.141590118408203,6.532015865794714e-06,0.0,0.0
1759830090.9835818,2,15.999991368815737,5.999989540033105,3.141585354644697,6.532015865794714e-06,True,0.010397195816040039,15.999991416931152,5.9999895095825195,3.141590118408203,6.532015865794714e-06,0.0,0.0
1759830090.99538,2,15.999991369116236,5.999989521213822,3.141585674374994,6.532015865794714e-06,True,0.01179814338684082,15.999991416931152,5.9999895095825195,3.141590118408203,6.532015865794714e-06,0.0,0.0
1759830091.0080252,2,15.999991367117493,5.9999895140255015,3.141585865656779,6.532015865794714e-06,True,0.012645244598388672,15.999991416931152,5.9999895095825195,3.141590118408203,6.532015865794714e-06,0.0,0.0
1759830091.0208943,2,15.999991365795472,5.999989511279805,3.141586024140368,6.532015865794714e-06,True,0.012869119644165039,15.999991416931152,5.9999895095825195,3.141590118408203,6.532015865794714e-06,0.0,0.0
1759830091.0337415,2,15.99999136534523,5.999989510231037,3.141586182357207,6.532015865794714e-06,True,0.012847185134887695,15.999991416931152,5.9999895095825195,3.141590118408203,6.532015865794714e-06,0.0,0.0
1759830091.0461297,2,15.999991366318351,5.999989509830431,3.14158636905729,6.532015865794714e-06,True,0.012388229370117188,15.999991416931152,5.9999895095825195,3.141590118408203,6.532015865794714e-06,0.0,0.0
1759830091.058823,2,15.999991365928635,5.999989509677412,3.1415865223575583,6.532015865794714e-06,True,0.012693405151367188,15.999991416931152,5.9999895095825195,3.141590118408203,6.532015865794714e-06,0.0,0.0
1759830091.0705013,2,15.999991368312674,5.999989509618944,3.1415867305349803,6.532015865794714e-06,True,0.011678218841552734,15.999991416931152,5.9999895095825195,3.141590118408203,6.532015865794714e-06,0.0,0.0
1759830091.0825014,2,15.99999136842024,5.99998950959661,3.141586893432793,6.532015865794714e-06,True,0.012000083923339844,15.999991416931152,5.9999895095825195,3.141590118408203,6.532015865794714e-06,0.0,0.0
1759830091.0944452,2,15.999991368601712,5.999989509588072,3.141587041200191,6.532015865794714e-06,True,0.011943817138671875,15.999991416931152,5.9999895095825195,3.141590118408203,6.532015865794714e-06,0.0,0.0
1759830091.1062624,2,15.999991368986898,5.999989509584806,3.1415871821064822,6.532015865794714e-06,True,0.011817216873168945,15.999991416931152,5.9999895095825195,3.141590118408203,6.532015865794714e-06,0.0,0.0
1759830091.1191626,2,15.999991366432187,5.9999895095835685,3.141587252649762,6.532015865794714e-06,True,0.012900114059448242,15.999991416931152,5.9999895095825195,3.141590118408203,6.532015865794714e-06,0.0,0.0
1759830091.1313775,2,15.999991367165993,5.999989509583084,3.1415873658205875,6.532015865794714e-06,True,0.012214899063110352,15.999991416931152,5.9999895095825195,3.141590118408203,6.532015865794714e-06,0.0,0.0
1759830091.156027,2,15.999991331574183,5.999990393687801,3.1415868932352033,7.046854554742655e-06,True,0.024649620056152344,15.999991416931152,5.999990940093994,3.141590118408203,7.046854554742655e-06,0.0,0.0
1759830091.170277,2,15.999991345971443,5.99999073138562,3.1415870917037623,7.046854554742655e-06,True,0.014250040054321289,15.999991416931152,5.999990940093994,3.141590118408203,7.046854554742655e-06,0.0,0.0
1759830091.1822095,2,15.999991357709078,5.999990860374667,3.1415873995317583,7.046854554742655e-06,True,0.011932373046875,15.999991416931152,5.999990940093994,3.141590118408203,7.046854554742655e-06,0.0,0.0
1759830091.1950042,2,15.999991359871276,5.999990909644101,3.141587609667413,7.046854554742655e-06,True,0.012794733047485352,15.999991416931152,5.999990940093994,3.141590118408203,7.046854554742655e-06,0.0,0.0
1759830091.2067978,2,15.999991363391834,5.99999092846333,3.1415878153792196,7.046854554742655e-06,True,0.01179361343383789,15.999991416931152,5.999990940093994,3.141590118408203,7.046854554742655e-06,0.0,0.0
1759830091.2201102,2,15.999991360648673,5.999990935651649,3.141587924192409,7.046854554742655e-06,True,0.013312339782714844,15.999991416931152,5.999990940093994,3.141590118408203,7.046854554742655e-06,0.0,0.0
1759830091.232502,2,15.999991362078644,5.9999909383973264,3.141588052544149,7.046854554742655e-06,True,0.012391805648803711,15.999991416931152,5.999990940093994,3.141590118408203,7.046854554742655e-06,0.0,0.0
1759830091.2457507,2,15.999991360318425,5.999990939446088,3.1415881354454935,7.046854554742655e-06,True,0.013248682022094727,15.999991416931152,5.999990940093994,3.141590118408203,7.046854554742655e-06,0.0,0.0
1759830091.26175,2,15.99999135224231,5.999990939846711,3.1415881250132376,7.046854554742655e-06,True,0.015999317169189453,15.999991416931152,5.999990940093994,3.141590118408203,7.046854554742655e-06,0.0,0.0
1759830091.2744272,2,15.999991358099534,5.9999909399996945,3.141588245650622,7.046854554742655e-06,True,0.012677192687988281,15.999991416931152,5.999990940093994,3.141590118408203,7.046854554742655e-06,0.0,0.0
1759830091.2882807,2,15.999991357170442,5.999990940058138,3.1415883222665943,7.046854554742655e-06,True,0.01385354995727539,15.999991416931152,5.999990940093994,3.141590118408203,7.046854554742655e-06,0.0,0.0
1759830091.301645,2,15.999991358132414,5.999990940080454,3.1415884090112876,7.046854554742655e-06,True,0.013364315032958984,15.999991416931152,5.999990940093994,3.141590118408203,7.046854554742655e-06,0.0,0.0
1759830091.3156152,2,15.99999135686919,5.999990940088981,3.1415884735007467,7.046854554742655e-06,True,0.013970136642456055,15.999991416931152,5.999990940093994,3.141590118408203,7.046854554742655e-06,0.0,0.0
1759830091.3284764,2,15.999991359371421,5.999990940092224,3.1415885661226834,7.046854554742655e-06,True,0.012861251831054688,15.999991416931152,5.999990940093994,3.141590118408203,7.046854554742655e-06,0.0,0.0
1759830091.341059,2,15.999991361077385,5.999990940093456,3.1415886559407067,7.046854554742655e-06,True,0.012582540512084961,15.999991416931152,5.999990940093994,3.141590118408203,7.046854554742655e-06,0.0,0.0
1759830091.366789,2,15.999991352798986,5.999990350690819,3.141588431992071,4.354677243863142e-06,True,0.025730133056640625,15.999991416931152,5.999989986419678,3.141590118408203,4.354677243863142e-06,0.0,0.0
1759830091.3840675,2,15.999991363694958,5.999990125558994,3.1415884961072003,4.354677243863142e-06,True,0.017278432846069336,15.999991416931152,5.999989986419678,3.141590118408203,4.354677243863142e-06,0.0,0.0
1759830091.398973,2,15.999991371803919,5.99999003956627,3.1415886299486218,4.354677243863142e-06,True,0.014905452728271484,15.999991416931152,5.999989986419678,3.141590118408203,4.354677243863142e-06,0.0,0.0
1759830091.4124968,2,15.999991377199395,5.99999000671996,3.1415887706124117,4.354677243863142e-06,True,0.01352381706237793,15.999991416931152,5.999989986419678,3.141590118408203,4.354677243863142e-06,0.0,0.0
1759830091.427562,2,15.999991376696453,5.999989994173792,3.141588854888445,4.354677243863142e-06,True,0.015065193176269531,15.999991416931152,5.999989986419678,3.141590118408203,4.354677243863142e-06,0.0,0.0
1759830091.442685,2,15.999991376408376,5.999989989381581,3.141588925745255,4.354677243863142e-06,True,0.01512289047241211,15.999991416931152,5.999989986419678,3.141590118408203,4.354677243863142e-06,0.0,0.0
1759830091.4567618,2,15.999991378038096,5.999989987551111,3.1415890068989647,4.354677243863142e-06,True,0.014076948165893555,15.999991416931152,5.999989986419678,3.141590118408203,4.354677243863142e-06,0.0,0.0
1759830091.4699247,2,15.999991380181047,5.999989986851927,3.1415890910774884,4.354677243863142e-06,True,0.013162851333618164,15.999991416931152,5.999989986419678,3.141590118408203,4.354677243863142e-06,0.0,0.0
1759830091.484362,2,15.99999137887991,5.999989986584867,3.1415891414533803,4.354677243863142e-06,True,0.014437198638916016,15.999991416931152,5.999989986419678,3.141590118408203,4.354677243863142e-06,0.0,0.0
1759830091.5011718,2,15.999991374436247,5.9999899864828725,3.1415891529646824,4.354677243863142e-06,True,0.016809940338134766,15.999991416931152,5.999989986419678,3.141590118408203,4.354677243863142e-06,0.0,0.0
1759830091.51248,2,15.999991381890187,5.9999899864438815,3.141589248651476,4.354677243863142e-06,True,0.01130819320678711,15.999991416931152,5.999989986419678,3.141590118408203,4.354677243863142e-06,0.0,0.0
1759830091.5269842,2,15.999991379421306,5.9999899864290045,3.141589285103331,4.354677243863142e-06,True,0.014504194259643555,15.999991416931152,5.999989986419678,3.141590118408203,4.354677243863142e-06,0.0,0.0
1759830091.541036,2,15.99999137923097,5.999989986423319,3.141589323209409,4.354677243863142e-06,True,0.014051675796508789,15.999991416931152,5.999989986419678,3.141590118408203,4.354677243863142e-06,0.0,0.0
1759830091.5668273,2,15.999991402530965,5.999989986421069,3.1415892232111506,0.0,True,0.025791406631469727,15.999991416931152,5.999989986419678,3.141590118408203,0.0,0.0,0.0
1759830091.5824955,2,15.99999141143077,5.999989986420209,3.1415892835682993,0.0,True,0.015668153762817383,15.999991416931152,5.999989986419678,3.141590118408203,0.0,0.0,0.0
1759830091.5956428,2,15.999991414830193,5.99998998641988,3.1415893706814852,0.0,True,0.013147354125976562,15.999991416931152,5.999989986419678,3.141590118408203,0.0,0.0,0.0
1759830091.6095567,2,15.999991416128656,5.999989986419755,3.1415894321741007,0.0,True,0.013913869857788086,15.999991416931152,5.999989986419678,3.141590118408203,0.0,0.0,0.0
1759830091.6240218,2,15.999991416624626,5.999989986419707,3.1415894758191563,0.0,True,0.014465093612670898,15.999991416931152,5.999989986419678,3.141590118408203,0.0,0.0,0.0
1759830091.6359904,2,15.999991416814069,5.999989986419689,3.1415895353561467,0.0,True,0.011968612670898438,15.999991416931152,5.999989986419678,3.141590118408203,0.0,0.0,0.0
1759830091.6505175,2,15.99999141688643,5.999989986419682,3.1415895605720223,0.0,True,0.014527082443237305,15.999991416931152,5.999989986419678,3.141590118408203,0.0,0.0,0.0
1759830091.664171,2,15.999991416914071,5.9999899864196795,3.1415895902965048,0.0,True,0.01365351676940918,15.999991416931152,5.999989986419678,3.141590118408203,0.0,0.0,0.0
1759830091.6779592,2,15.999991416924628,5.999989986419679,3.1415896160507817,0.0,True,0.013788223266601562,15.999991416931152,5.999989986419678,3.141590118408203,0.0,0.0,0.0
1759830091.6908777,2,15.99999141692866,5.999989986419678,3.1415896461506794,0.0,True,0.012918472290039062,15.999991416931152,5.999989986419678,3.141590118408203,0.0,0.0,0.0
1759830091.7059886,2,15.9999914169302,5.999989986419678,3.141589656068147,0.0,True,0.015110969543457031,15.999991416931152,5.999989986419678,3.141590118408203,0.0,0.0,0.0
1759830091.7191699,2,15.999991416930788,5.999989986419678,3.141589681523829,0.0,True,0.013181209564208984,15.999991416931152,5.999989986419678,3.141590118408203,0.0,0.0,0.0
1759830091.7324772,2,15.999991416931014,5.999989986419678,3.1415897039361713,0.0,True,0.013307332992553711,15.999991416931152,5.999989986419678,3.141590118408203,0.0,0.0,0.0
1759830091.7463474,2,15.999991416931099,5.999989986419678,3.141589720223429,0.0,True,0.0138702392578125,15.999991416931152,5.999989986419678,3.141590118408203,0.0,0.0,0.0
1759830091.7708235,2,15.999991373010344,5.999990575822949,3.141589671771996,4.6979030364740555e-06,True,0.024476051330566406,15.999991416931152,5.999990940093994,3.141590118408203,4.6979030364740555e-06,0.0,0.0
1759830091.7877462,2,15.999991369788116,5.999990800954927,3.1415896902375575,4.6979030364740555e-06,True,0.016922712326049805,15.999991416931152,5.999990940093994,3.141590118408203,4.6979030364740555e-06,0.0,0.0
1759830091.8007069,2,15.999991375666974,5.999990886947669,3.141589734217007,4.6979030364740555e-06,True,0.012960672378540039,15.999991416931152,5.999990940093994,3.141590118408203,4.6979030364740555e-06,0.0,0.0
1759830091.8145535,2,15.999991376322692,5.9999909197939765,3.1415897652132596,4.6979030364740555e-06,True,0.013846635818481445,15.999991416931152,5.999990940093994,3.141590118408203,4.6979030364740555e-06,0.0,0.0
1759830091.8278606,2,15.999991377541328,5.999990932340146,3.141589792537969,4.6979030364740555e-06,True,0.01330709457397461,15.999991416931152,5.999990940093994,3.141590118408203,4.6979030364740555e-06,0.0,0.0
1759830091.8407557,2,15.99999137874609,5.999990937132353,3.1415898166914946,4.6979030364740555e-06,True,0.01289510726928711,15.999991416931152,5.999990940093994,3.141590118408203,4.6979030364740555e-06,0.0,0.0
1759830091.8543634,2,15.999991377927493,5.999990938962817,3.1415898331402055,4.6979030364740555e-06,True,0.01360774040222168,15.999991416931152,5.999990940093994,3.141590118408203,4.6979030364740555e-06,0.0,0.0
1759830091.8795693,2,15.999991356802711,5.999990939662051,3.141589798351207,4.6979030364740555e-06,True,0.02520585060119629,15.999991416931152,5.999990940093994,3.141590118408203,4.6979030364740555e-06,0.0,0.0
1759830091.8930476,2,15.999991369778177,5.999990939929075,3.1415898269436173,4.6979030364740555e-06,True,0.013478279113769531,15.999991416931152,5.999990940093994,3.141590118408203,4.6979030364740555e-06,0.0,0.0
1759830091.9067643,2,15.999991374306537,5.99999094003107,3.1415898522788908,4.6979030364740555e-06,True,0.013716697692871094,15.999991416931152,5.999990940093994,3.141590118408203,4.6979030364740555e-06,0.0,0.0
1759830091.919996,2,15.999991376906419,5.999990940070026,3.1415898742764394,4.6979030364740555e-06,True,0.013231754302978516,15.999991416931152,5.999990940093994,3.141590118408203,4.6979030364740555e-06,0.0,0.0
1759830091.934668,2,15.999991375314979,5.9999909400849125,3.141589886876993,4.6979030364740555e-06,True,0.014672040939331055,15.999991416931152,5.999990940093994,3.141590118408203,4.6979030364740555e-06,0.0,0.0
1759830091.9476078,2,15.999991377815698,5.99999094009059,3.1415899037246025,4.6979030364740555e-06,True,0.012939691543579102,15.999991416931152,5.999990940093994,3.141590118408203,4.6979030364740555e-06,0.0,0.0
1759830091.973091,2,15.999991356262447,5.999990350689678,3.141589878820941,4.697903036495103e-06,True,0.025483131408691406,15.999991416931152,5.999989986419678,3.141590118408203,4.697903036495103e-06,0.0,0.0
1759830091.9894748,2,15.99999136435788,5.999990125558518,3.141589892745486,4.697903036495103e-06,True,0.016383886337280273,15.999991416931152,5.999989986419678,3.141590118408203,4.697903036495103e-06,0.0,0.0
1759830092.0041301,2,15.999991370551811,5.999990039566058,3.141589912365724,4.697903036495103e-06,True,0.014655351638793945,15.999991416931152,5.999989986419678,3.141590118408203,4.697903036495103e-06,0.0,0.0
1759830092.02041,2,15.999991370002464,5.999990006719869,3.1415899244248564,4.697903036495103e-06,True,0.016279935836791992,15.999991416931152,5.999989986419678,3.141590118408203,4.697903036495103e-06,0.0,0.0
1759830092.0313516,2,15.999991379372121,5.999989994173714,3.141589948303645,4.697903036495103e-06,True,0.010941505432128906,15.999991416931152,5.999989986419678,3.141590118408203,4.697903036495103e-06,0.0,0.0
1759830092.0465364,2,15.999991375336535,5.99998998938153,3.141589956572652,4.697903036495103e-06,True,0.015184879302978516,15.999991416931152,5.999989986419678,3.141590118408203,4.697903036495103e-06,0.0,0.0
1759830092.059809,2,15.999991377226685,5.999989987551069,3.141589967906624,4.697903036495103e-06,True,0.013272523880004883,15.999991416931152,5.999989986419678,3.141590118408203,4.697903036495103e-06,0.0,0.0
1759830092.073859,2,15.999991376553512,5.999989986851898,3.141589975808719,4.697903036495103e-06,True,0.014050006866455078,15.999991416931152,5.999989986419678,3.141590118408203,4.697903036495103e-06,0.0,0.0
1759830092.0877323,2,15.999991376613401,5.999989986584838,3.141589983121577,4.697903036495103e-06,True,0.01387333869934082,15.999991416931152,5.999989986419678,3.141590118408203,4.697903036495103e-06,0.0,0.0
1759830092.102212,2,15.999991375548312,5.9999899864828325,3.1415899884723792,4.697903036495103e-06,True,0.014479637145996094,15.999991416931152,5.999989986419678,3.141590118408203,4.697903036495103e-06,0.0,0.0
1759830092.115283,2,15.99999137766909,5.999989986443863,3.141589996401466,4.697903036495103e-06,True,0.013071060180664062,15.999991416931152,5.999989986419678,3.141590118408203,4.697903036495103e-06,0.0,0.0
1759830092.129254,2,15.999991376864106,5.999989986428982,3.1415900016446354,4.697903036495103e-06,True,0.013971090316772461,15.999991416931152,5.999989986419678,3.141590118408203,4.697903036495103e-06,0.0,0.0
1759830092.143053,2,15.99999137686552,5.999989986423298,3.1415900067996674,4.697903036495103e-06,True,0.013798952102661133,15.999991416931152,5.999989986419678,3.141590118408203,4.697903036495103e-06,0.0,0.0
1759830092.1570997,2,15.999991376421548,5.999989986421127,3.141590011224416,4.697903036495103e-06,True,0.014046669006347656,15.999991416931152,5.999989986419678,3.141590118408203,4.697903036495103e-06,0.0,0.0
1759830092.1845434,2,15.99999135580978,5.999990575823494,3.1415899942471093,4.354677243863142e-06,True,0.027443647384643555,15.999991416931152,5.999990940093994,3.141590118408203,4.354677243863142e-06,0.0,0.0
1759830092.2003176,2,15.999991367346945,5.999990800955114,3.1415900027072183,4.354677243863142e-06,True,0.015774250030517578,15.999991416931152,5.999990940093994,3.141590118408203,4.354677243863142e-06,0.0,0.0
1759830092.2137306,2,15.999991375681388,5.99999088694773,3.1415900147285623,4.354677243863142e-06,True,0.013412952423095703,15.999991416931152,5.999990940093994,3.141590118408203,4.354677243863142e-06,0.0,0.0
1759830092.2275393,2,15.999991378206554,5.999990919793988,3.141590023732924,4.354677243863142e-06,True,0.013808727264404297,15.999991416931152,5.999990940093994,3.141590118408203,4.354677243863142e-06,0.0,0.0
1759830092.241958,2,15.999991378156654,5.999990932340145,3.1415900300441617,4.354677243863142e-06,True,0.014418601989746094,15.999991416931152,5.999990940093994,3.141590118408203,4.354677243863142e-06,0.0,0.0
1759830092.2558239,2,15.999991379056844,5.999990937132348,3.1415900359920634,4.354677243863142e-06,True,0.013865947723388672,15.999991416931152,5.999990940093994,3.141590118408203,4.354677243863142e-06,0.0,0.0
1759830092.2723293,2,15.99999137501025,5.999990938962818,3.1415900379273918,4.354677243863142e-06,True,0.01650547981262207,15.999991416931152,5.999990940093994,3.141590118408203,4.354677243863142e-06,0.0,0.0
1759830092.286527,2,15.999991377303395,5.999990939661985,3.141590042810572,4.354677243863142e-06,True,0.014197587966918945,15.999991416931152,5.999990940093994,3.141590118408203,4.354677243863142e-06,0.0,0.0
1759830092.2998362,2,15.99999137965692,5.999990939929039,3.141590048193377,4.354677243863142e-06,True,0.013309240341186523,15.999991416931152,5.999990940093994,3.141590118408203,4.354677243863142e-06,0.0,0.0
1759830092.3138797,2,15.99999137933445,5.999990940031047,3.1415900519464923,4.354677243863142e-06,True,0.014043569564819336,15.999991416931152,5.999990940093994,3.141590118408203,4.354677243863142e-06,0.0,0.0
1759830092.3284276,2,15.99999137837253,5.999990940070013,3.1415900547347704,4.354677243863142e-06,True,0.01454782485961914,15.999991416931152,5.999990940093994,3.141590118408203,4.354677243863142e-06,0.0,0.0
1759830092.3431773,2,15.999991377669213,5.999990940084898,3.1415900572092035,4.354677243863142e-06,True,0.014749765396118164,15.999991416931152,5.999990940093994,3.141590118408203,4.354677243863142e-06,0.0,0.0
1759830092.3580225,2,15.999991377241942,5.9999909400905835,3.14159005959441,4.354677243863142e-06,True,0.014845132827758789,15.999991416931152,5.999990940093994,3.141590118408203,4.354677243863142e-06,0.0,0.0
1759830092.386578,2,15.999991350529875,5.999990350689683,3.1415900507359478,4.6979030364740555e-06,True,0.028555631637573242,15.999991416931152,5.999989986419678,3.141590118408203,4.6979030364740555e-06,0.0,0.0
1759830092.4058008,2,15.999991357074087,5.999990125558528,3.141590053584011,4.6979030364740555e-06,True,0.019222736358642578,15.999991416931152,5.999989986419678,3.141590118408203,4.6979030364740555e-06,0.0,0.0
1759830092.4228618,2,15.999991363452867,5.999990039566069,3.141590058867795,4.6979030364740555e-06,True,0.01706099510192871,15.999991416931152,5.999989986419678,3.141590118408203,4.6979030364740555e-06,0.0,0.0
1759830092.4384289,2,15.999991368570115,5.999990006719865,3.1415900644635997,4.6979030364740555e-06,True,0.01556706428527832,15.999991416931152,5.999989986419678,3.141590118408203,4.6979030364740555e-06,0.0,0.0
1759830092.45515,2,15.999991368454042,5.999989994173737,3.1415900682696467,4.6979030364740555e-06,True,0.016721010208129883,15.999991416931152,5.999989986419678,3.141590118408203,4.6979030364740555e-06,0.0,0.0
1759830092.4718065,2,15.999991368525219,5.999989989381542,3.1415900715460534,4.6979030364740555e-06,True,0.01665663719177246,15.999991416931152,5.999989986419678,3.141590118408203,4.6979030364740555e-06,0.0,0.0
1759830092.4870608,2,15.999991371068889,5.99998998755108,3.141590075230866,4.6979030364740555e-06,True,0.01525425910949707,15.999991416931152,5.999989986419678,3.141590118408203,4.6979030364740555e-06,0.0,0.0
1759830092.504424,2,15.999991368255921,5.999989986851915,3.1415900771983267,4.6979030364740555e-06,True,0.017363309860229492,15.999991416931152,5.999989986419678,3.141590118408203,4.6979030364740555e-06,0.0,0.0
1759830092.5218492,2,15.999991367070656,5.9999899865848585,3.1415900790689815,4.6979030364740555e-06,True,0.017425060272216797,15.999991416931152,5.999989986419678,3.141590118408203,4.6979030364740555e-06,0.0,0.0
1759830092.5389764,2,15.999991367152282,5.99998998648285,3.1415900811073953,4.6979030364740555e-06,True,0.017127275466918945,15.999991416931152,5.999989986419678,3.141590118408203,4.6979030364740555e-06,0.0,0.0
1759830092.552679,2,15.999991373328776,5.999989986443871,3.141590084634206,4.6979030364740555e-06,True,0.013702630996704102,15.999991416931152,5.999989986419678,3.141590118408203,4.6979030364740555e-06,0.0,0.0
1759830092.5680459,2,15.99999137270175,5.999989986428989,3.1415900867766897,4.6979030364740555e-06,True,0.015366792678833008,15.999991416931152,5.999989986419678,3.141590118408203,4.6979030364740555e-06,0.0,0.0
1759830092.5981195,2,15.999990109978372,5.999989691721949,3.1415900827102803,9.684975219189626e-06,True,0.03007364273071289,15.99998950958252,5.9999895095825195,3.141590118408203,9.684975219189626e-06,0.0,0.0
1759830092.6155455,2,15.999989674448729,5.999989579153757,3.141590085534258,9.684975219189626e-06,True,0.017426013946533203,15.99998950958252,5.9999895095825195,3.141590118408203,9.684975219189626e-06,0.0,0.0
1759830092.630652,2,15.999989516672082,5.999989536156511,3.141590089107435,9.684975219189626e-06,True,0.015106439590454102,15.99998950958252,5.9999895095825195,3.141590118408203,9.684975219189626e-06,0.0,0.0
1759830092.644767,2,15.999989460074078,5.999989519733015,3.1415900922582747,9.684975219189626e-06,True,0.014115095138549805,15.99998950958252,5.9999895095825195,3.141590118408203,9.684975219189626e-06,0.0,0.0
1759830092.6586998,2,15.999989439130285,5.999989513459796,3.1415900947380155,9.684975219189626e-06,True,0.01393270492553711,15.99998950958252,5.9999895095825195,3.141590118408203,9.684975219189626e-06,0.0,0.0
1759830092.6726098,2,15.999989431214257,5.999989511063639,3.141590096672285,9.684975219189626e-06,True,0.013910055160522461,15.99998950958252,5.9999895095825195,3.141590118408203,9.684975219189626e-06,0.0,0.0
1759830092.6872268,2,15.999989425575505,5.999989510148395,3.1415900980058655,9.684975219189626e-06,True,0.014616966247558594,15.99998950958252,5.9999895095825195,3.141590118408203,9.684975219189626e-06,0.0,0.0
1759830092.7021186,2,15.99998942240476,5.999989509798805,3.1415900990568826,9.684975219189626e-06,True,0.014891862869262695,15.99998950958252,5.9999895095825195,3.141590118408203,9.684975219189626e-06,0.0,0.0
1759830092.7160604,2,15.999989424708371,5.999989509665265,3.1415901002613698,9.684975219189626e-06,True,0.013941764831542969,15.99998950958252,5.9999895095825195,3.141590118408203,9.684975219189626e-06,0.0,0.0
1759830092.730006,2,15.99998942557416,5.999989509614257,3.1415901013046437,9.684975219189626e-06,True,0.013945579528808594,15.99998950958252,5.9999895095825195,3.141590118408203,9.684975219189626e-06,0.0,0.0
1759830092.7440507,2,15.999989425537954,5.999989509594775,3.1415901021843986,9.684975219189626e-06,True,0.014044761657714844,15.99998950958252,5.9999895095825195,3.141590118408203,9.684975219189626e-06,0.0,0.0
