timestamp,vehicle_id,x,y,theta,velocity,gps_available,dt,gps_x,gps_y,gps_theta,gps_velocity,control_steering,control_acceleration
1759830088.6468916,0,0.0,6.0,-0.05483113549895435,0.0,False,0.01,nan,nan,nan,nan,0.0,0.0
1759830088.6576498,0,0.0,6.0,-0.05483113549895435,0.0,False,0.010758161544799805,nan,nan,nan,nan,0.0,0.0
1759830088.6683223,0,0.0,6.0,-0.05483113549895435,0.0,False,0.010672569274902344,nan,nan,nan,nan,0.0,0.0
1759830088.6797643,0,0.0,6.0,-0.05483113549895435,0.0,False,0.011441946029663086,nan,nan,nan,nan,0.0,0.0
1759830088.6900468,0,0.0,6.0,-0.05483113549895435,0.0,False,0.010282516479492188,nan,nan,nan,nan,0.0,0.0
1759830088.7003176,0,0.0,6.0,-0.05483113549895435,0.0,False,0.010270833969116211,nan,nan,nan,nan,0.0,0.0
1759830088.7105331,0,0.0,6.0,-0.05483113549895435,0.0,False,0.010215520858764648,nan,nan,nan,nan,0.0,0.0
1759830088.7217336,0,0.0,6.0,-0.05483113549895435,0.0,False,0.011200428009033203,nan,nan,nan,nan,0.0,0.0
1759830088.7326615,0,0.0,6.0,-0.05483113549895435,0.0,False,0.010927915573120117,nan,nan,nan,nan,0.0,0.0
1759830088.7428527,0,0.0,6.0,-0.05483113549895435,0.0,False,0.010191202163696289,nan,nan,nan,nan,0.0,0.0
1759830088.7531745,0,0.0,6.0,-0.05483113549895435,0.0,False,0.010321855545043945,nan,nan,nan,nan,0.0,0.0
1759830088.7641716,0,0.0,6.0,-0.05483113549895435,0.0,False,0.01099705696105957,nan,nan,nan,nan,0.0,0.0
1759830088.77558,0,0.0,6.0,-0.05483113549895435,0.0,False,0.011408329010009766,nan,nan,nan,nan,0.0,0.0
1759830088.786229,0,0.0,6.0,-0.05483113549895435,0.0,False,0.010648965835571289,nan,nan,nan,nan,0.0,0.0
1759830088.7969909,0,0.0,6.0,-0.05483113549895435,0.0,False,0.01076197624206543,nan,nan,nan,nan,0.0,0.0
1759830088.8074527,0,0.0,6.0,-0.05483113549895435,0.0,False,0.010461807250976562,nan,nan,nan,nan,0.0,0.0
1759830088.8176374,0,0.0,6.0,-0.05483113549895435,0.0,False,0.010184764862060547,nan,nan,nan,nan,0.0,0.0
1759830088.8287067,0,0.0,6.0,-0.05483113549895435,0.0,False,0.011069297790527344,nan,nan,nan,nan,0.0,0.0
1759830088.8499875,0,-1.3618468652036124e-06,5.999995744228363,-2.8798555031959516,0.0,True,0.021280765533447266,-1.3732909565078444e-06,5.999995708465576,3.1415913105010986,0.0,0.0,0.0
1759830088.8608449,0,-1.3694656335092154e-06,5.999995720419711,-3.1212523566712473,0.0,True,0.010857343673706055,-1.3732909565078444e-06,5.999995708465576,3.1415913105010986,0.0,0.0,0.0
1759830088.8712542,0,-1.371855960733019e-06,5.999995712949938,3.1392565294141725,0.0,True,0.010409355163574219,-1.3732909565078444e-06,5.999995708465576,3.1415913105010986,0.0,0.0,0.0
1759830088.8816447,0,-1.372744264248088e-06,5.99999571017399,3.1362679086813845,0.0,True,0.010390520095825195,-1.3732909565078444e-06,5.999995708465576,3.1415913105010986,0.0,0.0,0.0
1759830088.8925593,0,-1.3730822179523636e-06,5.999995709117885,3.135812317815379,0.0,True,0.01091456413269043,-1.3732909565078444e-06,5.999995708465576,3.1415913105010986,0.0,0.0,0.0
1759830088.9035654,0,-1.373211229892082e-06,5.999995708714722,3.1361313584117347,0.0,True,0.01100611686706543,-1.3732909565078444e-06,5.999995708465576,3.1415913105010986,0.0,0.0,0.0
1759830088.9143908,0,-1.3732605038966037e-06,5.999995708560741,3.136726597583154,0.0,True,0.010825395584106445,-1.3732909565078444e-06,5.999995708465576,3.1415913105010986,0.0,0.0,0.0
1759830088.9253516,0,-1.3732793246591153e-06,5.999995708501926,3.137325031294626,0.0,True,0.010960817337036133,-1.3732909565078444e-06,5.999995708465576,3.1415913105010986,0.0,0.0,0.0
1759830088.9355898,0,-1.3732865135377464e-06,5.99999570847946,3.137913652466045,0.0,True,0.010238170623779297,-1.3732909565078444e-06,5.999995708465576,3.1415913105010986,0.0,0.0,0.0
1759830088.9464552,0,-1.3732892594443206e-06,5.9999957084708795,3.1383531746144513,0.0,True,0.010865449905395508,-1.3732909565078444e-06,5.999995708465576,3.1415913105010986,0.0,0.0,0.0
1759830088.957531,0,-1.3732903082872617e-06,5.999995708467602,3.1387157505559227,0.0,True,0.011075735092163086,-1.3732909565078444e-06,5.999995708465576,3.1415913105010986,0.0,0.0,0.0
1759830088.9684489,0,-1.373290708909614e-06,5.99999570846635,3.1390361722816014,0.0,True,0.010917901992797852,-1.3732909565078444e-06,5.999995708465576,3.1415913105010986,0.0,0.0,0.0
1759830088.9784768,0,-1.373290861933736e-06,5.999995708465872,3.1393437808670175,0.0,True,0.010027885437011719,-1.3732909565078444e-06,5.999995708465576,3.1415913105010986,0.0,0.0,0.0
1759830088.9895353,0,-1.3732909203837495e-06,5.999995708465689,3.139548809799569,0.0,True,0.011058568954467773,-1.3732909565078444e-06,5.999995708465576,3.1415913105010986,0.0,0.0,0.0
1759830089.001023,0,-1.373290942709668e-06,5.99999570846562,3.1397125968107176,0.0,True,0.011487722396850586,-1.3732909565078444e-06,5.999995708465576,3.1415913105010986,0.0,0.0,0.0
1759830089.0118105,0,-1.37329095123741e-06,5.999995708465593,3.139886075579083,0.0,True,0.010787487030029297,-1.3732909565078444e-06,5.999995708465576,3.1415913105010986,0.0,0.0,0.0
1759830089.0219305,0,-1.3732909544947175e-06,5.999995708465582,3.14005469260465,0.0,True,0.010119915008544922,-1.3732909565078444e-06,5.999995708465576,3.1415913105010986,0.0,0.0,0.0
1759830089.0322123,0,-1.3732909557388983e-06,5.999995708465579,3.140187731759367,0.0,True,0.010281801223754883,-1.3732909565078444e-06,5.999995708465576,3.1415913105010986,0.0,0.0,0.0
1759830089.0430477,0,-1.3732909562141332e-06,5.999995708465577,3.1402841679127267,0.0,True,0.010835409164428711,-1.3732909565078444e-06,5.999995708465576,3.1415913105010986,0.0,0.0,0.0
1759830089.0544379,0,-1.3732909563956568e-06,5.999995708465576,3.1403572478428785,0.0,True,0.011390209197998047,-1.3732909565078444e-06,5.999995708465576,3.1415913105010986,0.0,0.0,0.0
1759830089.0658007,0,-1.3732909564649926e-06,5.999995708465576,3.1404292276514667,0.0,True,0.011362791061401367,-1.3732909565078444e-06,5.999995708465576,3.1415913105010986,0.0,0.0,0.0
1759830089.0773318,0,-1.3732909564914765e-06,5.999995708465576,3.1404950828515013,0.0,True,0.01153111457824707,-1.3732909565078444e-06,5.999995708465576,3.1415913105010986,0.0,0.0,0.0
1759830089.0882566,0,-1.3732909565015924e-06,5.999995708465576,3.140570464658998,0.0,True,0.010924816131591797,-1.3732909565078444e-06,5.999995708465576,3.1415913105010986,0.0,0.0,0.0
1759830089.0987322,0,-1.3732909565054564e-06,5.999995708465576,3.140646000468154,0.0,True,0.010475635528564453,-1.3732909565078444e-06,5.999995708465576,3.1415913105010986,0.0,0.0,0.0
1759830089.1101787,0,-1.3732909565069323e-06,5.999995708465576,3.1406932817217843,0.0,True,0.011446475982666016,-1.3732909565078444e-06,5.999995708465576,3.1415913105010986,0.0,0.0,0.0
1759830089.120406,0,-1.373290956507496e-06,5.999995708465576,3.140758382429528,0.0,True,0.010227203369140625,-1.3732909565078444e-06,5.999995708465576,3.1415913105010986,0.0,0.0,0.0
1759830089.130517,0,-1.3732909565077114e-06,5.999995708465576,3.1408161100723646,0.0,True,0.010111093521118164,-1.3732909565078444e-06,5.999995708465576,3.1415913105010986,0.0,0.0,0.0
1759830089.141814,0,-1.3732909565077936e-06,5.999995708465576,3.1408465888327175,0.0,True,0.011296987533569336,-1.3732909565078444e-06,5.999995708465576,3.1415913105010986,0.0,0.0,0.0
1759830089.151882,0,-1.373290956507825e-06,5.999995708465576,3.140894390384034,0.0,True,0.010067939758300781,-1.3732909565078444e-06,5.999995708465576,3.1415913105010986,0.0,0.0,0.0
1759830089.1619003,0,-1.373290956507837e-06,5.999995708465576,3.140936919057154,0.0,True,0.010018348693847656,-1.3732909565078444e-06,5.999995708465576,3.1415913105010986,0.0,0.0,0.0
1759830089.172844,0,-1.3732909565078416e-06,5.999995708465576,3.14096097553416,0.0,True,0.01094365119934082,-1.3732909565078444e-06,5.999995708465576,3.1415913105010986,0.0,0.0,0.0
1759830089.1833315,0,-1.3732909565078433e-06,5.999995708465576,3.1409903615262227,0.0,True,0.010487556457519531,-1.3732909565078444e-06,5.999995708465576,3.1415913105010986,0.0,0.0,0.0
1759830089.1938202,0,-1.373290956507844e-06,5.999995708465576,3.141017951871868,0.0,True,0.010488748550415039,-1.3732909565078444e-06,5.999995708465576,3.1415913105010986,0.0,0.0,0.0
1759830089.2040732,0,-1.3732909565078442e-06,5.999995708465576,3.14104626513803,0.0,True,0.010252952575683594,-1.3732909565078444e-06,5.999995708465576,3.1415913105010986,0.0,0.0,0.0
1759830089.2150807,0,-1.3732909565078444e-06,5.999995708465576,3.1410634090939453,0.0,True,0.011007547378540039,-1.3732909565078444e-06,5.999995708465576,3.1415913105010986,0.0,0.0,0.0
1759830089.226019,0,-1.3732909565078444e-06,5.999995708465576,3.141081767276569,0.0,True,0.010938167572021484,-1.3732909565078444e-06,5.999995708465576,3.1415913105010986,0.0,0.0,0.0
1759830089.2363818,0,-1.3732909565078444e-06,5.999995708465576,3.1411064500902004,0.0,True,0.010362863540649414,-1.3732909565078444e-06,5.999995708465576,3.1415913105010986,0.0,0.0,0.0
1759830089.247875,0,-1.3732909565078444e-06,5.999995708465576,3.1411179641314817,0.0,True,0.011493206024169922,-1.3732909565078444e-06,5.999995708465576,3.1415913105010986,0.0,0.0,0.0
1759830089.2586539,0,-1.3732909565078444e-06,5.999995708465576,3.1411378088593462,0.0,True,0.01077890396118164,-1.3732909565078444e-06,5.999995708465576,3.1415913105010986,0.0,0.0,0.0
1759830089.2691529,0,-1.3732909565078444e-06,5.999995708465576,3.141159592846998,0.0,True,0.010499000549316406,-1.3732909565078444e-06,5.999995708465576,3.1415913105010986,0.0,0.0,0.0
1759830089.2804673,0,-1.3732909565078444e-06,5.999995708465576,3.1411722796607258,0.0,True,0.01131439208984375,-1.3732909565078444e-06,5.999995708465576,3.1415913105010986,0.0,0.0,0.0
1759830089.2909482,0,-1.3732909565078444e-06,5.999995708465576,3.14119242118179,0.0,True,0.010480880737304688,-1.3732909565078444e-06,5.999995708465576,3.1415913105010986,0.0,0.0,0.0
1759830089.3014958,0,-1.3732909565078444e-06,5.999995708465576,3.141210398805285,0.0,True,0.010547637939453125,-1.3732909565078444e-06,5.999995708465576,3.1415913105010986,0.0,0.0,0.0
1759830089.3124056,0,-1.3732909565078444e-06,5.999995708465576,3.141223899227299,0.0,True,0.010909795761108398,-1.3732909565078444e-06,5.999995708465576,3.1415913105010986,0.0,0.0,0.0
1759830089.322833,0,-1.3732909565078444e-06,5.999995708465576,3.1412405699726715,0.0,True,0.010427474975585938,-1.3732909565078444e-06,5.999995708465576,3.1415913105010986,0.0,0.0,0.0
1759830089.3330703,0,-1.3732909565078444e-06,5.999995708465576,3.1412572108743024,0.0,True,0.01023721694946289,-1.3732909565078444e-06,5.999995708465576,3.1415913105010986,0.0,0.0,0.0
1759830089.343929,0,-1.3732909565078444e-06,5.999995708465576,3.1412677133616604,0.0,True,0.010858774185180664,-1.3732909565078444e-06,5.999995708465576,3.1415913105010986,0.0,0.0,0.0
1759830089.3543708,0,-1.3732909565078444e-06,5.999995708465576,3.1412808377709673,0.0,True,0.010441780090332031,-1.3732909565078444e-06,5.999995708465576,3.1415913105010986,0.0,0.0,0.0
1759830089.3644705,0,-1.3732909565078444e-06,5.999995708465576,3.1412953765497953,0.0,True,0.010099649429321289,-1.3732909565078444e-06,5.999995708465576,3.1415913105010986,0.0,0.0,0.0
1759830089.3747606,0,-1.3732909565078444e-06,5.999995708465576,3.141307157127823,0.0,True,0.010290145874023438,-1.3732909565078444e-06,5.999995708465576,3.1415913105010986,0.0,0.0,0.0
1759830089.3861601,0,-1.3732909565078444e-06,5.999995708465576,3.141311259698515,0.0,True,0.011399507522583008,-1.3732909565078444e-06,5.999995708465576,3.1415913105010986,0.0,0.0,0.0
1759830089.397411,0,-1.3732909565078444e-06,5.999995708465576,3.141317623206618,0.0,True,0.011250972747802734,-1.3732909565078444e-06,5.999995708465576,3.1415913105010986,0.0,0.0,0.0
1759830089.4078922,0,-1.3732909565078444e-06,5.999995708465576,3.1413293952874533,0.0,True,0.010481119155883789,-1.3732909565078444e-06,5.999995708465576,3.1415913105010986,0.0,0.0,0.0
1759830089.4183848,0,-1.3732909565078444e-06,5.999995708465576,3.1413403738108965,0.0,True,0.010492563247680664,-1.3732909565078444e-06,5.999995708465576,3.1415913105010986,0.0,0.0,0.0
1759830089.429468,0,-1.3732909565078444e-06,5.999995708465576,3.1413473512858303,0.0,True,0.011083126068115234,-1.3732909565078444e-06,5.999995708465576,3.1415913105010986,0.0,0.0,0.0
1759830089.4410677,0,-1.3732909565078444e-06,5.999995708465576,3.141351966354975,0.0,True,0.01159977912902832,-1.3732909565078444e-06,5.999995708465576,3.1415913105010986,0.0,0.0,0.0
1759830089.4555213,0,-1.3732909565078444e-06,5.999995708465576,3.1413442883857936,0.0,True,0.014453649520874023,-1.3732909565078444e-06,5.999995708465576,3.1415913105010986,0.0,0.0,0.0
1759830089.4669693,0,-1.3732909565078444e-06,5.999995708465576,3.1413556234796527,0.0,True,0.011447906494140625,-1.3732909565078444e-06,5.999995708465576,3.1415913105010986,0.0,0.0,0.0
1759830089.4769764,0,-1.3732909565078444e-06,5.999995708465576,3.1413733334146965,0.0,True,0.010007143020629883,-1.3732909565078444e-06,5.999995708465576,3.1415913105010986,0.0,0.0,0.0
1759830089.4878783,0,-1.3732909565078444e-06,5.999995708465576,3.141384177987817,0.0,True,0.010901927947998047,-1.3732909565078444e-06,5.999995708465576,3.1415913105010986,0.0,0.0,0.0
1759830089.4981987,0,-1.3732909565078444e-06,5.999995708465576,3.1413957494620615,0.0,True,0.010320425033569336,-1.3732909565078444e-06,5.999995708465576,3.1415913105010986,0.0,0.0,0.0
1759830089.5091946,0,-1.3732909565078444e-06,5.999995708465576,3.141403000545738,0.0,True,0.010995864868164062,-1.3732909565078444e-06,5.999995708465576,3.1415913105010986,0.0,0.0,0.0
1759830089.5207052,0,-1.3732909565078444e-06,5.999995708465576,3.1414077494509804,0.0,True,0.011510610580444336,-1.3732909565078444e-06,5.999995708465576,3.1415913105010986,0.0,0.0,0.0
1759830089.5322208,0,-1.3732909565078444e-06,5.999995708465576,3.141412852174252,0.0,True,0.011515617370605469,-1.3732909565078444e-06,5.999995708465576,3.1415913105010986,0.0,0.0,0.0
1759830089.5426126,0,-1.3732909565078444e-06,5.999995708465576,3.141422241463996,0.0,True,0.010391712188720703,-1.3732909565078444e-06,5.999995708465576,3.1415913105010986,0.0,0.0,0.0
1759830089.5532386,0,-1.3732909565078444e-06,5.999995708465576,3.1414297843498193,0.0,True,0.010626077651977539,-1.3732909565078444e-06,5.999995708465576,3.1415913105010986,0.0,0.0,0.0
1759830089.5633738,0,-1.3732909565078444e-06,5.999995708465576,3.1414380641954267,0.0,True,0.010135173797607422,-1.3732909565078444e-06,5.999995708465576,3.1415913105010986,0.0,0.0,0.0
1759830089.5736315,0,-1.3732909565078444e-06,5.999995708465576,3.141444844227621,0.0,True,0.010257720947265625,-1.3732909565078444e-06,5.999995708465576,3.1415913105010986,0.0,0.0,0.0
1759830089.5843518,0,-1.3732909565078444e-06,5.999995708465576,3.1414493773124548,0.0,True,0.010720252990722656,-1.3732909565078444e-06,5.999995708465576,3.1415913105010986,0.0,0.0,0.0
1759830089.5947745,0,-1.3732909565078444e-06,5.999995708465576,3.1414546329977107,0.0,True,0.010422706604003906,-1.3732909565078444e-06,5.999995708465576,3.1415913105010986,0.0,0.0,0.0
1759830089.6051319,0,-1.3732909565078444e-06,5.999995708465576,3.141459770850208,0.0,True,0.010357379913330078,-1.3732909565078444e-06,5.999995708465576,3.1415913105010986,0.0,0.0,0.0
1759830089.6163304,0,-1.3732909565078444e-06,5.999995708465576,3.141462200663833,0.0,True,0.01119852066040039,-1.3732909565078444e-06,5.999995708465576,3.1415913105010986,0.0,0.0,0.0
1759830089.6272666,0,-1.3732909565078444e-06,5.999995708465576,3.1414657354690014,0.0,True,0.010936260223388672,-1.3732909565078444e-06,5.999995708465576,3.1415913105010986,0.0,0.0,0.0
1759830089.6407924,0,-1.3732909565078444e-06,5.999995708465576,3.141462856255105,0.0,True,0.013525724411010742,-1.3732909565078444e-06,5.999995708465576,3.1415913105010986,0.0,0.0,0.0
1759830089.6578112,0,-1.3732909565078444e-06,5.999995708465576,3.141453903169902,0.0,True,0.017018795013427734,-1.3732909565078444e-06,5.999995708465576,3.1415913105010986,0.0,0.0,0.0
1759830089.6685088,0,-1.3732909565078444e-06,5.999995708465576,3.141464422317217,0.0,True,0.010697603225708008,-1.3732909565078444e-06,5.999995708465576,3.1415913105010986,0.0,0.0,0.0
1759830089.6791124,0,-1.3732909565078444e-06,5.999995708465576,3.1414741835301925,0.0,True,0.010603666305541992,-1.3732909565078444e-06,5.999995708465576,3.1415913105010986,0.0,0.0,0.0
1759830089.689563,0,-1.3732909565078444e-06,5.999995708465576,3.1414823288484044,0.0,True,0.010450601577758789,-1.3732909565078444e-06,5.999995708465576,3.1415913105010986,0.0,0.0,0.0
1759830089.701074,0,-1.3732909565078444e-06,5.999995708465576,3.141486698849228,0.0,True,0.011510848999023438,-1.3732909565078444e-06,5.999995708465576,3.1415913105010986,0.0,0.0,0.0
1759830089.712367,0,-1.3732909565078444e-06,5.999995708465576,3.141491040436115,0.0,True,0.011293172836303711,-1.3732909565078444e-06,5.999995708465576,3.1415913105010986,0.0,0.0,0.0
1759830089.7235682,0,-1.3732909565078444e-06,5.999995708465576,3.1414952434789054,0.0,True,0.011201143264770508,-1.3732909565078444e-06,5.999995708465576,3.1415913105010986,0.0,0.0,0.0
1759830089.7344143,0,-1.3732909565078444e-06,5.999995708465576,3.14149977083647,0.0,True,0.010846138000488281,-1.3732909565078444e-06,5.999995708465576,3.1415913105010986,0.0,0.0,0.0
1759830089.7459168,0,-1.3732909565078444e-06,5.999995708465576,3.141502633792779,0.0,True,0.011502504348754883,-1.3732909565078444e-06,5.999995708465576,3.1415913105010986,0.0,0.0,0.0
1759830089.7569041,0,-1.3732909565078444e-06,5.999995708465576,3.141506329441526,0.0,True,0.010987281799316406,-1.3732909565078444e-06,5.999995708465576,3.1415913105010986,0.0,0.0,0.0
1759830089.7677898,0,-1.3732909565078444e-06,5.999995708465576,3.1415099361972256,0.0,True,0.01088571548461914,-1.3732909565078444e-06,5.999995708465576,3.1415913105010986,0.0,0.0,0.0
1759830089.7782824,0,-1.3732909565078444e-06,5.999995708465576,3.141513848962809,0.0,True,0.010492563247680664,-1.3732909565078444e-06,5.999995708465576,3.1415913105010986,0.0,0.0,0.0
1759830089.788896,0,-1.3732909565078444e-06,5.999995708465576,3.141517102279451,0.0,True,0.010613679885864258,-1.3732909565078444e-06,5.999995708465576,3.1415913105010986,0.0,0.0,0.0
1759830089.799259,0,-1.3732909565078444e-06,5.999995708465576,3.1415203895907275,0.0,True,0.010362863540649414,-1.3732909565078444e-06,5.999995708465576,3.1415913105010986,0.0,0.0,0.0
1759830089.809531,0,-1.3732909565078444e-06,5.999995708465576,3.141523444208179,0.0,True,0.010272026062011719,-1.3732909565078444e-06,5.999995708465576,3.1415913105010986,0.0,0.0,0.0
1759830089.820367,0,-1.3732909565078444e-06,5.999995708465576,3.1415253515910297,0.0,True,0.010836124420166016,-1.3732909565078444e-06,5.999995708465576,3.1415913105010986,0.0,0.0,0.0
1759830089.831411,0,-1.3732909565078444e-06,5.999995708465576,3.1415269464412177,0.0,True,0.011043787002563477,-1.3732909565078444e-06,5.999995708465576,3.1415913105010986,0.0,0.0,0.0
1759830089.8414443,0,-1.3732909565078444e-06,5.999995708465576,3.1415299996171804,0.0,True,0.010033369064331055,-1.3732909565078444e-06,5.999995708465576,3.1415913105010986,0.0,0.0,0.0
1759830089.852921,0,-1.3732909565078444e-06,5.999995708465576,3.1415308764096697,0.0,True,0.011476755142211914,-1.3732909565078444e-06,5.999995708465576,3.1415913105010986,0.0,0.0,0.0
1759830089.8634357,0,-1.3732909565078444e-06,5.999995708465576,3.141533168012513,0.0,True,0.01051473617553711,-1.3732909565078444e-06,5.999995708465576,3.1415913105010986,0.0,0.0,0.0
1759830089.874216,0,-1.3732909565078444e-06,5.999995708465576,3.1415350531946835,0.0,True,0.01078033447265625,-1.3732909565078444e-06,5.999995708465576,3.1415913105010986,0.0,0.0,0.0
1759830089.8856478,0,-1.3732909565078444e-06,5.999995708465576,3.141536115813672,0.0,True,0.011431694030761719,-1.3732909565078444e-06,5.999995708465576,3.1415913105010986,0.0,0.0,0.0
1759830089.89661,0,-1.3732909565078444e-06,5.999995708465576,3.1415378938203204,0.0,True,0.010962247848510742,-1.3732909565078444e-06,5.999995708465576,3.1415913105010986,0.0,0.0,0.0
1759830089.9076116,0,-1.3732909565078444e-06,5.999995708465576,3.1415396443410266,0.0,True,0.0110015869140625,-1.3732909565078444e-06,5.999995708465576,3.1415913105010986,0.0,0.0,0.0
1759830089.918011,0,-1.3732909565078444e-06,5.999995708465576,3.1415419897944545,0.0,True,0.010399341583251953,-1.3732909565078444e-06,5.999995708465576,3.1415913105010986,0.0,0.0,0.0
1759830089.9289625,0,-1.3732909565078444e-06,5.999995708465576,3.141543543183939,0.0,True,0.010951519012451172,-1.3732909565078444e-06,5.999995708465576,3.1415913105010986,0.0,0.0,0.0
1759830089.9393947,0,-1.3732909565078444e-06,5.999995708465576,3.1415455451546865,0.0,True,0.010432243347167969,-1.3732909565078444e-06,5.999995708465576,3.1415913105010986,0.0,0.0,0.0
1759830089.949845,0,-1.3732909565078444e-06,5.999995708465576,3.1415473607745508,0.0,True,0.010450363159179688,-1.3732909565078444e-06,5.999995708465576,3.1415913105010986,0.0,0.0,0.0
1759830089.9607944,0,-1.3732909565078444e-06,5.999995708465576,3.141548555365649,0.0,True,0.010949373245239258,-1.3732909565078444e-06,5.999995708465576,3.1415913105010986,0.0,0.0,0.0
1759830089.97119,0,-1.3732909565078444e-06,5.999995708465576,3.1415502510095585,0.0,True,0.010395526885986328,-1.3732909565078444e-06,5.999995708465576,3.1415913105010986,0.0,0.0,0.0
1759830089.9817061,0,-1.3732909565078444e-06,5.999995708465576,3.1415517259870267,0.0,True,0.010516166687011719,-1.3732909565078444e-06,5.999995708465576,3.1415913105010986,0.0,0.0,0.0
1759830089.9921079,0,-1.3732909565078444e-06,5.999995708465576,3.1415531961006664,0.0,True,0.010401725769042969,-1.3732909565078444e-06,5.999995708465576,3.1415913105010986,0.0,0.0,0.0
1759830090.0025685,0,-1.3732909565078444e-06,5.999995708465576,3.141554514833892,0.0,True,0.010460615158081055,-1.3732909565078444e-06,5.999995708465576,3.1415913105010986,0.0,0.0,0.0
1759830090.0140927,0,-1.3732909565078444e-06,5.999995708465576,3.1415549329944366,0.0,True,0.011524200439453125,-1.3732909565078444e-06,5.999995708465576,3.1415913105010986,0.0,0.0,0.0
1759830090.0254636,0,-1.3732909565078444e-06,5.999995708465576,3.1415556623149854,0.0,True,0.01137089729309082,-1.3732909565078444e-06,5.999995708465576,3.1415913105010986,0.0,0.0,0.0
1759830090.036239,0,-1.3732909565078444e-06,5.999995708465576,3.1415569787668467,0.0,True,0.010775327682495117,-1.3732909565078444e-06,5.999995708465576,3.1415913105010986,0.0,0.0,0.0
1759830090.0555043,0,-1.3732909565078444e-06,5.999995708465576,3.141552492269785,0.0,True,0.019265413284301758,-1.3732909565078444e-06,5.999995708465576,3.1415913105010986,0.0,0.0,0.0
1759830090.061388,0,-1.3732909565078444e-06,5.999995708465576,3.141558543303052,0.0,True,0.005883693695068359,-1.3732909565078444e-06,5.999995708465576,3.1415913105010986,0.0,0.0,0.0
1759830090.0729992,0,-1.3732909565078444e-06,5.999995708465576,3.1415598382331815,0.0,True,0.011611223220825195,-1.3732909565078444e-06,5.999995708465576,3.1415913105010986,0.0,0.0,0.0
1759830090.0837288,0,-1.3732909565078444e-06,5.999995708465576,3.1415613388636228,0.0,True,0.010729551315307617,-1.3732909565078444e-06,5.999995708465576,3.1415913105010986,0.0,0.0,0.0
1759830090.0940938,0,-1.3732909565078444e-06,5.999995708465576,3.141562891816811,0.0,True,0.010365009307861328,-1.3732909565078444e-06,5.999995708465576,3.1415913105010986,0.0,0.0,0.0
1759830090.105046,0,-1.3732909565078444e-06,5.999995708465576,3.1415638936104475,0.0,True,0.010952234268188477,-1.3732909565078444e-06,5.999995708465576,3.1415913105010986,0.0,0.0,0.0
1759830090.1161096,0,-1.3732909565078444e-06,5.999995708465576,3.1415647609958004,0.0,True,0.011063575744628906,-1.3732909565078444e-06,5.999995708465576,3.1415913105010986,0.0,0.0,0.0
1759830090.1265674,0,-1.3732909565078444e-06,5.999995708465576,3.1415659392455026,0.0,True,0.010457754135131836,-1.3732909565078444e-06,5.999995708465576,3.1415913105010986,0.0,0.0,0.0
1759830090.1371698,0,-1.3732909565078444e-06,5.999995708465576,3.141566931630077,0.0,True,0.010602474212646484,-1.3732909565078444e-06,5.999995708465576,3.1415913105010986,0.0,0.0,0.0
1759830090.147402,0,-1.3732909565078444e-06,5.999995708465576,3.141568021899083,0.0,True,0.010232210159301758,-1.3732909565078444e-06,5.999995708465576,3.1415913105010986,0.0,0.0,0.0
1759830090.1578019,0,-1.3732909565078444e-06,5.999995708465576,3.141568909702663,0.0,True,0.010399818420410156,-1.3732909565078444e-06,5.999995708465576,3.1415913105010986,0.0,0.0,0.0
1759830090.1678603,0,-1.3732909565078444e-06,5.999995708465576,3.1415698778784176,0.0,True,0.010058403015136719,-1.3732909565078444e-06,5.999995708465576,3.1415913105010986,0.0,0.0,0.0
1759830090.1789412,0,-1.3732909565078444e-06,5.999995708465576,3.1415702731797204,0.0,True,0.01108098030090332,-1.3732909565078444e-06,5.999995708465576,3.1415913105010986,0.0,0.0,0.0
1759830090.1902406,0,-1.3732909565078444e-06,5.999995708465576,3.14157062307698,0.0,True,0.011299371719360352,-1.3732909565078444e-06,5.999995708465576,3.1415913105010986,0.0,0.0,0.0
1759830090.2011402,0,-1.3732909565078444e-06,5.999995708465576,3.1415712405189087,0.0,True,0.010899543762207031,-1.3732909565078444e-06,5.999995708465576,3.1415913105010986,0.0,0.0,0.0
1759830090.2122676,0,-1.3732909565078444e-06,5.999995708465576,3.141571784104615,0.0,True,0.011127471923828125,-1.3732909565078444e-06,5.999995708465576,3.1415913105010986,0.0,0.0,0.0
1759830090.2232397,0,-1.3732909565078444e-06,5.999995708465576,3.141572412221622,0.0,True,0.010972023010253906,-1.3732909565078444e-06,5.999995708465576,3.1415913105010986,0.0,0.0,0.0
1759830090.2334569,0,-1.3732909565078444e-06,5.999995708465576,3.141573326134967,0.0,True,0.01021718978881836,-1.3732909565078444e-06,5.999995708465576,3.1415913105010986,0.0,0.0,0.0
1759830090.2439592,0,-1.3732909565078444e-06,5.999995708465576,3.1415740317426977,0.0,True,0.010502338409423828,-1.3732909565078444e-06,5.999995708465576,3.1415913105010986,0.0,0.0,0.0
1759830090.260477,0,-1.3732909565078444e-06,5.999995708465576,3.141572542414451,0.0,True,0.01651787757873535,-1.3732909565078444e-06,5.999995708465576,3.1415913105010986,0.0,0.0,0.0
1759830090.270753,0,-1.3732909565078444e-06,5.999995708465576,3.1415738113563094,0.0,True,0.010275840759277344,-1.3732909565078444e-06,5.999995708465576,3.1415913105010986,0.0,0.0,0.0
1759830090.2818713,0,-1.3732909565078444e-06,5.999995708465576,3.141574728750795,0.0,True,0.011118412017822266,-1.3732909565078444e-06,5.999995708465576,3.1415913105010986,0.0,0.0,0.0
1759830090.2932959,0,-1.3732909565078444e-06,5.999995708465576,3.1415754148606627,0.0,True,0.011424541473388672,-1.3732909565078444e-06,5.999995708465576,3.1415913105010986,0.0,0.0,0.0
1759830090.3040462,0,-1.3732909565078444e-06,5.999995708465576,3.141576245483364,0.0,True,0.010750293731689453,-1.3732909565078444e-06,5.999995708465576,3.1415913105010986,0.0,0.0,0.0
1759830090.3147645,0,-1.3732909565078444e-06,5.999995708465576,3.1415769825020234,0.0,True,0.010718345642089844,-1.3732909565078444e-06,5.999995708465576,3.1415913105010986,0.0,0.0,0.0
1759830090.3257031,0,-1.3732909565078444e-06,5.999995708465576,3.141577561698302,0.0,True,0.010938644409179688,-1.3732909565078444e-06,5.999995708465576,3.1415913105010986,0.0,0.0,0.0
1759830090.336432,0,-1.3732909565078444e-06,5.999995708465576,3.1415781449104614,0.0,True,0.010728836059570312,-1.3732909565078444e-06,5.999995708465576,3.1415913105010986,0.0,0.0,0.0
1759830090.346543,0,-1.3732909565078444e-06,5.999995708465576,3.1415788376218003,0.0,True,0.010111093521118164,-1.3732909565078444e-06,5.999995708465576,3.1415913105010986,0.0,0.0,0.0
1759830090.3566039,0,-1.3732909565078444e-06,5.999995708465576,3.1415794472790672,0.0,True,0.010060787200927734,-1.3732909565078444e-06,5.999995708465576,3.1415913105010986,0.0,0.0,0.0
1759830090.366687,0,-1.3732909565078444e-06,5.999995708465576,3.1415799634820196,0.0,True,0.010083198547363281,-1.3732909565078444e-06,5.999995708465576,3.1415913105010986,0.0,0.0,0.0
1759830090.3770845,0,-1.3732909565078444e-06,5.999995708465576,3.1415803388805266,0.0,True,0.01039743423461914,-1.3732909565078444e-06,5.999995708465576,3.1415913105010986,0.0,0.0,0.0
1759830090.388569,0,-1.3732909565078444e-06,5.999995708465576,3.1415804351264764,0.0,True,0.011484622955322266,-1.3732909565078444e-06,5.999995708465576,3.1415913105010986,0.0,0.0,0.0
1759830090.4001398,0,-1.3732909565078444e-06,5.999995708465576,3.1415805769862644,0.0,True,0.01157069206237793,-1.3732909565078444e-06,5.999995708465576,3.1415913105010986,0.0,0.0,0.0
1759830090.4110286,0,-1.3732909565078444e-06,5.999995708465576,3.141580937025207,0.0,True,0.010888814926147461,-1.3732909565078444e-06,5.999995708465576,3.1415913105010986,0.0,0.0,0.0
1759830090.4216175,0,-1.3732909565078444e-06,5.999995708465576,3.141581362073822,0.0,True,0.010588884353637695,-1.3732909565078444e-06,5.999995708465576,3.1415913105010986,0.0,0.0,0.0
1759830090.4324603,0,-1.3732909565078444e-06,5.999995708465576,3.141581701786567,0.0,True,0.01084280014038086,-1.3732909565078444e-06,5.999995708465576,3.1415913105010986,0.0,0.0,0.0
1759830090.4432642,0,-1.3732909565078444e-06,5.999995708465576,3.1415820322480172,0.0,True,0.010803937911987305,-1.3732909565078444e-06,5.999995708465576,3.1415913105010986,0.0,0.0,0.0
1759830090.4649673,0,-1.3732909565078444e-06,5.999995708465576,3.1415803468072063,0.0,True,0.021703004837036133,-1.3732909565078444e-06,5.999995708465576,3.1415913105010986,0.0,0.0,0.0
1759830090.4753046,0,-1.3732909565078444e-06,5.999995708465576,3.141581320516499,0.0,True,0.010337352752685547,-1.3732909565078444e-06,5.999995708465576,3.1415913105010986,0.0,0.0,0.0
1759830090.4866915,0,-1.3732909565078444e-06,5.999995708465576,3.1415820524017786,0.0,True,0.011386871337890625,-1.3732909565078444e-06,5.999995708465576,3.1415913105010986,0.0,0.0,0.0
1759830090.4977157,0,-1.3732909565078444e-06,5.999995708465576,3.1415826972754584,0.0,True,0.011024236679077148,-1.3732909565078444e-06,5.999995708465576,3.1415913105010986,0.0,0.0,0.0
1759830090.5086074,0,-1.3732909565078444e-06,5.999995708465576,3.14158324333925,0.0,True,0.01089167594909668,-1.3732909565078444e-06,5.999995708465576,3.1415913105010986,0.0,0.0,0.0
1759830090.519076,0,-1.3732909565078444e-06,5.999995708465576,3.1415837570848844,0.0,True,0.010468721389770508,-1.3732909565078444e-06,5.999995708465576,3.1415913105010986,0.0,0.0,0.0
1759830090.5293953,0,-1.3732909565078444e-06,5.999995708465576,3.141584202258551,0.0,True,0.010319232940673828,-1.3732909565078444e-06,5.999995708465576,3.1415913105010986,0.0,0.0,0.0
1759830090.5404031,0,-1.3732909565078444e-06,5.999995708465576,3.1415844735490026,0.0,True,0.01100778579711914,-1.3732909565078444e-06,5.999995708465576,3.1415913105010986,0.0,0.0,0.0
1759830090.551105,0,-1.3732909565078444e-06,5.999995708465576,3.1415847592072836,0.0,True,0.010701894760131836,-1.3732909565078444e-06,5.999995708465576,3.1415913105010986,0.0,0.0,0.0
1759830090.5612288,0,-1.3732909565078444e-06,5.999995708465576,3.1415850954651976,0.0,True,0.010123729705810547,-1.3732909565078444e-06,5.999995708465576,3.1415913105010986,0.0,0.0,0.0
1759830090.572036,0,-1.3732909565078444e-06,5.999995708465576,3.1415852980235712,0.0,True,0.010807275772094727,-1.3732909565078444e-06,5.999995708465576,3.1415913105010986,0.0,0.0,0.0
1759830090.5824924,0,-1.3732909565078444e-06,5.999995708465576,3.141585530565454,0.0,True,0.010456323623657227,-1.3732909565078444e-06,5.999995708465576,3.1415913105010986,0.0,0.0,0.0
1759830090.5935133,0,-1.3732909565078444e-06,5.999995708465576,3.1415856776454163,0.0,True,0.011020898818969727,-1.3732909565078444e-06,5.999995708465576,3.1415913105010986,0.0,0.0,0.0
1759830090.6043253,0,-1.3732909565078444e-06,5.999995708465576,3.1415858528568794,0.0,True,0.010812044143676758,-1.3732909565078444e-06,5.999995708465576,3.1415913105010986,0.0,0.0,0.0
1759830090.6158438,0,-1.3732909565078444e-06,5.999995708465576,3.1415859479403636,0.0,True,0.011518478393554688,-1.3732909565078444e-06,5.999995708465576,3.1415913105010986,0.0,0.0,0.0
1759830090.6263585,0,-1.3732909565078444e-06,5.999995708465576,3.1415861724624854,0.0,True,0.01051473617553711,-1.3732909565078444e-06,5.999995708465576,3.1415913105010986,0.0,0.0,0.0
1759830090.6363955,0,-1.3732909565078444e-06,5.999995708465576,3.141586432747271,0.0,True,0.010036945343017578,-1.3732909565078444e-06,5.999995708465576,3.1415913105010986,0.0,0.0,0.0
1759830090.6473846,0,-1.3732909565078444e-06,5.999995708465576,3.141586560703864,0.0,True,0.010989189147949219,-1.3732909565078444e-06,5.999995708465576,3.1415913105010986,0.0,0.0,0.0
1759830090.6577823,0,-1.3732909565078444e-06,5.999995708465576,3.1415867456082385,0.0,True,0.010397672653198242,-1.3732909565078444e-06,5.999995708465576,3.1415913105010986,0.0,0.0,0.0
1759830090.6681414,0,-1.3732909565078444e-06,5.999995708465576,3.1415869218919035,0.0,True,0.010359048843383789,-1.3732909565078444e-06,5.999995708465576,3.1415913105010986,0.0,0.0,0.0
1759830090.6784775,0,-1.3732909565078444e-06,5.999995708465576,3.141587085134354,0.0,True,0.010336160659790039,-1.3732909565078444e-06,5.999995708465576,3.1415913105010986,0.0,0.0,0.0
1759830090.6897576,0,-1.3732909565078444e-06,5.999995708465576,3.1415871509307536,0.0,True,0.011280059814453125,-1.3732909565078444e-06,5.999995708465576,3.1415913105010986,0.0,0.0,0.0
1759830090.7003658,0,-1.3732909565078444e-06,5.999995708465576,3.1415872901914454,0.0,True,0.010608196258544922,-1.3732909565078444e-06,5.999995708465576,3.1415913105010986,0.0,0.0,0.0
1759830090.7107532,0,-1.3732909565078444e-06,5.999995708465576,3.1415874466373737,0.0,True,0.010387420654296875,-1.3732909565078444e-06,5.999995708465576,3.1415913105010986,0.0,0.0,0.0
1759830090.7210276,0,-1.3732909565078444e-06,5.999995708465576,3.141587600262726,0.0,True,0.010274410247802734,-1.3732909565078444e-06,5.999995708465576,3.1415913105010986,0.0,0.0,0.0
1759830090.732469,0,-1.3732909565078444e-06,5.999995708465576,3.141587648369768,0.0,True,0.011441469192504883,-1.3732909565078444e-06,5.999995708465576,3.1415913105010986,0.0,0.0,0.0
1759830090.743438,0,-1.3732909565078444e-06,5.999995708465576,3.141587748606261,0.0,True,0.010968923568725586,-1.3732909565078444e-06,5.999995708465576,3.1415913105010986,0.0,0.0,0.0
1759830090.7538295,0,-1.3732909565078444e-06,5.999995708465576,3.141587897776935,0.0,True,0.010391473770141602,-1.3732909565078444e-06,5.999995708465576,3.1415913105010986,0.0,0.0,0.0
1759830090.764235,0,-1.3732909565078444e-06,5.999995708465576,3.14158803414934,0.0,True,0.010405540466308594,-1.3732909565078444e-06,5.999995708465576,3.1415913105010986,0.0,0.0,0.0
1759830090.774954,0,-1.3732909565078444e-06,5.999995708465576,3.1415881364271616,0.0,True,0.010719060897827148,-1.3732909565078444e-06,5.999995708465576,3.1415913105010986,0.0,0.0,0.0
1759830090.7860694,0,-1.3732909565078444e-06,5.999995708465576,3.1415882091649525,0.0,True,0.011115312576293945,-1.3732909565078444e-06,5.999995708465576,3.1415913105010986,0.0,0.0,0.0
1759830090.7963398,0,-1.3732909565078444e-06,5.999995708465576,3.1415883424802544,0.0,True,0.010270357131958008,-1.3732909565078444e-06,5.999995708465576,3.1415913105010986,0.0,0.0,0.0
1759830090.8065648,0,-1.3732909565078444e-06,5.999995708465576,3.141588467935808,0.0,True,0.010225057601928711,-1.3732909565078444e-06,5.999995708465576,3.1415913105010986,0.0,0.0,0.0
1759830090.8173542,0,-1.3732909565078444e-06,5.999995708465576,3.1415885460929154,0.0,True,0.01078939437866211,-1.3732909565078444e-06,5.999995708465576,3.1415913105010986,0.0,0.0,0.0
1759830090.8285267,0,-1.3732909565078444e-06,5.999995708465576,3.1415886017126535,0.0,True,0.01117253303527832,-1.3732909565078444e-06,5.999995708465576,3.1415913105010986,0.0,0.0,0.0
1759830090.8388104,0,-1.3732909565078444e-06,5.999995708465576,3.141588715613965,0.0,True,0.010283708572387695,-1.3732909565078444e-06,5.999995708465576,3.1415913105010986,0.0,0.0,0.0
1759830090.849494,0,-1.3732909565078444e-06,5.999995708465576,3.141588799721081,0.0,True,0.010683536529541016,-1.3732909565078444e-06,5.999995708465576,3.1415913105010986,0.0,0.0,0.0
1759830090.8658774,0,-1.3732909565078444e-06,5.999995708465576,3.1415885864755904,0.0,True,0.01638340950012207,-1.3732909565078444e-06,5.999995708465576,3.1415913105010986,0.0,0.0,0.0
1759830090.8765833,0,-1.3732909565078444e-06,5.999995708465576,3.1415887473372646,0.0,True,0.010705947875976562,-1.3732909565078444e-06,5.999995708465576,3.1415913105010986,0.0,0.0,0.0
1759830090.887069,0,-1.3732909565078444e-06,5.999995708465576,3.141588914642959,0.0,True,0.010485649108886719,-1.3732909565078444e-06,5.999995708465576,3.1415913105010986,0.0,0.0,0.0
1759830090.8973272,0,-1.3732909565078444e-06,5.999995708465576,3.141589063744645,0.0,True,0.010258197784423828,-1.3732909565078444e-06,5.999995708465576,3.1415913105010986,0.0,0.0,0.0
1759830090.9080818,0,-1.3732909565078444e-06,5.999995708465576,3.1415891643920872,0.0,True,0.010754585266113281,-1.3732909565078444e-06,5.999995708465576,3.1415913105010986,0.0,0.0,0.0
1759830090.9193885,0,-1.3732909565078444e-06,5.999995708465576,3.141589228234608,0.0,True,0.0113067626953125,-1.3732909565078444e-06,5.999995708465576,3.1415913105010986,0.0,0.0,0.0
1759830090.9430315,0,-1.3732909565078444e-06,5.999995708465576,3.1415888004741817,0.0,True,0.023643016815185547,-1.3732909565078444e-06,5.999995708465576,3.1415913105010986,0.0,0,0
1759830090.9531972,0,-1.3732909565078444e-06,5.999995708465576,3.1415890555992085,0.0,True,0.010165691375732422,-1.3732909565078444e-06,5.999995708465576,3.1415913105010986,0.0,0,0
1759830090.9644685,0,-1.3732909565078444e-06,5.999995708465576,3.1415892478585814,0.0,True,0.011271238327026367,-1.3732909565078444e-06,5.999995708465576,3.1415913105010986,0.0,0,0
1759830090.9753985,0,-1.3732909565078444e-06,5.999995708465576,3.1415894093972607,0.0,True,0.010930061340332031,-1.3732909565078444e-06,5.999995708465576,3.1415913105010986,0.0,0,0
1759830090.9856205,0,-1.3732909565078444e-06,5.999995708465576,3.1415895614588507,0.0,True,0.01022195816040039,-1.3732909565078444e-06,5.999995708465576,3.1415913105010986,0.0,0,0
1759830090.9969578,0,-1.3732909565078444e-06,5.999995708465576,3.141589645379824,0.0,True,0.0113372802734375,-1.3732909565078444e-06,5.999995708465576,3.1415913105010986,0.0,0,0
1759830091.0074751,0,-1.3732909565078444e-06,5.999995708465576,3.1415897421612087,0.0,True,0.010517358779907227,-1.3732909565078444e-06,5.999995708465576,3.1415913105010986,0.0,0,0
1759830091.01836,0,-1.3732909565078444e-06,5.999995708465576,3.1415898130734536,0.0,True,0.010884761810302734,-1.3732909565078444e-06,5.999995708465576,3.1415913105010986,0.0,0,0
1759830091.0291858,0,-1.3732909565078444e-06,5.999995708465576,3.1415898766698795,0.0,True,0.010825872421264648,-1.3732909565078444e-06,5.999995708465576,3.1415913105010986,0.0,0,0
1759830091.0400016,0,-1.3732909565078444e-06,5.999995708465576,3.1415899340753484,0.0,True,0.010815858840942383,-1.3732909565078444e-06,5.999995708465576,3.1415913105010986,0.0,0,0
1759830091.0501976,0,-1.3732909565078444e-06,5.999995708465576,3.141590003566492,0.0,True,0.01019597053527832,-1.3732909565078444e-06,5.999995708465576,3.1415913105010986,0.0,0,0
1759830091.0699904,0,-1.3732909565078444e-06,5.999995708465576,3.1415898120148213,0.0,True,0.019792795181274414,-1.3732909565078444e-06,5.999995708465576,3.1415913105010986,0.0,0,0
1759830091.0804508,0,-1.3732909565078444e-06,5.999995708465576,3.1415899287139517,0.0,True,0.010460376739501953,-1.3732909565078444e-06,5.999995708465576,3.1415913105010986,0.0,0,0
1759830091.0908165,0,-1.3732909565078444e-06,5.999995708465576,3.1415900412556717,0.0,True,0.010365724563598633,-1.3732909565078444e-06,5.999995708465576,3.1415913105010986,0.0,0,0
1759830091.1016645,0,-1.3732909565078444e-06,5.999995708465576,3.141590119119261,0.0,True,0.010848045349121094,-1.3732909565078444e-06,5.999995708465576,3.1415913105010986,0.0,0,0
1759830091.1130195,0,-1.3732909565078444e-06,5.999995708465576,3.1415901710009297,0.0,True,0.011354923248291016,-1.3732909565078444e-06,5.999995708465576,3.1415913105010986,0.0,0,0
1759830091.123895,0,-1.3732909565078444e-06,5.999995708465576,3.1415902272405063,0.0,True,0.010875463485717773,-1.3732909565078444e-06,5.999995708465576,3.1415913105010986,0.0,0,0
1759830091.1345723,0,-1.3732909565078444e-06,5.999995708465576,3.1415902808601253,0.0,True,0.010677337646484375,-1.3732909565078444e-06,5.999995708465576,3.1415913105010986,0.0,0,0
1759830091.1457536,0,-1.3732909565078444e-06,5.999995708465576,3.141590317129719,0.0,True,0.011181354522705078,-1.3732909565078444e-06,5.999995708465576,3.1415913105010986,0.0,0,0
1759830091.1570437,0,-1.3732909565078444e-06,5.999995708465576,3.141590348798628,0.0,True,0.01129007339477539,-1.3732909565078444e-06,5.999995708465576,3.1415913105010986,0.0,0,0
1759830091.1685874,0,-1.3732909565078444e-06,5.999995708465576,3.1415903751461176,0.0,True,0.011543750762939453,-1.3732909565078444e-06,5.999995708465576,3.1415913105010986,0.0,0,0
1759830091.1796834,0,-1.3732909565078444e-06,5.999995708465576,3.1415904107613724,0.0,True,0.011096000671386719,-1.3732909565078444e-06,5.999995708465576,3.1415913105010986,0.0,0,0
1759830091.1906703,0,-1.3732909565078444e-06,5.999995708465576,3.1415904466037308,0.0,True,0.010986804962158203,-1.3732909565078444e-06,5.999995708465576,3.1415913105010986,0.0,0,0
1759830091.200683,0,-1.3732909565078444e-06,5.999995708465576,3.1415904963917143,0.0,True,0.01001286506652832,-1.3732909565078444e-06,5.999995708465576,3.1415913105010986,0.0,0,0
1759830091.210878,0,-1.3732909565078444e-06,5.999995708465576,3.1415905357023846,0.0,True,0.010194778442382812,-1.3732909565078444e-06,5.999995708465576,3.1415913105010986,0.0,0,0
1759830091.222169,0,-1.3732909565078444e-06,5.999995708465576,3.141590551460853,0.0,True,0.011291027069091797,-1.3732909565078444e-06,5.999995708465576,3.1415913105010986,0.0,0,0
1759830091.2330706,0,-1.3732909565078444e-06,5.999995708465576,3.141590574503418,0.0,True,0.010901689529418945,-1.3732909565078444e-06,5.999995708465576,3.1415913105010986,0.0,0,0
1759830091.2435217,0,-1.3732909565078444e-06,5.999995708465576,3.141590604604632,0.0,True,0.010451078414916992,-1.3732909565078444e-06,5.999995708465576,3.1415913105010986,0.0,0,0
1759830091.2535987,0,-1.3732909565078444e-06,5.999995708465576,3.1415906376989877,0.0,True,0.01007699966430664,-1.3732909565078444e-06,5.999995708465576,3.1415913105010986,0.0,0,0
1759830091.2738194,0,-1.3732909565078444e-06,5.999995708465576,3.141590526411763,0.0,True,0.02022075653076172,-1.3732909565078444e-06,5.999995708465576,3.1415913105010986,0.0,0,0
1759830091.28521,0,-1.3732909565078444e-06,5.999995708465576,3.1415905742540353,0.0,True,0.011390447616577148,-1.3732909565078444e-06,5.999995708465576,3.1415913105010986,0.0,0,0
1759830091.295581,0,-1.3732909565078444e-06,5.999995708465576,3.1415906363647714,0.0,True,0.010371208190917969,-1.3732909565078444e-06,5.999995708465576,3.1415913105010986,0.0,0,0
1759830091.3063838,0,-1.3732909565078444e-06,5.999995708465576,3.1415906809539464,0.0,True,0.010802745819091797,-1.3732909565078444e-06,5.999995708465576,3.1415913105010986,0.0,0,0
1759830091.3171608,0,-1.3732909565078444e-06,5.999995708465576,3.141590717116326,0.0,True,0.010776996612548828,-1.3732909565078444e-06,5.999995708465576,3.1415913105010986,0.0,0,0
1759830091.3284764,0,-1.3732909565078444e-06,5.999995708465576,3.1415907411660395,0.0,True,0.011315584182739258,-1.3732909565078444e-06,5.999995708465576,3.1415913105010986,0.0,0,0
1759830091.3395028,0,-1.3732909565078444e-06,5.999995708465576,3.141590765986024,0.0,True,0.011026382446289062,-1.3732909565078444e-06,5.999995708465576,3.1415913105010986,0.0,0,0
1759830091.349787,0,-1.3732909565078444e-06,5.999995708465576,3.141590796360539,0.0,True,0.010284185409545898,-1.3732909565078444e-06,5.999995708465576,3.1415913105010986,0.0,0,0
1759830091.3607044,0,-1.3732909565078444e-06,5.999995708465576,3.1415908157781196,0.0,True,0.010917425155639648,-1.3732909565078444e-06,5.999995708465576,3.1415913105010986,0.0,0,0
1759830091.3718426,0,-1.3732909565078444e-06,5.999995708465576,3.141590831100446,0.0,True,0.011138200759887695,-1.3732909565078444e-06,5.999995708465576,3.1415913105010986,0.0,0,0
1759830091.3820488,0,-1.3732909565078444e-06,5.999995708465576,3.1415908551038747,0.0,True,0.010206222534179688,-1.3732909565078444e-06,5.999995708465576,3.1415913105010986,0.0,0,0
1759830091.3934062,0,-1.3732909565078444e-06,5.999995708465576,3.1415908654957114,0.0,True,0.011357307434082031,-1.3732909565078444e-06,5.999995708465576,3.1415913105010986,0.0,0,0
1759830091.4047155,0,-1.3732909565078444e-06,5.999995708465576,3.141590876764294,0.0,True,0.011309385299682617,-1.3732909565078444e-06,5.999995708465576,3.1415913105010986,0.0,0,0
1759830091.4160964,0,-1.3732909565078444e-06,5.999995708465576,3.1415908883004153,0.0,True,0.011380910873413086,-1.3732909565078444e-06,5.999995708465576,3.1415913105010986,0.0,0,0
1759830091.4270449,0,-1.3732909565078444e-06,5.999995708465576,3.141590904163415,0.0,True,0.010948419570922852,-1.3732909565078444e-06,5.999995708465576,3.1415913105010986,0.0,0,0
1759830091.4380338,0,-1.3732909565078444e-06,5.999995708465576,3.1415909189694666,0.0,True,0.010988950729370117,-1.3732909565078444e-06,5.999995708465576,3.1415913105010986,0.0,0,0
1759830091.4485345,0,-1.3732909565078444e-06,5.999995708465576,3.1415909367641266,0.0,True,0.010500669479370117,-1.3732909565078444e-06,5.999995708465576,3.1415913105010986,0.0,0,0
1759830091.4593182,0,-1.3732909565078444e-06,5.999995708465576,3.1415909505325263,0.0,True,0.010783672332763672,-1.3732909565078444e-06,5.999995708465576,3.1415913105010986,0.0,0,0
1759830091.4699247,0,-1.3732909565078444e-06,5.999995708465576,3.1415909645267686,0.0,True,0.010606527328491211,-1.3732909565078444e-06,5.999995708465576,3.1415913105010986,0.0,0,0
1759830091.481041,0,-1.3732909565078444e-06,5.999995708465576,3.1415909738060304,0.0,True,0.011116266250610352,-1.3732909565078444e-06,5.999995708465576,3.1415913105010986,0.0,0,0
1759830091.4918613,0,-1.3732909565078444e-06,5.999995708465576,3.141590985272611,0.0,True,0.010820388793945312,-1.3732909565078444e-06,5.999995708465576,3.1415913105010986,0.0,0,0
1759830091.5021875,0,-1.3732909565078444e-06,5.999995708465576,3.1415909996975184,0.0,True,0.010326147079467773,-1.3732909565078444e-06,5.999995708465576,3.1415913105010986,0.0,0,0
1759830091.5129938,0,-1.3732909565078444e-06,5.999995708465576,3.141591009561793,0.0,True,0.01080632209777832,-1.3732909565078444e-06,5.999995708465576,3.1415913105010986,0.0,0,0
1759830091.5238738,0,-1.3732909565078444e-06,5.999995708465576,3.141591018515715,0.0,True,0.010879993438720703,-1.3732909565078444e-06,5.999995708465576,3.1415913105010986,0.0,0,0
1759830091.5341837,0,-1.3732909565078444e-06,5.999995708465576,3.141591030874018,0.0,True,0.010309934616088867,-1.3732909565078444e-06,5.999995708465576,3.1415913105010986,0.0,0,0
1759830091.5443175,0,-1.3732909565078444e-06,5.999995708465576,3.1415910431685425,0.0,True,0.010133743286132812,-1.3732909565078444e-06,5.999995708465576,3.1415913105010986,0.0,0,0
1759830091.5555818,0,-1.3732909565078444e-06,5.999995708465576,3.141591047644077,0.0,True,0.011264324188232422,-1.3732909565078444e-06,5.999995708465576,3.1415913105010986,0.0,0,0
1759830091.565807,0,-1.3732909565078444e-06,5.999995708465576,3.14159105856662,0.0,True,0.010225296020507812,-1.3732909565078444e-06,5.999995708465576,3.1415913105010986,0.0,0,0
1759830091.575889,0,-1.3732909565078444e-06,5.999995708465576,3.1415910695037326,0.0,True,0.010082006454467773,-1.3732909565078444e-06,5.999995708465576,3.1415913105010986,0.0,0,0
1759830091.586174,0,-1.3732909565078444e-06,5.999995708465576,3.14159107815183,0.0,True,0.010284900665283203,-1.3732909565078444e-06,5.999995708465576,3.1415913105010986,0.0,0,0
1759830091.596663,0,-1.3732909565078444e-06,5.999995708465576,3.1415910850687467,0.0,True,0.01048898696899414,-1.3732909565078444e-06,5.999995708465576,3.1415913105010986,0.0,0,0
1759830091.6074884,0,-1.3732909565078444e-06,5.999995708465576,3.1415910901946145,0.0,True,0.010825395584106445,-1.3732909565078444e-06,5.999995708465576,3.1415913105010986,0.0,0,0
1759830091.618939,0,-1.3732909565078444e-06,5.999995708465576,3.141591092828021,0.0,True,0.011450529098510742,-1.3732909565078444e-06,5.999995708465576,3.1415913105010986,0.0,0,0
1759830091.629826,0,-1.3732909565078444e-06,5.999995708465576,3.141591099256143,0.0,True,0.01088714599609375,-1.3732909565078444e-06,5.999995708465576,3.1415913105010986,0.0,0,0
1759830091.6407654,0,-1.3732909565078444e-06,5.999995708465576,3.1415911057422345,0.0,True,0.010939359664916992,-1.3732909565078444e-06,5.999995708465576,3.1415913105010986,0.0,0,0
1759830091.6521847,0,-1.3732909565078444e-06,5.999995708465576,3.1415911102356215,0.0,True,0.011419296264648438,-1.3732909565078444e-06,5.999995708465576,3.1415913105010986,0.0,0,0
1759830091.662584,0,-1.3732909565078444e-06,5.999995708465576,3.1415911194028343,0.0,True,0.010399341583251953,-1.3732909565078444e-06,5.999995708465576,3.1415913105010986,0.0,0,0
1759830091.6774113,0,-1.3732909565078444e-06,5.999995708465576,3.1415911107052477,0.0,True,0.014827251434326172,-1.3732909565078444e-06,5.999995708465576,3.1415913105010986,0.0,0,0
1759830091.6878083,0,-1.3732909565078444e-06,5.999995708465576,3.1415911229512705,0.0,True,0.010396957397460938,-1.3732909565078444e-06,5.999995708465576,3.1415913105010986,0.0,0,0
1759830091.6978316,0,-1.3732909565078444e-06,5.999995708465576,3.141591135676718,0.0,True,0.010023355484008789,-1.3732909565078444e-06,5.999995708465576,3.1415913105010986,0.0,0,0
1759830091.7093394,0,-1.3732909565078444e-06,5.999995708465576,3.141591140936921,0.0,True,0.011507749557495117,-1.3732909565078444e-06,5.999995708465576,3.1415913105010986,0.0,0,0
1759830091.7202506,0,-1.3732909565078444e-06,5.999995708465576,3.1415911479114857,0.0,True,0.010911226272583008,-1.3732909565078444e-06,5.999995708465576,3.1415913105010986,0.0,0,0
1759830091.7314074,0,-1.3732909565078444e-06,5.999995708465576,3.141591153634149,0.0,True,0.011156797409057617,-1.3732909565078444e-06,5.999995708465576,3.1415913105010986,0.0,0,0
1759830091.7427394,0,-1.3732909565078444e-06,5.999995708465576,3.1415911585539362,0.0,True,0.011332035064697266,-1.3732909565078444e-06,5.999995708465576,3.1415913105010986,0.0,0,0
1759830091.753087,0,-1.3732909565078444e-06,5.999995708465576,3.141591166412077,0.0,True,0.010347604751586914,-1.3732909565078444e-06,5.999995708465576,3.1415913105010986,0.0,0,0
1759830091.7636847,0,-1.3732909565078444e-06,5.999995708465576,3.141591172612925,0.0,True,0.010597705841064453,-1.3732909565078444e-06,5.999995708465576,3.1415913105010986,0.0,0,0
1759830091.7739277,0,-1.3732909565078444e-06,5.999995708465576,3.141591179102747,0.0,True,0.010242938995361328,-1.3732909565078444e-06,5.999995708465576,3.1415913105010986,0.0,0,0
1759830091.7852166,0,-1.3732909565078444e-06,5.999995708465576,3.141591181949785,0.0,True,0.011288881301879883,-1.3732909565078444e-06,5.999995708465576,3.1415913105010986,0.0,0,0
1759830091.7956288,0,-1.3732909565078444e-06,5.999995708465576,3.1415911873046163,0.0,True,0.010412216186523438,-1.3732909565078444e-06,5.999995708465576,3.1415913105010986,0.0,0,0
1759830091.8058357,0,-1.3732909565078444e-06,5.999995708465576,3.1415911928061853,0.0,True,0.010206937789916992,-1.3732909565078444e-06,5.999995708465576,3.1415913105010986,0.0,0,0
1759830091.817114,0,-1.3732909565078444e-06,5.999995708465576,3.1415911950371562,0.0,True,0.011278390884399414,-1.3732909565078444e-06,5.999995708465576,3.1415913105010986,0.0,0,0
1759830091.8284729,0,-1.3732909565078444e-06,5.999995708465576,3.141591197362562,0.0,True,0.01135873794555664,-1.3732909565078444e-06,5.999995708465576,3.1415913105010986,0.0,0,0
1759830091.8396878,0,-1.3732909565078444e-06,5.999995708465576,3.1415912004575244,0.0,True,0.011214971542358398,-1.3732909565078444e-06,5.999995708465576,3.1415913105010986,0.0,0,0
1759830091.8502965,0,-1.3732909565078444e-06,5.999995708465576,3.141591205088911,0.0,True,0.010608673095703125,-1.3732909565078444e-06,5.999995708465576,3.1415913105010986,0.0,0,0
1759830091.8617477,0,-1.3732909565078444e-06,5.999995708465576,3.1415912075782266,0.0,True,0.011451244354248047,-1.3732909565078444e-06,5.999995708465576,3.1415913105010986,0.0,0,0
1759830091.8795693,0,-1.3732909565078444e-06,5.999995708465576,3.14159119742218,0.0,True,0.017821550369262695,-1.3732909565078444e-06,5.999995708465576,3.1415913105010986,0.0,0,0
1759830091.8909454,0,-1.3732909565078444e-06,5.999995708465576,3.1415912042327427,0.0,True,0.011376142501831055,-1.3732909565078444e-06,5.999995708465576,3.1415913105010986,0.0,0,0
1759830091.90107,0,-1.3732909565078444e-06,5.999995708465576,3.141591213278371,0.0,True,0.010124683380126953,-1.3732909565078444e-06,5.999995708465576,3.1415913105010986,0.0,0,0
1759830091.912211,0,-1.3732909565078444e-06,5.999995708465576,3.141591218708145,0.0,True,0.011140823364257812,-1.3732909565078444e-06,5.999995708465576,3.1415913105010986,0.0,0,0
1759830091.9225338,0,-1.3732909565078444e-06,5.999995708465576,3.141591224591167,0.0,True,0.010322809219360352,-1.3732909565078444e-06,5.999995708465576,3.1415913105010986,0.0,0,0
1759830091.9335482,0,-1.3732909565078444e-06,5.999995708465576,3.1415912283149314,0.0,True,0.011014461517333984,-1.3732909565078444e-06,5.999995708465576,3.1415913105010986,0.0,0.0,0.2024022565512658
1759830091.9440298,0,-1.3732909565078444e-06,5.999995708465576,3.141591232434811,0.0,True,0.010481595993041992,-1.3732909565078444e-06,5.999995708465576,3.1415913105010986,0.0,0.0,0.20496306232337552
1759830091.9541225,0,-1.3732909565078444e-06,5.999995708465576,3.141591236638739,0.0,True,0.010092735290527344,-1.3732909565078444e-06,5.999995708465576,3.1415913105010986,0.0,0.0,0.20546951811678535
1759830091.9649293,0,-1.3732909565078444e-06,5.999995708465576,3.1415912391195313,0.0,True,0.010806798934936523,-1.3732909565078444e-06,5.999995708465576,3.1415913105010986,0.0,0.0,0.2084495251587164
1759830091.9756641,0,-1.3732909565078444e-06,5.999995708465576,3.141591241518217,0.0,True,0.010734796524047852,-1.3732909565078444e-06,5.999995708465576,3.1415913105010986,0.0,0.0,0.20903858295865294
1759830091.985922,0,-1.3732909565078444e-06,5.999995708465576,3.14159124449902,0.0,True,0.010257959365844727,-1.3732909565078444e-06,5.999995708465576,3.1415913105010986,0.0,0.0,0.2092509468324067
1759830091.9970047,0,-1.3732909565078444e-06,5.999995708465576,3.141591246047259,0.0,True,0.011082649230957031,-1.3732909565078444e-06,5.999995708465576,3.1415913105010986,0.0,0.0,0.21154950934755748
1759830092.0072281,0,-1.3732909565078444e-06,5.999995708465576,3.141591248807858,0.0,True,0.010223388671875,-1.3732909565078444e-06,5.999995708465576,3.1415913105010986,0.0,0.0,0.2146175599909169
1759830092.0180457,0,-1.3732909565078444e-06,5.999995708465576,3.1415912505692773,0.0,True,0.010817527770996094,-1.3732909565078444e-06,5.999995708465576,3.1415913105010986,0.0,0.0,0.21578828746583523
1759830092.0281904,0,-1.3732909565078444e-06,5.999995708465576,3.141591253139488,0.0,True,0.010144710540771484,-1.3732909565078444e-06,5.999995708465576,3.1415913105010986,0.0,0.0,0.21584924364477753
1759830092.0393198,0,-1.3732909565078444e-06,5.999995708465576,3.141591254278481,0.0,True,0.011129379272460938,-1.3732909565078444e-06,5.999995708465576,3.1415913105010986,0.0,0.0,0.2179093141174399
1759830092.0506077,0,-1.3732909565078444e-06,5.999995708465576,3.1415912553505514,0.0,True,0.011287927627563477,-1.3732909565078444e-06,5.999995708465576,3.1415913105010986,0.0,0.0,0.21570014986739589
1759830092.0614705,0,-1.3732909565078444e-06,5.999995708465576,3.1415912571199307,0.0,True,0.01086282730102539,-1.3732909565078444e-06,5.999995708465576,3.1415913105010986,0.0,0.0,0.21329256607825708
1759830092.073345,0,-0.021795942825415325,5.999989226092364,3.141591257861382,0.16765501614402503,True,0.01187443733215332,-0.0340353399515152,5.999985218048096,3.1415913105010986,0.16765501614402503,0.0,0.20973804097713156
1759830092.0841267,0,-0.03005075449981629,5.99998674994813,3.1415912599463525,0.16765501614402503,True,0.01078176498413086,-0.0340353399515152,5.999985218048096,3.1415913105010986,0.16765501614402503,0.0,0.20935378445878022
1759830092.0950544,0,-0.033213155987827536,5.9999858041569105,3.1415912618164903,0.16765501614402503,True,0.010927677154541016,-0.0340353399515152,5.999985218048096,3.1415913105010986,0.16765501614402503,0.0,0.2040811098397489
1759830092.1058762,0,-0.03441430689042122,5.999985442886118,3.1415912636807786,0.16765501614402503,True,0.010821819305419922,-0.0340353399515152,5.999985218048096,3.1415913105010986,0.16765501614402503,0.0,0.20366398543254258
1759830092.1163661,0,-0.03485185269198926,5.999985304862133,3.1415912657367695,0.16765501614402503,True,0.010489940643310547,-0.0340353399515152,5.999985218048096,3.1415913105010986,0.16765501614402503,0.0,0.2026475628560738
1759830092.1271708,0,-0.03503913404014451,5.999985252168284,3.1415912672988675,0.16765501614402503,True,0.01080465316772461,-0.0340353399515152,5.999985218048096,3.1415913105010986,0.16765501614402503,0.0,0.19901135342220538
1759830092.137511,0,-0.03508092713941166,5.999985231998702,3.1415912691766827,0.16765501614402503,True,0.010340213775634766,-0.0340353399515152,5.999985218048096,3.1415913105010986,0.16765501614402503,0.0,0.19355804864350373
1759830092.147792,0,-0.03509310422567698,5.99998522428813,3.141591270921623,0.16765501614402503,True,0.010281085968017578,-0.0340353399515152,5.999985218048096,3.1415913105010986,0.16765501614402503,0.0,0.19485340813619753
1759830092.158204,0,-0.035106137575603595,5.999985221353411,3.1415912723704267,0.16765501614402503,True,0.010411977767944336,-0.0340353399515152,5.999985218048096,3.1415913105010986,0.16765501614402503,0.0,0.19303053290020772
1759830092.1689413,0,-0.035131941386665734,5.999985220260267,3.1415912734426,0.16765501614402503,True,0.010737180709838867,-0.0340353399515152,5.999985218048096,3.1415913105010986,0.16765501614402503,0.0,0.1893211480120942
1759830092.1804795,0,-0.03519309795277494,5.999985219912823,3.1415912738914837,0.16765501614402503,True,0.011538267135620117,-0.0340353399515152,5.999985218048096,3.1415913105010986,0.16765501614402503,0.0,0.18654055778356782
1759830092.191049,0,-0.03515442391046119,5.999985219694139,3.1415912752697412,0.16765501614402503,True,0.010569572448730469,-0.0340353399515152,5.999985218048096,3.1415913105010986,0.16765501614402503,0.0,0.18366771135365847
1759830092.2023609,0,-0.03518718093891532,5.999985219675218,3.1415912760696223,0.16765501614402503,True,0.011311769485473633,-0.0340353399515152,5.999985218048096,3.1415913105010986,0.16765501614402503,0.0,0.18183935398383294
1759830092.2137306,0,-0.0352034031277118,5.99998521967252,3.141591276900588,0.16765501614402503,True,0.011369705200195312,-0.0340353399515152,5.999985218048096,3.1415913105010986,0.16765501614402503,0.0,0.18158246381299623
1759830092.2239332,0,-0.035134862727476554,5.99998521956795,3.141591278607267,0.16765501614402503,True,0.010202646255493164,-0.0340353399515152,5.999985218048096,3.1415913105010986,0.16765501614402503,0.0,0.1809670822347963
1759830092.2348073,0,-0.03515167723451685,5.9999852195860415,3.141591279689097,0.16765501614402503,True,0.010874032974243164,-0.0340353399515152,5.999985218048096,3.1415913105010986,0.16765501614402503,0.0,0.17744026784733657
1759830092.2461238,0,-0.035186437161509015,5.999985219631151,3.141591280423274,0.16765501614402503,True,0.011316537857055664,-0.0340353399515152,5.999985218048096,3.1415913105010986,0.16765501614402503,0.0,0.17598891094728142
1759830092.256381,0,-0.03513187867072268,5.999985219554663,3.141591281860814,0.16765501614402503,True,0.010257244110107422,-0.0340353399515152,5.999985218048096,3.1415913105010986,0.16765501614402503,0.0,0.17825293218676772
1759830092.2671554,0,-0.03514415541379072,5.999985219569952,3.141591282851749,0.16765501614402503,True,0.010774374008178711,-0.0340353399515152,5.999985218048096,3.1415913105010986,0.16765501614402503,0.0,0.17563616060115073
