timestamp,vehicle_id,x,y,theta,velocity,gps_available,dt,gps_x,gps_y,gps_theta,gps_velocity,control_steering,control_acceleration
1759827407.3273947,0,-1.205,-0.83,-0.7801621756414647,0.0,False,0.01,nan,nan,nan,nan,0.0,0.0
1759827407.3377657,0,-1.205,-0.83,-0.7801621756414647,0.0,False,0.010370969772338867,nan,nan,nan,nan,0.0,0.0
1759827407.3490353,0,-1.205,-0.83,-0.7801621756414647,0.0,False,0.011269569396972656,nan,nan,nan,nan,0.0,0.0
1759827407.3596492,0,-1.205,-0.83,-0.7801621756414647,0.0,False,0.01061391830444336,nan,nan,nan,nan,0.0,0.0
1759827407.3707082,0,-1.205,-0.83,-0.7801621756414647,0.0,False,0.011059045791625977,nan,nan,nan,nan,0.0,0.0
1759827407.3813283,0,-1.205,-0.83,-0.7801621756414647,0.0,False,0.0106201171875,nan,nan,nan,nan,0.0,0.0
1759827407.391688,0,-1.205,-0.83,-0.7801621756414647,0.0,False,0.010359764099121094,nan,nan,nan,nan,0.0,0.0
1759827407.402067,0,-1.205,-0.83,-0.7801621756414647,0.0,False,0.010378837585449219,nan,nan,nan,nan,0.0,0.0
1759827407.4129682,0,-1.205,-0.83,-0.7801621756414647,0.0,False,0.010901212692260742,nan,nan,nan,nan,0.0,0.0
1759827407.4245613,0,-1.205,-0.83,-0.7801621756414647,0.0,False,0.011593103408813477,nan,nan,nan,nan,0.0,0.0
1759827407.4360044,0,-1.205,-0.83,-0.7801621756414647,0.0,False,0.011443138122558594,nan,nan,nan,nan,0.0,0.0
1759827407.446681,0,-1.205,-0.83,-0.7801621756414647,0.0,False,0.01067662239074707,nan,nan,nan,nan,0.0,0.0
1759827407.4571154,0,-1.205,-0.83,-0.7801621756414647,0.0,False,0.010434389114379883,nan,nan,nan,nan,0.0,0.0
1759827407.4683123,0,-1.205,-0.83,-0.7801621756414647,0.0,False,0.01119685173034668,nan,nan,nan,nan,0.0,0.0
1759827407.4784486,0,-1.205,-0.83,-0.7801621756414647,0.0,False,0.01013636589050293,nan,nan,nan,nan,0.0,0.0
1759827407.4897559,0,-1.205,-0.83,-0.7801621756414647,0.0,False,0.011307239532470703,nan,nan,nan,nan,0.0,0.0
1759827407.5001452,0,-1.205,-0.83,-0.7801621756414647,0.0,False,0.010389328002929688,nan,nan,nan,nan,0.0,0.0
1759827407.5117025,0,-1.205,-0.83,-0.7801621756414647,0.0,False,0.011557340621948242,nan,nan,nan,nan,0.0,0.0
1759827407.52177,0,-1.2049998061259588,-0.8299996288021405,-0.7229993863110735,0.0,True,0.010067462921142578,-1.2049998044967651,-0.8299996256828308,-0.7177030444145203,0.0,0.0,0.0
1759827407.533168,0,-1.2049998050413424,-0.829999626725497,-0.718114361515692,0.0,True,0.011398077011108398,-1.2049998044967651,-0.8299996256828308,-0.7177030444145203,0.0,0.0,0.0
1759827407.5445173,0,-1.2049998047010528,-0.8299996260739668,-0.7176542895746785,0.0,True,0.011349201202392578,-1.2049998044967651,-0.8299996256828308,-0.7177030444145203,0.0,0.0,0.0
1759827407.5547886,0,-1.2049998045745929,-0.8299996258318424,-0.7175990581415945,0.0,True,0.010271310806274414,-1.2049998044967651,-0.8299996256828308,-0.7177030444145203,0.0,0.0,0.0
1759827407.5660417,0,-1.2049998045264814,-0.8299996257397265,-0.7175909793697919,0.0,True,0.011253118515014648,-1.2049998044967651,-0.8299996256828308,-0.7177030444145203,0.0,0.0,0.0
1759827407.5763943,0,-1.2049998045081152,-0.8299996257045619,-0.717599635450199,0.0,True,0.010352611541748047,-1.2049998044967651,-0.8299996256828308,-0.7177030444145203,0.0,0.0,0.0
1759827407.586662,0,-1.2049998045011003,-0.8299996256911313,-0.7176112365249967,0.0,True,0.01026773452758789,-1.2049998044967651,-0.8299996256828308,-0.7177030444145203,0.0,0.0,0.0
1759827407.5977576,0,-1.204999804498421,-0.8299996256860013,-0.7176211805487007,0.0,True,0.011095523834228516,-1.2049998044967651,-0.8299996256828308,-0.7177030444145203,0.0,0.0,0.0
1759827407.6091058,0,-1.2049998044973975,-0.8299996256840418,-0.7176305364266256,0.0,True,0.011348247528076172,-1.2049998044967651,-0.8299996256828308,-0.7177030444145203,0.0,0.0,0.0
1759827407.619884,0,-1.2049998044970067,-0.8299996256832933,-0.7176397674890751,0.0,True,0.010778188705444336,-1.2049998044967651,-0.8299996256828308,-0.7177030444145203,0.0,0.0,0.0
1759827407.630454,0,-1.2049998044968575,-0.8299996256830074,-0.7176476484281089,0.0,True,0.010570049285888672,-1.2049998044967651,-0.8299996256828308,-0.7177030444145203,0.0,0.0,0.0
1759827407.6418695,0,-1.2049998044968004,-0.8299996256828983,-0.7176533029328649,0.0,True,0.011415481567382812,-1.2049998044967651,-0.8299996256828308,-0.7177030444145203,0.0,0.0,0.0
1759827407.6532128,0,-1.2049998044967787,-0.8299996256828566,-0.7176583308650031,0.0,True,0.011343240737915039,-1.2049998044967651,-0.8299996256828308,-0.7177030444145203,0.0,0.0,0.0
1759827407.6635623,0,-1.2049998044967702,-0.8299996256828407,-0.7176634269499491,0.0,True,0.010349512100219727,-1.2049998044967651,-0.8299996256828308,-0.7177030444145203,0.0,0.0,0.0
1759827407.6737328,0,-1.2049998044967671,-0.8299996256828346,-0.7176676550460783,0.0,True,0.010170459747314453,-1.2049998044967651,-0.8299996256828308,-0.7177030444145203,0.0,0.0,0.0
1759827407.6852458,0,-1.2049998044967658,-0.8299996256828323,-0.7176702198294933,0.0,True,0.011512994766235352,-1.2049998044967651,-0.8299996256828308,-0.7177030444145203,0.0,0.0,0.0
1759827407.6955347,0,-1.2049998044967654,-0.8299996256828314,-0.7176732817912477,0.0,True,0.01028895378112793,-1.2049998044967651,-0.8299996256828308,-0.7177030444145203,0.0,0.0,0.0
1759827407.706177,0,-1.2049998044967651,-0.829999625682831,-0.7176756681052545,0.0,True,0.010642290115356445,-1.2049998044967651,-0.8299996256828308,-0.7177030444145203,0.0,0.0,0.0
1759827407.7172003,0,-1.2049998044967651,-0.8299996256828309,-0.7176775275424312,0.0,True,0.011023283004760742,-1.2049998044967651,-0.8299996256828308,-0.7177030444145203,0.0,0.0,0.0
1759827407.7282588,0,-1.2049998044967651,-0.8299996256828308,-0.717679199259738,0.0,True,0.011058568954467773,-1.2049998044967651,-0.8299996256828308,-0.7177030444145203,0.0,0.0,0.0
1759827407.7386563,0,-1.2049998044967651,-0.8299996256828308,-0.7176810215625302,0.0,True,0.01039743423461914,-1.2049998044967651,-0.8299996256828308,-0.7177030444145203,0.0,0.0,0.0
1759827407.7494729,0,-1.2049998044967651,-0.8299996256828308,-0.7176824201795391,0.0,True,0.010816574096679688,-1.2049998044967651,-0.8299996256828308,-0.7177030444145203,0.0,0.0,0.0
1759827407.760575,0,-1.2049998044967651,-0.8299996256828308,-0.7176835596163507,0.0,True,0.01110219955444336,-1.2049998044967651,-0.8299996256828308,-0.7177030444145203,0.0,0.0,0.0
1759827407.771141,0,-1.2049998044967651,-0.8299996256828308,-0.717684825693258,0.0,True,0.010565996170043945,-1.2049998044967651,-0.8299996256828308,-0.7177030444145203,0.0,0.0,0.0
1759827407.7812505,0,-1.2049998044967651,-0.8299996256828308,-0.7176861099413987,0.0,True,0.010109424591064453,-1.2049998044967651,-0.8299996256828308,-0.7177030444145203,0.0,0.0,0.0
1759827407.7917392,0,-1.2049998044967651,-0.8299996256828308,-0.7176870779405196,0.0,True,0.010488748550415039,-1.2049998044967651,-0.8299996256828308,-0.7177030444145203,0.0,0.0,0.0
1759827407.8028314,0,-1.2049998044967651,-0.8299996256828308,-0.7176877458310553,0.0,True,0.011092185974121094,-1.2049998044967651,-0.8299996256828308,-0.7177030444145203,0.0,0.0,0.0
1759827407.8132699,0,-1.2049998044967651,-0.8299996256828308,-0.7176886006576879,0.0,True,0.01043844223022461,-1.2049998044967651,-0.8299996256828308,-0.7177030444145203,0.0,0.0,0.0
1759827407.8244383,0,-1.2049998044967651,-0.8299996256828308,-0.7176891712240305,0.0,True,0.011168479919433594,-1.2049998044967651,-0.8299996256828308,-0.7177030444145203,0.0,0.0,0.0
1759827407.8359373,0,-1.2049998044967651,-0.8299996256828308,-0.7176896497904988,0.0,True,0.01149892807006836,-1.2049998044967651,-0.8299996256828308,-0.7177030444145203,0.0,0.0,0.0
1759827407.8467937,0,-1.2049998044967651,-0.8299996256828308,-0.7176903278246023,0.0,True,0.010856389999389648,-1.2049998044967651,-0.8299996256828308,-0.7177030444145203,0.0,0.0,0.0
1759827407.8571746,0,-1.2049998044967651,-0.8299996256828308,-0.717691081403828,0.0,True,0.010380983352661133,-1.2049998044967651,-0.8299996256828308,-0.7177030444145203,0.0,0.0,0.0
1759827407.8680453,0,-1.2049998044967651,-0.8299996256828308,-0.7176916264518152,0.0,True,0.010870695114135742,-1.2049998044967651,-0.8299996256828308,-0.7177030444145203,0.0,0.0,0.0
1759827407.8791482,0,-1.2049998044967651,-0.8299996256828308,-0.7176920773602014,0.0,True,0.011102914810180664,-1.2049998044967651,-0.8299996256828308,-0.7177030444145203,0.0,0.0,0.0
1759827407.8900163,0,-1.2049998044967651,-0.8299996256828308,-0.7176925694343144,0.0,True,0.010868072509765625,-1.2049998044967651,-0.8299996256828308,-0.7177030444145203,0.0,0.0,0.0
1759827407.9006896,0,-1.2049998044967651,-0.8299996256828308,-0.7176930749243517,0.0,True,0.010673284530639648,-1.2049998044967651,-0.8299996256828308,-0.7177030444145203,0.0,0.0,0.0
1759827407.911104,0,-1.2049998044967651,-0.8299996256828308,-0.7176935887519882,0.0,True,0.010414361953735352,-1.2049998044967651,-0.8299996256828308,-0.7177030444145203,0.0,0.0,0.0
1759827407.9225008,0,-1.2049998044967651,-0.8299996256828308,-0.717693859688115,0.0,True,0.01139688491821289,-1.2049998044967651,-0.8299996256828308,-0.7177030444145203,0.0,0.0,0.0
1759827407.941041,0,-1.2049998044967651,-0.8299996256828308,-0.7176928855708233,0.0,True,0.018540143966674805,-1.2049998044967651,-0.8299996256828308,-0.7177030444145203,0.0,0.0,0.0
1759827407.9524043,0,-1.2049998044967651,-0.8299996256828308,-0.7176935980774957,0.0,True,0.01136326789855957,-1.2049998044967651,-0.8299996256828308,-0.7177030444145203,0.0,0.0,0.0
1759827407.9638045,0,-1.2049998044967651,-0.8299996256828308,-0.7176942820903935,0.0,True,0.011400222778320312,-1.2049998044967651,-0.8299996256828308,-0.7177030444145203,0.0,0.0,0.0
1759827407.974508,0,-1.2049998044967651,-0.8299996256828308,-0.7176949569966666,0.0,True,0.010703563690185547,-1.2049998044967651,-0.8299996256828308,-0.7177030444145203,0.0,0.0,0.0
1759827407.9848297,0,-1.2049998044967651,-0.8299996256828308,-0.7176955615655451,0.0,True,0.010321617126464844,-1.2049998044967651,-0.8299996256828308,-0.7177030444145203,0.0,0.0,0.0
1759827407.994965,0,-1.2049998044967651,-0.8299996256828308,-0.7176960753086821,0.0,True,0.010135412216186523,-1.2049998044967651,-0.8299996256828308,-0.7177030444145203,0.0,0.0,0.0
1759827408.005778,0,-1.2049998044967651,-0.8299996256828308,-0.7176963996226462,0.0,True,0.010812997817993164,-1.2049998044967651,-0.8299996256828308,-0.7177030444145203,0.0,0.0,0.0
1759827408.0170007,0,-1.2049998044967651,-0.8299996256828308,-0.7176966284447417,0.0,True,0.011222600936889648,-1.2049998044967651,-0.8299996256828308,-0.7177030444145203,0.0,0.0,0.0
1759827408.027713,0,-1.2049998044967651,-0.8299996256828308,-0.7176969155831614,0.0,True,0.010712385177612305,-1.2049998044967651,-0.8299996256828308,-0.7177030444145203,0.0,0.0,0.0
1759827408.039204,0,-1.2049998044967651,-0.8299996256828308,-0.7176970848337447,0.0,True,0.011490821838378906,-1.2049998044967651,-0.8299996256828308,-0.7177030444145203,0.0,0.0,0.0
1759827408.0503867,0,-1.2049998044967651,-0.8299996256828308,-0.7176972975506413,0.0,True,0.011182785034179688,-1.2049998044967651,-0.8299996256828308,-0.7177030444145203,0.0,0.0,0.0
1759827408.0614085,0,-1.2049998044967651,-0.8299996256828308,-0.7176975265601122,0.0,True,0.011021852493286133,-1.2049998044967651,-0.8299996256828308,-0.7177030444145203,0.0,0.0,0.0
1759827408.0720224,0,-1.2049998044967651,-0.8299996256828308,-0.7176977877030595,0.0,True,0.01061391830444336,-1.2049998044967651,-0.8299996256828308,-0.7177030444145203,0.0,0.0,0.0
1759827408.082837,0,-1.2049998044967651,-0.8299996256828308,-0.7176980010158029,0.0,True,0.010814666748046875,-1.2049998044967651,-0.8299996256828308,-0.7177030444145203,0.0,0.0,0.0
1759827408.0929444,0,-1.2049998044967651,-0.8299996256828308,-0.7176982684402713,0.0,True,0.010107278823852539,-1.2049998044967651,-0.8299996256828308,-0.7177030444145203,0.0,0.0,0.0
1759827408.1041477,0,-1.2049998044967651,-0.8299996256828308,-0.7176983930936771,0.0,True,0.011203289031982422,-1.2049998044967651,-0.8299996256828308,-0.7177030444145203,0.0,0.0,0.0
1759827408.115393,0,-1.2049998044967651,-0.8299996256828308,-0.7176985158010432,0.0,True,0.011245250701904297,-1.2049998044967651,-0.8299996256828308,-0.7177030444145203,0.0,0.0,0.0
1759827408.126382,0,-1.2049998044967651,-0.8299996256828308,-0.7176986712878186,0.0,True,0.010989189147949219,-1.2049998044967651,-0.8299996256828308,-0.7177030444145203,0.0,0.0,0.0
1759827408.1412742,0,-1.2049998044967651,-0.8299996256828308,-0.7176984870668015,0.0,True,0.014892101287841797,-1.2049998044967651,-0.8299996256828308,-0.7177030444145203,0.0,0.0,0.0
1759827408.1537578,0,-1.2049998044967651,-0.8299996256828308,-0.7176986113729544,0.0,True,0.012483596801757812,-1.2049998044967651,-0.8299996256828308,-0.7177030444145203,0.0,0.0,0.0
1759827408.164465,0,-1.2049998044967651,-0.8299996256828308,-0.7176989085315562,0.0,True,0.01070713996887207,-1.2049998044967651,-0.8299996256828308,-0.7177030444145203,0.0,0.0,0.0
1759827408.1756997,0,-1.2049998044967651,-0.8299996256828308,-0.7176991237456996,0.0,True,0.011234760284423828,-1.2049998044967651,-0.8299996256828308,-0.7177030444145203,0.0,0.0,0.0
1759827408.1857946,0,-1.2049998044967651,-0.8299996256828308,-0.7176993926222011,0.0,True,0.010094881057739258,-1.2049998044967651,-0.8299996256828308,-0.7177030444145203,0.0,0.0,0.0
1759827408.1968963,0,-1.2049998044967651,-0.8299996256828308,-0.7176995429006823,0.0,True,0.011101722717285156,-1.2049998044967651,-0.8299996256828308,-0.7177030444145203,0.0,0.0,0.0
1759827408.2081153,0,-1.2049998044967651,-0.8299996256828308,-0.717699667527171,0.0,True,0.011219024658203125,-1.2049998044967651,-0.8299996256828308,-0.7177030444145203,0.0,0.0,0.0
1759827408.2194939,0,-1.2049998044967651,-0.8299996256828308,-0.7176997762450519,0.0,True,0.01137852668762207,-1.2049998044967651,-0.8299996256828308,-0.7177030444145203,0.0,0.0,0.0
1759827408.2305532,0,-1.2049998044967651,-0.8299996256828308,-0.7176999049024246,0.0,True,0.011059284210205078,-1.2049998044967651,-0.8299996256828308,-0.7177030444145203,0.0,0.0,0.0
1759827408.240746,0,-1.2049998044967651,-0.8299996256828308,-0.7177000799973747,0.0,True,0.01019287109375,-1.2049998044967651,-0.8299996256828308,-0.7177030444145203,0.0,0.0,0.0
1759827408.2517102,0,-1.2049998044967651,-0.8299996256828308,-0.7177001845604067,0.0,True,0.010964155197143555,-1.2049998044967651,-0.8299996256828308,-0.7177030444145203,0.0,0.0,0.0
1759827408.262806,0,-1.2049998044967651,-0.8299996256828308,-0.717700273434648,0.0,True,0.011095762252807617,-1.2049998044967651,-0.8299996256828308,-0.7177030444145203,0.0,0.0,0.0
1759827408.2742279,0,-1.2049998044967651,-0.8299996256828308,-0.7177003435105185,0.0,True,0.011421918869018555,-1.2049998044967651,-0.8299996256828308,-0.7177030444145203,0.0,0.0,0.0
1759827408.2843237,0,-1.2049998044967651,-0.8299996256828308,-0.7177004901050612,0.0,True,0.010095834732055664,-1.2049998044967651,-0.8299996256828308,-0.7177030444145203,0.0,0.0,0.0
1759827408.2956703,0,-1.2049998044967651,-0.8299996256828308,-0.7177005536172807,0.0,True,0.011346578598022461,-1.2049998044967651,-0.8299996256828308,-0.7177030444145203,0.0,0.0,0.0
1759827408.3061178,0,-1.2049998044967651,-0.8299996256828308,-0.7177006634210343,0.0,True,0.010447502136230469,-1.2049998044967651,-0.8299996256828308,-0.7177030444145203,0.0,0.0,0.0
1759827408.317422,0,-1.2049998044967651,-0.8299996256828308,-0.7177007224822773,0.0,True,0.011304140090942383,-1.2049998044967651,-0.8299996256828308,-0.7177030444145203,0.0,0.0,0.0
1759827408.327871,0,-1.2049998044967651,-0.8299996256828308,-0.71770082411593,0.0,True,0.01044917106628418,-1.2049998044967651,-0.8299996256828308,-0.7177030444145203,0.0,0.0,0.0
1759827408.3395324,0,-1.2049998044967651,-0.8299996256828308,-0.7177008625283126,0.0,True,0.011661291122436523,-1.2049998044967651,-0.8299996256828308,-0.7177030444145203,0.0,0.0,0.0
1759827408.350113,0,-1.2049998044967651,-0.8299996256828308,-0.7177009557242684,0.0,True,0.01058053970336914,-1.2049998044967651,-0.8299996256828308,-0.7177030444145203,0.0,0.0,0.0
1759827408.3611035,0,-1.2049998044967651,-0.8299996256828308,-0.7177010256685072,0.0,True,0.010990619659423828,-1.2049998044967651,-0.8299996256828308,-0.7177030444145203,0.0,0.0,0.0
1759827408.3718166,0,-1.2049998044967651,-0.8299996256828308,-0.7177011039178787,0.0,True,0.01071310043334961,-1.2049998044967651,-0.8299996256828308,-0.7177030444145203,0.0,0.0,0.0
1759827408.382615,0,-1.2049998044967651,-0.8299996256828308,-0.7177011736750707,0.0,True,0.010798454284667969,-1.2049998044967651,-0.8299996256828308,-0.7177030444145203,0.0,0.0,0.0
1759827408.392917,0,-1.2049998044967651,-0.8299996256828308,-0.7177012583969393,0.0,True,0.010301828384399414,-1.2049998044967651,-0.8299996256828308,-0.7177030444145203,0.0,0.0,0.0
1759827408.4033964,0,-1.2049998044967651,-0.8299996256828308,-0.7177013275764974,0.0,True,0.010479450225830078,-1.2049998044967651,-0.8299996256828308,-0.7177030444145203,0.0,0.0,0.0
1759827408.4138992,0,-1.2049998044967651,-0.8299996256828308,-0.7177013896115003,0.0,True,0.010502815246582031,-1.2049998044967651,-0.8299996256828308,-0.7177030444145203,0.0,0.0,0.0
1759827408.424931,0,-1.2049998044967651,-0.8299996256828308,-0.7177014291369073,0.0,True,0.011031866073608398,-1.2049998044967651,-0.8299996256828308,-0.7177030444145203,0.0,0.0,0.0
1759827408.4363267,0,-1.2049998044967651,-0.8299996256828308,-0.7177014589060491,0.0,True,0.011395692825317383,-1.2049998044967651,-0.8299996256828308,-0.7177030444145203,0.0,0.0,0.0
1759827408.446469,0,-1.2049998044967651,-0.8299996256828308,-0.717701535548521,0.0,True,0.010142326354980469,-1.2049998044967651,-0.8299996256828308,-0.7177030444145203,0.0,0.0,0.0
1759827408.4574223,0,-1.2049998044967651,-0.8299996256828308,-0.7177015794693222,0.0,True,0.010953187942504883,-1.2049998044967651,-0.8299996256828308,-0.7177030444145203,0.0,0.0,0.0
1759827408.467549,0,-1.2049998044967651,-0.8299996256828308,-0.7177016472436506,0.0,True,0.010126829147338867,-1.2049998044967651,-0.8299996256828308,-0.7177030444145203,0.0,0.0,0.0
1759827408.4782534,0,-1.2049998044967651,-0.8299996256828308,-0.7177016910980107,0.0,True,0.010704278945922852,-1.2049998044967651,-0.8299996256828308,-0.7177030444145203,0.0,0.0,0.0
1759827408.4898999,0,-1.2049998044967651,-0.8299996256828308,-0.7177017063407582,0.0,True,0.011646509170532227,-1.2049998044967651,-0.8299996256828308,-0.7177030444145203,0.0,0.0,0.0
1759827408.5013566,0,-1.2049998044967651,-0.8299996256828308,-0.717701734526841,0.0,True,0.011456727981567383,-1.2049998044967651,-0.8299996256828308,-0.7177030444145203,0.0,0.0,0.0
1759827408.5120852,0,-1.2049998044967651,-0.8299996256828308,-0.7177017874230494,0.0,True,0.010728597640991211,-1.2049998044967651,-0.8299996256828308,-0.7177030444145203,0.0,0.0,0.0
1759827408.523385,0,-1.2049998044967651,-0.8299996256828308,-0.7177018230826118,0.0,True,0.011299848556518555,-1.2049998044967651,-0.8299996256828308,-0.7177030444145203,0.0,0.0,0.0
1759827408.5335007,0,-1.2049998044967651,-0.8299996256828308,-0.7177018881708328,0.0,True,0.010115623474121094,-1.2049998044967651,-0.8299996256828308,-0.7177030444145203,0.0,0.0,0.0
1759827408.5671425,0,-1.2049998044967651,-0.8299996256828308,-0.7177014263659984,0.0,True,0.033641815185546875,-1.2049998044967651,-0.8299996256828308,-0.7177030444145203,0.0,0.0,0.0
1759827408.5781348,0,-1.2049998044967651,-0.8299996256828308,-0.7177016180294018,0.0,True,0.010992288589477539,-1.2049998044967651,-0.8299996256828308,-0.7177030444145203,0.0,0.0,0.0
1759827408.590001,0,-1.2049998044967651,-0.8299996256828308,-0.7177017785584745,0.0,True,0.011866331100463867,-1.2049998044967651,-0.8299996256828308,-0.7177030444145203,0.0,0.0,0.0
1759827408.6005733,0,-1.2049998044967651,-0.8299996256828308,-0.7177019231850199,0.0,True,0.010572195053100586,-1.2049998044967651,-0.8299996256828308,-0.7177030444145203,0.0,0.0,0.0
1759827408.6114018,0,-1.2049998044967651,-0.8299996256828308,-0.717702027116573,0.0,True,0.010828495025634766,-1.2049998044967651,-0.8299996256828308,-0.7177030444145203,0.0,0.0,0.0
1759827408.6215982,0,-1.2049998044967651,-0.8299996256828308,-0.717702117059007,0.0,True,0.010196447372436523,-1.2049998044967651,-0.8299996256828308,-0.7177030444145203,0.0,0.0,0.0
1759827408.6317966,0,-1.2049998044967651,-0.8299996256828308,-0.7177021866184319,0.0,True,0.010198354721069336,-1.2049998044967651,-0.8299996256828308,-0.7177030444145203,0.0,0.0,0.0
1759827408.6418126,0,-1.2049998044967651,-0.8299996256828308,-0.717702244187107,0.0,True,0.01001596450805664,-1.2049998044967651,-0.8299996256828308,-0.7177030444145203,0.0,0.0,0.0
1759827408.6532838,0,-1.2049998044967651,-0.8299996256828308,-0.7177022670851994,0.0,True,0.011471271514892578,-1.2049998044967651,-0.8299996256828308,-0.7177030444145203,0.0,0.0,0.0
1759827408.6635551,0,-1.2049998044967651,-0.8299996256828308,-0.7177023070627122,0.0,True,0.010271310806274414,-1.2049998044967651,-0.8299996256828308,-0.7177030444145203,0.0,0.0,0.0
1759827408.67492,0,-1.2049998044967651,-0.8299996256828308,-0.7177023258404898,0.0,True,0.011364936828613281,-1.2049998044967651,-0.8299996256828308,-0.7177030444145203,0.0,0.0,0.0
1759827408.6860366,0,-1.2049998044967651,-0.8299996256828308,-0.717702348193967,0.0,True,0.011116504669189453,-1.2049998044967651,-0.8299996256828308,-0.7177030444145203,0.0,0.0,0.0
1759827408.6963215,0,-1.2049998044967651,-0.8299996256828308,-0.7177023821040738,0.0,True,0.010284900665283203,-1.2049998044967651,-0.8299996256828308,-0.7177030444145203,0.0,0.0,0.0
1759827408.7071075,0,-1.2049998044967651,-0.8299996256828308,-0.7177024052709378,0.0,True,0.010786056518554688,-1.2049998044967651,-0.8299996256828308,-0.7177030444145203,0.0,0.0,0.0
1759827408.7183714,0,-1.2049998044967651,-0.8299996256828308,-0.7177024203201121,0.0,True,0.011263847351074219,-1.2049998044967651,-0.8299996256828308,-0.7177030444145203,0.0,0.0,0.0
1759827408.7297242,0,-1.2049998044967651,-0.8299996256828308,-0.7177024351888797,0.0,True,0.011352777481079102,-1.2049998044967651,-0.8299996256828308,-0.7177030444145203,0.0,0.0,0.0
1759827408.7529109,0,-1.2049998044967651,-0.8299996256828308,-0.7177023120004602,0.0,True,0.023186683654785156,-1.2049998044967651,-0.8299996256828308,-0.7177030444145203,0.0,0.0,0.0
1759827408.7631884,0,-1.2049998044967651,-0.8299996256828308,-0.7177023824391444,0.0,True,0.010277509689331055,-1.2049998044967651,-0.8299996256828308,-0.7177030444145203,0.0,0.0,0.0
1759827408.774647,0,-1.2049998044967651,-0.8299996256828308,-0.7177024346666823,0.0,True,0.011458635330200195,-1.2049998044967651,-0.8299996256828308,-0.7177030444145203,0.0,0.0,0.0
1759827408.7856505,0,-1.2049998044967651,-0.8299996256828308,-0.717702480520872,0.0,True,0.011003494262695312,-1.2049998044967651,-0.8299996256828308,-0.7177030444145203,0.0,0.0,0.0
1759827408.7958086,0,-1.2049998044967651,-0.8299996256828308,-0.7177025257185861,0.0,True,0.010158061981201172,-1.2049998044967651,-0.8299996256828308,-0.7177030444145203,0.0,0.0,0.0
1759827408.8068888,0,-1.2049998044967651,-0.8299996256828308,-0.7177025525467613,0.0,True,0.011080265045166016,-1.2049998044967651,-0.8299996256828308,-0.7177030444145203,0.0,0.0,0.0
1759827408.8173869,0,-1.2049998044967651,-0.8299996256828308,-0.7177025802737802,0.0,True,0.010498046875,-1.2049998044967651,-0.8299996256828308,-0.7177030444145203,0.0,0.0,0.0
1759827408.8285956,0,-1.2049998044967651,-0.8299996256828308,-0.7177025972338527,0.0,True,0.011208772659301758,-1.2049998044967651,-0.8299996256828308,-0.7177030444145203,0.0,0.0,0.0
1759827408.8391373,0,-1.2049998044967651,-0.8299996256828308,-0.7177026185549682,0.0,True,0.010541677474975586,-1.2049998044967651,-0.8299996256828308,-0.7177030444145203,0.0,0.0,0.0
