timestamp,observer_vehicle_id,vehicle_0_x,vehicle_0_y,vehicle_0_theta,vehicle_0_velocity,vehicle_1_x,vehicle_1_y,vehicle_1_theta,vehicle_1_velocity
1759504929.4109364,0,-1.205,-0.83,-0.7801621756414646,0.0,-0.2848246550559998,-0.05745742321014405,1.7671345739344357,0.0
1759504929.4223409,0,-1.205,-0.83,-0.7801621756414646,0.0,-0.5195836274558452,-0.10481514098532899,-3.0333484839004483,0.0
1759504929.4327667,0,-1.205,-0.83,-0.7801621756414646,0.0,-0.713804735681886,-0.14399519163611532,-0.7783573455053732,0.0
1759504929.4437022,0,-1.205,-0.83,-0.7801621756414646,0.0,-0.8747562334732352,-0.17646379349604166,1.1161580559052242,0.0
1759504929.4552479,0,-1.205,-0.83,-0.7801621756414646,0.0,-1.008353605843657,-0.20341427207220747,2.7163118188326987,0.0
1759504929.466698,0,-1.205,-0.83,-0.7801621756414646,0.0,-1.119539043098465,-0.2258436109996904,-2.2073624941921506,0.0
1759504929.4769654,0,-1.205,-0.83,-0.7801621756414646,0.0,-1.2124479532977184,-0.24458604245198934,-0.09753048610710179,0.0
1759504929.4877894,0,-1.205,-0.83,-0.7801621756414646,0.0,-1.2902002798019951,-0.26027094981596444,1.695147514923277,0.0
1759504929.498379,0,-1.205,-0.83,-0.7801621756414646,0.0,-1.3554415185165254,-0.2734320066171665,-3.056988327906544,0.0
1759504929.5084884,0,-1.205,-0.83,-0.7801621756414646,0.0,-1.410346039807192,-0.2845078466469839,-0.8336465433567148,0.0
1759504929.519225,0,-1.205,-0.83,-0.7801621756414646,0.0,-1.4566112942610048,-0.29384089509587985,1.067831762655856,0.0
1759504929.5303793,0,-1.205,-0.83,-0.7801621756414646,0.0,-1.495662403129409,-0.30171864040074525,2.7023206329217357,0.0
1759504929.5406604,0,-1.205,-0.83,-0.7801621756414646,0.0,-1.5287434689389299,-0.30839205425280997,-2.1686222010599936,0.0
1759504929.5509634,0,-1.205,-0.83,-0.7801621756414646,0.0,-1.5568270812209417,-0.31405733626935417,-0.08611137850813998,0.0
1759504929.5610259,0,-1.205,-0.83,-0.7801621756414646,0.0,-1.58072829513306,-0.3188789067991763,1.7141186393974357,0.0
1759504929.5710726,0,-1.205,-0.83,-0.7801621756414646,0.0,-1.6011132678996416,-0.3229911491440199,-3.0054442382589133,0.0
1759504929.5815258,0,-1.205,-0.83,-0.7801621756414646,0.0,-1.6185247255483202,-0.3265035469405833,-0.8229766247688388,0.0
1759504929.5916014,0,-1.205,-0.83,-0.7801621756414646,0.0,-1.6334371787588842,-0.32951182280438585,1.0754572807160347,0.0
1759504929.6112223,0,-1.2050000425577163,-0.8299997470180194,-0.7229992571235471,0.0,-1.646041824033641,-0.33205454663502837,2.7378693565608025,0.0
1759504929.6217349,0,-1.205000042795803,-0.8299997456027273,-0.7181170865073057,0.0,-1.656895109885907,-0.33424397029398695,-2.081955254389293,0.0
1759504929.6320076,0,-1.2050000428705006,-0.8299997451586908,-0.7176584280225278,0.0,-1.6662637772132491,-0.3361339031842289,-0.03335783505931708,0.0
1759504929.6429563,0,-1.2050000428982601,-0.829999744993676,-0.7175949474705163,0.0,-1.6743581607240268,-0.33776677593856447,1.7710092292709823,0.0
1759504929.653844,0,-1.2050000429088212,-0.8299997449308965,-0.7175869734139102,0.0,-1.6813672969495577,-0.33918072272757643,-2.914872083994484,0.0
1759504929.6648993,0,-1.205000042912853,-0.8299997449069307,-0.717593886125087,0.0,-1.687447715205223,-0.34040732007021784,-0.780820191209181,0.0
1759504929.6756468,0,-1.2050000429143926,-0.8299997448977774,-0.7176062312051652,0.0,-1.6927365745234844,-0.3414742369355732,1.1111554367010934,0.0
1759504929.6859176,0,-1.2050000429149808,-0.8299997448942812,-0.7176191796280129,0.0,-1.697385551325901,-0.3424120708726602,2.7949366173461296,0.0
1759504929.6964731,0,-1.2050000429152055,-0.8299997448929457,-0.717629728911465,0.0,-1.701523140680052,-0.3432467430766676,-1.9896834390593745,0.0
1759504929.7067761,0,-1.2050000429152912,-0.8299997448924357,-0.7176389441096962,0.0,-1.7052055952052463,-0.34398960133823414,0.035190017919312554,0.0
1759504929.7170591,0,-1.205000042915324,-0.8299997448922408,-0.7176465390466795,0.0,-1.7084829797326693,-0.3446507451910284,1.837327394630344,0.0
1759504929.7277188,0,-1.2050000429153365,-0.8299997448921663,-0.7176524366195913,0.0,-1.7113998519620757,-0.3452391632200153,-2.841955647276424,0.0
1759504929.7381349,0,-1.2050000429153414,-0.8299997448921379,-0.7176577037426526,0.0,-1.7113998519620757,-0.3452391632200153,-2.841955647276424,0.0
1759504929.748611,0,-1.2050000429153431,-0.829999744892127,-0.7176621035042814,0.0,-1.7113998519620757,-0.3452391632200153,-2.841955647276424,0.0
1759504929.7594059,0,-1.2050000429153438,-0.8299997448921229,-0.7176656215867041,0.0,-1.7113998519620757,-0.3452391632200153,-2.841955647276424,0.0
1759504929.7697737,0,-1.205000042915344,-0.8299997448921214,-0.717669009086789,0.0,-1.7113998519620757,-0.3452391632200153,-2.841955647276424,0.0
1759504929.7811935,0,-1.2050000429153442,-0.8299997448921207,-0.7176712638358183,0.0,-1.7113998519620757,-0.3452391632200153,-2.841955647276424,0.0
1759504929.7923756,0,-1.2050000429153442,-0.8299997448921205,-0.7176735494775298,0.0,-1.7113998519620757,-0.3452391632200153,-2.841955647276424,0.0
1759504929.8054588,0,-1.2050000429153442,-0.8299997448921204,-0.7176747001508019,0.0,-1.7113998519620757,-0.3452391632200153,-2.841955647276424,0.0
1759504929.8169677,0,-1.2050000429153442,-0.8299997448921204,-0.7176768750181033,0.0,-1.7113998519620757,-0.3452391632200153,-2.841955647276424,0.0
1759504929.8269906,0,-1.2050000429153442,-0.8299997448921204,-0.7176795207527711,0.0,-1.7113998519620757,-0.3452391632200153,-2.841955647276424,0.0
1759504929.8370006,0,-1.2050000429153442,-0.8299997448921204,-0.717681649021454,0.0,-1.7113998519620757,-0.3452391632200153,-2.841955647276424,0.0
1759504929.848454,0,-1.2050000429153442,-0.8299997448921204,-0.7176827745761631,0.0,-1.7113998519620757,-0.3452391632200153,-2.841955647276424,0.0
1759504929.858498,0,-1.2050000429153442,-0.8299997448921204,-0.7176843534736648,0.0,-1.7113998519620757,-0.3452391632200153,-2.841955647276424,0.0
1759504929.8695216,0,-1.2050000429153442,-0.8299997448921204,-0.7176853436599195,0.0,-1.7113998519620757,-0.3452391632200153,-2.841955647276424,0.0
1759504929.8804688,0,-1.2050000429153442,-0.8299997448921204,-0.7176862759298254,0.0,-1.7113998519620757,-0.3452391632200153,-2.841955647276424,0.0
1759504929.8918417,0,-1.2050000429153442,-0.8299997448921204,-0.7176870133266746,0.0,-1.7113998519620757,-0.3452391632200153,-2.841955647276424,0.0
1759504929.9047608,0,-1.2050000429153442,-0.8299997448921204,-0.7176872823922196,0.0,-1.7113998519620757,-0.3452391632200153,-2.841955647276424,0.0
1759504929.9160297,0,-1.2050000429153442,-0.8299997448921204,-0.7176881896616081,0.0,-1.7113998519620757,-0.3452391632200153,-2.841955647276424,0.0
1759504929.9273129,0,-1.2050000429153442,-0.8299997448921204,-0.717689044124505,0.0,-1.7113998519620757,-0.3452391632200153,-2.841955647276424,0.0
1759504929.938268,0,-1.2050000429153442,-0.8299997448921204,-0.7176898978510042,0.0,-1.7113998519620757,-0.3452391632200153,-2.841955647276424,0.0
1759504929.9497333,0,-1.2050000429153442,-0.8299997448921204,-0.7176905234093649,0.0,-1.7113998519620757,-0.3452391632200153,-2.841955647276424,0.0
1759504929.960674,0,-1.2050000429153442,-0.8299997448921204,-0.7176912284072756,0.0,-1.7113998519620757,-0.3452391632200153,-2.841955647276424,0.0
1759504929.971494,0,-1.2050000429153442,-0.8299997448921204,-0.7176918870314566,0.0,-1.7113998519620757,-0.3452391632200153,-2.841955647276424,0.0
1759504929.9825244,0,-1.2050000429153442,-0.8299997448921204,-0.717692423361413,0.0,-1.7113998519620757,-0.3452391632200153,-2.841955647276424,0.0
1759504929.9928975,0,-1.2050000429153442,-0.8299997448921204,-0.7176930469672057,0.0,-1.7113998519620757,-0.3452391632200153,-2.841955647276424,0.0
1759504930.007777,0,-1.2050000429153442,-0.8299997448921204,-0.7176927126320383,0.0,-1.7113998519620757,-0.3452391632200153,-2.841955647276424,0.0
1759504930.0179858,0,-1.2050000429153442,-0.8299997448921204,-0.7176934783940112,0.0,-1.7113998519620757,-0.3452391632200153,-2.841955647276424,0.0
1759504930.0287597,0,-1.2050000429153442,-0.8299997448921204,-0.7176940629618862,0.0,-1.7113998519620757,-0.3452391632200153,-2.841955647276424,0.0
1759504930.0396867,0,-1.2050000429153442,-0.8299997448921204,-0.7176945276873905,0.0,-1.7113998519620757,-0.3452391632200153,-2.841955647276424,0.0
1759504930.0506272,0,-1.2050000429153442,-0.8299997448921204,-0.7176949333153358,0.0,-1.7113998519620757,-0.3452391632200153,-2.841955647276424,0.0
1759504930.0608,0,-1.2050000429153442,-0.8299997448921204,-0.7176954200051107,0.0,-1.7113998519620757,-0.3452391632200153,-2.841955647276424,0.0
1759504930.0717022,0,-1.2050000429153442,-0.8299997448921204,-0.7176957246051536,0.0,-1.7113998519620757,-0.3452391632200153,-2.841955647276424,0.0
1759504930.081926,0,-1.2050000429153442,-0.8299997448921204,-0.7176961027815877,0.0,-1.7113998519620757,-0.3452391632200153,-2.841955647276424,0.0
1759504930.093379,0,-1.2050000429153442,-0.8299997448921204,-0.7176962622055036,0.0,-1.7113998519620757,-0.3452391632200153,-2.841955647276424,0.0
1759504930.1041648,0,-1.2050000429153442,-0.8299997448921204,-0.7176965272751586,0.0,-1.7113998519620757,-0.3452391632200153,-2.841955647276424,0.0
1759504930.1143837,0,-1.2050000429153442,-0.8299997448921204,-0.7176968584035848,0.0,-1.7113998519620757,-0.3452391632200153,-2.841955647276424,0.0
1759504930.1258292,0,-1.2050000429153442,-0.8299997448921204,-0.7176969954175333,0.0,-1.7113998519620757,-0.3452391632200153,-2.841955647276424,0.0
1759504930.1372983,0,-1.2050000429153442,-0.8299997448921204,-0.7176971435725967,0.0,-1.7113998519620757,-0.3452391632200153,-2.841955647276424,0.0
1759504930.148317,0,-1.2050000429153442,-0.8299997448921204,-0.7176973647469378,0.0,-1.7113998519620757,-0.3452391632200153,-2.841955647276424,0.0
1759504930.1595821,0,-1.2050000429153442,-0.8299997448921204,-0.7176975537682395,0.0,-1.7113998519620757,-0.3452391632200153,-2.841955647276424,0.0
1759504930.17011,0,-1.2050000429153442,-0.8299997448921204,-0.7176978214780814,0.0,-1.7113998519620757,-0.3452391632200153,-2.841955647276424,0.0
1759504930.1803188,0,-1.2050000429153442,-0.8299997448921204,-0.7176980957388039,0.0,-1.7113998519620757,-0.3452391632200153,-2.841955647276424,0.0
1759504930.1916945,0,-1.2050000429153442,-0.8299997448921204,-0.7176982144674202,0.0,-1.71608296071677,-0.34618387738426565,-2.4204221745837446,0.0
1759504930.2202644,0,-1.2050000429153442,-0.8299997448921204,-0.7176967633678099,0.0,-1.7197286708503634,-0.34691931919917207,-2.092266469998826,0.0
1759504930.2241116,0,-1.2050000429153442,-0.8299997448921204,-0.7176980435089603,0.0,-1.7226600135743937,-0.3475106531050712,-1.8284120214182122,0.0
1759504930.2353175,0,-1.2050000429153442,-0.8299997448921204,-0.7176984579634755,0.0,-1.7250010148930053,-0.34798289861976356,-1.6176950666980434,0.0
1759504930.2460573,0,-1.2050000429153442,-0.8299997448921204,-0.7176987808927571,0.0,-1.7268764191269983,-0.3483612201656325,-1.4488871869610755,0.0
1759504930.2566674,0,-1.2050000429153442,-0.8299997448921204,-0.7176990505949892,0.0,-1.7283828238016437,-0.3486651041682843,-1.3132934975881383,0.0
1759504930.2670748,0,-1.2050000429153442,-0.8299997448921204,-0.717699287782402,0.0,-1.7295961020827528,-0.3489098563697343,-1.2040845438849108,0.0
1759504930.277301,0,-1.2050000429153442,-0.8299997448921204,-0.7176994984778311,0.0,-1.7305758591404836,-0.3491075008017656,-1.1158951772539416,0.0
1759504930.2882996,0,-1.2050000429153442,-0.8299997448921204,-0.7176996196551535,0.0,-1.7313682384355553,-0.3492673458924359,-1.044571957265397,0.0
1759504930.2997081,0,-1.2050000429153442,-0.8299997448921204,-0.7176997037032997,0.0,-1.7320104029228776,-0.34939688845032413,-0.9867697919602493,0.0
1759504930.309894,0,-1.2050000429153442,-0.8299997448921204,-0.7176998755742989,0.0,-1.7325329201037725,-0.34950229479634604,-0.9397372558092488,0.0
1759504930.3206174,0,-1.2050000429153442,-0.8299997448921204,-0.7176999932564012,0.0,-1.7329588117091281,-0.349588209058237,-0.9014021291231056,0.0
1759504930.331118,0,-1.2050000429153442,-0.8299997448921204,-0.7177001145324446,0.0,-1.7333614250826352,-0.3496694274489668,-0.8651623101530924,0.0
1759504930.3414145,0,-1.2050000429153442,-0.8299997448921204,-0.717700238187545,0.0,-1.7336812382224103,-0.3497339427141218,-0.8363754613986252,0.0
1759504930.3528328,0,-1.2050000429153442,-0.8299997448921204,-0.7177002834610064,0.0,-1.7339356070851153,-0.34978525603613264,-0.8134793478002705,0.0
1759504930.3636749,0,-1.2050000429153442,-0.8299997448921204,-0.7177003709932332,0.0,-1.7341385920270438,-0.34982620378255797,-0.7952083761108524,0.0
1759504930.374212,0,-1.2050000429153442,-0.8299997448921204,-0.7177004763455468,0.0,-1.734301039623228,-0.34985897401128896,-0.7805862302378892,0.0
1759504930.3843682,0,-1.2050000429153442,-0.8299997448921204,-0.717700594398778,0.0,-1.7344314209657332,-0.3498852755787884,-0.7688504147872014,0.0
1759504930.3947117,0,-1.2050000429153442,-0.8299997448921204,-0.7177006891060245,0.0,-1.7345362940140217,-0.3499064314091045,-0.7594106382301145,0.0
1759504930.4213655,0,-1.2050000429153442,-0.8299997448921204,-0.717700000000173,0.0,-1.7346193417191302,-0.3499231844565851,-0.7519353927538195,0.0
1759504930.4329035,0,-1.2050000429153442,-0.8299997448921204,-0.7177002568194553,0.0,-1.7346866273077683,-0.3499367578438298,-0.7458789184487066,0.0
1759504930.4430065,0,-1.2050000429153442,-0.8299997448921204,-0.717700572901709,0.0,-1.7347491697295228,-0.349949374401504,-0.7402493835363927,0.0
1759504930.4536455,0,-1.2050000429153442,-0.8299997448921204,-0.7177007929234485,0.0,-1.734798683360757,-0.34995936268732025,-0.7357925891262936,0.0
1759504930.4642525,0,-1.2050000429153442,-0.8299997448921204,-0.7177009617425458,0.0,-1.734837983312,-0.3499672905878963,-0.7322551429998024,0.0
1759504930.4753013,0,-1.2050000429153442,-0.8299997448921204,-0.7177010780735138,0.0,-1.7348692409731068,-0.34997359613336526,-0.72944159517831,0.0
1759504930.4857962,0,-1.2050000429153442,-0.8299997448921204,-0.7177011953263399,0.0,-1.7348941815885086,-0.34997862735383634,-0.7271966538856703,0.0
1759504930.4964747,0,-1.2050000429153442,-0.8299997448921204,-0.7177012868857311,0.0,-1.7349141273128834,-0.3499826509649289,-0.7254013100443281,0.0
1759504930.5066648,0,-1.2050000429153442,-0.8299997448921204,-0.7177013822086735,0.0,-1.7349301269189392,-0.3499858785334641,-0.7239611620879733,0.0
1759504930.5179725,0,-1.2050000429153442,-0.8299997448921204,-0.7177014252884106,0.0,-1.7349429763037467,-0.3499884706141663,-0.7228045701564999,0.0
1759504930.5283175,0,-1.2050000429153442,-0.8299997448921204,-0.7177014994839226,0.0,-1.734953333797995,-0.3499905600107691,-0.7218722769411258,0.0
1759504930.5388029,0,-1.2050000429153442,-0.8299997448921204,-0.717701561966491,0.0,-1.7349617014715166,-0.34999224800481576,-0.7211190904014259,0.0
1759504930.549065,0,-1.2050000429153442,-0.8299997448921204,-0.7177016248157352,0.0,-1.7349684797238325,-0.3499936153681009,-0.7205089699905786,0.0
1759504930.560312,0,-1.2050000429153442,-0.8299997448921204,-0.7177016515472374,0.0,-1.7349739773491095,-0.3499947243930544,-0.7200141206936805,0.0
1759504930.5711823,0,-1.2050000429153442,-0.8299997448921204,-0.7177016923695624,0.0,-1.7349784497160938,-0.34999562659470274,-0.7196115563961685,0.0
1759504930.581394,0,-1.2050000429153442,-0.8299997448921204,-0.717701752494829,0.0,-1.7349826237080417,-0.3499964686057516,-0.7192358492723423,0.0
1759504930.59155,0,-1.2050000429153442,-0.8299997448921204,-0.7177018081427278,0.0,-1.73498594156955,-0.349997137911319,-0.7189372037023111,0.0
1759504930.602011,0,-1.2050000429153442,-0.8299997448921204,-0.7177018492626797,0.0,-1.7349885844486304,-0.34999767105403085,-0.7186993142884683,0.0
1759504930.6170306,0,-1.2050000429153442,-0.8299997448921204,-0.717701773260643,0.0,-1.7349906847889733,-0.3499980947514882,-0.7185102595803783,0.0
1759504930.6273844,0,-1.2050000429153442,-0.8299997448921204,-0.7177018443600716,0.0,-1.7349923681277712,-0.3499984343280577,-0.7183587397916168,0.0
1759504930.6379344,0,-1.2050000429153442,-0.8299997448921204,-0.7177019082434235,0.0,-1.7349937202534582,-0.34999870708966874,-0.7182370329797106,0.0
1759504930.648101,0,-1.2050000429153442,-0.8299997448921204,-0.7177019713027589,0.0,-1.734994809470621,-0.34999892681526884,-0.718138990948846,0.0
1759504930.6596243,0,-1.2050000429153442,-0.8299997448921204,-0.7177019948983823,0.0,-1.7349956876667167,-0.3499991039720111,-0.7180599432330208,0.0
1759504930.6705084,0,-1.2050000429153442,-0.8299997448921204,-0.7177020331833432,0.0,-1.7349963981152334,-0.3499992472893697,-0.7179959947222958,0.0
1759504930.6818027,0,-1.2050000429153442,-0.8299997448921204,-0.7177020619021057,0.0,-1.73499697403357,-0.3499993634682241,-0.717944155469985,0.0
1759504930.692536,0,-1.2050000429153442,-0.8299997448921204,-0.7177021020997714,0.0,-1.7349975064339942,-0.349999470868297,-0.7178962333286446,0.0
1759504930.7032375,0,-1.2050000429153442,-0.8299997448921204,-0.717702140105061,0.0,-1.7349979285715122,-0.3499995560252544,-0.7178582361128405,0.0
1759504930.7136097,0,-1.2050000429153442,-0.8299997448921204,-0.7177021808601651,0.0,-1.7349982642498083,-0.3499996237409658,-0.7178280212181531,0.0
1759504930.724363,0,-1.2050000429153442,-0.8299997448921204,-0.7177022102977199,0.0,-1.734998531729144,-0.34999967769903734,-0.7178039450116909,0.0
1759504930.7346706,0,-1.2050000429153442,-0.8299997448921204,-0.7177022455737384,0.0,-1.7349987455077551,-0.3499997208241691,-0.7177847024860275,0.0
1759504930.745157,0,-1.2050000429153442,-0.8299997448921204,-0.7177022745335275,0.0,-1.7349989167501483,-0.34999975536855454,-0.7177692887076123,0.0
1759504930.7555616,0,-1.2050000429153442,-0.8299997448921204,-0.717702302587913,0.0,-1.7349990542700453,-0.3499997831101684,-0.7177569103404221,0.0
1759504930.766379,0,-1.2050000429153442,-0.8299997448921204,-0.7177023222217382,0.0,-1.7349991649277319,-0.3499998054329222,-0.7177469498801099,0.0
1759504930.777085,0,-1.2050000429153442,-0.8299997448921204,-0.717702343857118,0.0,-1.7349992542055022,-0.34999982344274827,-0.7177389138573574,0.0
1759504930.787916,0,-1.2050000429153442,-0.8299997448921204,-0.7177023636986917,0.0,-1.7349993264029513,-0.3499998380069953,-0.7177324152592955,0.0
1759504930.7985396,0,-1.2050000429153442,-0.8299997448921204,-0.7177023867533148,0.0,-1.7349993849475045,-0.34999984981707094,-0.717727145578377,0.0
1759504930.8152277,0,-1.2050000429153442,-0.8299997448921204,-0.7177023274850338,0.0,-1.7349994391018175,-0.34999986074151224,-0.7177222710694029,0.0
1759504930.8264756,0,-1.2050000429153442,-0.8299997448921204,-0.7177023639967839,0.0,-1.7349994819740078,-0.34999986939003347,-0.7177184120808207,0.0
1759504930.8371625,0,-1.2050000429153442,-0.8299997448921204,-0.7177024084491066,0.0,-1.734999516025033,-0.3499998762590787,-0.7177153470981993,0.0
1759504930.847425,0,-1.2050000429153442,-0.8299997448921204,-0.7177024507898581,0.0,-1.7349995431505592,-0.34999988173105684,-0.7177129054898853,0.0
1759504930.8576035,0,-1.2050000429153442,-0.8299997448921204,-0.717702486356881,0.0,-1.734999564813676,-0.34999988610111404,-0.7177109555610499,0.0
1759504930.8689437,0,-1.2050000429153442,-0.8299997448921204,-0.7177025025955803,0.0,-1.7349995821346962,-0.3499998895952488,-0.7177093964706636,0.0
1759504930.8798976,0,-1.2050000429153442,-0.8299997448921204,-0.7177025223953617,0.0,-1.7349995960265046,-0.34999989239761553,-0.7177081460486616,0.0
1759504930.8901932,0,-1.2050000429153442,-0.8299997448921204,-0.7177025482527686,0.0,-1.734999607204537,-0.3499998946525377,-0.7177071398975974,0.0
1759504930.9004183,0,-1.2050000429153442,-0.8299997448921204,-0.7177025717078322,0.0,-1.7349996162212673,-0.3499998964714647,-0.7177063282885102,0.0
1759504930.9109404,0,-1.2050000429153442,-0.8299997448921204,-0.7177025891227267,0.0,-1.734999623509502,-0.34999989794170566,-0.7177056722638462,0.0
1759504930.9209838,0,-1.2050000429153442,-0.8299997448921204,-0.7177026095827017,0.0,-1.7349996294181216,-0.3499998991336397,-0.7177051404203435,0.0
1759504930.93133,0,-1.2050000429153442,-0.8299997448921204,-0.7177026249232163,0.0,-1.7349996342177532,-0.3499999001018598,-0.7177047083984741,0.0
1759504930.9415798,0,-1.2050000429153442,-0.8299997448921204,-0.7177026398821837,0.0,-1.7349996386659012,-0.3499999009991758,-0.7177043080141592,0.0
1759504930.9520092,0,-1.2050000429153442,-0.8299997448921204,-0.7177026522516563,0.0,-1.7349996421955152,-0.3499999017111977,-0.7177039903084489,0.0
1759504930.9626472,0,-1.2050000429153442,-0.8299997448921204,-0.7177026624618748,0.0,-1.7349996450026328,-0.34999990227747196,-0.7177037376356754,0.0
1759504930.9729447,0,-1.2050000429153442,-0.8299997448921204,-0.7177026757167422,0.0,-1.734999647241579,-0.3499999027291301,-0.7177035361048572,0.0
1759504930.9833722,0,-1.2050000429153442,-0.8299997448921204,-0.7177026873522189,0.0,-1.734999649031464,-0.34999990309020007,-0.7177033749946746,0.0
1759504930.993964,0,-1.2050000429153442,-0.8299997448921204,-0.7177026973129141,0.0,-1.734999650465623,-0.34999990337951015,-0.717703245903919,0.0
1759504931.0041893,0,-1.2050000429153442,-0.8299997448921204,-0.7177027100407418,0.0,-1.7349996516180664,-0.34999990361199024,-0.7177031421708152,0.0
1759504931.0402865,0,-1.2050000429153442,-0.8299997448921204,-0.7177025509416648,0.0,-1.734999652520172,-0.3499999037939702,-0.7177030609709552,0.0
1759504931.050614,0,-1.2050000429153442,-0.8299997448921204,-0.7177026146582435,0.0,-1.7349996532528362,-0.3499999039417691,-0.7177029950227809,0.0
1759504931.0608096,0,-1.2050000429153442,-0.8299997448921204,-0.7177026736998116,0.0,-1.7349996539355896,-0.34999990407949955,-0.7177029335671414,0.0
1759504931.0710835,0,-1.2050000429153442,-0.8299997448921204,-0.7177027164035898,0.0,-1.7349996544765833,-0.3499999041886331,-0.7177028848715131,0.0
1759504931.0823433,0,-1.2050000429153442,-0.8299997448921204,-0.7177027424163391,0.0,-1.7349996549058702,-0.3499999042752323,-0.717702846230763,0.0
1759504931.092785,0,-1.2050000429153442,-0.8299997448921204,-0.7177027666942202,0.0,-1.7349996552477163,-0.3499999043441922,-0.717702815460698,0.0
1759504931.1031194,0,-1.2050000429153442,-0.8299997448921204,-0.7177027864443293,0.0,-1.734999655520637,-0.34999990439924794,-0.7177027908947007,0.0
1759504931.1133153,0,-1.2050000429153442,-0.8299997448921204,-0.7177028028523242,0.0,-1.734999655739094,-0.3499999044433169,-0.7177027712310539,0.0
1759504931.1234968,0,-1.2050000429153442,-0.8299997448921204,-0.7177028162175496,0.0,-1.7349996559143794,-0.34999990447867685,-0.7177027554533764,0.0
1759504931.1349795,0,-1.2050000429153442,-0.8299997448921204,-0.7177028212414047,0.0,-1.7349996560551624,-0.3499999045070767,-0.7177027427813122,0.0
1759504931.1451485,0,-1.2050000429153442,-0.8299997448921204,-0.717702832329584,0.0,-1.7349996561686993,-0.34999990452998025,-0.7177027325616896,0.0
1759504931.155812,0,-1.2050000429153442,-0.8299997448921204,-0.7177028400346348,0.0,-1.73499965626043,-0.3499999045484849,-0.7177027243048816,0.0
1759504931.1661432,0,-1.2050000429153442,-0.8299997448921204,-0.7177028484336923,0.0,-1.7349996563347532,-0.34999990456347796,-0.717702717614941,0.0
1759504931.1775994,0,-1.2050000429153442,-0.8299997448921204,-0.7177028514009827,0.0,-1.734999656395039,-0.3499999045756393,-0.7177027121885307,0.0
1759504931.1878858,0,-1.2050000429153442,-0.8299997448921204,-0.7177028596637207,0.0,-1.7349996564441326,-0.3499999045855428,-0.7177027077695382,0.0
1759504931.1982696,0,-1.2050000429153442,-0.8299997448921204,-0.7177028669359409,0.0,-1.7349996564842016,-0.3499999045936259,-0.7177027041628643,0.0
1759504931.2272522,0,-1.2050000429153442,-0.8299997448921204,-0.7177028077451553,0.0,-1.7349996565215486,-0.3499999046011599,-0.7177027008012069,0.0
1759504931.237482,0,-1.2050000429153442,-0.8299997448921204,-0.7177028337369453,0.0,-1.734999656551352,-0.349999904607172,-0.7177026981185798,0.0
1759504931.2487667,0,-1.2050000429153442,-0.8299997448921204,-0.7177028545883246,0.0,-1.7349996565751662,-0.349999904611976,-0.7177026959750288,0.0
1759504931.2594445,0,-1.2050000429153442,-0.8299997448921204,-0.7177028723317704,0.0,-1.7349996565942578,-0.3499999046158273,-0.717702694256575,0.0
1759504931.2698264,0,-1.2050000429153442,-0.8299997448921204,-0.7177028868553474,0.0,-1.7349996566096064,-0.34999990461892355,-0.717702692875025,0.0
1759504931.281291,0,-1.2050000429153442,-0.8299997448921204,-0.7177028950311772,0.0,-1.7349996566219612,-0.34999990462141584,-0.7177026917629505,0.0
1759504931.291563,0,-1.2050000429153442,-0.8299997448921204,-0.7177029051169157,0.0,-1.7349996566319457,-0.34999990462343,-0.7177026908642258,0.0
1759504931.3017395,0,-1.2050000429153442,-0.8299997448921204,-0.7177029136955575,0.0,-1.734999656640035,-0.3499999046250618,-0.7177026901361108,0.0
1759504931.3119986,0,-1.2050000429153442,-0.8299997448921204,-0.7177029204742134,0.0,-1.7349996566466033,-0.34999990462638686,-0.7177026895448846,0.0
1759504931.323461,0,-1.2050000429153442,-0.8299997448921204,-0.7177029230976348,0.0,-1.7349996566526673,-0.3499999046276102,-0.7177026889990319,0.0
1759504931.334794,0,-1.2050000429153442,-0.8299997448921204,-0.7177029261756029,0.0,-1.7349996566574757,-0.3499999046285802,-0.7177026885662177,0.0
1759504931.3462427,0,-1.2050000429153442,-0.8299997448921204,-0.7177029292059771,0.0,-1.7349996566612982,-0.34999990462935127,-0.7177026882221508,0.0
1759504931.3565085,0,-1.2050000429153442,-0.8299997448921204,-0.7177029351358737,0.0,-1.7349996566643489,-0.34999990462996666,-0.7177026879475541,0.0
1759504931.3679383,0,-1.2050000429153442,-0.8299997448921204,-0.7177029377918043,0.0,-1.7349996566667865,-0.3499999046304584,-0.7177026877281389,0.0
1759504931.378142,0,-1.2050000429153442,-0.8299997448921204,-0.7177029431155972,0.0,-1.734999656668742,-0.34999990463085284,-0.7177026875521155,0.0
1759504931.389239,0,-1.2050000429153442,-0.8299997448921204,-0.7177029459853337,0.0,-1.7349996566703132,-0.34999990463116976,-0.7177026874107008,0.0
1759504931.4004378,0,-1.2050000429153442,-0.8299997448921204,-0.7177029485667816,0.0,-1.7349996566715784,-0.34999990463142505,-0.7177026872968092,0.0
1759504931.4245884,0,-1.2050000429153442,-0.8299997448921204,-0.7177029271328887,0.0,-1.7349996566725856,-0.3499999046316282,-0.7177026872061675,0.0
1759504931.4322495,0,-1.2050000429153442,-0.8299997448921204,-0.7177029432669073,0.0,-1.7349996566734065,-0.34999990463179387,-0.7177026871322733,0.0
1759504931.443414,0,-1.2050000429153442,-0.8299997448921204,-0.7177029510674835,0.0,-1.7350597003455517,-0.3499492260323976,-0.7182004163625942,0.0016934912585711429
1759504931.454146,0,-1.2050000429153442,-0.8299997448921204,-0.7177029576220555,0.0,-1.7350860539464694,-0.34994546975357016,-0.7186637251429763,0.003168801259147552
1759504931.4643316,0,-1.2050000429153442,-0.8299997448921204,-0.7177029637738457,0.0,-1.735104826219339,-0.34995866342420745,-0.719037450727227,0.004354447166703189
1759504931.4752295,0,-1.2050000429153442,-0.8299997448921204,-0.7177029676106415,0.0,-1.7351179101791079,-0.3499825009166323,-0.7193408769741041,0.005312373546246445
1759504931.4866207,0,-1.2050000429153442,-0.8299997448921204,-0.7177029701163171,0.0,-1.735126725066734,-0.3500126320426712,-0.7195891368196038,0.006091269311394123
1759504931.497391,0,-1.2050000429153442,-0.8299997448921204,-0.7177029734116616,0.0,-1.7351323743362823,-0.3500460508773912,-0.7197937659764132,0.0067287330965063565
1759504931.5075932,0,-1.2050000429153442,-0.8299997448921204,-0.7177029771986128,0.0,-1.7351356793500003,-0.35008073740013207,-0.7199637268253799,0.007253967834463716
1759504931.5186298,0,-1.2050000429153442,-0.8299997448921204,-0.7177029792952396,0.0,-1.735137195065376,-0.35011546251041853,-0.7201065635387967,0.007690905986018095
1759504931.5293336,0,-1.2050000429153442,-0.8299997448921204,-0.7177029817074292,0.0,-1.7351373812958855,-0.3501494059326771,-0.7202278032829096,0.008057575226919269
1759504931.540186,0,-1.2050000429153442,-0.8299997448921204,-0.7177029837800594,0.0,-1.7351365614472367,-0.35018212109068353,-0.7203319988287227,0.00836859796064113
1759504931.5506685,0,-1.2050000429153442,-0.8299997448921204,-0.71770298621934,0.0,-1.735134997933353,-0.350213344544088,-0.720422519093887,0.008635029049499157
1759504931.5610447,0,-1.2050000429153442,-0.8299997448921204,-0.7177029885802603,0.0,-1.7351382482050366,-0.35023076849597207,-0.7204427907420416,0.00873489704271194
1759504931.5720987,0,-1.2050000429153442,-0.8299997448921204,-0.717702989916269,0.0,-1.7351441513391206,-0.35024686647399744,-0.7204860568176512,0.008895859506990855
1759504931.5836022,0,-1.2050000429153442,-0.8299997448921204,-0.7177029907960879,0.0,-1.735148191803656,-0.35026277780146725,-0.7205266560358508,0.009038608608245038
1759504931.595099,0,-1.2050000429153442,-0.8299997448921204,-0.7177029919254174,0.0,-1.735150773492752,-0.35027842090444905,-0.720565296784772,0.009167378850734046
1759504931.6059082,0,-1.2050000429153442,-0.8299997448921204,-0.7177029939717059,0.0,-1.7351522350161648,-0.35029369421572376,-0.7206021771933867,0.009284639467415381
1759504931.6167593,0,-1.2050000429153442,-0.8299997448921204,-0.7177029958746708,0.0,-1.7351528075586462,-0.3503086195624345,-0.7206378174990293,0.009393162831892812
1759504931.6563492,0,-1.2050000429153442,-0.8299997448921204,-0.7177029719687145,0.0,-1.7351514501902352,-0.3503267481818909,-0.7206880976851906,0.00953160450849035
1759504931.6672914,0,-1.2050000429153442,-0.8299997448921204,-0.7177029818115805,0.0,-1.735149680170619,-0.35034449393995837,-0.7207353340646128,0.009659333100623193
1759504931.6787882,0,-1.2050000429153442,-0.8299997448921204,-0.717702990271631,0.0,-1.73514755056489,-0.35036196300774586,-0.7207805910446563,0.009779570537627513
1759504931.6901288,0,-1.2050000429153442,-0.8299997448921204,-0.7177029965608046,0.0,-1.7351451288239592,-0.35037918653334704,-0.7208243401212111,0.009893991388274577
1759504931.7003157,0,-1.2050000429153442,-0.8299997448921204,-0.7177030020304259,0.0,-1.736394020701445,-0.3493936540892424,-0.7197493147828475,0.01895424738339627
1759504931.710742,0,-1.2050000429153442,-0.8299997448921204,-0.7177030059489535,0.0,-1.737366905510967,-0.3487147162839225,-0.7189067933467019,0.026152882881376457
1759504931.721814,0,-1.2050000429153442,-0.8299997448921204,-0.7177030084736842,0.0,-1.7381235794137022,-0.34825991707865916,-0.7182483454189974,0.031885168095806694
1759504931.7326593,0,-1.2050000429153442,-0.8299997448921204,-0.717703010629263,0.0,-1.7387117192650672,-0.34796752381064605,-0.7177346393267203,0.03646460688069045
1759504931.7439227,0,-1.2050000429153442,-0.8299997448921204,-0.7177030121446322,0.0,-1.7391674192673723,-0.34779308758447375,-0.7173360362411245,0.04013306598163622
1759504931.7548387,0,-1.2050000429153442,-0.8299997448921204,-0.7177030136781468,0.0,-1.7395196148110699,-0.3477031995551992,-0.7170282104694164,0.04308231525578139
1759504931.7657347,0,-1.2050000429153442,-0.8299997448921204,-0.7177030150352017,0.0,-1.739790387267188,-0.3476738292691128,-0.7167926121920637,0.045461370471001177
1759504931.7764788,0,-1.2050000429153442,-0.8299997448921204,-0.7177030163214599,0.0,-1.7399970580722635,-0.34768732072372516,-0.7166145068595438,0.04738744562607885
1759504931.7871864,0,-1.2050000429153442,-0.8299997448921204,-0.7177030174814334,0.0,-1.7401530218860854,-0.3477309670605241,-0.7164824537963884,0.04895259528772898
1759504931.7984173,0,-1.2050000429153442,-0.8299997448921204,-0.7177030182338342,0.0,-1.7402682447765216,-0.3477962087282318,-0.7163881186112251,0.05022920021283665
1759504931.8092132,0,-1.2050000429153442,-0.8299997448921204,-0.7177030192067893,0.0,-1.7403513959633308,-0.3478758834234186,-0.7163237369285481,0.05127522060997553
1759504931.8207495,0,-1.2050000429153442,-0.8299997448921204,-0.7177030197442242,0.0,-1.7407100394101198,-0.3476746053891812,-0.7158886316807287,0.05264514238977709
1759504931.8404217,0,-1.2050000429153442,-0.8299997448921204,-0.7177030164267535,0.0,-1.7409799023827592,-0.34754953489555507,-0.7155614151673304,0.053748397061280484
1759504931.8512661,0,-1.2050000429153442,-0.8299997448921204,-0.7177030185205613,0.0,-1.7411876054378093,-0.3474722072364098,-0.7153089291583935,0.05464264141105979
1759504931.8621852,0,-1.2050000429153442,-0.8299997448921204,-0.7177030204751951,0.0,-1.7413463505419053,-0.34743094984997236,-0.7151156885087522,0.05537225428805046
1759504931.8733377,0,-1.2050000429153442,-0.8299997448921204,-0.71770302194507,0.0,-1.7414663022990196,-0.34741721562138056,-0.7149697348622844,0.05597210411919578
1759504931.8842778,0,-1.2050000429153442,-0.8299997448921204,-0.7177030232391388,0.0,-1.7415556815868056,-0.3474241567209477,-0.7148612721560399,0.056469235230675395
1759504931.8949602,0,-1.2050000429153442,-0.8299997448921204,-0.7177030244271663,0.0,-1.7416209261906337,-0.3474465906498523,-0.7147825812143627,0.056884780777235223
1759504931.9061332,0,-1.2050000429153442,-0.8299997448921204,-0.7177030252366592,0.0,-1.741666603529123,-0.3474814305040938,-0.7147282635918855,0.05723610497800982
1759504931.9167976,0,-1.2050000429153442,-0.8299997448921204,-0.7177030261493903,0.0,-1.7416969107157725,-0.347525344389126,-0.7146931751222435,0.05753594067359981
1759504931.9270554,0,-1.2050000429153442,-0.8299997448921204,-0.7177030271010807,0.0,-1.7426831853747196,-0.3466827582179312,-0.7138311391758569,0.057703389973966714
1759504931.9377205,0,-1.2050000429153442,-0.8299997448921204,-0.7177030277695824,0.0,-1.7440213182290092,-0.3455548809887089,-0.7127502525408433,0.05796315879414245
1759504931.9484167,0,-1.2050000429153442,-0.8299997448921204,-0.7177030283558636,0.0,-1.7450732327450353,-0.34467568429528905,-0.7119037194066017,0.058184213011724266
1759504931.9592557,0,-1.2050000429153442,-0.8299997448921204,-0.7177030288550004,0.0,-1.7458999017919805,-0.343992364370043,-0.7112419559370977,0.05837530736917484
1759504931.9701073,0,-1.2050000429153442,-0.8299997448921204,-0.7177030293344338,0.0,-1.746549046688075,-0.34346354780215593,-0.7107260681524928,0.058543130965439984
1759504931.9811077,0,-1.2050000429153442,-0.8299997448921204,-0.7177030297582546,0.0,-1.7470576876701973,-0.34305723428426715,-0.7103259089281774,0.058693093002467785
1759504931.9922972,0,-1.2050000429153442,-0.8299997448921204,-0.7177030301296945,0.0,-1.7474547438780477,-0.34274847127326163,-0.7100179250958808,0.05882950927624361
1759504932.0031257,0,-1.2050000429153442,-0.8299997448921204,-0.7177030306259624,0.0,-1.7477635948275456,-0.34251678168681543,-0.7097828413434847,0.058955059378154116
1759504932.0138931,0,-1.2050000429153442,-0.8299997448921204,-0.7177030311223334,0.0,-1.748002169746695,-0.3423466271924787,-0.7096059727879642,0.05907222805352075
1759504932.025847,0,-1.2050000429153442,-0.8299997448921204,-0.7177030312684956,0.0,-1.748183131339347,-0.3422277920641942,-0.7094774402201672,0.0591847149848787
1759504932.0354364,0,-1.2050000429153442,-0.8299997448921204,-0.7177030321058862,0.0,-1.7487136386984041,-0.3417458708507862,-0.7089103483763347,0.05925536582202438
1759504932.045681,0,-1.2050000429153442,-0.8299997448921204,-0.7177030326606033,0.0,-1.7491277348845724,-0.34137530987328685,-0.7084682744248416,0.059326459407237485
1759504932.056459,0,-1.2050000429153442,-0.8299997448921204,-0.7177030330006655,0.0,-1.7494498558323792,-0.34109330185457554,-0.7081251817427903,0.059398960139102376
1759504932.0670164,0,-1.2050000429153442,-0.8299997448921204,-0.7177030333821808,0.0,-1.7496997500354683,-0.3408809980760398,-0.7078599072013975,0.05947258619028061
1759504932.0778096,0,-1.2050000429153442,-0.8299997448921204,-0.7177030336943488,0.0,-1.749892391180462,-0.3407243180583784,-0.7076564419656987,0.05954777309266572
1759504932.0885506,0,-1.2050000429153442,-0.8299997448921204,-0.7177030340181254,0.0,-1.7500397151880602,-0.3406118757434144,-0.7075019746736201,0.05962446856696749
1759504932.0996244,0,-1.2050000429153442,-0.8299997448921204,-0.7177030342677959,0.0,-1.750150763658754,-0.3405352417471433,-0.7073868371807677,0.059703210091197965
1759504932.110395,0,-1.2050000429153442,-0.8299997448921204,-0.7177030345978714,0.0,-1.750233100531706,-0.340487014289672,-0.7073028526953418,0.05978350635435696
1759504932.1213112,0,-1.2050000429153442,-0.8299997448921204,-0.717703034893928,0.0,-1.7502923354964985,-0.34046192482829246,-0.7072440031074401,0.059865635699103144
1759504932.1323116,0,-1.2050000429153442,-0.8299997448921204,-0.717703035171736,0.0,-1.750332928785401,-0.3404557550336984,-0.707205491287168,0.059949749397126384
1759504932.1430488,0,-1.2050000429153442,-0.8299997448921204,-0.7177030355021472,0.0,-1.7503586371562816,-0.3404647571700038,-0.7071832295227372,0.060035449249875174
1759504932.1538079,0,-1.2050000429153442,-0.8299997448921204,-0.7177030358139866,0.0,-1.751325632129714,-0.3396018270874659,-0.7063088976609021,0.0597065647058495
1759504932.164607,0,-1.2050000429153442,-0.8299997448921204,-0.7177030361031385,0.0,-1.7526713949984265,-0.33842941358452666,-0.7051640209556618,0.05927282662549311
1759504932.1752944,0,-1.2050000429153442,-0.8299997448921204,-0.7177030364000885,0.0,-1.7537299574033365,-0.3375077803856145,-0.7042663913192699,0.05894463162984895
1759504932.1862006,0,-1.2050000429153442,-0.8299997448921204,-0.7177030366453572,0.0,-1.7545622665739227,-0.3367851778855439,-0.7035637539358105,0.05870013327457379
1759504932.1968727,0,-1.2050000429153442,-0.8299997448921204,-0.7177030369242772,0.0,-1.7552165861506241,-0.3362201078841937,-0.7030145740622238,0.058521510620833384
1759504932.2078998,0,-1.2050000429153442,-0.8299997448921204,-0.7177030371350064,0.0,-1.7557296180315505,-0.33578116793231694,-0.7025874259657997,0.05839588822988262
1759504932.2187493,0,-1.2050000429153442,-0.8299997448921204,-0.7177030373745517,0.0,-1.7561308878587447,-0.33544264378157373,-0.7022568597834065,0.058312290651909605
1759504932.2396054,0,-1.2050000429153442,-0.8299997448921204,-0.7177030362123986,0.0,-1.7564305050327522,-0.33520155830148973,-0.7020172594932971,0.05827914394091373
1759504932.250398,0,-1.2050000429153442,-0.8299997448921204,-0.7177030368567578,0.0,-1.7566621715263226,-0.3350217357771321,-0.7018360045567725,0.058270007377093785
1759504932.2613082,0,-1.2050000429153442,-0.8299997448921204,-0.7177030374575608,0.0,-1.7568391623252226,-0.33489169947242836,-0.7017018242774111,0.058280657276390924
1759504932.2720203,0,-1.2050000429153442,-0.8299997448921204,-0.7177030379617282,0.0,-1.7573776045679745,-0.33438779051674267,-0.7010986389346165,0.05820986783536389
1759504932.282863,0,-1.2050000429153442,-0.8299997448921204,-0.7177030383507113,0.0,-1.7577978609700045,-0.3339986509589827,-0.7006275729692206,0.05817080096184914
1759504932.2940304,0,-1.2050000429153442,-0.8299997448921204,-0.7177030386344169,0.0,-1.7581249242240715,-0.33370073117496313,-0.7002607792139492,0.05815753560247346
1759504932.3048878,0,-1.2050000429153442,-0.8299997448921204,-0.7177030389164791,0.0,-1.7583788336228914,-0.3334747485306314,-0.6999758917660843,0.05816445738061348
1759504932.3158438,0,-1.2050000429153442,-0.8299997448921204,-0.7177030391536618,0.0,-1.7585748160713144,-0.3333061815640181,-0.6997559132123958,0.05818784926708852
1759504932.3266127,0,-1.2050000429153442,-0.8299997448921204,-0.7177030393854071,0.0,-1.758724998726458,-0.3331832742868895,-0.6995872875764514,0.058224356738007604
1759504932.3372796,0,-1.2050000429153442,-0.8299997448921204,-0.7177030396032027,0.0,-1.7588387972236517,-0.3330968984064801,-0.6994594839043131,0.058271488666243425
1759504932.347911,0,-1.2050000429153442,-0.8299997448921204,-0.7177030398014494,0.0,-1.7589235484332266,-0.3330399440977594,-0.699364291432842,0.05832740046384734
1759504932.3585694,0,-1.2050000429153442,-0.8299997448921204,-0.7177030399777351,0.0,-1.7589849790599614,-0.3330068735482175,-0.6992952976726776,0.058390751447788415
1759504932.3695908,0,-1.2050000429153442,-0.8299997448921204,-0.7177030401066489,0.0,-1.7590273684266469,-0.3329937126200698,-0.6992477143548852,0.05846105775352071
1759504932.3806405,0,-1.2050000429153442,-0.8299997448921204,-0.717703040232152,0.0,-1.759986632785693,-0.3321557814196724,-0.6983360911869891,0.05860889876127774
1759504932.3913796,0,-1.2050000429153442,-0.8299997448921204,-0.7177030403856666,0.0,-1.7613073778752038,-0.33103312176670385,-0.6971342112778304,0.05898129149171589
1759504932.402446,0,-1.2050000429153442,-0.8299997448921204,-0.7177030405044817,0.0,-1.7623445364862564,-0.3301594849260681,-0.6961908259298256,0.05929425777082701
1759504932.4133322,0,-1.2050000429153442,-0.8299997448921204,-0.717400710200136,0.005235987755982988,-1.7631591859827223,-0.32948111817486264,-0.6954505414708596,0.05956064602548773
1759504932.4236465,0,-1.2050000429153442,-0.8299997448921204,-0.7173884173912657,0.005235987755982988,-1.7637993685331887,-0.32895557536526654,-0.6948696578590325,0.05978989959791489
1759504932.434804,0,-1.2050000429153442,-0.8299997448921204,-0.7174019509145506,0.005235987755982988,-1.7643002853296552,-0.328552502930766,-0.6944163767716892,0.059991308052531785
1759504932.445831,0,-1.2050000429153442,-0.8299997448921204,-0.7174103542081374,0.005235987755982988,-1.7646910383672179,-0.32824633273835785,-0.6940641879871263,0.06017088299798661
1759504932.4565568,0,-1.2050000429153442,-0.8299997448921204,-0.7174017881844275,0.005235987755982988,-1.7649946053827414,-0.32801680049706783,-0.6937921016008074,0.060333075665437594
1759504932.4673252,0,-1.2050000429153442,-0.8299997448921204,-0.7173883185362533,0.005235987755982988,-1.7652285583732479,-0.3278486009888508,-0.6935841067606051,0.06048188018468449
1759504932.4780629,0,-1.2050000429153442,-0.8299997448921204,-0.7173700645937358,0.005235987755982988,-1.7654068236911273,-0.3277295820266395,-0.6934274849408342,0.060620351176518594
1759504932.488898,0,-1.2050000429153442,-0.8299997448921204,-0.7173603821738939,0.005235987755982988,-1.7655402397201878,-0.32765037272558617,-0.6933123490271881,0.060751115429576584
1759504932.4997516,0,-1.2050000429153442,-0.8299997448921204,-0.7173851898255591,0.005235987755982988,-1.7657657264912148,-0.32742484013936346,-0.6930920794309253,0.06079431121639703
1759504932.510113,0,-1.2033730727826375,-0.8288876598932634,-0.7163682270234731,0.005861991908167505,-1.7662101892705622,-0.327029890378352,-0.6925486548341891,0.060876458087037656
1759504932.5208492,0,-1.203373072782638,-0.8288876598932639,-0.716373386518637,0.005861991908167505,-1.766556225778829,-0.3267283361627853,-0.6921231311632312,0.06095984807174875
1759504932.5321224,0,-1.2033730727826382,-0.8288876598932641,-0.7163560291725872,0.005861991908167505,-1.7668242406647865,-0.3265013890104706,-0.6917910868973594,0.06104547214713418
1759504932.5433786,0,-1.2033730727826384,-0.8288876598932644,-0.7163588934271451,0.005861991908167505,-1.7670306735003836,-0.32633361280085255,-0.691532882105194,0.061133255257705826
1759504932.5541718,0,-1.2033730727826388,-0.8288876598932648,-0.7163767485807934,0.005861991908167505,-1.7671887046203703,-0.32621237722440893,-0.69133280631143,0.06122240685755997
1759504932.5652428,0,-1.203373072782639,-0.8288876598932652,-0.7163582497664741,0.005861991908167505,-1.7673080174201485,-0.32612874599799035,-0.6911792116136685,0.061313520692675975
1759504932.5757296,0,-1.2033730727826395,-0.8288876598932657,-0.7163766050404513,0.005861991908167505,-1.767396878617163,-0.3260746232137257,-0.6910622563264964,0.061405637835776045
1759504932.5870254,0,-1.2033730727826397,-0.828887659893266,-0.7163493365386903,0.005861991908167505,-1.7674607214681426,-0.3260453620383099,-0.6909752851736305,0.061500351891696454
1759504932.5972638,0,-1.2033730727826402,-0.8288876598932664,-0.7163827612028494,0.005861991908167505,-1.7675052127641566,-0.3260350191855909,-0.6909116343097677,0.06159577509833116
1759504932.6079614,0,-1.2033730727826406,-0.8288876598932668,-0.7163676455581502,0.005861991908167505,-1.7675337161455194,-0.3260407252788397,-0.6908671647817899,0.061692978214935856
1759504932.618734,0,-1.2036649370430836,-0.8291031224833771,-0.7165079738242864,0.006372045574130306,-1.7691411525409326,-0.3246809187437334,-0.6893575793419687,0.061352763649130414
1759504932.6389835,0,-1.199198372619554,-0.8334047559610847,-0.7127637311934069,0.049616649942816046,-1.7703837660673067,-0.3236361026603827,-0.6881918675886382,0.06111978059773436
1759504932.6498854,0,-1.1976448254424579,-0.8347373381090198,-0.7099910775878461,0.049616649942816046,-1.771362602162906,-0.3228156904363718,-0.6872740760211811,0.06095296352500515
1759504932.660847,0,-1.19704940865242,-0.8352460791652067,-0.7079379721104482,0.049616649942816046,-1.7721332411321025,-0.3221734309121027,-0.6865521127613253,0.06083883459390067
1759504932.6719127,0,-1.1968197693271734,-0.8354408676842975,-0.7064491291301659,0.049616649942816046,-1.7727390175923237,-0.3216731243215472,-0.6859853401261248,0.060766959453132374
1759504932.6826046,0,-1.1967361135737111,-0.8355107948872176,-0.7054198521781073,0.049616649942816046,-1.7732145799517478,-0.3212854193741413,-0.6855411935794731,0.06072830124370266
1759504932.6936312,0,-1.1966994835067875,-0.8355407534405963,-0.7046299176856266,0.049616649942816046,-1.773586009223215,-0.3209885169064678,-0.685195219766572,0.06071707083149069
1759504932.7042453,0,-1.1966903619357627,-0.8355475465265396,-0.7041073833750526,0.049616649942816046,-1.7738748714019055,-0.3207638860033542,-0.6849271056500097,0.060727369514561785
1759504932.7149692,0,-1.1966852633225926,-0.8355511447800394,-0.7037357349209586,0.049616649942816046,-1.7742251030948148,-0.3204305051350788,-0.6845902962531208,0.06119658314535514
1759504932.7257142,0,-1.1967683670037923,-0.8358795777863256,-0.7033166462190383,0.05092722412988215,-1.7747755452247636,-0.3199502086405545,-0.6839294241544674,0.06163897271151037
1759504932.7371788,0,-1.1967582564903634,-0.8358877330540573,-0.703095970286604,0.05092722412988215,-1.7752034119643383,-0.31958603319654316,-0.6834115259400201,0.06201594899175268
1759504932.747999,0,-1.1967624473292362,-0.835883909835138,-0.7029776902296905,0.05092722412988215,-1.775535736849117,-0.31931189765432566,-0.6830053853912528,0.06234086571348843
1759504932.7587159,0,-1.1967653008099717,-0.8358813106223019,-0.7029130615807206,0.05092722412988215,-1.7757928777236793,-0.31910845272029936,-0.6826873650688833,0.06262506599680427
1759504932.7695465,0,-1.1967649235097229,-0.8358815069482194,-0.7028449828789347,0.05092722412988215,-1.7759904857249738,-0.3189609851822793,-0.6824392121750533,0.06287785593221372
1759504932.7805555,0,-1.1967625086265825,-0.8358834688081284,-0.7028164008678643,0.05092722412988215,-1.7761407368479356,-0.31885813794966034,-0.6822466767077716,0.06310670205873385
1759504932.7914321,0,-1.1967632478236374,-0.8358827989437578,-0.7027941432372226,0.05092722412988215,-1.7762534217905392,-0.3187906684060217,-0.6820983280506372,0.06331683361997
1759504932.8023672,0,-1.19676279112685,-0.8358831639022896,-0.7027965826798738,0.05092722412988215,-1.7763360564421042,-0.31875160423431437,-0.6819853337616473,0.06351278136429252
1759504932.8130305,0,-1.1967660528991257,-0.8358804068117592,-0.7028013737693776,0.05092722412988215,-1.7763948045829767,-0.3187350807983767,-0.6819004977286932,0.06369739378235878
1759504932.8236825,0,-1.1967674489761457,-0.8358792397756555,-0.7028224687296529,0.05092722412988215,-1.7764343162662903,-0.31873681668022424,-0.6818383285211044,0.06387349415811339
1759504932.8344774,0,-1.1872684234154245,-0.8441106943985514,-0.6913279501318698,0.1092373234198356,-1.7773951210213252,-0.31792778774809693,-0.680691697085985,0.06375687157610357
1759504932.845212,0,-1.183752173986398,-0.847243988071738,-0.6819904627853343,0.11029817614161454,-1.7787274484989555,-0.31683155593469225,-0.6792092691246271,0.06371282827634225
1759504932.8554552,0,-1.1823893445962221,-0.848315484253376,-0.6753104102117287,0.11029817614161454,-1.7797752090003705,-0.31597292819261036,-0.6780416455525552,0.0637013890542924
1759504932.8660934,0,-1.181850118211328,-0.8487289952430436,-0.6704060882352686,0.11029817614161454,-1.7805983156196556,-0.3153029123706345,-0.6771228018216096,0.06371700506874287
1759504932.876803,0,-1.1816371311921443,-0.8488847271599733,-0.6668048962658583,0.11029817614161454,-1.7812441602282132,-0.31478244746481454,-0.6764004498769843,0.06375463417699717
1759504932.8875926,0,-1.1815498255289514,-0.8489432632359591,-0.6642177088602952,0.11029817614161454,-1.7817497308477523,-0.31438095507493474,-0.6758337345853216,0.06381038013890716
1759504932.898334,0,-1.1815154589369934,-0.8489624186879783,-0.6623828360048201,0.11029817614161454,-1.7821441499545885,-0.3140742107326402,-0.6753904545643123,0.0638809150792179
1759504932.9096806,0,-1.1814818623448253,-0.8489825432695046,-0.6610103651802637,0.11029817614161454,-1.7824493599115776,-0.3138442836542255,-0.6750463118930613,0.0639651873637928
1759504932.920492,0,-1.1814842736824758,-0.8489765206414025,-0.6601029035787679,0.11029817614161454,-1.7826841233042179,-0.3136751353429447,-0.674780523301068,0.06405974153504905
1759504932.9306524,0,-1.1815044833332953,-0.8489581943762607,-0.6595249689327003,0.11029817614161454,-1.782863277146684,-0.3135539509085685,-0.6745766442095695,0.06416152774915745
1759504932.9416156,0,-1.1814868206062195,-0.8489696226726412,-0.6590183951877872,0.11029817614161454,-1.7829967625284115,-0.3134728989769004,-0.6744236176619358,0.06427159081043568
1759504932.952445,0,-1.1814838114645276,-0.8489704966115557,-0.6587163958975397,0.11029817614161454,-1.783226668887077,-0.31324325309710993,-0.6741653108826194,0.0657010307638398
1759504932.9637017,0,-1.1811927434211424,-0.8494875172422018,-0.657536349768182,0.11234431070337013,-1.7836713308493388,-0.3128668768531656,-0.673493001869168,0.067022005988636
1759504932.974884,0,-1.1811892959208414,-0.8494894978499528,-0.6574085949378377,0.11234431070337013,-1.7840136709346095,-0.3125938220267785,-0.6729648253332363,0.0681136873563923
1759504932.9853492,0,-1.1812101219522846,-0.8494733497559982,-0.6573970553300449,0.11234431070337013,-1.7842765884592635,-0.3123993174197878,-0.6725494017920192,0.06902391511714669
1759504932.9960883,0,-1.1812096211726968,-0.8494736311992335,-0.65737725300328,0.11234431070337013,-1.7844768269807207,-0.3122658856682128,-0.6722233318488269,0.06979259990668117
1759504933.0067515,0,-1.1812118208636968,-0.8494719851343688,-0.6574147662706885,0.11234431070337013,-1.78462772379148,-0.31217973387685605,-0.6719679817764524,0.07044999625977583
1759504933.0174975,0,-1.1812101691699202,-0.849473349018171,-0.65743637313394,0.11234431070337013,-1.784739520291303,-0.31213053426452264,-0.6717688880803901,0.07102033573587982
1759504933.0282884,0,-1.1812082315994847,-0.8494749814778789,-0.6574772773628572,0.11234431070337013,-1.7848202368345631,-0.3121103443183637,-0.6716146579439463,0.07152258383261394
1759504933.0418668,0,-1.1708982637072256,-0.8568082215737434,-0.6434393288919926,0.10426854646479954,-1.7848739364008446,-0.31211666656502857,-0.6714982436723649,0.07198161111550795
1759504933.052638,0,-1.1670150642960624,-0.8595727799453828,-0.6323525430916852,0.10426854646479954,-1.7849082153147984,-0.3121405929239924,-0.671410171645317,0.07239746128588208
1759504933.0626626,0,-1.1655438680658217,-0.8606043225718015,-0.624320258350851,0.10426854646479954,-1.7849274358273441,-0.31217764574593004,-0.6713444443038299,0.07277691086191225
1759504933.073958,0,-1.164937838202782,-0.861018083099781,-0.618338158662135,0.10426854646479954,-1.7859895295126806,-0.3113138102129289,-0.6694746495564017,0.07251817186807616
1759504933.0846992,0,-1.1643349018573057,-0.8616975169107967,-0.6130326665902648,0.10583683091042771,-1.7874495856071086,-0.3101476318312026,-0.6671569100352737,0.07232554339803728
1759504933.0953965,0,-1.1642485168491914,-0.8617474157501649,-0.6100030933884354,0.10583683091042771,-1.7885954151565582,-0.309234029457407,-0.6653323391235066,0.07221401500549833
1759504933.1056638,0,-1.1642257894319488,-0.861755445536183,-0.6079054476209151,0.10583683091042771,-1.789495249735817,-0.3085194024493725,-0.6638944461127937,0.07216536777359456
1759504933.1163795,0,-1.1642020783879579,-0.861765822764833,-0.6063421087456535,0.10583683091042771,-1.7902003622007459,-0.30796377509928374,-0.6627629572181155,0.07216890529927689
1759504933.1276681,0,-1.1641747302372456,-0.8617799772852212,-0.6051796956896595,0.10583683091042771,-1.7907507146827086,-0.3075358961372081,-0.6618751688265941,0.07221684061422994
1759504933.1383893,0,-1.164180275170351,-0.8617731997881622,-0.6044603345524558,0.10583683091042771,-1.7911794327386166,-0.3072089578093024,-0.661179201520752,0.07229863002676709
1759504933.149257,0,-1.1641774990758658,-0.8617729863838096,-0.6039717342000142,0.10583683091042771,-1.7915112621685476,-0.30696323218288907,-0.660636135319885,0.07240881602364449
1759504933.160146,0,-1.1641754554008288,-0.8617729806437469,-0.6036426516990796,0.10583683091042771,-1.791765818376096,-0.3067829170406696,-0.660215090257241,0.07254265977916953
1759504933.1714196,0,-1.1641630209291114,-0.8617804036033689,-0.6034250756362756,0.10583683091042771,-1.791958040743846,-0.3066561484444149,-0.6598924399172853,0.07269794067377473
1759504933.1827552,0,-1.1641563078895645,-0.861784337381418,-0.6032660676551821,0.10583683091042771,-1.792236370415195,-0.30639286258851767,-0.6594533360182208,0.07407435097991526
1759504933.1935556,0,-1.1636743191691417,-0.8623560030765406,-0.6016437503699053,0.10704758356558913,-1.7927459770962866,-0.3059725355672906,-0.6583943408216084,0.07536884323839044
1759504933.2043242,0,-1.1636804461036778,-0.8623519429690524,-0.6017044529483175,0.10704758356558913,-1.7931386493497055,-0.3056642710561299,-0.6575605679578738,0.07645511058829438
1759504933.2145162,0,-1.1637000753151088,-0.862339043982909,-0.6018805105043805,0.10704758356558913,-1.7934404038510356,-0.30544186612343194,-0.6569032781466347,0.07737620975232601
1759504933.225509,0,-1.1636838963383935,-0.8623501716461826,-0.6019026219492368,0.10704758356558913,-1.7936699222004082,-0.3052873397137196,-0.6563864213958059,0.07817185798109132
1759504933.2377772,0,-1.149536295518491,-0.8715213177334007,-0.5834602141651768,0.15305173912640818,-1.7938413346582986,-0.30518761773144687,-0.655982124334637,0.07887597616584012
1759504933.248643,0,-1.1442487440702878,-0.8747602140041134,-0.5688649795121962,0.15305173912640818,-1.7939681800620066,-0.30512894538397545,-0.6556654604318661,0.07950239421922532
1759504933.259518,0,-1.142211188321539,-0.8759782840366148,-0.5581564791225254,0.15305173912640818,-1.794059652988438,-0.30510265183795415,-0.6554185812389228,0.08006849605823661
1759504933.270535,0,-1.141413980720172,-0.8764333423034987,-0.5503629944129174,0.15305173912640818,-1.794122812270953,-0.30510225719820305,-0.6552275754577055,0.08058870660361336
1759504933.2813823,0,-1.141108460458066,-0.8765923484888402,-0.5448357872809052,0.15301792167114975,-1.7941634498472274,-0.30512235151986367,-0.6550811804551635,0.08107283660383463
1759504933.2924516,0,-1.1409752112807967,-0.8766516793434801,-0.5407649274958044,0.15305173912640818,-1.7941857651257074,-0.3051592957937679,-0.6549708600806694,0.08153075155959187
1759504933.30323,0,-1.1409333893334777,-0.8766614008012699,-0.5379555731637249,0.15305173912640818,-1.7941934894089917,-0.3052095912534135,-0.6548894042121169,0.0819675612921174
1759504933.3144906,0,-1.1399710348511485,-0.8774851414531707,-0.5331457583877381,0.15503124728354184,-1.7957883764042266,-0.3039833514791866,-0.6509598487840355,0.08360467450679536
1759504933.3256173,0,-1.139959213030766,-0.8774838196603123,-0.5317267504570516,0.15503124728354184,-1.797033164369747,-0.30304046942205404,-0.6478621624842509,0.08497506120505485
1759504933.3363626,0,-1.1399710660265494,-0.8774716241392606,-0.5308437980304664,0.15503124728354184,-1.7980048076418143,-0.3023178955310381,-0.6454167768447326,0.08613539692501518
1759504933.346865,0,-1.1399860887521338,-0.8774596052698952,-0.5303001551439572,0.15503124728354184,-1.7987624766808823,-0.30176742588041955,-0.6434850081971605,0.08713028050452591
1759504933.3576674,0,-1.139977459313475,-0.8774623360555457,-0.5300033630465276,0.15426403551378015,-1.7993511011640113,-0.30135294926018535,-0.6419607724992685,0.08799752635876504
1759504933.3684633,0,-1.139974109294537,-0.8774627729752484,-0.5297524837701943,0.1545371084850622,-1.7998062937153256,-0.30104578757820694,-0.6407597226859604,0.0887651897716512
1759504933.3794117,0,-1.1399655483308027,-0.8774667013610267,-0.529586096922495,0.1548351726007797,-1.8001555921944787,-0.3008239617282964,-0.6398161895743731,0.08945629406742085
1759504933.3902097,0,-1.1399693773178181,-0.8774643229529061,-0.5296149293773439,0.154467288052632,-1.8004210109019827,-0.30066976909935783,-0.6390775977041321,0.09008720373707284
1759504933.4011283,0,-1.139965299445837,-0.877466647999511,-0.5296294300905338,0.15458537304888872,-1.8006193854429293,-0.30056989891936114,-0.6385033271651127,0.09067249968636806
1759504933.411806,0,-1.1392528811864553,-0.8781081086451623,-0.5275284475922538,0.15622990000497605,-1.8011921015184151,-0.30010765280931107,-0.6367702005677944,0.09065429763116527
1759504933.4226654,0,-1.1392485476525371,-0.8781112221621508,-0.5277105546278104,0.15549546677619935,-1.8016348632000836,-0.2997544296471343,-0.6354048464838974,0.09070981993989405
1759504933.4464684,0,-1.1249013219432356,-0.8854452206419909,-0.507022581597853,0.13364567188720092,-1.8019598579732323,-0.2995102425923519,-0.6343543854465984,0.09090843705517053
1759504933.4499342,0,-1.120151974238609,-0.8878721098379596,-0.49492604306963084,0.1327660272129442,-1.8022167436295293,-0.2993194304055671,-0.6335108009722403,0.09109166659450631
1759504933.460406,0,-1.118048954412549,-0.888929949698684,-0.4845904713023403,0.13343078814457476,-1.8024114835303584,-0.29918290690530563,-0.632844744948851,0.0913085540729971
1759504933.4719174,0,-1.1171950422270047,-0.8893422614661751,-0.47686435448285314,0.13390686932063162,-1.802555758682821,-0.29909191921843986,-0.6323211800038224,0.09156044964559015
1759504933.482705,0,-1.1168917118618835,-0.8894764542568192,-0.4716180813127985,0.13292668269749994,-1.8026605714239965,-0.29903682023613276,-0.6319098716428609,0.09183711920286863
1759504933.4939451,0,-1.116753097758269,-0.8895300150589784,-0.46770352833856194,0.1329888373251455,-1.8027333268230157,-0.2990117601249232,-0.6315887583415231,0.09213817734401406
1759504933.505019,0,-1.1167036862956135,-0.8895426175063038,-0.4649533077656441,0.13320695969297408,-1.802780453835028,-0.29901117887621975,-0.6313396139942227,0.09245937281208734
1759504933.5152378,0,-1.1167174019079382,-0.8895280927535898,-0.46322043453858475,0.1334804714687686,-1.8028076928096601,-0.29902957256159446,-0.6311472564166142,0.0927926431228577
1759504933.526077,0,-1.1166961787927119,-0.8895323862863668,-0.46196493779342257,0.1327903988292033,-1.803814118194876,-0.29826092879606914,-0.6276480176302119,0.0920752012704217
1759504933.5367062,0,-1.1155953982912263,-0.8903281301743863,-0.45787438576057476,0.1334565961568867,-1.8052035936046675,-0.2972220861662804,-0.6231788450903779,0.09136357753211162
1759504933.5480435,0,-1.1155657469760072,-0.8903390389787665,-0.45714051330222855,0.13389663640585608,-1.8062899779463948,-0.2964039498081984,-0.6196564673523778,0.09087252554939654
1759504933.5587652,0,-1.1155791694925157,-0.8903311354827731,-0.45694822682323505,0.1327510378923056,-1.8071397748136302,-0.29576108388028277,-0.6168756380490025,0.09055216910980325
1759504933.569535,0,-1.115582214867501,-0.8903288230101645,-0.4568172792571839,0.13255425534907808,-1.8078030322634093,-0.2952591608802949,-0.6146806979094471,0.09036833058059057
1759504933.5804236,0,-1.1155784730731784,-0.8903300554636957,-0.4566855785907112,0.13322598538719904,-1.8083186244081937,-0.29487107563567727,-0.6129502228656407,0.09029482947612455
1759504933.5912926,0,-1.1155779965274135,-0.8903303264895102,-0.4567788078865608,0.13238681968727617,-1.8087171647178335,-0.29457499305456425,-0.6115884212207446,0.09031026365407163
