timestamp,observer_vehicle_id,vehicle_0_x,vehicle_0_y,vehicle_0_theta,vehicle_0_velocity,vehicle_1_x,vehicle_1_y,vehicle_1_theta,vehicle_1_velocity
1759504929.2312233,1,0.0,0.0,0.0,0.0,-1.735,-0.35,-0.7801621756414646,0.0
1759504929.24159,1,0.0,0.0,0.0,0.0,-1.735,-0.35,-0.7801621756414646,0.0
1759504930.1823702,1,-0.23816849245477556,-0.16404961073739344,-0.14185414608355984,0.0,-1.7349996599784263,-0.3499999055495629,-0.7230003730894481,0.0
1759504930.316999,1,-0.42405454902266077,-0.2920872655386938,-0.2525686555952857,0.0,-1.7349996577811777,-0.34999990493921607,-0.718095406996845,0.0
1759504930.440471,1,-0.571563157293149,-0.39369067041301076,-0.3404253970580873,0.0,-1.7349996570913868,-0.3499999047476075,-0.7176953592673955,0.0
1759504930.565503,1,-0.6961680765852887,-0.4795180957586255,-0.4146406059709694,0.0,-1.734999656835023,-0.3499999046763953,-0.7176717832063346,0.0
1759504930.6843326,1,-0.795522752025351,-0.5479532429222548,-0.4738166644776817,0.0,-1.7349996567374888,-0.3499999046493024,-0.7176764957058612,0.0
1759504930.8106778,1,-0.8738318630581972,-0.6018922801547681,-0.5204578971681745,0.0,-1.7349996567002555,-0.34999990463895986,-0.7176816216087474,0.0
1759504930.930319,1,-0.9367259013189824,-0.6452134700738912,-0.5579178483114792,0.0,-1.7349996566860348,-0.3499999046350097,-0.717685623854333,0.0
1759504931.0571952,1,-0.9895009130757656,-0.6815647105176943,-0.5893508651230117,0.0,-1.7349996566806032,-0.34999990463350084,-0.7176888025900592,0.0
1759504931.193541,1,-1.0305585986279935,-0.7098450983355759,-0.6138049936441657,0.0,-1.7349996566785284,-0.3499999046329245,-0.7176914144383861,0.0
1759504931.3125362,1,-1.0635946066713766,-0.7326001832083724,-0.6334813776305723,0.0,-1.734999656677736,-0.3499999046327044,-0.7176936067816975,0.0
1759504931.4352567,1,-1.0915739834265974,-0.7518722784299533,-0.6501460109607585,0.0,-1.7351416812114708,-0.3498933731935465,-0.718082042023233,0.00303598099795586
1759504931.5559065,1,-1.1136563824876844,-0.7670825563839401,-0.663298379815265,0.0,-1.7351859537981673,-0.34988789443713325,-0.7182970762127114,0.0037198134679321954
1759504931.6885655,1,-1.1313459628237923,-0.7792670764198864,-0.673834367540978,0.0,-1.7391416447900698,-0.3469495474437194,-0.7153768773632344,0.04751941321910799
1759504931.8076723,1,-1.1454590039247852,-0.7889880889479324,-0.6822401536018847,0.0,-1.7411673939772119,-0.345376269662673,-0.7128381788820348,0.05164558660437658
1759504931.9238486,1,-1.156771807579095,-0.796780307879622,-0.6889781065764907,0.0,-1.7469097381340422,-0.3405609336233618,-0.7086969369697518,0.052783325548320784
1759504932.0278656,1,-1.1659713148611983,-0.8031168957844702,-0.6944573714298804,0.0,-1.7496740297491524,-0.3382047251411399,-0.7053370109860864,0.05301800766402394
1759504932.1512163,1,-1.1737212070962895,-0.8084549939993919,-0.699073239523588,0.0,-1.7556244703594341,-0.3331685401891028,-0.7006473835357143,0.051102493888022994
1759504932.2613082,1,-1.1799120645666283,-0.812719234611876,-0.702760540017992,0.0,-1.7584307091795122,-0.33077359057923805,-0.6970034459487044,0.05101239351762621
1759504932.375845,1,-1.1848429784019996,-0.8161156305286276,-0.7056974128357137,0.0,-1.7642257261987504,-0.32597058038119514,-0.6920484982560307,0.05342533235813342
1759504932.489426,1,-1.1887774996281308,-0.8188377253606485,-0.7076673707653109,0.006260041521845172,-1.7669804517368999,-0.32366918981314974,-0.6882596707814037,0.053734696551897554
1759504932.6097407,1,-1.191734565509794,-0.8209588072728957,-0.7091216995132774,0.011360578181473171,-1.7730811676285547,-0.31867260190854063,-0.6830261076322832,0.05271632360972883
1759504932.7113235,1,-1.192689781504906,-0.8241440734488674,-0.7077804668951974,0.024466320052134144,-1.7759278876953672,-0.31631962720525236,-0.6789813579388801,0.05318841446491092
1759504932.8293412,1,-1.193434558570777,-0.8268527929494426,-0.706576961941113,0.03507484726992354,-1.781815264650819,-0.31159231255624636,-0.6730696103390882,0.05343023899717563
1759504932.9456413,1,-1.1908392313413856,-0.8318057198108211,-0.696919031470191,0.0555361928874794,-1.7845906323097525,-0.3093450533086749,-0.6682800093592532,0.054911566440742327
1759504933.0718813,1,-1.187147853637111,-0.8371011320669086,-0.6857463742666752,0.07121903734376113,-1.7909767148489055,-0.30435868768364327,-0.6596623350213555,0.05461961481479397
1759504933.1776233,1,-1.182304203474013,-0.8428555980266652,-0.6694309541263104,0.08332656389537531,-1.7940295409782536,-0.30194407521624755,-0.6523990237433896,0.05610031342392845
1759504933.2991161,1,-1.1732884392001792,-0.850904108450946,-0.6419279966460906,0.10312164546671193,-1.800136984592577,-0.2973924411372368,-0.6392512226454492,0.06128433604961705
1759504933.4011283,1,-1.1662171039995375,-0.857323984759086,-0.6198895672309501,0.11858211407694456,-1.802989719660823,-0.29522682854611987,-0.6289946272553035,0.06213998126736515
1759504933.518753,1,-1.15530256121012,-0.8653240137310012,-0.5872473805936927,0.12630703628195838,-1.8091131586401121,-0.290844298467937,-0.6116060877819403,0.060001105330790096
1759504933.633766,1,-1.1464220734168538,-0.8717961448427586,-0.5605188148497272,0.13048723068998674,-1.8120022840299217,-0.2887195751258631,-0.5977211208880768,0.059827901493361965
1759504933.750882,1,-1.1337959034382397,-0.8793327021784718,-0.5255563280237887,0.1385879488574736,-1.81853513318716,-0.28435124278567014,-0.5772779449988242,0.060337833296858816
1759504933.8680077,1,-1.1185286943792643,-0.8871925528120914,-0.49006944914385103,0.13939794558999968,-1.821610529200064,-0.2822381066585719,-0.5611706298429104,0.06037967051338333
1759504933.9785087,1,-1.1057338595768114,-0.8936195851109291,-0.4591948847911433,0.13874836229792328,-1.8270140473399703,-0.2786941739369972,-0.5441434077693409,0.04485256182742201
1759504934.088109,1,-1.0884272037941602,-0.9010020434498451,-0.4295459650941222,0.14577048393623,-1.8294640901074597,-0.27707905574190145,-0.5314302464979027,0.04354868783408455
1759504934.2064924,1,-1.0739362983464613,-0.9070849323151733,-0.4047068689464614,0.15123069485337842,-1.830047069369063,-0.27650565479702666,-0.5272407881494239,0.023455794095205686
1759504934.3194318,1,-1.0561203374732808,-0.9138638799594259,-0.3848567025735276,0.157848379808684,-1.830168656251935,-0.27635012881341414,-0.5259639162445336,0.021582026153430106
1759504934.4419768,1,-1.0416803006236162,-0.9193363460447688,-0.3689612045028171,0.16385731264144426,-1.8224413502613885,-0.28139895715454327,-0.5390788636084098,0.05957385217146744
1759504934.55382,1,-1.0224329301842923,-0.9262071678512437,-0.35933945296464415,0.1712882346986346,-1.8186517221963652,-0.283921713120752,-0.5530097192305545,0.06304839546715788
1759504934.668124,1,-1.0032615572937744,-0.9330123410359485,-0.3526908496950292,0.17778347716923407,-1.8074460227504119,-0.29199951771798927,-0.5816962711742141,0.0939758722236126
1759504934.7824764,1,-0.9836954545261316,-0.9399310883067296,-0.34956754946399915,0.1837916132293244,-1.80216611281295,-0.2959645540555181,-0.6073195248994911,0.09538099574996207
1759504934.890442,1,-0.9645066484219664,-0.9467385693848922,-0.34750858556763753,0.18724172287284158,-1.7902451946807554,-0.30562623945333983,-0.6430203565634708,0.10774936072543259
1759504935.0009303,1,-0.9447828892442411,-0.9537600522910337,-0.34717647013069447,0.1886842937694191,-1.7846494132111421,-0.31039988843778427,-0.6723297010276307,0.1070152674440074
1759504935.1145792,1,-0.9199950293298166,-0.9626433625184228,-0.3468198950919273,0.2004262778687401,-1.772047667959221,-0.32173410475377806,-0.705185826425652,0.11109420159094915
1759504935.218784,1,-0.9007815495370752,-0.9696086788486449,-0.3464972735249256,0.20965244689531673,-1.7661594685759314,-0.3272377254858633,-0.7302795026273319,0.11027638073647048
1759504935.3323672,1,-0.8764331988919741,-0.9783561836114512,-0.34447871929531687,0.21300104936213082,-1.7495933573777251,-0.34353595864384945,-0.7547210809222271,0.14856060245847258
1759504935.4359012,1,-0.8575855035361682,-0.9851717233893993,-0.34283078348911816,0.21538414181869006,-1.7417819614712238,-0.3513821882936735,-0.7727297987405608,0.1510757610379981
1759504935.5655372,1,-0.8330095519894725,-0.9938346880912907,-0.3378190812857999,0.22093982716898825,-1.724356571179701,-0.369045155561017,-0.7863902288375284,0.1628352055848497
1759504935.671226,1,-0.8059232578261624,-1.0030816073038225,-0.33021741804830435,0.22119821217143956,-1.7161977483561548,-0.3773574470569616,-0.7946008108280723,0.16324505941246145
1759504935.7865415,1,-0.7835133815332873,-1.0106831074054665,-0.3228767894751878,0.22161825048181716,-1.6966331033818536,-0.3971131182345675,-0.7967536388287528,0.17357001636215422
1759504935.8875844,1,-0.7560833198339292,-1.0194167728066146,-0.3114180608921482,0.22722426749131722,-1.687547888542084,-0.406224268848672,-0.7961282293558718,0.17423058316652473
1759504936.0025618,1,-0.733244156923483,-1.0266228789989642,-0.3004857962029874,0.2318374450641887,-1.667007327431601,-0.4267094686749117,-0.7907409230918595,0.19697960353811583
1759504936.1191983,1,-0.7056534638507221,-1.034562550076557,-0.2842621519306721,0.240186248396587,-1.6571983588232135,-0.43635620385979174,-0.7849984105720652,0.1990636687960331
1759504936.2373168,1,-0.6832403983730657,-1.0409674215776152,-0.27085714116329285,0.2471880415620463,-1.6354501713269431,-0.45703890369264194,-0.775835979472289,0.19297984884346495
1759504936.3537285,1,-0.6561011632259831,-1.04779152772406,-0.25160058075771563,0.2534716006044542,-1.6249020954289337,-0.4669246627154991,-0.7677839209436861,0.19251541680900233
1759504936.4804606,1,-0.624918998391055,-1.0545681764785575,-0.22818287591211686,0.2526094985146816,-1.6015915744797826,-0.4884558155423353,-0.7578520753953173,0.19067628646305476
1759504936.6052997,1,-0.598340750443797,-1.0600814169505393,-0.20601262068837675,0.2516547734107316,-1.5901958817420871,-0.49886789183235314,-0.7497589258548559,0.19056992861975136
1759504936.7396152,1,-0.5679546736040592,-1.0651345051715586,-0.18001926536763366,0.2561735916404134,-1.5641976579136325,-0.5224226102359055,-0.740034190964523,0.19559657744178086
1759504936.8612583,1,-0.5368981127133586,-1.0695121663886658,-0.1540628407129225,0.2578457704678261,-1.551623911838247,-0.5336593176508335,-0.7327775297496407,0.19574276790043832
1759504936.9795213,1,-0.507367523730974,-1.073092657538086,-0.13001165460282876,0.2572623390190719,-1.5194441289504137,-0.562455158143706,-0.7203846757661942,0.25404228218686026
1759504937.0893924,1,-0.47480555567157706,-1.0760259714201075,-0.10788387836839876,0.2517968837817828,-1.5040086955133536,-0.5759223148403046,-0.7108027710501308,0.25901207110017127
1759504937.2165577,1,-0.448236865866164,-1.0782687667883728,-0.08951438832622279,0.2475594429073616,-1.4758335755180376,-0.5991696989457773,-0.6959273226626513,0.23045012827792563
1759504937.332293,1,-0.4161839659913432,-1.0800922317031572,-0.07381109529807355,0.25703433672919845,-1.4623395761310647,-0.6100256895770101,-0.6844525531464407,0.22752000568208394
1759504937.4557421,1,-0.3887541958869404,-1.0815737163065635,-0.06040799083173149,0.2654261301727317,-1.4345511612257966,-0.6316683820474622,-0.6668764661000302,0.22216905865305384
1759504937.5737352,1,-0.3558324374617356,-1.0828003358888825,-0.04996653762272174,0.26864974155339966,-1.4210724280535283,-0.6419164376113783,-0.6533134602271418,0.22137321594473575
1759504937.695392,1,-0.32118061606791243,-1.0838050711032314,-0.041508206814584545,0.2614041692909458,-1.391345210276075,-0.663456610573972,-0.6310597438791544,0.21713145811196197
1759504937.8164032,1,-0.2931384941435409,-1.08457198231447,-0.034729365706382,0.2555643356042784,-1.3769526780463184,-0.6735561108658613,-0.6132920572537817,0.21717192886412395
1759504937.9396453,1,-0.25848660542118373,-1.0852259395789794,-0.028333858098179003,0.2667738801118657,-1.341727568473049,-0.696785233458588,-0.5839854174089043,0.2519763465091707
1759504938.064555,1,-0.23048651664591918,-1.0857288714860054,-0.02316124713882467,0.27557006584371707,-1.3245016514810963,-0.7076001508586431,-0.5597887529398291,0.25593216644525724
1759504938.1858912,1,-0.1964621854910312,-1.0861105385145882,-0.017431403450358783,0.27782391417535823,-1.2886290521325925,-0.7280326363538925,-0.5279407833429883,0.24522099057175886
1759504938.3023841,1,-0.15939895054162206,-1.0863078446550622,-0.011776953501861143,0.27222268721352544,-1.2713302693090551,-0.7374065798150715,-0.5029937299116987,0.24456654431384148
1759504938.4298916,1,-0.12949344271612817,-1.0864337021119634,-0.007076128976745363,0.26757693909370944,-1.232378789198058,-0.757246926553626,-0.4731510528173056,0.25380167419364164
1759504938.5434625,1,-0.09410149300151989,-1.0863689029515327,-0.0027817020663848616,0.2730528657390655,-1.2138073095035933,-0.7662656936113988,-0.4512953818310888,0.2548717493010464
1759504938.671551,1,-0.06402244674361539,-1.0862907753661901,0.0008808658659873551,0.2777256192960432,-1.1747938970348972,-0.7843158312686961,-0.42768363073683635,0.263060606915473
1759504938.7833874,1,-0.029282455807323717,-1.086085459157954,0.003402215596357203,0.280543725932907,-1.1562579311458763,-0.7925426633645121,-0.41138072685902305,0.26385435927819895
1759504938.9097486,1,0.007694194748086049,-1.0858362934928294,0.004710907303826488,0.276403218634365,-1.119871657499732,-0.8079468611516598,-0.3928244107711532,0.2381645646283791
1759504939.033667,1,0.03767040306548992,-1.085629212103133,0.005594625549268302,0.27318242430106565,-1.102319819169518,-0.8151458969445725,-0.3798842551210075,0.2359911917784045
1759504939.154961,1,0.0754797091021167,-1.0854166649447023,0.005288581334770806,0.28026810622017895,-1.059345034684089,-0.8319656176647178,-0.36002221316597893,0.2787100172079434
1759504939.2634187,1,0.10459590755276933,-1.0852540269699344,0.00503349583373262,0.28582263554106563,-1.0386926189656474,-0.8397001546262427,-0.34470656861371984,0.2829907989941846
1759504939.3907864,1,0.14005697051454633,-1.0851370375860285,0.004166353265922403,0.2853025296134377,-0.9984499394739929,-0.8534624398219918,-0.32421127765736085,0.2666284371923089
1759504939.5117962,1,0.17779686368837108,-1.0850749941681523,0.0034859190089041145,0.28044621049458707,-0.979313488741542,-0.8596846798829745,-0.30861707431886826,0.2653059925316295
1759504939.6320398,1,0.2084339867054847,-1.0850290951948958,0.0029499349375519957,0.2765178531011923,-0.9356628006630142,-0.8729280380718301,-0.28827801655689533,0.2700737460030654
1759504939.7441244,1,0.24535360787037055,-1.085008007046444,0.0029306121099681843,0.2831978369277733,-0.9148577053960367,-0.8789482587736286,-0.2731899592864022,0.27078056827722424
1759504939.8716931,1,0.275015981390964,-1.0849902399390696,0.0029735798417627464,0.2883373529866879,-0.8709921681651314,-0.890885616210508,-0.2567904952751997,0.27981208501411287
1759504939.9948366,1,0.31120962404283276,-1.0849484249804997,0.0036802376227736177,0.2927140312259723,-0.8499370088460592,-0.8963731404234024,-0.24536643051659004,0.28082735628371613
1759504940.1167862,1,0.34963486998260224,-1.0848662751477591,0.004537156428686656,0.283253697520087,-0.8074632971630906,-0.9069515596470958,-0.23336214684308615,0.26431228489530517
1759504940.2388628,1,0.3807435383594885,-1.0847945114305302,0.005281670102033252,0.2755472729246161,-0.786994399572331,-0.9118962565198091,-0.22558485130912603,0.2630025346965827
1759504940.3633215,1,0.4195762883622026,-1.084661472232914,0.005942078992867092,0.2873364087965964,-0.7404490343190011,-0.9226679232406556,-0.2149019721735417,0.2794921492895722
1759504940.4777923,1,0.4509447429122981,-1.0845495393122917,0.006454293831383975,0.29696449286200227,-0.7180174780913402,-0.927690266418335,-0.20749064638125933,0.28119865398702737
1759504940.6033978,1,0.48668743090999056,-1.0844184001628412,0.006364539414431917,0.2954640261567394,-0.6728311071133619,-0.9372102252661386,-0.19735895261995873,0.2853640692562188
1759504940.7260368,1,0.5257785168162986,-1.0843113536475801,0.0057058529476163924,0.2878190237893922,-0.6513772228643603,-0.9415633002527005,-0.1899297565723946,0.28568215853488904
1759504940.8475428,1,0.5574466931268421,-1.084229612690587,0.005075309164751218,0.2817680388048518,-0.6040267922729251,-0.9505229441826366,-0.17854294951755834,0.2862298815798587
1759504940.9626653,1,0.5943095164002865,-1.0842053005632328,0.003917785429457599,0.2922963493648594,-0.5814663847325939,-0.9546148136986723,-0.17001645918825195,0.28643528207599367
1759504941.091722,1,0.631847284501324,-1.0842253925686272,0.0028324923280630653,0.2969213861507832,-0.5349947059877879,-0.9624276111798269,-0.1594128344157015,0.2912679725057152
1759504941.2063065,1,0.6678358261597566,-1.0842776847831535,0.0019044533005097512,0.2965478525745348,-0.5127747209711402,-0.9659983505513906,-0.15167546134889084,0.2918151556848326
1759504941.3279843,1,0.7066896585424723,-1.084357306228286,0.001644030297695285,0.29193387224240686,-0.46976784444811504,-0.9725082325841795,-0.14272274805914192,0.27660563842254804
1759504941.4436204,1,0.7382996299305801,-1.084422621432882,0.001562393426458898,0.2880573260415729,-0.44914356163615404,-0.9755096999455147,-0.1369300054911765,0.2753916282012284
1759504941.5676162,1,0.7755672556643224,-1.084466634035594,0.0022078526376235006,0.2936145691221616,-0.4034638024327414,-0.981830730872712,-0.12925128086033663,0.2757432296263294
1759504941.6867025,1,0.8057870393016301,-1.0844979931325334,0.0027670566355071746,0.29795819958163156,-0.3816102913658604,-0.9847452823702915,-0.12422856979780963,0.2759404285140365
1759504941.8043623,1,0.840855161990408,-1.0844823286186966,0.0036418558578418213,0.3006647290129678,-0.333692716408185,-0.9908436871696672,-0.11785491118808057,0.29591253026807185
1759504941.9229546,1,0.880181242735078,-1.0844230817000737,0.004421451554392987,0.2939519907572902,-0.3109779750840356,-0.9936335276366974,-0.11352910040657611,0.2976584999920264
1759504942.0421593,1,0.9124317982808786,-1.0843683477932418,0.00508800760758057,0.2886676636135378,-0.25998716162080215,-0.9996150194408937,-0.1079152418766681,0.3170673727688625
1759504942.165251,1,0.9502332109202103,-1.0842851061293257,0.0051467520386149525,0.2933885130228855,-0.23554944360170643,-1.002382563528612,-0.10408833202267556,0.3188947861299155
1759504942.287661,1,0.9808048573189699,-1.0842170319894686,0.005179987793315528,0.29732492036317226,-0.189670565026813,-1.0072670414011502,-0.09912701018970922,0.2830418879947195
1759504942.4002368,1,1.0180378731615571,-1.0841659018163938,0.004494350195040146,0.29973716428503616,-0.16784908890719352,-1.0095239994175484,-0.09562818543003987,0.27984694206105865
1759504942.5280185,1,1.0575111626091336,-1.0841611886854636,0.0036514904512011453,0.2909744349725128,-0.1218604042047822,-1.0140483986610753,-0.09022951825273608,0.2869380526660072
1759504942.640333,1,1.0895657919706632,-1.0841629707310356,0.0029126805822574046,0.2845342628713022,-0.09998866870433536,-1.0161187810267225,-0.08698236731359275,0.2876507678075437
1759504942.771468,1,1.1273988036904616,-1.084160883932829,0.003916255186207806,0.29351367597118966,-0.05149231667436216,-1.0203485117413102,-0.08078800800018342,0.28923481345717017
1759504942.8920164,1,1.1580811709943046,-1.084152145766653,0.0047938003793758085,0.3010689269612031,-0.02831312636567956,-1.0222665883533804,-0.07656742609809072,0.28960377736190035
1759504943.0149238,1,1.1955312549596933,-1.0838613774834394,0.011247545699262727,0.3065230292879462,0.020729584757668475,-1.0261030594183829,-0.07189394485386899,0.3035113178420444
1759504943.1310756,1,1.2355975985804146,-1.0829198230080221,0.024063178764099413,0.3003509845215056,0.043863859599620504,-1.0278444982708133,-0.06854885348209354,0.3053079267793978
1759504943.253457,1,1.2680610553907479,-1.082060543414811,0.03594027687262121,0.29529638933816255,0.09266288054685941,-1.0318337627896845,-0.07247011245850431,0.2938752587850968
1759504943.3705523,1,1.3045171915584055,-1.080022566948402,0.056080260522284854,0.2983202836516595,0.11599380960485281,-1.0338367162437863,-0.07694602057138678,0.2929671016618182
1759504943.4935966,1,1.3416726307765339,-1.0769881742260683,0.08049029761555246,0.3041000461049155,0.16276859043415923,-1.038721050501023,-0.08864331927182932,0.29584012631211787
1759504943.613916,1,1.3769704667321037,-1.0733271076681696,0.1064057609460658,0.31188798637405146,0.18529131159288972,-1.0412834414410257,-0.09908736945271598,0.29598918636997545
1759504943.7340102,1,1.414960360440539,-1.0677586590224761,0.13680577302391123,0.3036720109960732,0.2296630726148464,-1.0471426044743308,-0.11327070389539809,0.2865386631389456
1759504943.84966,1,1.4458613524748298,-1.0630181170639912,0.1633951335325862,0.29687294293633876,0.2509609695593988,-1.0501781181443524,-0.12600958159262732,0.28530069727735863
1759504943.966586,1,1.4818484728195507,-1.0553681511812498,0.1962246472285656,0.30551818781722584,0.29708990407098945,-1.057458257550876,-0.1402744921178884,0.2932738101628727
1759504944.0856047,1,1.5109827179237314,-1.0489581673960198,0.2231785455803792,0.31245435064539334,0.31925625538913294,-1.0611683203834064,-0.15226029062407428,0.2935953983612055
1759504944.2093315,1,1.5461652311759777,-1.0392079737724844,0.25712736011528126,0.31190714839212824,0.3651230194216964,-1.06904927166149,-0.16102248045466977,0.2813677384085501
1759504944.3221543,1,1.5827573338416896,-1.0274046005112907,0.29143269233481683,0.3036897186177447,0.3870471334627923,-1.0729209192128422,-0.16704915868725775,0.27987274769437603
1759504944.4428205,1,1.6126309895391109,-1.017480321866994,0.3211657502455785,0.2975836964536784,0.4339361646645726,-1.080847330099657,-0.1664371375313546,0.29359518692727954
1759504944.5562882,1,1.6478098726571153,-1.003433846410717,0.355424963339248,0.3054394008542223,0.4564060634569039,-1.0845936856422427,-0.1645275941536865,0.2946804226871272
1759504944.6749613,1,1.6761869466008348,-0.9918479051301154,0.3836523213445826,0.31234884082394493,0.5026686022981566,-1.0915971314637938,-0.15610367782592008,0.30742792163223887
1759504944.783995,1,1.7081408549252748,-0.9768951432246717,0.41628793630319816,0.31037259189335753,0.5245521779241418,-1.0947364310825598,-0.1484233569478592,0.30859153324076916
1759504944.9030395,1,1.7338794174490548,-0.9646328201194299,0.4429994114671509,0.30909009771074436,0.565385793954993,-1.0998677529257908,-0.13647177223126947,0.2689342838515405
1759504945.0186963,1,1.7653830727009803,-0.9474841210749004,0.4785039839710379,0.3104512884112072,0.5847282455089823,-1.1021363434166336,-0.12663388430833744,0.2654526034984607
1759504945.1318917,1,1.7981625323828772,-0.9276397686594412,0.5167540963352336,0.3050324582602273,0.6253386805440097,-1.106507635021451,-0.11435146359480276,0.25904430028438696
1759504945.2285929,1,1.8239577212781701,-0.9116063720051085,0.5492785612300359,0.3007892030374776,0.6444224145815114,-1.1084042147990092,-0.10504777278705105,0.2584539625161298
1759504945.3487575,1,1.8542720435261726,-0.8901171410440215,0.589759013716082,0.3009926575956476,0.6843486137298321,-1.1120877317990099,-0.09402102140707082,0.2647202496666807
1759504945.4603007,1,1.8788239582246922,-0.8723526211783008,0.6248982186081051,0.3010254122655007,0.703390527596769,-1.1136949151700601,-0.08586367061430514,0.26516720361056445
1759504945.5868,1,1.9061413478522666,-0.8493436118139235,0.6671350106019788,0.3149452615688065,0.7454076430345502,-1.1168873871083564,-0.0745600237323068,0.2650438199299526
1759504945.7034688,1,1.9300550835092267,-0.8280031444428362,0.7033921218855166,0.31968144394437575,0.7654686652738455,-1.118256700428832,-0.0662069366895337,0.2651359485076692
1759504945.8308654,1,1.9535037608441335,-0.8050741473376918,0.7438869870549953,0.3171828068616102,0.8120029187113609,-1.1206180944730566,-0.050896844071933386,0.2877747993280283
1759504945.9431992,1,1.9750509314538147,-0.7825819415892249,0.7804739905470839,0.3120853904767867,0.8338470184349481,-1.1214799077027215,-0.03852259689457481,0.2900331688938018
1759504946.0516045,1,1.9956546010228837,-0.7594940987420754,0.8192033973497682,0.30499195095941234,0.8738422518182845,-1.1221509713888989,-0.0209112321562995,0.25497688919772105
1759504946.165919,1,2.0177997713359455,-0.7310893326262058,0.8622950676194266,0.3108327826657513,0.8927462875391842,-1.1222328572256801,-0.007202909945579624,0.2515821249294027
1759504946.2841,1,2.036619971771457,-0.7066177257840105,0.9004489635313655,0.3156493379470089,0.9376879336424805,-1.1215022579989016,0.014684410999382952,0.28995874884260586
1759504946.3836792,1,2.0566836405333637,-0.6768206384083388,0.9435710395232818,0.3133308060801406,0.9586506489526986,-1.1208272528480785,0.03143563245769199,0.29321326746477744
1759504946.478892,1,2.0720047606689724,-0.6534410377753687,0.977565543142062,0.31148285133780096,0.9664247821523181,-1.1203577190488274,0.04104100664069781,0.29409269263668364
1759504946.6105766,1,2.0888439055264176,-0.6242209098330759,1.0176994989836723,0.3083022715568195,1.014856700551909,-1.1171055645554402,0.06509322878235048,0.2576174837104182
1759504946.741782,1,2.1034291373504423,-0.5968665033095271,1.0525209346731499,0.30510924143177587,1.0387152556242996,-1.115175668405835,0.08527414566955643,0.2549273076105659
1759504946.869938,1,2.117545190435707,-0.5683526164148411,1.0902326436110192,0.30188251615609607,1.085255648371773,-1.109611381091801,0.11384251301309503,0.2543453235768377
1759504946.9666119,1,2.1313631159400646,-0.5346801195139395,1.1312503254060373,0.3079125996939277,1.1065871401426786,-1.106673532006911,0.13574311718468582,0.25411827538553516
1759504947.0757475,1,2.1423677169381525,-0.5069876173336026,1.166000025497372,0.31279868716984005,1.144673128543664,-1.1003326045882778,0.1632550343526973,0.2591872544215626
1759504947.1978147,1,2.1538330921381488,-0.47333876818470183,1.2072136616538605,0.3118492066482563,1.162613299505006,-1.0969651788390464,0.18359766011495252,0.2596873111011396
1759504947.3136353,1,2.163309470323598,-0.4427039119185526,1.2422384843043588,0.3121634336249897,1.200885698067517,-1.0888188895849373,0.21032588962438342,0.25001481443275425
1759504947.4237216,1,2.171924897916961,-0.40962721239032385,1.2813122844920757,0.3134107890076799,1.219054986744528,-1.0846063364476968,0.2299864986159554,0.24908893161117165
1759504947.5251412,1,2.179636161965757,-0.3734903595812825,1.319222569319006,0.3109007320913025,1.2522157101013347,-1.0761622734055671,0.2541567678392529,0.23163197506235744
1759504947.6318648,1,2.185862600504153,-0.3421667324420977,1.3532453797138213,0.3084565663516459,1.2680056367890948,-1.0718428357217973,0.2716021081043563,0.229836582029073
1759504947.7437065,1,2.1912893876078976,-0.3072307744007699,1.384758823103732,0.30110436190322093,1.301201394877737,-1.0619289088036359,0.2957093936424474,0.23078569255883336
1759504947.8534184,1,2.1955994612385226,-0.278740033903088,1.4111172937361078,0.2953110844793089,1.3169863314094308,-1.056912129300881,0.3134043259859627,0.23070595384771742
1759504947.9631357,1,2.199467605694968,-0.24374573379100517,1.43448190556773,0.2951827149454265,1.3508716907430018,-1.0450678607390043,0.33942149596977195,0.2371993353137826
1759504948.065811,1,2.202513142864185,-0.21497677153948447,1.4537714760865967,0.29543536035675755,1.366962841913348,-1.0391075654500541,0.36019541904160873,0.23813094823393566
1759504948.1680093,1,2.2052839555923947,-0.18067529858789427,1.4696236311624185,0.2969875583365673,1.4000461454016986,-1.0251317691966118,0.39445929417028897,0.2519835318961612
1759504948.2717679,1,2.2071160461450465,-0.1534629843455833,1.4817445729231806,0.29860315947473887,1.4157522735344357,-1.0179884791100444,0.4217397690781859,0.2534307999690496
1759504948.3855739,1,2.209245563864361,-0.11920772808858907,1.4921961213811057,0.3007917525373796,1.445314759772731,-1.0034416126082866,0.4551846634245506,0.22582874071113992
1759504948.4905953,1,2.2108985451672862,-0.09135029516473524,1.5006365989161015,0.30252597192306085,1.459068351073384,-0.9962522387268008,0.48040150822496663,0.22398863034913943
1759504948.6059265,1,2.21254295083424,-0.057861999268632905,1.5079238041559684,0.30154086481333964,1.4923610739896411,-0.9769131118476881,0.5185515116863616,0.2501282771875187
1759504948.703935,1,2.213918734973494,-0.030382634199277978,1.5139284475625143,0.3006771470689159,1.5075564904249308,-0.9675546995259153,0.5487265561565724,0.25322424326427656
1759504948.7990627,1,2.2150800232005077,0.002362213102236722,1.519645868743472,0.30230235723524834,1.513048251356893,-0.9637471653040082,0.5645554042634484,0.25336038210867307
1759504948.9158516,1,2.2159199347602785,0.02896361471708504,1.5243539633069318,0.30359170226586474,1.552173664365772,-0.9361329908867679,0.6099412531915726,0.25342165976028413
1759504949.0342698,1,2.2170887816088234,0.062538424273303,1.529778675651567,0.30441698027707814,1.5710899513008252,-0.9220167096035962,0.6482297307689908,0.2544548992697397
1759504949.1598508,1,2.218187177714666,0.0993329380529754,1.5351544005281983,0.29851090730904756,1.605634420648002,-0.8928366561758695,0.6948803124480288,0.2574758854686769
1759504949.2660434,1,2.219153455612362,0.12941324139067314,1.5396574022358034,0.2935180893911172,1.6215781257643889,-0.8785719665826356,0.730753811027222,0.25879506613602377
1759504949.4234083,1,2.219991056898991,0.16694188421281544,1.544757049791906,0.3006925398180385,1.6560224698930253,-0.8446229756525067,0.7721518057890231,0.2778762356177739
1759504949.5316916,1,2.220713962817072,0.20671981899577146,1.5496319481956442,0.2996105557984298,1.6718476361686474,-0.828322730084556,0.8027045668750734,0.27953486997140664
1759504949.651491,1,2.221228453507712,0.24056459994044704,1.5538875616408683,0.29859591698977,1.7026894275877198,-0.794150325578855,0.8411817482146111,0.2827340741512338
1759504949.7629662,1,2.221680504109225,0.2782660626600037,1.5581477637323213,0.2949665570583442,1.7167835079253742,-0.7777574536365113,0.8692827199451103,0.2834801919115078
1759504949.8799942,1,2.2220328797812603,0.3089017599369507,1.5617073653989872,0.29180301507119627,1.742912843633143,-0.7458263327591509,0.9000910253404927,0.26121660547493286
1759504950.0014865,1,2.2221264817356015,0.3450543077780335,1.5655288471954607,0.2946532533111401,1.755042338789346,-0.730359108559765,0.9214835262525369,0.2592019658927793
1759504950.123297,1,2.222069703297082,0.37424106533697027,1.568643387875097,0.2966144813080615,1.7812012915250885,-0.6951320851441969,0.9461177639930419,0.27339068652190707
1759504950.2448525,1,2.221983643556468,0.4107230281365902,1.5720774716559685,0.30214343502843016,1.7935224638365956,-0.6779930470481083,0.9631603743686227,0.2746816196838687
1759504950.3677537,1,2.221874202171484,0.44967773570861835,1.574922575425483,0.29170178217866355,1.8181888500950472,-0.6423247673344521,0.9858964815306857,0.26024300058343164
1759504950.4833617,1,2.2218982093427346,0.4811966436990261,1.577242420101989,0.2831595529710564,1.8297485158313993,-0.6250975326440956,1.0025885015547367,0.2593649343688484
1759504950.607869,1,2.22155026419118,0.5183882436069892,1.5784326746574413,0.2933411705559201,1.8538706300038124,-0.5855693462389728,1.0284558170101663,0.2829016721698379
1759504950.7154129,1,2.221098066545576,0.5489286803030557,1.5793477675506762,0.30169783007511725,1.8650080071214852,-0.5666468168667915,1.0487992632840155,0.2856336830482463
1759504950.844598,1,2.2208565479803433,0.5860475142057476,1.5789299636774363,0.30024938967363846,1.8863250159504819,-0.5275888260047876,1.0760706557121076,0.27817905426924033
1759504950.955595,1,2.220765904371741,0.6260495219012641,1.5775169965953288,0.29455149501903233,1.8961099197773186,-0.5088904515760577,1.0970188707411588,0.2781525318463114
1759504951.0844953,1,2.2206869611847053,0.6581206712514157,1.576142233986588,0.2900586282656363,1.9146594486678037,-0.4715422235623192,1.1214404003418652,0.2527805634645758
1759504951.2027688,1,2.2206327158271586,0.6958605677288424,1.5740652963857371,0.29423945100351306,1.9232363485435764,-0.4535920898753581,1.1394357662035643,0.25022679752952476
1759504951.3239398,1,2.2204634470117015,0.7263343907958416,1.572351604141768,0.29764708610528956,1.9423787711738296,-0.40892704174032507,1.1645293171904587,0.29445333134765345
1759504951.4400551,1,2.220336336888141,0.7624310738410051,1.5707271673893022,0.3034862376123666,1.9512354664606002,-0.38737526294725255,1.1834976034121079,0.29884370139000777
1759504951.5672216,1,2.22069250485296,0.8022698209404094,1.5694942759650685,0.29337812713620187,1.9681862544661968,-0.3441462105189503,1.2072980989026263,0.27891347223210383
1759504951.6895862,1,2.2210782353917375,0.8342658149134178,1.5685375476391856,0.28534897072700616,1.9760134256830317,-0.32337680622313947,1.2248117646045344,0.2776205646679391
1759504951.8123085,1,2.221300772857167,0.8725141075507183,1.5683124700336655,0.29375246681732003,1.9918448904367585,-0.27661857106245924,1.2460549266176497,0.3027214431538842
1759504951.917532,1,2.221370693769166,0.9039969846864991,1.5681697119313491,0.3007723668434485,1.9991015675368746,-0.25431425178814693,1.261590009190776,0.30543816686497116
1759504952.0268466,1,2.2215816859854534,0.9414709827653499,1.5687198626674548,0.2976952254043278,2.011931370913125,-0.213832453558707,1.2775616387186244,0.2866279999769144
1759504952.1423473,1,2.2217590454720324,0.9717568637829397,1.5691909525114045,0.2951859105114159,2.0178165255416918,-0.19456011209196483,1.2884572920941761,0.2853063689624176
1759504952.261488,1,2.221769674647021,1.0072800074244712,1.570144954693553,0.2999021324862329,2.0301670060471615,-0.152647232863588,1.2998646694348295,0.2784337681410928
1759504952.3772306,1,2.221749602187181,1.0406406362455645,1.5709357991136237,0.29883040955302276,2.0358094296664118,-0.13299906211662355,1.3069863809951137,0.2780367292587827
1759504952.4943247,1,2.222044601932161,1.075245877298644,1.5716339267194317,0.29282874466700914,2.0476490379673997,-0.08999749052786682,1.3167572157152034,0.2790868842116464
1759504952.6003993,1,2.222236628254497,1.1148713950104703,1.5719449918112116,0.2975816804212197,2.053086313931302,-0.06985003452753409,1.3235062880316852,0.2790180512282584
1759504952.7164395,1,2.2222814627824765,1.1468633199640257,1.572155146048013,0.3014596098942741,2.0641712980997022,-0.024156996385374312,1.3343426151022042,0.305350801084994
1759504952.834217,1,2.2223312981650936,1.1835100579756719,1.5719658340501945,0.29934651298069853,2.069278302576228,-0.0024999347032289634,1.342245788257474,0.30778138580770115
1759504952.9343514,1,2.2224477524493387,1.213542036645513,1.5717993989570656,0.2975791054208503,2.0790943363299035,0.039419797553222086,1.3531700173683552,0.2924271446135957
1759504953.0428805,1,2.2224648170815144,1.250144090205208,1.5715710364936502,0.3055105047681924,2.083565326280613,0.059457573247048694,1.361345949011574,0.29118692811822267
1759504953.1617956,1,2.222498773033562,1.2895265241338407,1.5715662010872093,0.30197001147636404,2.0923211670247404,0.09919147410029021,1.3714502408868634,0.2652257306855124
1759504953.2637842,1,2.22262057626149,1.322522318328573,1.5716523899182766,0.299201890197035,2.0963261052468916,0.11803503707075673,1.3786601050788998,0.2630116304656592
1759504953.3750007,1,2.22284777976247,1.35902949125112,1.5719650689208073,0.2916566019150722,2.104316539639926,0.16208608593602938,1.388057884850001,0.3077811313419247
1759504953.4768884,1,2.223182608715962,1.3895192114460542,1.5723195696268133,0.28540906733707727,2.1080449029703106,0.18278208457627754,1.3947003869121466,0.31157314442328565
1759504953.5674465,1,2.2232559593574543,1.4181956968791247,1.5726981638988557,0.2863067402698701,2.109136812444303,0.18983596767961516,1.3977788600200076,0.3125928929245865
1759504953.670835,1,2.223234911596974,1.4483729612634293,1.5731931203300218,0.2930084245321066,2.1178741427725303,0.23755589811274141,1.4053842484631571,0.28237531969150886
1759504953.7708457,1,2.2232592084991625,1.4840726115441825,1.573283267951996,0.29321181478497355,2.122006081133303,0.26087044757264244,1.4110436180066592,0.2797092102412455
1759504953.8667188,1,2.2233402748493627,1.5138171944263463,1.5732959437088454,0.2935889595222154,2.1234838404065712,0.2691772292841202,1.4136185147726972,0.27917122707180997
1759504953.9774103,1,2.223416369985675,1.5485642999344338,1.5728414362119914,0.2929914887787798,2.132237423635369,0.32956033863023204,1.4242182455073977,0.3153812177250857
1759504954.080451,1,2.2235201152628674,1.5772580062552102,1.5723505483432365,0.29265113728103276,2.136421041963602,0.3589553943470284,1.4324264351506355,0.31892957234540975
1759504954.1794677,1,2.223371538526504,1.6047264525019729,1.571906581592751,0.2949096340368385,2.1424820850009434,0.40600139257457085,1.4426434169230204,0.32058464288886174
1759504954.287634,1,2.223235257349985,1.6340459061496329,1.571298430840902,0.29937887847474715,2.1451837473106057,0.42854138721173096,1.4506917371488344,0.3210166913505786
1759504954.398756,1,2.2233455157306254,1.6698582797811055,1.5708166491735605,0.2970638796531064,2.1504759356047285,0.4665802887779256,1.4574126009202308,0.27300735544650423
1759504954.501481,1,2.223512458227985,1.699503341809959,1.570443913573692,0.2951119677500418,2.1528391083794096,0.48477491525253147,1.4612418235147995,0.26884304727527064
1759504954.6086578,1,2.2235683226154146,1.7344544357549683,1.5705734534237032,0.30234096408371824,2.1573703028941464,0.5289727507289655,1.4657820508833155,0.30971689706011785
1759504954.7107515,1,2.223533578749485,1.763165465899104,1.5707108070345046,0.3082196680573869,2.1595116138654813,0.5500156797292425,1.4681115336639199,0.31335910066306966
1759504954.8021169,1,2.2233300331962376,1.796632650044769,1.5711711612497268,0.30724416648432196,2.160157129444163,0.5569263143225424,1.4692358442401208,0.31397912123443894
1759504954.8968234,1,2.2232563077259355,1.8245323543734737,1.5715814422856558,0.3064620555273303,2.1658421814993565,0.609517834332199,1.473460152545593,0.3052989384408659
1759504955.0132403,1,2.2231482742206614,1.8584011191850214,1.5720276618260152,0.30665056950268627,2.1685577956733075,0.6359191385769302,1.4766654034681908,0.3046292644190792
1759504955.1189167,1,2.223070679029993,1.8862585467446316,1.5724078773973038,0.30683957096301795,2.173154078209014,0.6857797035318381,1.4811266184924665,0.32019761214399817
1759504955.235002,1,2.2230811392984204,1.918810214387682,1.5727890841228818,0.30063153988901076,2.1752687347306274,0.7094295387730674,1.4843124467461142,0.32164997526141054
1759504955.3375187,1,2.2232215182809405,1.9455988812914133,1.5731013218501242,0.2954575168946418,2.1794873253126057,0.7513097788995283,1.487866272623081,0.28949127569041466
1759504955.4339554,1,2.22343800140617,1.980471763365801,1.5734660987273248,0.29684384254897095,2.1813135415404186,0.7705834034097762,1.490404077663457,0.28681330130956717
1759504955.5383725,1,2.2236116572375737,2.008952420779806,1.5737363207380926,0.29789162877730413,2.1848131273682276,0.810306012975843,1.493393386820438,0.2845515290822497
1759504955.6552718,1,2.2237146751102896,2.043200328180355,1.5738492501565877,0.2977292544512217,2.1863731314364725,0.8291815984073788,1.495428031301514,0.28423281516648174
1759504955.7593932,1,2.223826012035348,2.071184462220348,1.5739542585598618,0.2975953829239281,2.1896801107575214,0.8730147286683686,1.4985077998248122,0.2965269428243237
1759504955.858684,1,2.2239224315324067,2.105429235470301,1.5737131294793618,0.3009459889202369,2.191219565600401,0.8936601477757653,1.500648545639856,0.29754267033726695
1759504955.9631255,1,2.2236888845291904,2.135360206299175,1.5734929833761262,0.30463525983196205,2.1942044064597686,0.9343619112232868,1.5039324342305342,0.2918294524320873
1759504956.0648034,1,2.2234863618446115,2.1678032730913825,1.5730237293921445,0.30877629972874043,2.1955578090825147,0.9534259346393683,1.506405377514871,0.2913658202977247
1759504956.1757307,1,2.223310743309916,2.199405777442778,1.5726841947707406,0.30945196604144987,2.198420923341009,0.9942201040394018,1.5099878213894695,0.2802677197542977
1759504956.277871,1,2.2232510339892353,2.2312218897319034,1.5724580474670002,0.30737636559958864,2.199736593213699,1.0135117497769774,1.5126683320896013,0.27933540023550973
1759504956.3821564,1,2.223315944499556,2.2617623814372463,1.5723851332921994,0.3023881711083929,2.2020054673365768,1.0547397971425256,1.5160141930699866,0.29302389356111996
1759504956.4895318,1,2.223528553418449,2.291930814775533,1.5725427174237474,0.2949650295444094,2.20306116785804,1.0743138489977153,1.518365699117672,0.2942889348219936
1759504956.6103826,1,2.2237165383314546,2.328291152322442,1.5729566072004142,0.2946905279182342,2.2052750561868084,1.1187900965183513,1.521785388783736,0.3021265356228618
1759504956.73017,1,2.223808777078355,2.357749681591765,1.5733191459407687,0.29445116807572735,2.2063286718674804,1.1402136462993684,1.5235066325147784,0.30293597948553863
1759504956.8351629,1,2.223835217205762,2.3924741909590566,1.573799127074375,0.29690012781096825,2.208717683391697,1.1875754007730195,1.5263046851094928,0.3033830416801353
1759504956.932868,1,2.223877540217608,2.4212586043148834,1.5742218731438258,0.2989408091873568,2.209801508056999,1.2098841576879575,1.5277101797196293,0.30350140866350184
1759504957.0221977,1,2.2236939632122246,2.456162008443027,1.5745744817908094,0.3035349196580127,2.2101614808627783,1.2173296392836546,1.5289036257133617,0.3034819593259576
1759504957.1333387,1,2.223730875392056,2.486324790478381,1.5748682172859432,0.30749041710340674,2.2125274682550433,1.2743719815135934,1.5314398482005946,0.31536479207635787
1759504957.2455826,1,2.2238329776058943,2.521029426268911,1.5749400669183906,0.300958183509096,2.2136846546281537,1.3022403452329903,1.5328151058796573,0.316451114417853
1759504957.3646743,1,2.2239743925302604,2.548894167290678,1.574994572430342,0.2957293621024411,2.215873127496545,1.3516823899520323,1.53478898155315,0.3047734630721996
1759504957.4855726,1,2.223896999582733,2.583250245552136,1.5746384824274169,0.3040147453100298,2.216864316883469,1.3752023728720693,1.5362965942317421,0.3036882392050101
1759504957.603324,1,2.2239674763358934,2.6213283067295845,1.5741607038869305,0.29623767744085877,2.218846408999211,1.4210999319240212,1.538820686325876,0.292439230571362
1759504957.7211602,1,2.2240862592281982,2.6522043669486437,1.5737635383714292,0.29001204687892773,2.219740489817648,1.44320650873053,1.5399640144114006,0.29140513531070916
1759504957.8332942,1,2.2240983197723976,2.6887735933127934,1.5734925051391733,0.2967093081284874,2.221204649727758,1.4919303686677468,1.542624191110997,0.3048374881136002
1759504957.9352808,1,2.2240317071854037,2.7189273432217047,1.5732648995401528,0.3022495489882471,2.221899341417188,1.5150015548726006,1.5439742548655664,0.3060506546399126
1759504958.0205824,1,2.224136929088351,2.755788953987567,1.5731711054757351,0.3025854753574211,2.2220844980992913,1.5220017737752323,1.544518509949885,0.3063271120501129
1759504958.1237998,1,2.2239668701732622,2.7844270911599134,1.5731293923149587,0.30286644362488974,2.223630449788266,1.572954587797326,1.5468288557163727,0.2998753312496416
1759504958.2253742,1,2.2239205382563956,2.818674782980132,1.573234359176757,0.3004414077944222,2.224335128314911,1.5978154361869865,1.5483196931738805,0.2993351032667067
1759504958.3186688,1,2.2239943291836517,2.847097829383731,1.573315080708574,0.29837839743901545,2.2246004950444735,1.606321620810616,1.548889685693967,0.299246124338842
1759504958.418728,1,2.2240988772818095,2.8821968418815733,1.573531636471276,0.2999290736517703,2.2259213612704296,1.661627030040306,1.5507059922581798,0.30752016158668294
1759504958.5108736,1,2.224234871481882,2.9112002133714308,1.5737864852640528,0.3011507563317332,2.2265636405052773,1.6875302784095092,1.5508582539243776,0.308248019451645
1759504958.610616,1,2.22430701885981,2.944854248543342,1.574154369652759,0.295629937347976,2.226780062457973,1.69824601200557,1.5515098032828776,0.3084179498826803
1759504958.7170365,1,2.22447229052023,2.9726200894444696,1.5745085228029816,0.2910455615745884,2.227951941707361,1.756186029710349,1.5525666684655695,0.32015214731899444
1759504958.8152368,1,2.2246168101483597,3.006421840133713,1.574677495914638,0.2934360887872043,2.2285687018585167,1.7827515775535856,1.5521070395105416,0.3209991690154713
1759504958.9082496,1,2.2244964070252378,3.0335833715790446,1.574805302962308,0.29526162315256765,2.228757453156325,1.7939079112079777,1.5524734155780164,0.3213834575848716
1759504959.0096538,1,2.224482793724072,3.066726034223651,1.5746511640546657,0.2972354714438171,2.230514880365921,1.8427980117096445,1.553847887524493,0.2832227046816508
1759504959.106485,1,2.2244995825293974,3.094293695963032,1.5744807737430153,0.2988395649011059,2.2312699560738487,1.8662603122014692,1.553855098627759,0.27995321771606313
1759504959.2140524,1,2.2245500044099717,3.1278758636689084,1.5741155632900783,0.29854496677734194,2.2318687331993114,1.9120628801937924,1.5546101546025324,0.30837695634118883
1759504959.3092864,1,2.2243963152658988,3.1543953823656805,1.5738150645374498,0.2983218155349782,2.2321936870594734,1.933022485277971,1.5552354072128864,0.31073059545554593
1759504959.3961296,1,2.224382838812684,3.1867008370893304,1.5735263736433576,0.3005632619333638,2.2322663244196943,1.9399398834870532,1.5561915980223349,0.31122095165520014
1759504959.49189,1,2.2244007573260722,3.214084533018438,1.5732868156539626,0.3023564882131499,2.2334476383484216,1.9874473981641636,1.5577705066415686,0.28899903287121675
1759504959.5809395,1,2.2242616852472556,3.238879343155513,1.5731376550378628,0.30160451058931603,2.2339311324946944,2.0096244196583393,1.5580968624280762,0.287259500962225
1759504959.670822,1,2.2243151781981445,3.266987923367807,1.5730999560763848,0.2987943728801798,2.234177867040505,2.0183421676774858,1.558930031760232,0.2867720418524555
1759504959.771924,1,2.2244520974232103,3.290050708717526,1.5730601138999964,0.2965057554659604,2.2348891153992576,2.0684320597562738,1.5602738368025075,0.2908946829410933
1759504959.8928816,1,2.2244248686353445,3.321503891001647,1.5731137915553586,0.30365143055509086,2.235207853241644,2.0929292075931873,1.5610622723438594,0.2912698082234791
1759504960.0046368,1,2.224513615166537,3.356122730953074,1.573269538549781,0.29445356971750203,2.2357183047174267,2.141710296403909,1.5624005881931735,0.2986731927131841
1759504960.1188052,1,2.224701619666941,3.384219349721451,1.5733936146007457,0.2870116809228638,2.2359823338695515,2.1648317352279443,1.5624841146530306,0.2993654193056988
1759504960.2279792,1,2.224808240882185,3.419354098504376,1.573581606403819,0.2905708111899065,2.236373791846934,2.2119878677242877,1.5633179818811935,0.312570346269407
1759504960.3387432,1,2.2248156374585633,3.448235238794698,1.573753071119733,0.2934748915717056,2.236559997196407,2.234611969125589,1.5631448460418882,0.31377405431621
1759504960.447602,1,2.224650440164164,3.483067234029553,1.5738777959033223,0.3036474546719558,2.2371977139400365,2.279987344280611,1.5637343542127782,0.30637846709914135
1759504960.5564754,1,2.2243475836369555,3.511568210619559,1.5740096738547296,0.3121757674356391,2.2375018276223777,2.3016088934916303,1.5635314196354768,0.30572630341592666
1759504960.6698425,1,2.224247697978692,3.545738871816269,1.5740881471057508,0.30561321716282364,2.2382101873315277,2.3452932927399943,1.5641676683457932,0.29748068781147885
1759504960.7739897,1,2.224295372263347,3.5736740902322337,1.5741305699594867,0.3008333965730105,2.23852278751271,2.3661186962899996,1.5640170290706679,0.29675138729003603
1759504960.8808036,1,2.2241958868105414,3.608960146644494,1.5767372273487696,0.30709836033512333,2.2392547335112756,2.4073177458129287,1.5649653426573789,0.28170146724260664
1759504960.984532,1,2.2240306344602816,3.6378394624061583,1.5789673127902668,0.3129253400475862,2.239600132567816,2.42679694498657,1.5649302199183373,0.2804707065897518
1759504961.0835164,1,2.2231822039978715,3.6709614872564797,1.5872431984492443,0.31684967859026497,2.2399166059516227,2.468551553102871,1.5644832676367315,0.29652470104793827
1759504961.1848292,1,2.222409029368235,3.698307208285272,1.5942121028026555,0.32071088725584773,2.240101982862916,2.488457055910769,1.5628387527910164,0.29801478598133524
1759504961.2959304,1,2.2207116216838196,3.73136515594569,1.6117451709319002,0.31965327356535034,2.2408107644107234,2.531152840971947,1.5579401015917116,0.3070312587844134
1759504961.39258,1,2.218782700048177,3.761843364445724,1.628414936423706,0.31815426466661545,2.241319393962734,2.550854833802678,1.5520860503355582,0.30782746430226465
1759504961.4776053,1,2.2159448492715166,3.794477692126894,1.6556053882727884,0.31533322333871916,2.241546694896157,2.5570969334080225,1.549774940024315,0.3085486962532456
1759504961.5907667,1,2.2135235290915105,3.8206680109741393,1.6777705431836372,0.3132918726357334,2.2445240472630323,2.608849617496231,1.5320287488857371,0.2961064501995446
1759504961.7119713,1,2.2084250329892026,3.852317984718794,1.7130134629829583,0.31441569704597794,2.2462699405059117,2.634630544293587,1.515003646112555,0.29467660060922285
1759504961.815567,1,2.2005726257284346,3.8877555886754847,1.7554152003146968,0.31262769153086223,2.250910583724058,2.683171033764716,1.4909843015387532,0.3154206794005985
1759504961.9199727,1,2.1938678398337164,3.9169082871017764,1.7933658505528225,0.31063116407885133,2.2535412819217187,2.706284304749726,1.469757930164392,0.31653655069228065
1759504962.0242255,1,2.1842278464603333,3.949338520845807,1.83657640561399,0.3058046765846623,2.260087449266766,2.7496460408243486,1.4469455863485325,0.2984489489483626
1759504962.1179047,1,2.176254595925248,3.9746254332145976,1.8726631154964035,0.3022386602892646,2.26339240288461,2.7693889122704753,1.4294154144660542,0.2963564987512471
1759504962.237116,1,2.1670998137954824,3.9993794591555236,1.906978546013343,0.3015235000776124,2.2703162503844907,2.8110112295996488,1.4158052952367963,0.2979186760232857
1759504962.3514202,1,2.156467456312121,4.025641724465816,1.946747939961769,0.3034425012637917,2.273793301632336,2.8307805216417976,1.4070036103160823,0.29768472848230343
1759504962.4614654,1,2.1411091111105884,4.056067251035584,1.993171597323658,0.31091188725953534,2.280593159939068,2.8673996239429465,1.4046830989162082,0.24982667032879566
1759504962.5762556,1,2.128371447146995,4.080221025073467,2.0313010591498792,0.3172020142932378,2.2837958967936443,2.8850332248059125,1.4044500352365983,0.24534312859797533
1759504962.6737857,1,2.111083551404978,4.108307355930383,2.076851907682628,0.3157438849947589,2.2896582082172214,2.928899782310419,1.4108460317414946,0.304425323180867
1759504962.7665079,1,2.0972517128866075,4.129815833554063,2.1128208701008435,0.31471163041962813,2.292358170248839,2.9491298288037116,1.4170741310876396,0.3093852273163323
1759504962.877832,1,2.0792128268551506,4.154347366280676,2.155874585579983,0.3108980326092612,2.297571869296549,2.98804523511956,1.4279706739973639,0.2829999632883023
1759504962.9814942,1,2.0644258638755333,4.174203860420698,2.191601574368953,0.30760743478054037,2.299867558116817,3.006293833972679,1.4375007602556407,0.280982830909926
1759504963.081854,1,2.043608643237365,4.1983298982459925,2.2382255883400015,0.3071241128141072,2.3042185409512648,3.0415265353839755,1.4504083863443316,0.24988447251464663
1759504963.1838994,1,2.026561681039028,4.217756755270609,2.277079667368467,0.306548062122825,2.3060996575804418,3.058392322225348,1.4607708063034006,0.24724403210469534
1759504963.2850492,1,2.004582839323315,4.238712167471737,2.3226682160314644,0.30707143311173507,2.3091893139330915,3.096937719141863,1.4747517905427878,0.2719973612791296
1759504963.373021,1,1.9863358048891246,4.255891743575129,2.3613601246218896,0.30753042487969023,2.3104389257151614,3.113869043522822,1.4852793935430217,0.27414810057508676
1759504963.471877,1,1.9626524853912328,4.275230160533274,2.4081325134260076,0.30858891186214993,2.310806960637463,3.121563185369468,1.4917656362598273,0.27432177863141
1759504963.5734582,1,1.9433201461291614,4.290683133893016,2.447064260367335,0.30971093302494135,2.3134043025433075,3.168742503416931,1.5100568655457018,0.27911688145444274
1759504963.6560168,1,1.9183633486141705,4.307212839970364,2.4921692113252383,0.31376237787238864,2.3143287473686556,3.1896895499655535,1.524142652823844,0.27958664761520474
1759504963.7482631,1,1.8977536622641562,4.32053054538094,2.530510356339062,0.3175083545365545,2.314562833543254,3.198752160766276,1.5329400507878066,0.2797404323847836
1759504963.8344166,1,1.8712861967716905,4.335473827333016,2.5745634479517925,0.31294041088480373,2.315553630340012,3.238115571031803,1.5513031234751562,0.2555059041156432
1759504963.9267519,1,1.8500160287791931,4.346788218662664,2.6124510295641614,0.30952551823103475,2.3157309616273944,3.257829823890736,1.5665456904778183,0.2534815122853598
1759504964.0234623,1,1.8285992722740358,4.357214863525751,2.6473156638166757,0.30904582100965594,2.315683165258645,3.2657699338750814,1.5758944140995594,0.2529486175882593
1759504964.1230087,1,1.805444373732946,4.367319368213297,2.6875751600499496,0.31016457993319824,2.314805904047264,3.3073947225949634,1.5950181842903008,0.24600614199535442
1759504964.223325,1,1.7770885380136439,4.377639852793585,2.7327420715320967,0.3072153887730012,2.314122781664597,3.3275803471735643,1.6102780652023228,0.24505734841306215
1759504964.3236513,1,1.7535095904590325,4.3859532646183705,2.7737007416692148,0.304160787750031,2.311336189962013,3.3656053691787284,1.6362563987937189,0.2594052223258563
1759504964.4193635,1,1.7307704447988854,4.3924888160884565,2.808705200340129,0.3024617147386398,2.3097516500345936,3.3828815448337655,1.6566447934057726,0.2615022979373232
1759504964.5090322,1,1.7059011071242434,4.3987766283660505,2.8482049663359312,0.3012884057466724,2.308920836216782,3.3889121953705117,1.6673148619313467,0.26138362764942463
1759504964.6111143,1,1.675413845130017,4.4044531176691,2.8874043260181836,0.30741789015757864,2.304611118791316,3.4271608459773724,1.6923427891534262,0.23322326714954328
1759504964.7095923,1,1.6484087591831351,4.4088740820560295,2.922997248675674,0.3118121656879035,2.302208136513081,3.4455209603868338,1.7130661502130182,0.2312704385534681
1759504964.8002548,1,1.6273518798918276,4.411620685434272,2.9507648991444633,0.31497067774439397,2.3012449070544547,3.4517852138352767,1.7239419767151118,0.23108089159843803
1759504964.9039028,1,1.5993904448856897,4.414324273911541,2.9779588488406663,0.315301872454163,2.292608919758327,3.4946183174275287,1.7582621017121356,0.23845694864212422
1759504965.0045693,1,1.5765973650421543,4.416436123744212,3.0003248584049746,0.31504764844964855,2.2880559280512927,3.515197691828484,1.7883688328838605,0.24017918230427823
1759504965.105108,1,1.5467311675530928,4.418679284373133,3.0201873142617295,0.31241011305894967,2.2793618966266176,3.547882262235277,1.8237881512204186,0.23010111037816355
1759504965.2104855,1,1.5166019501664378,4.42077333306208,3.036374647390047,0.3093380754064388,2.274995795392503,3.562772236479432,1.8507780314064353,0.22987631275352866
1759504965.3147469,1,1.4868174656336859,4.422738795428897,3.0494824650277312,0.3071128294628792,2.2652728153347437,3.59272659910482,1.8821025066855204,0.2241393922365587
1759504965.4115887,1,1.4602264792649253,4.423967051749797,3.059576044266238,0.30580360080890606,2.2604820166859696,3.6064039915762507,1.9052149545864105,0.2240598494888154
1759504965.5062978,1,1.4305261641321805,4.425422936445491,3.0677703812159405,0.30547644338085167,2.2585150114624177,3.6113516798943732,1.9169032867271603,0.22314905068110816
1759504965.5945032,1,1.405917669318444,4.426800828761442,3.0745345900613006,0.30515675629144273,2.2444672806755848,3.646513255587421,1.9496781241364856,0.22753829256544558
1759504965.696186,1,1.3758693934919284,4.428001335079621,3.080534840320605,0.3007091943525733,2.2370204323930984,3.6641518249109826,1.9779152654909262,0.22810467258108097
1759504965.791118,1,1.351000867838196,4.429242342567726,3.0855330105981564,0.29707620140535185,2.2339732998868245,3.6706459868677377,1.9939679120137572,0.22839835955605894
1759504965.8946528,1,1.3192484038682963,4.430757882453379,3.0912746447414885,0.29733011868639597,2.2140402202953275,3.7097579078868455,2.0361049904231474,0.2302106858129168
1759504965.994638,1,1.2932489242910794,4.432041753362904,3.0960330141780457,0.2974041147656619,2.204007001616073,3.7284143793785427,2.0722208626124003,0.23173417444037706
1759504966.090445,1,1.2604713079569436,4.433369978497803,3.1020017866716953,0.29818217005904435,2.2001140883012913,3.734847300033993,2.0911667234151263,0.23150309258936483
1759504966.195286,1,1.2351819171572305,4.4338321016446445,3.106721029406103,0.2987599930842541,2.1736704812886827,3.77460029561201,2.138902378281053,0.25544814095832724
1759504966.294241,1,1.2033023504223381,4.4342065620164535,3.1122646605691857,0.3033329216568678,2.1607946022435356,3.7930295220219308,2.177712106863617,0.25834726677335096
1759504966.4002528,1,1.1771316723354994,4.434354953020096,3.1168506933916658,0.3069364850011931,2.137628898345488,3.823067439587318,2.2203897157569403,0.2556268633601959
1759504966.4872503,1,1.1440123735069807,4.434592823072708,3.121721481740483,0.31038477346100135,2.1273791615798383,3.835579431987069,2.2486344493025876,0.2556081317760201
1759504966.5957704,1,1.1170028554400429,4.434666749121464,3.125722441705965,0.3131926659544271,2.1224376255874495,3.8410590495569887,2.2660946288989767,0.2556145506605932
1759504966.719664,1,1.0847102295661573,4.439899487934158,1.9848822623247435,0.3060162768861449,2.0937452920191775,3.8746446219080024,2.2960616694414595,0.24051233004994924
1759504966.8311834,1,1.0524893888811229,4.4519933712025725,1.05489382283368,0.3056503129116291,2.0795298999002476,3.890804886925885,2.319288927435636,0.2398557277823643
1759504966.9412265,1,1.0245203190185188,4.4652433413837755,0.29864240377740364,0.31043963506253563,2.049393773678413,3.9211725088654803,2.3522483941045653,0.2564027930273856
1759504967.0448177,1,0.9994297260692594,4.472732676176546,-0.32278102747639364,0.3082748909173785,2.035007642324089,3.9351263847521856,2.3779502521620652,0.2586216764481145
1759504967.157409,1,0.9722805120093196,4.4753257791076875,-0.8308483990087143,0.2997506407327067,2.0061347607351383,3.9608450087465212,2.408426971111982,0.26830989374533365
1759504967.2700813,1,0.9346207557184711,4.476338410966723,-1.2555208292670397,0.3007592284323458,1.9925100287740207,3.972524157049454,2.4308281545753103,0.2689258380021301
1759504967.39158,1,0.9012438397853195,4.477487807561777,-1.5958486048952945,0.3010916338036895,1.9589837039171718,3.999545047090047,2.464741400293814,0.27210496941872525
1759504967.508458,1,0.8618662447376612,4.479787329623059,-1.8703388582769194,0.3060237515536668,1.9429202133485264,4.011928456784198,2.4903760683293994,0.2728614910522343
1759504967.6225464,1,0.8284164237403534,4.483499650323144,-2.09393797347822,0.30955388341590073,1.9096216241699873,4.036260858061211,2.5221612778806706,0.2624064796773659
1759504967.72488,1,0.7886517674979133,4.488168797122545,-2.27844165967561,0.3102423205717996,1.8936090453377563,4.047387424601664,2.5454302469583037,0.261684754484705
1759504967.8429754,1,0.751551624233916,4.493543293359039,-2.4286498170083504,0.3090564648691474,1.8594088308510681,4.0695187156858035,2.571756149864189,0.26942330506277284
1759504967.948975,1,0.7149362998124433,4.499216012458273,-2.553543850351728,0.30648659439924053,1.8432643915551716,4.079627563013027,2.589967588876184,0.27006385130120825
1759504968.063523,1,0.6807306363617667,4.504860147274866,-2.655937132838264,0.30255995928880314,1.8072103722867747,4.10093157093886,2.613028829532308,0.27824081643704074
1759504968.1613798,1,0.6477075261254607,4.51020352448391,-2.7415461164164836,0.2972207720249643,1.7903797238824088,4.110608684796747,2.6289702972333466,0.27895664328810343
1759504968.2732809,1,0.609822142373034,4.513507269038682,-2.81396303548465,0.298198663330379,1.7575641736134735,4.129292670044389,2.6504067492614225,0.2569529205517122
