timestamp,vehicle_id,x,y,theta,velocity,gps_available,dt,gps_x,gps_y,gps_theta,gps_velocity,control_steering,control_acceleration
1759504929.4109364,0,-1.205,-0.83,-0.7801621756414647,0.0,False,0.01,nan,nan,nan,nan,0.0,0.0
1759504929.4223409,0,-1.205,-0.83,-0.7801621756414647,0.0,False,0.01140451431274414,nan,nan,nan,nan,0.0,0.0
1759504929.4327667,0,-1.205,-0.83,-0.7801621756414647,0.0,False,0.010425806045532227,nan,nan,nan,nan,0.0,0.0
1759504929.4437022,0,-1.205,-0.83,-0.7801621756414647,0.0,False,0.010935544967651367,nan,nan,nan,nan,0.0,0.0
1759504929.4552479,0,-1.205,-0.83,-0.7801621756414647,0.0,False,0.011545658111572266,nan,nan,nan,nan,0.0,0.0
1759504929.466698,0,-1.205,-0.83,-0.7801621756414647,0.0,False,0.011450052261352539,nan,nan,nan,nan,0.0,0.0
1759504929.4769654,0,-1.205,-0.83,-0.7801621756414647,0.0,False,0.010267496109008789,nan,nan,nan,nan,0.0,0.0
1759504929.4877894,0,-1.205,-0.83,-0.7801621756414647,0.0,False,0.010823965072631836,nan,nan,nan,nan,0.0,0.0
1759504929.498379,0,-1.205,-0.83,-0.7801621756414647,0.0,False,0.010589599609375,nan,nan,nan,nan,0.0,0.0
1759504929.5084884,0,-1.205,-0.83,-0.7801621756414647,0.0,False,0.010109424591064453,nan,nan,nan,nan,0.0,0.0
1759504929.519225,0,-1.205,-0.83,-0.7801621756414647,0.0,False,0.010736465454101562,nan,nan,nan,nan,0.0,0.0
1759504929.5303793,0,-1.205,-0.83,-0.7801621756414647,0.0,False,0.011154413223266602,nan,nan,nan,nan,0.0,0.0
1759504929.5406604,0,-1.205,-0.83,-0.7801621756414647,0.0,False,0.010281085968017578,nan,nan,nan,nan,0.0,0.0
1759504929.5509634,0,-1.205,-0.83,-0.7801621756414647,0.0,False,0.010303020477294922,nan,nan,nan,nan,0.0,0.0
1759504929.5610259,0,-1.205,-0.83,-0.7801621756414647,0.0,False,0.010062456130981445,nan,nan,nan,nan,0.0,0.0
1759504929.5710726,0,-1.205,-0.83,-0.7801621756414647,0.0,False,0.010046720504760742,nan,nan,nan,nan,0.0,0.0
1759504929.5815258,0,-1.205,-0.83,-0.7801621756414647,0.0,False,0.010453224182128906,nan,nan,nan,nan,0.0,0.0
1759504929.5916014,0,-1.205,-0.83,-0.7801621756414647,0.0,False,0.010075569152832031,nan,nan,nan,nan,0.0,0.0
1759504929.6112223,0,-1.2050000425577163,-0.8299997470180194,-0.7229992571235471,0.0,True,0.019620895385742188,-1.2050000429153442,-0.8299997448921204,-0.7177030444145203,0.0,0.0,0.0
1759504929.6217349,0,-1.205000042795803,-0.8299997456027273,-0.7181170865073057,0.0,True,0.010512590408325195,-1.2050000429153442,-0.8299997448921204,-0.7177030444145203,0.0,0.0,0.0
1759504929.6320076,0,-1.2050000428705006,-0.8299997451586908,-0.7176584280225278,0.0,True,0.010272741317749023,-1.2050000429153442,-0.8299997448921204,-0.7177030444145203,0.0,0.0,0.0
1759504929.6429563,0,-1.2050000428982601,-0.829999744993676,-0.7175949474705163,0.0,True,0.010948657989501953,-1.2050000429153442,-0.8299997448921204,-0.7177030444145203,0.0,0.0,0.0
1759504929.653844,0,-1.2050000429088212,-0.8299997449308965,-0.7175869734139102,0.0,True,0.010887861251831055,-1.2050000429153442,-0.8299997448921204,-0.7177030444145203,0.0,0.0,0.0
1759504929.6648993,0,-1.205000042912853,-0.8299997449069307,-0.717593886125087,0.0,True,0.011055231094360352,-1.2050000429153442,-0.8299997448921204,-0.7177030444145203,0.0,0.0,0.0
1759504929.6756468,0,-1.2050000429143926,-0.8299997448977774,-0.7176062312051652,0.0,True,0.010747432708740234,-1.2050000429153442,-0.8299997448921204,-0.7177030444145203,0.0,0.0,0.0
1759504929.6859176,0,-1.2050000429149808,-0.8299997448942812,-0.7176191796280129,0.0,True,0.010270833969116211,-1.2050000429153442,-0.8299997448921204,-0.7177030444145203,0.0,0.0,0.0
1759504929.6964731,0,-1.2050000429152055,-0.8299997448929457,-0.717629728911465,0.0,True,0.010555505752563477,-1.2050000429153442,-0.8299997448921204,-0.7177030444145203,0.0,0.0,0.0
1759504929.7067761,0,-1.2050000429152912,-0.8299997448924357,-0.7176389441096962,0.0,True,0.010303020477294922,-1.2050000429153442,-0.8299997448921204,-0.7177030444145203,0.0,0.0,0.0
1759504929.7170591,0,-1.205000042915324,-0.8299997448922408,-0.7176465390466795,0.0,True,0.01028299331665039,-1.2050000429153442,-0.8299997448921204,-0.7177030444145203,0.0,0.0,0.0
1759504929.7277188,0,-1.2050000429153365,-0.8299997448921663,-0.7176524366195913,0.0,True,0.01065969467163086,-1.2050000429153442,-0.8299997448921204,-0.7177030444145203,0.0,0.0,0.0
1759504929.7381349,0,-1.2050000429153414,-0.8299997448921379,-0.7176577037426526,0.0,True,0.010416030883789062,-1.2050000429153442,-0.8299997448921204,-0.7177030444145203,0.0,0.0,0.0
1759504929.748611,0,-1.2050000429153431,-0.829999744892127,-0.7176621035042814,0.0,True,0.010476112365722656,-1.2050000429153442,-0.8299997448921204,-0.7177030444145203,0.0,0.0,0.0
1759504929.7594059,0,-1.2050000429153438,-0.8299997448921229,-0.7176656215867041,0.0,True,0.010794878005981445,-1.2050000429153442,-0.8299997448921204,-0.7177030444145203,0.0,0.0,0.0
1759504929.7697737,0,-1.205000042915344,-0.8299997448921214,-0.717669009086789,0.0,True,0.010367870330810547,-1.2050000429153442,-0.8299997448921204,-0.7177030444145203,0.0,0.0,0.0
1759504929.7811935,0,-1.2050000429153442,-0.8299997448921207,-0.7176712638358183,0.0,True,0.01141977310180664,-1.2050000429153442,-0.8299997448921204,-0.7177030444145203,0.0,0.0,0.0
1759504929.7923756,0,-1.2050000429153442,-0.8299997448921205,-0.7176735494775297,0.0,True,0.011182069778442383,-1.2050000429153442,-0.8299997448921204,-0.7177030444145203,0.0,0.0,0.0
1759504929.8054588,0,-1.2050000429153442,-0.8299997448921204,-0.7176747001508019,0.0,True,0.013083219528198242,-1.2050000429153442,-0.8299997448921204,-0.7177030444145203,0.0,0.0,0.0
1759504929.8169677,0,-1.2050000429153442,-0.8299997448921204,-0.7176768750181033,0.0,True,0.011508941650390625,-1.2050000429153442,-0.8299997448921204,-0.7177030444145203,0.0,0.0,0.0
1759504929.8269906,0,-1.2050000429153442,-0.8299997448921204,-0.7176795207527711,0.0,True,0.010022878646850586,-1.2050000429153442,-0.8299997448921204,-0.7177030444145203,0.0,0.0,0.0
1759504929.8370006,0,-1.2050000429153442,-0.8299997448921204,-0.7176816490214541,0.0,True,0.010010004043579102,-1.2050000429153442,-0.8299997448921204,-0.7177030444145203,0.0,0.0,0.0
1759504929.848454,0,-1.2050000429153442,-0.8299997448921204,-0.7176827745761631,0.0,True,0.011453390121459961,-1.2050000429153442,-0.8299997448921204,-0.7177030444145203,0.0,0.0,0.0
1759504929.858498,0,-1.2050000429153442,-0.8299997448921204,-0.7176843534736648,0.0,True,0.010044097900390625,-1.2050000429153442,-0.8299997448921204,-0.7177030444145203,0.0,0.0,0.0
1759504929.8695216,0,-1.2050000429153442,-0.8299997448921204,-0.7176853436599195,0.0,True,0.011023521423339844,-1.2050000429153442,-0.8299997448921204,-0.7177030444145203,0.0,0.0,0.0
1759504929.8804688,0,-1.2050000429153442,-0.8299997448921204,-0.7176862759298253,0.0,True,0.010947227478027344,-1.2050000429153442,-0.8299997448921204,-0.7177030444145203,0.0,0.0,0.0
1759504929.8918417,0,-1.2050000429153442,-0.8299997448921204,-0.7176870133266746,0.0,True,0.011372804641723633,-1.2050000429153442,-0.8299997448921204,-0.7177030444145203,0.0,0.0,0.0
1759504929.9047608,0,-1.2050000429153442,-0.8299997448921204,-0.7176872823922196,0.0,True,0.012919187545776367,-1.2050000429153442,-0.8299997448921204,-0.7177030444145203,0.0,0.0,0.0
1759504929.9160297,0,-1.2050000429153442,-0.8299997448921204,-0.7176881896616081,0.0,True,0.011268854141235352,-1.2050000429153442,-0.8299997448921204,-0.7177030444145203,0.0,0.0,0.0
1759504929.9273129,0,-1.2050000429153442,-0.8299997448921204,-0.717689044124505,0.0,True,0.011283159255981445,-1.2050000429153442,-0.8299997448921204,-0.7177030444145203,0.0,0.0,0.0
1759504929.938268,0,-1.2050000429153442,-0.8299997448921204,-0.7176898978510042,0.0,True,0.010955095291137695,-1.2050000429153442,-0.8299997448921204,-0.7177030444145203,0.0,0.0,0.0
1759504929.9497333,0,-1.2050000429153442,-0.8299997448921204,-0.7176905234093649,0.0,True,0.011465311050415039,-1.2050000429153442,-0.8299997448921204,-0.7177030444145203,0.0,0.0,0.0
1759504929.960674,0,-1.2050000429153442,-0.8299997448921204,-0.7176912284072756,0.0,True,0.010940790176391602,-1.2050000429153442,-0.8299997448921204,-0.7177030444145203,0.0,0.0,0.0
1759504929.971494,0,-1.2050000429153442,-0.8299997448921204,-0.7176918870314566,0.0,True,0.01081991195678711,-1.2050000429153442,-0.8299997448921204,-0.7177030444145203,0.0,0.0,0.0
1759504929.9825244,0,-1.2050000429153442,-0.8299997448921204,-0.717692423361413,0.0,True,0.011030435562133789,-1.2050000429153442,-0.8299997448921204,-0.7177030444145203,0.0,0.0,0.0
1759504929.9928975,0,-1.2050000429153442,-0.8299997448921204,-0.7176930469672058,0.0,True,0.010373115539550781,-1.2050000429153442,-0.8299997448921204,-0.7177030444145203,0.0,0.0,0.0
1759504930.007777,0,-1.2050000429153442,-0.8299997448921204,-0.7176927126320383,0.0,True,0.014879465103149414,-1.2050000429153442,-0.8299997448921204,-0.7177030444145203,0.0,0.0,0.0
1759504930.0179858,0,-1.2050000429153442,-0.8299997448921204,-0.7176934783940112,0.0,True,0.010208845138549805,-1.2050000429153442,-0.8299997448921204,-0.7177030444145203,0.0,0.0,0.0
1759504930.0287597,0,-1.2050000429153442,-0.8299997448921204,-0.7176940629618862,0.0,True,0.010773897171020508,-1.2050000429153442,-0.8299997448921204,-0.7177030444145203,0.0,0.0,0.0
1759504930.0396867,0,-1.2050000429153442,-0.8299997448921204,-0.7176945276873905,0.0,True,0.010926961898803711,-1.2050000429153442,-0.8299997448921204,-0.7177030444145203,0.0,0.0,0.0
1759504930.0506272,0,-1.2050000429153442,-0.8299997448921204,-0.717694933315336,0.0,True,0.0109405517578125,-1.2050000429153442,-0.8299997448921204,-0.7177030444145203,0.0,0.0,0.0
1759504930.0608,0,-1.2050000429153442,-0.8299997448921204,-0.7176954200051107,0.0,True,0.010172843933105469,-1.2050000429153442,-0.8299997448921204,-0.7177030444145203,0.0,0.0,0.0
1759504930.0717022,0,-1.2050000429153442,-0.8299997448921204,-0.7176957246051536,0.0,True,0.010902166366577148,-1.2050000429153442,-0.8299997448921204,-0.7177030444145203,0.0,0.0,0.0
1759504930.081926,0,-1.2050000429153442,-0.8299997448921204,-0.7176961027815878,0.0,True,0.010223865509033203,-1.2050000429153442,-0.8299997448921204,-0.7177030444145203,0.0,0.0,0.0
1759504930.093379,0,-1.2050000429153442,-0.8299997448921204,-0.7176962622055036,0.0,True,0.011452913284301758,-1.2050000429153442,-0.8299997448921204,-0.7177030444145203,0.0,0.0,0.0
1759504930.1041648,0,-1.2050000429153442,-0.8299997448921204,-0.7176965272751588,0.0,True,0.010785818099975586,-1.2050000429153442,-0.8299997448921204,-0.7177030444145203,0.0,0.0,0.0
1759504930.1143837,0,-1.2050000429153442,-0.8299997448921204,-0.7176968584035848,0.0,True,0.01021885871887207,-1.2050000429153442,-0.8299997448921204,-0.7177030444145203,0.0,0.0,0.0
1759504930.1258292,0,-1.2050000429153442,-0.8299997448921204,-0.7176969954175334,0.0,True,0.01144552230834961,-1.2050000429153442,-0.8299997448921204,-0.7177030444145203,0.0,0.0,0.0
1759504930.1372983,0,-1.2050000429153442,-0.8299997448921204,-0.7176971435725967,0.0,True,0.011469125747680664,-1.2050000429153442,-0.8299997448921204,-0.7177030444145203,0.0,0.0,0.0
1759504930.148317,0,-1.2050000429153442,-0.8299997448921204,-0.7176973647469378,0.0,True,0.011018753051757812,-1.2050000429153442,-0.8299997448921204,-0.7177030444145203,0.0,0.0,0.0
1759504930.1595821,0,-1.2050000429153442,-0.8299997448921204,-0.7176975537682395,0.0,True,0.011265039443969727,-1.2050000429153442,-0.8299997448921204,-0.7177030444145203,0.0,0.0,0.0
1759504930.17011,0,-1.2050000429153442,-0.8299997448921204,-0.7176978214780814,0.0,True,0.010527849197387695,-1.2050000429153442,-0.8299997448921204,-0.7177030444145203,0.0,0.0,0.0
1759504930.1803188,0,-1.2050000429153442,-0.8299997448921204,-0.7176980957388039,0.0,True,0.010208845138549805,-1.2050000429153442,-0.8299997448921204,-0.7177030444145203,0.0,0.0,0.0
1759504930.1916945,0,-1.2050000429153442,-0.8299997448921204,-0.7176982144674202,0.0,True,0.011375665664672852,-1.2050000429153442,-0.8299997448921204,-0.7177030444145203,0.0,0.0,0.0
1759504930.2202644,0,-1.2050000429153442,-0.8299997448921204,-0.71769676336781,0.0,True,0.028569936752319336,-1.2050000429153442,-0.8299997448921204,-0.7177030444145203,0.0,0.0,0.0
1759504930.2241116,0,-1.2050000429153442,-0.8299997448921204,-0.7176980435089604,0.0,True,0.0038471221923828125,-1.2050000429153442,-0.8299997448921204,-0.7177030444145203,0.0,0.0,0.0
1759504930.2353175,0,-1.2050000429153442,-0.8299997448921204,-0.7176984579634755,0.0,True,0.011205911636352539,-1.2050000429153442,-0.8299997448921204,-0.7177030444145203,0.0,0.0,0.0
1759504930.2460573,0,-1.2050000429153442,-0.8299997448921204,-0.7176987808927571,0.0,True,0.010739803314208984,-1.2050000429153442,-0.8299997448921204,-0.7177030444145203,0.0,0.0,0.0
1759504930.2566674,0,-1.2050000429153442,-0.8299997448921204,-0.7176990505949892,0.0,True,0.010610103607177734,-1.2050000429153442,-0.8299997448921204,-0.7177030444145203,0.0,0.0,0.0
1759504930.2670748,0,-1.2050000429153442,-0.8299997448921204,-0.717699287782402,0.0,True,0.010407447814941406,-1.2050000429153442,-0.8299997448921204,-0.7177030444145203,0.0,0.0,0.0
1759504930.277301,0,-1.2050000429153442,-0.8299997448921204,-0.7176994984778311,0.0,True,0.010226249694824219,-1.2050000429153442,-0.8299997448921204,-0.7177030444145203,0.0,0.0,0.0
1759504930.2882996,0,-1.2050000429153442,-0.8299997448921204,-0.7176996196551535,0.0,True,0.01099848747253418,-1.2050000429153442,-0.8299997448921204,-0.7177030444145203,0.0,0.0,0.0
1759504930.2997081,0,-1.2050000429153442,-0.8299997448921204,-0.7176997037032997,0.0,True,0.011408567428588867,-1.2050000429153442,-0.8299997448921204,-0.7177030444145203,0.0,0.0,0.0
1759504930.309894,0,-1.2050000429153442,-0.8299997448921204,-0.7176998755742989,0.0,True,0.010185956954956055,-1.2050000429153442,-0.8299997448921204,-0.7177030444145203,0.0,0.0,0.0
1759504930.3206174,0,-1.2050000429153442,-0.8299997448921204,-0.7176999932564012,0.0,True,0.010723352432250977,-1.2050000429153442,-0.8299997448921204,-0.7177030444145203,0.0,0.0,0.0
1759504930.331118,0,-1.2050000429153442,-0.8299997448921204,-0.7177001145324446,0.0,True,0.010500669479370117,-1.2050000429153442,-0.8299997448921204,-0.7177030444145203,0.0,0.0,0.0
1759504930.3414145,0,-1.2050000429153442,-0.8299997448921204,-0.717700238187545,0.0,True,0.010296344757080078,-1.2050000429153442,-0.8299997448921204,-0.7177030444145203,0.0,0.0,0.0
1759504930.3528328,0,-1.2050000429153442,-0.8299997448921204,-0.7177002834610064,0.0,True,0.011418342590332031,-1.2050000429153442,-0.8299997448921204,-0.7177030444145203,0.0,0.0,0.0
1759504930.3636749,0,-1.2050000429153442,-0.8299997448921204,-0.7177003709932332,0.0,True,0.010842084884643555,-1.2050000429153442,-0.8299997448921204,-0.7177030444145203,0.0,0.0,0.0
1759504930.374212,0,-1.2050000429153442,-0.8299997448921204,-0.7177004763455468,0.0,True,0.010537147521972656,-1.2050000429153442,-0.8299997448921204,-0.7177030444145203,0.0,0.0,0.0
1759504930.3843682,0,-1.2050000429153442,-0.8299997448921204,-0.717700594398778,0.0,True,0.01015615463256836,-1.2050000429153442,-0.8299997448921204,-0.7177030444145203,0.0,0.0,0.0
1759504930.3947117,0,-1.2050000429153442,-0.8299997448921204,-0.7177006891060245,0.0,True,0.010343551635742188,-1.2050000429153442,-0.8299997448921204,-0.7177030444145203,0.0,0.0,0.0
1759504930.4213655,0,-1.2050000429153442,-0.8299997448921204,-0.717700000000173,0.0,True,0.026653766632080078,-1.2050000429153442,-0.8299997448921204,-0.7177030444145203,0.0,0.0,0.0
1759504930.4329035,0,-1.2050000429153442,-0.8299997448921204,-0.7177002568194553,0.0,True,0.011538028717041016,-1.2050000429153442,-0.8299997448921204,-0.7177030444145203,0.0,0.0,0.0
1759504930.4430065,0,-1.2050000429153442,-0.8299997448921204,-0.717700572901709,0.0,True,0.010102987289428711,-1.2050000429153442,-0.8299997448921204,-0.7177030444145203,0.0,0.0,0.0
1759504930.4536455,0,-1.2050000429153442,-0.8299997448921204,-0.7177007929234485,0.0,True,0.010638952255249023,-1.2050000429153442,-0.8299997448921204,-0.7177030444145203,0.0,0.0,0.0
1759504930.4642525,0,-1.2050000429153442,-0.8299997448921204,-0.7177009617425458,0.0,True,0.010607004165649414,-1.2050000429153442,-0.8299997448921204,-0.7177030444145203,0.0,0.0,0.0
1759504930.4753013,0,-1.2050000429153442,-0.8299997448921204,-0.7177010780735138,0.0,True,0.01104879379272461,-1.2050000429153442,-0.8299997448921204,-0.7177030444145203,0.0,0.0,0.0
1759504930.4857962,0,-1.2050000429153442,-0.8299997448921204,-0.7177011953263399,0.0,True,0.01049494743347168,-1.2050000429153442,-0.8299997448921204,-0.7177030444145203,0.0,0.0,0.0
1759504930.4964747,0,-1.2050000429153442,-0.8299997448921204,-0.7177012868857311,0.0,True,0.010678529739379883,-1.2050000429153442,-0.8299997448921204,-0.7177030444145203,0.0,0.0,0.0
1759504930.5066648,0,-1.2050000429153442,-0.8299997448921204,-0.7177013822086735,0.0,True,0.010190010070800781,-1.2050000429153442,-0.8299997448921204,-0.7177030444145203,0.0,0.0,0.0
1759504930.5179725,0,-1.2050000429153442,-0.8299997448921204,-0.7177014252884106,0.0,True,0.011307716369628906,-1.2050000429153442,-0.8299997448921204,-0.7177030444145203,0.0,0.0,0.0
1759504930.5283175,0,-1.2050000429153442,-0.8299997448921204,-0.7177014994839226,0.0,True,0.010344982147216797,-1.2050000429153442,-0.8299997448921204,-0.7177030444145203,0.0,0.0,0.0
1759504930.5388029,0,-1.2050000429153442,-0.8299997448921204,-0.717701561966491,0.0,True,0.010485410690307617,-1.2050000429153442,-0.8299997448921204,-0.7177030444145203,0.0,0.0,0.0
1759504930.549065,0,-1.2050000429153442,-0.8299997448921204,-0.7177016248157351,0.0,True,0.010262250900268555,-1.2050000429153442,-0.8299997448921204,-0.7177030444145203,0.0,0.0,0.0
1759504930.560312,0,-1.2050000429153442,-0.8299997448921204,-0.7177016515472374,0.0,True,0.011246919631958008,-1.2050000429153442,-0.8299997448921204,-0.7177030444145203,0.0,0.0,0.0
1759504930.5711823,0,-1.2050000429153442,-0.8299997448921204,-0.7177016923695625,0.0,True,0.010870218276977539,-1.2050000429153442,-0.8299997448921204,-0.7177030444145203,0.0,0.0,0.0
1759504930.581394,0,-1.2050000429153442,-0.8299997448921204,-0.717701752494829,0.0,True,0.010211706161499023,-1.2050000429153442,-0.8299997448921204,-0.7177030444145203,0.0,0.0,0.0
1759504930.59155,0,-1.2050000429153442,-0.8299997448921204,-0.7177018081427278,0.0,True,0.01015615463256836,-1.2050000429153442,-0.8299997448921204,-0.7177030444145203,0.0,0.0,0.0
1759504930.602011,0,-1.2050000429153442,-0.8299997448921204,-0.7177018492626797,0.0,True,0.010460853576660156,-1.2050000429153442,-0.8299997448921204,-0.7177030444145203,0.0,0.0,0.0
1759504930.6170306,0,-1.2050000429153442,-0.8299997448921204,-0.717701773260643,0.0,True,0.015019655227661133,-1.2050000429153442,-0.8299997448921204,-0.7177030444145203,0.0,0.0,0.0
1759504930.6273844,0,-1.2050000429153442,-0.8299997448921204,-0.7177018443600716,0.0,True,0.010353803634643555,-1.2050000429153442,-0.8299997448921204,-0.7177030444145203,0.0,0.0,0.0
1759504930.6379344,0,-1.2050000429153442,-0.8299997448921204,-0.7177019082434235,0.0,True,0.01055002212524414,-1.2050000429153442,-0.8299997448921204,-0.7177030444145203,0.0,0.0,0.0
1759504930.648101,0,-1.2050000429153442,-0.8299997448921204,-0.717701971302759,0.0,True,0.010166645050048828,-1.2050000429153442,-0.8299997448921204,-0.7177030444145203,0.0,0.0,0.0
1759504930.6596243,0,-1.2050000429153442,-0.8299997448921204,-0.7177019948983823,0.0,True,0.011523246765136719,-1.2050000429153442,-0.8299997448921204,-0.7177030444145203,0.0,0.0,0.0
1759504930.6705084,0,-1.2050000429153442,-0.8299997448921204,-0.7177020331833432,0.0,True,0.01088404655456543,-1.2050000429153442,-0.8299997448921204,-0.7177030444145203,0.0,0.0,0.0
1759504930.6818027,0,-1.2050000429153442,-0.8299997448921204,-0.7177020619021057,0.0,True,0.011294364929199219,-1.2050000429153442,-0.8299997448921204,-0.7177030444145203,0.0,0.0,0.0
1759504930.692536,0,-1.2050000429153442,-0.8299997448921204,-0.7177021020997714,0.0,True,0.010733366012573242,-1.2050000429153442,-0.8299997448921204,-0.7177030444145203,0.0,0.0,0.0
1759504930.7032375,0,-1.2050000429153442,-0.8299997448921204,-0.717702140105061,0.0,True,0.010701417922973633,-1.2050000429153442,-0.8299997448921204,-0.7177030444145203,0.0,0.0,0.0
1759504930.7136097,0,-1.2050000429153442,-0.8299997448921204,-0.7177021808601651,0.0,True,0.010372161865234375,-1.2050000429153442,-0.8299997448921204,-0.7177030444145203,0.0,0.0,0.0
1759504930.724363,0,-1.2050000429153442,-0.8299997448921204,-0.7177022102977197,0.0,True,0.010753393173217773,-1.2050000429153442,-0.8299997448921204,-0.7177030444145203,0.0,0.0,0.0
1759504930.7346706,0,-1.2050000429153442,-0.8299997448921204,-0.7177022455737383,0.0,True,0.010307550430297852,-1.2050000429153442,-0.8299997448921204,-0.7177030444145203,0.0,0.0,0.0
1759504930.745157,0,-1.2050000429153442,-0.8299997448921204,-0.7177022745335275,0.0,True,0.010486364364624023,-1.2050000429153442,-0.8299997448921204,-0.7177030444145203,0.0,0.0,0.0
1759504930.7555616,0,-1.2050000429153442,-0.8299997448921204,-0.717702302587913,0.0,True,0.010404586791992188,-1.2050000429153442,-0.8299997448921204,-0.7177030444145203,0.0,0.0,0.0
1759504930.766379,0,-1.2050000429153442,-0.8299997448921204,-0.7177023222217382,0.0,True,0.010817527770996094,-1.2050000429153442,-0.8299997448921204,-0.7177030444145203,0.0,0.0,0.0
1759504930.777085,0,-1.2050000429153442,-0.8299997448921204,-0.717702343857118,0.0,True,0.010705947875976562,-1.2050000429153442,-0.8299997448921204,-0.7177030444145203,0.0,0.0,0.0
1759504930.787916,0,-1.2050000429153442,-0.8299997448921204,-0.7177023636986917,0.0,True,0.010830879211425781,-1.2050000429153442,-0.8299997448921204,-0.7177030444145203,0.0,0.0,0.0
1759504930.7985396,0,-1.2050000429153442,-0.8299997448921204,-0.7177023867533148,0.0,True,0.010623693466186523,-1.2050000429153442,-0.8299997448921204,-0.7177030444145203,0.0,0.0,0.0
1759504930.8152277,0,-1.2050000429153442,-0.8299997448921204,-0.7177023274850338,0.0,True,0.016688108444213867,-1.2050000429153442,-0.8299997448921204,-0.7177030444145203,0.0,0.0,0.0
1759504930.8264756,0,-1.2050000429153442,-0.8299997448921204,-0.7177023639967839,0.0,True,0.011247873306274414,-1.2050000429153442,-0.8299997448921204,-0.7177030444145203,0.0,0.0,0.0
1759504930.8371625,0,-1.2050000429153442,-0.8299997448921204,-0.7177024084491066,0.0,True,0.010686874389648438,-1.2050000429153442,-0.8299997448921204,-0.7177030444145203,0.0,0.0,0.0
1759504930.847425,0,-1.2050000429153442,-0.8299997448921204,-0.717702450789858,0.0,True,0.010262489318847656,-1.2050000429153442,-0.8299997448921204,-0.7177030444145203,0.0,0.0,0.0
1759504930.8576035,0,-1.2050000429153442,-0.8299997448921204,-0.717702486356881,0.0,True,0.010178565979003906,-1.2050000429153442,-0.8299997448921204,-0.7177030444145203,0.0,0.0,0.0
1759504930.8689437,0,-1.2050000429153442,-0.8299997448921204,-0.7177025025955803,0.0,True,0.011340141296386719,-1.2050000429153442,-0.8299997448921204,-0.7177030444145203,0.0,0.0,0.0
1759504930.8798976,0,-1.2050000429153442,-0.8299997448921204,-0.7177025223953617,0.0,True,0.010953903198242188,-1.2050000429153442,-0.8299997448921204,-0.7177030444145203,0.0,0.0,0.0
1759504930.8901932,0,-1.2050000429153442,-0.8299997448921204,-0.7177025482527686,0.0,True,0.010295629501342773,-1.2050000429153442,-0.8299997448921204,-0.7177030444145203,0.0,0.0,0.0
1759504930.9004183,0,-1.2050000429153442,-0.8299997448921204,-0.7177025717078322,0.0,True,0.010225057601928711,-1.2050000429153442,-0.8299997448921204,-0.7177030444145203,0.0,0.0,0.0
1759504930.9109404,0,-1.2050000429153442,-0.8299997448921204,-0.7177025891227267,0.0,True,0.010522127151489258,-1.2050000429153442,-0.8299997448921204,-0.7177030444145203,0.0,0.0,0.0
1759504930.9209838,0,-1.2050000429153442,-0.8299997448921204,-0.7177026095827017,0.0,True,0.01004338264465332,-1.2050000429153442,-0.8299997448921204,-0.7177030444145203,0.0,0.0,0.0
1759504930.93133,0,-1.2050000429153442,-0.8299997448921204,-0.7177026249232163,0.0,True,0.010346174240112305,-1.2050000429153442,-0.8299997448921204,-0.7177030444145203,0.0,0.0,0.0
1759504930.9415798,0,-1.2050000429153442,-0.8299997448921204,-0.7177026398821837,0.0,True,0.010249853134155273,-1.2050000429153442,-0.8299997448921204,-0.7177030444145203,0.0,0.0,0.0
1759504930.9520092,0,-1.2050000429153442,-0.8299997448921204,-0.7177026522516563,0.0,True,0.01042938232421875,-1.2050000429153442,-0.8299997448921204,-0.7177030444145203,0.0,0.0,0.0
1759504930.9626472,0,-1.2050000429153442,-0.8299997448921204,-0.7177026624618748,0.0,True,0.010637998580932617,-1.2050000429153442,-0.8299997448921204,-0.7177030444145203,0.0,0.0,0.0
1759504930.9729447,0,-1.2050000429153442,-0.8299997448921204,-0.7177026757167422,0.0,True,0.010297536849975586,-1.2050000429153442,-0.8299997448921204,-0.7177030444145203,0.0,0.0,0.0
1759504930.9833722,0,-1.2050000429153442,-0.8299997448921204,-0.7177026873522188,0.0,True,0.010427474975585938,-1.2050000429153442,-0.8299997448921204,-0.7177030444145203,0.0,0.0,0.0
1759504930.993964,0,-1.2050000429153442,-0.8299997448921204,-0.7177026973129141,0.0,True,0.010591745376586914,-1.2050000429153442,-0.8299997448921204,-0.7177030444145203,0.0,0.0,0.0
1759504931.0041893,0,-1.2050000429153442,-0.8299997448921204,-0.7177027100407418,0.0,True,0.010225296020507812,-1.2050000429153442,-0.8299997448921204,-0.7177030444145203,0.0,0.0,0.0
1759504931.0402865,0,-1.2050000429153442,-0.8299997448921204,-0.7177025509416648,0.0,True,0.03609728813171387,-1.2050000429153442,-0.8299997448921204,-0.7177030444145203,0.0,0.0,0.0
1759504931.050614,0,-1.2050000429153442,-0.8299997448921204,-0.7177026146582435,0.0,True,0.010327577590942383,-1.2050000429153442,-0.8299997448921204,-0.7177030444145203,0.0,0.0,0.0
1759504931.0608096,0,-1.2050000429153442,-0.8299997448921204,-0.7177026736998116,0.0,True,0.010195493698120117,-1.2050000429153442,-0.8299997448921204,-0.7177030444145203,0.0,0.0,0.0
1759504931.0710835,0,-1.2050000429153442,-0.8299997448921204,-0.7177027164035898,0.0,True,0.010273933410644531,-1.2050000429153442,-0.8299997448921204,-0.7177030444145203,0.0,0.0,0.0
1759504931.0823433,0,-1.2050000429153442,-0.8299997448921204,-0.7177027424163391,0.0,True,0.011259794235229492,-1.2050000429153442,-0.8299997448921204,-0.7177030444145203,0.0,0.0,0.0
1759504931.092785,0,-1.2050000429153442,-0.8299997448921204,-0.7177027666942202,0.0,True,0.01044154167175293,-1.2050000429153442,-0.8299997448921204,-0.7177030444145203,0.0,0.0,0.0
1759504931.1031194,0,-1.2050000429153442,-0.8299997448921204,-0.7177027864443293,0.0,True,0.010334491729736328,-1.2050000429153442,-0.8299997448921204,-0.7177030444145203,0.0,0.0,0.0
1759504931.1133153,0,-1.2050000429153442,-0.8299997448921204,-0.7177028028523242,0.0,True,0.01019597053527832,-1.2050000429153442,-0.8299997448921204,-0.7177030444145203,0.0,0.0,0.0
1759504931.1234968,0,-1.2050000429153442,-0.8299997448921204,-0.7177028162175496,0.0,True,0.010181427001953125,-1.2050000429153442,-0.8299997448921204,-0.7177030444145203,0.0,0.0,0.0
1759504931.1349795,0,-1.2050000429153442,-0.8299997448921204,-0.7177028212414047,0.0,True,0.011482715606689453,-1.2050000429153442,-0.8299997448921204,-0.7177030444145203,0.0,0.0,0.0
1759504931.1451485,0,-1.2050000429153442,-0.8299997448921204,-0.717702832329584,0.0,True,0.010169029235839844,-1.2050000429153442,-0.8299997448921204,-0.7177030444145203,0.0,0.0,0.0
1759504931.155812,0,-1.2050000429153442,-0.8299997448921204,-0.7177028400346348,0.0,True,0.010663509368896484,-1.2050000429153442,-0.8299997448921204,-0.7177030444145203,0.0,0.0,0.0
1759504931.1661432,0,-1.2050000429153442,-0.8299997448921204,-0.7177028484336923,0.0,True,0.010331153869628906,-1.2050000429153442,-0.8299997448921204,-0.7177030444145203,0.0,0.0,0.0
1759504931.1775994,0,-1.2050000429153442,-0.8299997448921204,-0.7177028514009827,0.0,True,0.01145625114440918,-1.2050000429153442,-0.8299997448921204,-0.7177030444145203,0.0,0.0,0.0
1759504931.1878858,0,-1.2050000429153442,-0.8299997448921204,-0.7177028596637207,0.0,True,0.010286331176757812,-1.2050000429153442,-0.8299997448921204,-0.7177030444145203,0.0,0.0,0.0
1759504931.1982696,0,-1.2050000429153442,-0.8299997448921204,-0.7177028669359409,0.0,True,0.010383844375610352,-1.2050000429153442,-0.8299997448921204,-0.7177030444145203,0.0,0.0,0.0
1759504931.2272522,0,-1.2050000429153442,-0.8299997448921204,-0.7177028077451553,0.0,True,0.02898263931274414,-1.2050000429153442,-0.8299997448921204,-0.7177030444145203,0.0,0.0,0.0
1759504931.237482,0,-1.2050000429153442,-0.8299997448921204,-0.7177028337369453,0.0,True,0.010229825973510742,-1.2050000429153442,-0.8299997448921204,-0.7177030444145203,0.0,0.0,0.0
1759504931.2487667,0,-1.2050000429153442,-0.8299997448921204,-0.7177028545883246,0.0,True,0.011284589767456055,-1.2050000429153442,-0.8299997448921204,-0.7177030444145203,0.0,0.0,0.0
1759504931.2594445,0,-1.2050000429153442,-0.8299997448921204,-0.7177028723317704,0.0,True,0.010677814483642578,-1.2050000429153442,-0.8299997448921204,-0.7177030444145203,0.0,0.0,0.0
1759504931.2698264,0,-1.2050000429153442,-0.8299997448921204,-0.7177028868553474,0.0,True,0.010381937026977539,-1.2050000429153442,-0.8299997448921204,-0.7177030444145203,0.0,0.0,0.0
1759504931.281291,0,-1.2050000429153442,-0.8299997448921204,-0.7177028950311772,0.0,True,0.011464595794677734,-1.2050000429153442,-0.8299997448921204,-0.7177030444145203,0.0,0.0,0.0
1759504931.291563,0,-1.2050000429153442,-0.8299997448921204,-0.7177029051169157,0.0,True,0.010272026062011719,-1.2050000429153442,-0.8299997448921204,-0.7177030444145203,0.0,0.0,0.0
1759504931.3017395,0,-1.2050000429153442,-0.8299997448921204,-0.7177029136955575,0.0,True,0.010176420211791992,-1.2050000429153442,-0.8299997448921204,-0.7177030444145203,0.0,0.0,0.0
1759504931.3119986,0,-1.2050000429153442,-0.8299997448921204,-0.7177029204742134,0.0,True,0.010259151458740234,-1.2050000429153442,-0.8299997448921204,-0.7177030444145203,0.0,0.0,0.0
1759504931.323461,0,-1.2050000429153442,-0.8299997448921204,-0.7177029230976348,0.0,True,0.01146245002746582,-1.2050000429153442,-0.8299997448921204,-0.7177030444145203,0.0,0.0,0.0
1759504931.334794,0,-1.2050000429153442,-0.8299997448921204,-0.7177029261756029,0.0,True,0.011332988739013672,-1.2050000429153442,-0.8299997448921204,-0.7177030444145203,0.0,0.0,0.0
1759504931.3462427,0,-1.2050000429153442,-0.8299997448921204,-0.7177029292059771,0.0,True,0.01144862174987793,-1.2050000429153442,-0.8299997448921204,-0.7177030444145203,0.0,0.0,0.0
1759504931.3565085,0,-1.2050000429153442,-0.8299997448921204,-0.7177029351358737,0.0,True,0.010265827178955078,-1.2050000429153442,-0.8299997448921204,-0.7177030444145203,0.0,0.0,0.0
1759504931.3679383,0,-1.2050000429153442,-0.8299997448921204,-0.7177029377918043,0.0,True,0.011429786682128906,-1.2050000429153442,-0.8299997448921204,-0.7177030444145203,0.0,0.0,0.0
1759504931.378142,0,-1.2050000429153442,-0.8299997448921204,-0.7177029431155972,0.0,True,0.010203838348388672,-1.2050000429153442,-0.8299997448921204,-0.7177030444145203,0.0,0.0,0.0
1759504931.389239,0,-1.2050000429153442,-0.8299997448921204,-0.7177029459853337,0.0,True,0.011096954345703125,-1.2050000429153442,-0.8299997448921204,-0.7177030444145203,0.0,0.0,0.0
1759504931.4004378,0,-1.2050000429153442,-0.8299997448921204,-0.7177029485667816,0.0,True,0.011198759078979492,-1.2050000429153442,-0.8299997448921204,-0.7177030444145203,0.0,0.0,0.0
1759504931.4245884,0,-1.2050000429153442,-0.8299997448921204,-0.7177029271328887,0.0,True,0.024150609970092773,-1.2050000429153442,-0.8299997448921204,-0.7177030444145203,0.0,0,0
1759504931.4322495,0,-1.2050000429153442,-0.8299997448921204,-0.7177029432669073,0.0,True,0.007661104202270508,-1.2050000429153442,-0.8299997448921204,-0.7177030444145203,0.0,0,0
1759504931.443414,0,-1.2050000429153442,-0.8299997448921204,-0.7177029510674835,0.0,True,0.011164426803588867,-1.2050000429153442,-0.8299997448921204,-0.7177030444145203,0.0,0,0
1759504931.454146,0,-1.2050000429153442,-0.8299997448921204,-0.7177029576220555,0.0,True,0.010731935501098633,-1.2050000429153442,-0.8299997448921204,-0.7177030444145203,0.0,0,0
1759504931.4643316,0,-1.2050000429153442,-0.8299997448921204,-0.7177029637738457,0.0,True,0.010185718536376953,-1.2050000429153442,-0.8299997448921204,-0.7177030444145203,0.0,0,0
1759504931.4752295,0,-1.2050000429153442,-0.8299997448921204,-0.7177029676106415,0.0,True,0.01089787483215332,-1.2050000429153442,-0.8299997448921204,-0.7177030444145203,0.0,0,0
1759504931.4866207,0,-1.2050000429153442,-0.8299997448921204,-0.7177029701163171,0.0,True,0.011391162872314453,-1.2050000429153442,-0.8299997448921204,-0.7177030444145203,0.0,0,0
1759504931.497391,0,-1.2050000429153442,-0.8299997448921204,-0.7177029734116616,0.0,True,0.010770320892333984,-1.2050000429153442,-0.8299997448921204,-0.7177030444145203,0.0,0,0
1759504931.5075932,0,-1.2050000429153442,-0.8299997448921204,-0.7177029771986128,0.0,True,0.010202169418334961,-1.2050000429153442,-0.8299997448921204,-0.7177030444145203,0.0,0,0
1759504931.5186298,0,-1.2050000429153442,-0.8299997448921204,-0.7177029792952396,0.0,True,0.01103663444519043,-1.2050000429153442,-0.8299997448921204,-0.7177030444145203,0.0,0,0
1759504931.5293336,0,-1.2050000429153442,-0.8299997448921204,-0.7177029817074292,0.0,True,0.010703802108764648,-1.2050000429153442,-0.8299997448921204,-0.7177030444145203,0.0,0,0
1759504931.540186,0,-1.2050000429153442,-0.8299997448921204,-0.7177029837800593,0.0,True,0.010852336883544922,-1.2050000429153442,-0.8299997448921204,-0.7177030444145203,0.0,0,0
1759504931.5506685,0,-1.2050000429153442,-0.8299997448921204,-0.71770298621934,0.0,True,0.010482549667358398,-1.2050000429153442,-0.8299997448921204,-0.7177030444145203,0.0,0,0
1759504931.5610447,0,-1.2050000429153442,-0.8299997448921204,-0.7177029885802604,0.0,True,0.010376214981079102,-1.2050000429153442,-0.8299997448921204,-0.7177030444145203,0.0,0,0
1759504931.5720987,0,-1.2050000429153442,-0.8299997448921204,-0.717702989916269,0.0,True,0.011054039001464844,-1.2050000429153442,-0.8299997448921204,-0.7177030444145203,0.0,0,0
1759504931.5836022,0,-1.2050000429153442,-0.8299997448921204,-0.7177029907960879,0.0,True,0.011503458023071289,-1.2050000429153442,-0.8299997448921204,-0.7177030444145203,0.0,0,0
1759504931.595099,0,-1.2050000429153442,-0.8299997448921204,-0.7177029919254174,0.0,True,0.011496782302856445,-1.2050000429153442,-0.8299997448921204,-0.7177030444145203,0.0,0,0
1759504931.6059082,0,-1.2050000429153442,-0.8299997448921204,-0.7177029939717059,0.0,True,0.010809183120727539,-1.2050000429153442,-0.8299997448921204,-0.7177030444145203,0.0,0,0
1759504931.6167593,0,-1.2050000429153442,-0.8299997448921204,-0.7177029958746708,0.0,True,0.010851144790649414,-1.2050000429153442,-0.8299997448921204,-0.7177030444145203,0.0,0,0
1759504931.6563492,0,-1.2050000429153442,-0.8299997448921204,-0.7177029719687145,0.0,True,0.039589881896972656,-1.2050000429153442,-0.8299997448921204,-0.7177030444145203,0.0,0,0
1759504931.6672914,0,-1.2050000429153442,-0.8299997448921204,-0.7177029818115805,0.0,True,0.010942220687866211,-1.2050000429153442,-0.8299997448921204,-0.7177030444145203,0.0,0,0
1759504931.6787882,0,-1.2050000429153442,-0.8299997448921204,-0.717702990271631,0.0,True,0.011496782302856445,-1.2050000429153442,-0.8299997448921204,-0.7177030444145203,0.0,0,0
1759504931.6901288,0,-1.2050000429153442,-0.8299997448921204,-0.7177029965608046,0.0,True,0.011340618133544922,-1.2050000429153442,-0.8299997448921204,-0.7177030444145203,0.0,0,0
1759504931.7003157,0,-1.2050000429153442,-0.8299997448921204,-0.7177030020304258,0.0,True,0.010186910629272461,-1.2050000429153442,-0.8299997448921204,-0.7177030444145203,0.0,0,0
1759504931.710742,0,-1.2050000429153442,-0.8299997448921204,-0.7177030059489535,0.0,True,0.01042628288269043,-1.2050000429153442,-0.8299997448921204,-0.7177030444145203,0.0,0,0
1759504931.721814,0,-1.2050000429153442,-0.8299997448921204,-0.7177030084736842,0.0,True,0.011071920394897461,-1.2050000429153442,-0.8299997448921204,-0.7177030444145203,0.0,0,0
1759504931.7326593,0,-1.2050000429153442,-0.8299997448921204,-0.717703010629263,0.0,True,0.010845422744750977,-1.2050000429153442,-0.8299997448921204,-0.7177030444145203,0.0,0,0
1759504931.7439227,0,-1.2050000429153442,-0.8299997448921204,-0.7177030121446322,0.0,True,0.011263370513916016,-1.2050000429153442,-0.8299997448921204,-0.7177030444145203,0.0,0,0
1759504931.7548387,0,-1.2050000429153442,-0.8299997448921204,-0.7177030136781468,0.0,True,0.010915994644165039,-1.2050000429153442,-0.8299997448921204,-0.7177030444145203,0.0,0,0
1759504931.7657347,0,-1.2050000429153442,-0.8299997448921204,-0.7177030150352017,0.0,True,0.010895967483520508,-1.2050000429153442,-0.8299997448921204,-0.7177030444145203,0.0,0,0
1759504931.7764788,0,-1.2050000429153442,-0.8299997448921204,-0.7177030163214599,0.0,True,0.010744094848632812,-1.2050000429153442,-0.8299997448921204,-0.7177030444145203,0.0,0,0
1759504931.7871864,0,-1.2050000429153442,-0.8299997448921204,-0.7177030174814334,0.0,True,0.010707616806030273,-1.2050000429153442,-0.8299997448921204,-0.7177030444145203,0.0,0,0
1759504931.7984173,0,-1.2050000429153442,-0.8299997448921204,-0.7177030182338342,0.0,True,0.011230945587158203,-1.2050000429153442,-0.8299997448921204,-0.7177030444145203,0.0,0,0
1759504931.8092132,0,-1.2050000429153442,-0.8299997448921204,-0.7177030192067893,0.0,True,0.010795831680297852,-1.2050000429153442,-0.8299997448921204,-0.7177030444145203,0.0,0,0
1759504931.8207495,0,-1.2050000429153442,-0.8299997448921204,-0.7177030197442242,0.0,True,0.011536359786987305,-1.2050000429153442,-0.8299997448921204,-0.7177030444145203,0.0,0,0
1759504931.8404217,0,-1.2050000429153442,-0.8299997448921204,-0.7177030164267535,0.0,True,0.019672155380249023,-1.2050000429153442,-0.8299997448921204,-0.7177030444145203,0.0,0,0
1759504931.8512661,0,-1.2050000429153442,-0.8299997448921204,-0.7177030185205613,0.0,True,0.01084446907043457,-1.2050000429153442,-0.8299997448921204,-0.7177030444145203,0.0,0,0
1759504931.8621852,0,-1.2050000429153442,-0.8299997448921204,-0.7177030204751951,0.0,True,0.01091909408569336,-1.2050000429153442,-0.8299997448921204,-0.7177030444145203,0.0,0,0
1759504931.8733377,0,-1.2050000429153442,-0.8299997448921204,-0.71770302194507,0.0,True,0.011152505874633789,-1.2050000429153442,-0.8299997448921204,-0.7177030444145203,0.0,0,0
1759504931.8842778,0,-1.2050000429153442,-0.8299997448921204,-0.7177030232391388,0.0,True,0.010940074920654297,-1.2050000429153442,-0.8299997448921204,-0.7177030444145203,0.0,0,0
1759504931.8949602,0,-1.2050000429153442,-0.8299997448921204,-0.7177030244271663,0.0,True,0.010682344436645508,-1.2050000429153442,-0.8299997448921204,-0.7177030444145203,0.0,0,0
1759504931.9061332,0,-1.2050000429153442,-0.8299997448921204,-0.7177030252366592,0.0,True,0.011173009872436523,-1.2050000429153442,-0.8299997448921204,-0.7177030444145203,0.0,0,0
1759504931.9167976,0,-1.2050000429153442,-0.8299997448921204,-0.7177030261493904,0.0,True,0.01066446304321289,-1.2050000429153442,-0.8299997448921204,-0.7177030444145203,0.0,0,0
1759504931.9270554,0,-1.2050000429153442,-0.8299997448921204,-0.7177030271010807,0.0,True,0.010257720947265625,-1.2050000429153442,-0.8299997448921204,-0.7177030444145203,0.0,0,0
1759504931.9377205,0,-1.2050000429153442,-0.8299997448921204,-0.7177030277695824,0.0,True,0.010665178298950195,-1.2050000429153442,-0.8299997448921204,-0.7177030444145203,0.0,0,0
1759504931.9484167,0,-1.2050000429153442,-0.8299997448921204,-0.7177030283558636,0.0,True,0.010696172714233398,-1.2050000429153442,-0.8299997448921204,-0.7177030444145203,0.0,0,0
1759504931.9592557,0,-1.2050000429153442,-0.8299997448921204,-0.7177030288550004,0.0,True,0.010838985443115234,-1.2050000429153442,-0.8299997448921204,-0.7177030444145203,0.0,0,0
1759504931.9701073,0,-1.2050000429153442,-0.8299997448921204,-0.7177030293344338,0.0,True,0.010851621627807617,-1.2050000429153442,-0.8299997448921204,-0.7177030444145203,0.0,0,0
1759504931.9811077,0,-1.2050000429153442,-0.8299997448921204,-0.7177030297582547,0.0,True,0.011000394821166992,-1.2050000429153442,-0.8299997448921204,-0.7177030444145203,0.0,0,0
1759504931.9922972,0,-1.2050000429153442,-0.8299997448921204,-0.7177030301296945,0.0,True,0.011189460754394531,-1.2050000429153442,-0.8299997448921204,-0.7177030444145203,0.0,0,0
1759504932.0031257,0,-1.2050000429153442,-0.8299997448921204,-0.7177030306259624,0.0,True,0.010828495025634766,-1.2050000429153442,-0.8299997448921204,-0.7177030444145203,0.0,0,0
1759504932.0138931,0,-1.2050000429153442,-0.8299997448921204,-0.7177030311223334,0.0,True,0.010767459869384766,-1.2050000429153442,-0.8299997448921204,-0.7177030444145203,0.0,0,0
1759504932.025847,0,-1.2050000429153442,-0.8299997448921204,-0.7177030312684956,0.0,True,0.01195383071899414,-1.2050000429153442,-0.8299997448921204,-0.7177030444145203,0.0,0,0
1759504932.0354364,0,-1.2050000429153442,-0.8299997448921204,-0.7177030321058862,0.0,True,0.009589433670043945,-1.2050000429153442,-0.8299997448921204,-0.7177030444145203,0.0,0,0
1759504932.045681,0,-1.2050000429153442,-0.8299997448921204,-0.7177030326606033,0.0,True,0.010244607925415039,-1.2050000429153442,-0.8299997448921204,-0.7177030444145203,0.0,0,0
1759504932.056459,0,-1.2050000429153442,-0.8299997448921204,-0.7177030330006655,0.0,True,0.010777950286865234,-1.2050000429153442,-0.8299997448921204,-0.7177030444145203,0.0,0,0
1759504932.0670164,0,-1.2050000429153442,-0.8299997448921204,-0.7177030333821808,0.0,True,0.010557413101196289,-1.2050000429153442,-0.8299997448921204,-0.7177030444145203,0.0,0,0
1759504932.0778096,0,-1.2050000429153442,-0.8299997448921204,-0.7177030336943488,0.0,True,0.010793209075927734,-1.2050000429153442,-0.8299997448921204,-0.7177030444145203,0.0,0,0
1759504932.0885506,0,-1.2050000429153442,-0.8299997448921204,-0.7177030340181254,0.0,True,0.010740995407104492,-1.2050000429153442,-0.8299997448921204,-0.7177030444145203,0.0,0,0
1759504932.0996244,0,-1.2050000429153442,-0.8299997448921204,-0.7177030342677959,0.0,True,0.011073827743530273,-1.2050000429153442,-0.8299997448921204,-0.7177030444145203,0.0,0,0
1759504932.110395,0,-1.2050000429153442,-0.8299997448921204,-0.7177030345978714,0.0,True,0.010770559310913086,-1.2050000429153442,-0.8299997448921204,-0.7177030444145203,0.0,0,0
1759504932.1213112,0,-1.2050000429153442,-0.8299997448921204,-0.717703034893928,0.0,True,0.01091623306274414,-1.2050000429153442,-0.8299997448921204,-0.7177030444145203,0.0,0,0
1759504932.1323116,0,-1.2050000429153442,-0.8299997448921204,-0.717703035171736,0.0,True,0.011000394821166992,-1.2050000429153442,-0.8299997448921204,-0.7177030444145203,0.0,0,0
1759504932.1430488,0,-1.2050000429153442,-0.8299997448921204,-0.7177030355021472,0.0,True,0.010737180709838867,-1.2050000429153442,-0.8299997448921204,-0.7177030444145203,0.0,0,0
1759504932.1538079,0,-1.2050000429153442,-0.8299997448921204,-0.7177030358139866,0.0,True,0.010759115219116211,-1.2050000429153442,-0.8299997448921204,-0.7177030444145203,0.0,0,0
1759504932.164607,0,-1.2050000429153442,-0.8299997448921204,-0.7177030361031385,0.0,True,0.010799169540405273,-1.2050000429153442,-0.8299997448921204,-0.7177030444145203,0.0,0,0
1759504932.1752944,0,-1.2050000429153442,-0.8299997448921204,-0.7177030364000885,0.0,True,0.01068735122680664,-1.2050000429153442,-0.8299997448921204,-0.7177030444145203,0.0,0,0
1759504932.1862006,0,-1.2050000429153442,-0.8299997448921204,-0.7177030366453572,0.0,True,0.010906219482421875,-1.2050000429153442,-0.8299997448921204,-0.7177030444145203,0.0,0,0
1759504932.1968727,0,-1.2050000429153442,-0.8299997448921204,-0.7177030369242772,0.0,True,0.01067209243774414,-1.2050000429153442,-0.8299997448921204,-0.7177030444145203,0.0,0,0
1759504932.2078998,0,-1.2050000429153442,-0.8299997448921204,-0.7177030371350064,0.0,True,0.011027097702026367,-1.2050000429153442,-0.8299997448921204,-0.7177030444145203,0.0,0,0
1759504932.2187493,0,-1.2050000429153442,-0.8299997448921204,-0.7177030373745517,0.0,True,0.010849475860595703,-1.2050000429153442,-0.8299997448921204,-0.7177030444145203,0.0,0,0
1759504932.2396054,0,-1.2050000429153442,-0.8299997448921204,-0.7177030362123986,0.0,True,0.020856142044067383,-1.2050000429153442,-0.8299997448921204,-0.7177030444145203,0.0,0,0
1759504932.250398,0,-1.2050000429153442,-0.8299997448921204,-0.7177030368567578,0.0,True,0.01079249382019043,-1.2050000429153442,-0.8299997448921204,-0.7177030444145203,0.0,0,0
1759504932.2613082,0,-1.2050000429153442,-0.8299997448921204,-0.7177030374575608,0.0,True,0.010910272598266602,-1.2050000429153442,-0.8299997448921204,-0.7177030444145203,0.0,0,0
1759504932.2720203,0,-1.2050000429153442,-0.8299997448921204,-0.7177030379617282,0.0,True,0.010712146759033203,-1.2050000429153442,-0.8299997448921204,-0.7177030444145203,0.0,0,0
1759504932.282863,0,-1.2050000429153442,-0.8299997448921204,-0.7177030383507113,0.0,True,0.010842561721801758,-1.2050000429153442,-0.8299997448921204,-0.7177030444145203,0.0,0,0
1759504932.2940304,0,-1.2050000429153442,-0.8299997448921204,-0.7177030386344168,0.0,True,0.011167526245117188,-1.2050000429153442,-0.8299997448921204,-0.7177030444145203,0.0,0,0
1759504932.3048878,0,-1.2050000429153442,-0.8299997448921204,-0.7177030389164791,0.0,True,0.010857343673706055,-1.2050000429153442,-0.8299997448921204,-0.7177030444145203,0.0,0,0
1759504932.3158438,0,-1.2050000429153442,-0.8299997448921204,-0.7177030391536618,0.0,True,0.010956048965454102,-1.2050000429153442,-0.8299997448921204,-0.7177030444145203,0.0,0,0
1759504932.3266127,0,-1.2050000429153442,-0.8299997448921204,-0.7177030393854071,0.0,True,0.010768890380859375,-1.2050000429153442,-0.8299997448921204,-0.7177030444145203,0.0,0,0
1759504932.3372796,0,-1.2050000429153442,-0.8299997448921204,-0.7177030396032027,0.0,True,0.010666847229003906,-1.2050000429153442,-0.8299997448921204,-0.7177030444145203,0.0,0,0
1759504932.347911,0,-1.2050000429153442,-0.8299997448921204,-0.7177030398014494,0.0,True,0.010631322860717773,-1.2050000429153442,-0.8299997448921204,-0.7177030444145203,0.0,0,0
1759504932.3585694,0,-1.2050000429153442,-0.8299997448921204,-0.7177030399777351,0.0,True,0.010658502578735352,-1.2050000429153442,-0.8299997448921204,-0.7177030444145203,0.0,0,0
1759504932.3695908,0,-1.2050000429153442,-0.8299997448921204,-0.7177030401066489,0.0,True,0.01102137565612793,-1.2050000429153442,-0.8299997448921204,-0.7177030444145203,0.0,0,0
1759504932.3806405,0,-1.2050000429153442,-0.8299997448921204,-0.717703040232152,0.0,True,0.011049747467041016,-1.2050000429153442,-0.8299997448921204,-0.7177030444145203,0.0,0,0
1759504932.3913796,0,-1.2050000429153442,-0.8299997448921204,-0.7177030403856666,0.0,True,0.01073908805847168,-1.2050000429153442,-0.8299997448921204,-0.7177030444145203,0.0,0,0
1759504932.402446,0,-1.2050000429153442,-0.8299997448921204,-0.7177030405044817,0.0,True,0.011066436767578125,-1.2050000429153442,-0.8299997448921204,-0.7177030444145203,0.0,0,0
1759504932.4133322,0,-1.2050000429153442,-0.8299997448921204,-0.717703040637069,0.0,True,0.010886192321777344,-1.2050000429153442,-0.8299997448921204,-0.7177030444145203,0.0,0.5235987755982988,0.03023304369330101
1759504932.4236465,0,-1.2050000429153442,-0.8299997448921204,-0.7177030408096208,0.0,True,0.010314226150512695,-1.2050000429153442,-0.8299997448921204,-0.7177030444145203,0.0,0.5235987755982988,0.03146234183552041
1759504932.434804,0,-1.2050000429153442,-0.8299997448921204,-0.7177030409011351,0.0,True,0.011157512664794922,-1.2050000429153442,-0.8299997448921204,-0.7177030444145203,0.0,0.5235987755982988,0.030108998658454813
1759504932.445831,0,-1.2050000429153442,-0.8299997448921204,-0.7177030410037304,0.0,True,0.011027097702026367,-1.2050000429153442,-0.8299997448921204,-0.7177030444145203,0.0,0.5235987755982988,0.02926867955930364
1759504932.4565568,0,-1.2050000429153442,-0.8299997448921204,-0.7177030411293863,0.0,True,0.010725736618041992,-1.2050000429153442,-0.8299997448921204,-0.7177030444145203,0.0,0.5235987755982988,0.030125294495889566
1759504932.4673252,0,-1.2050000429153442,-0.8299997448921204,-0.7177030412457892,0.0,True,0.010768413543701172,-1.2050000429153442,-0.8299997448921204,-0.7177030444145203,0.0,0.5235987755982988,0.03147227095359151
1759504932.4780629,0,-1.2050000429153442,-0.8299997448921204,-0.7177030413578436,0.0,True,0.01073765754699707,-1.2050000429153442,-0.8299997448921204,-0.7177030444145203,0.0,0.5235987755982988,0.03329767641078485
1759504932.488898,0,-1.2050000429153442,-0.8299997448921204,-0.7177030414579058,0.0,True,0.01083517074584961,-1.2050000429153442,-0.8299997448921204,-0.7177030444145203,0.0,0.5235987755982988,0.03426592840119304
1759504932.4997516,0,-1.2050000429153442,-0.8299997448921204,-0.7177030415535874,0.0,True,0.01085352897644043,-1.2050000429153442,-0.8299997448921204,-0.7177030444145203,0.0,0.5235987755982988,0.03178517280283745
1759504932.510113,0,-1.2050000429153442,-0.8299997448921204,-0.7177030416757866,0.0,True,0.010361433029174805,-1.2050000429153442,-0.8299997448921204,-0.7177030444145203,0.0,0.5235987755982988,0.03312475612659414
1759504932.5208492,0,-1.2050000429153442,-0.8299997448921204,-0.7177030417654944,0.0,True,0.010736227035522461,-1.2050000429153442,-0.8299997448921204,-0.7177030444145203,0.0,0.5235987755982988,0.03260881468389926
1759504932.5321224,0,-1.2050000429153442,-0.8299997448921204,-0.7177030418213164,0.0,True,0.01127314567565918,-1.2050000429153442,-0.8299997448921204,-0.7177030444145203,0.0,0.5235987755982988,0.03434455431284929
1759504932.5433786,0,-1.2050000429153442,-0.8299997448921204,-0.7177030418849171,0.0,True,0.011256217956542969,-1.2050000429153442,-0.8299997448921204,-0.7177030444145203,0.0,0.5235987755982988,0.03405813458114342
1759504932.5541718,0,-1.2050000429153442,-0.8299997448921204,-0.7177030419784174,0.0,True,0.010793209075927734,-1.2050000429153442,-0.8299997448921204,-0.7177030444145203,0.0,0.5235987755982988,0.032272627631337945
1759504932.5652428,0,-1.2050000429153442,-0.8299997448921204,-0.7177030420544934,0.0,True,0.011070966720581055,-1.2050000429153442,-0.8299997448921204,-0.7177030444145203,0.0,0.5235987755982988,0.03412251591010765
1759504932.5757296,0,-1.2050000429153442,-0.8299997448921204,-0.7177030421572859,0.0,True,0.010486841201782227,-1.2050000429153442,-0.8299997448921204,-0.7177030444145203,0.0,0.5235987755982988,0.032286997763711904
1759504932.5870254,0,-1.2050000429153442,-0.8299997448921204,-0.7177030422136355,0.0,True,0.011295795440673828,-1.2050000429153442,-0.8299997448921204,-0.7177030444145203,0.0,0.5235987755982988,0.03501385301128127
1759504932.5972638,0,-1.2050000429153442,-0.8299997448921204,-0.7177030423192523,0.0,True,0.010238409042358398,-1.2050000429153442,-0.8299997448921204,-0.7177030444145203,0.0,0.5235987755982988,0.03167139610087208
1759504932.6079614,0,-1.2050000429153442,-0.8299997448921204,-0.7177030423942803,0.0,True,0.010697603225708008,-1.2050000429153442,-0.8299997448921204,-0.7177030444145203,0.0,0.5235987755982988,0.03318296732331298
1759504932.618734,0,-1.2050000429153442,-0.8299997448921204,-0.7177030424604656,0.0,True,0.010772466659545898,-1.2050000429153442,-0.8299997448921204,-0.7177030444145203,0.0,0.5235987755982988,0.03369343414602774
1759504932.6389835,0,-1.2001513610290289,-0.8341770679219193,-0.7135013884145014,0.048049560409650825,True,0.020249605178833008,-1.1976077556610107,-0.8363633751869202,-0.7035259008407593,0.048049560409650825,0.5235987755982988,0.02996883309721427
1759504932.6498854,0,-1.1984280281166675,-0.8356592127755099,-0.7104370979490202,0.048049560409650825,True,0.010901927947998047,-1.1976077556610107,-0.8363633751869202,-0.7035259008407593,0.048049560409650825,0.5235987755982988,0.03144805175998411
1759504932.660847,0,-1.1977685531096034,-0.8362256018332113,-0.7081589707945817,0.048049560409650825,True,0.010961532592773438,-1.1976077556610107,-0.8363633751869202,-0.7035259008407593,0.048049560409650825,0.5235987755982988,0.031727155600309594
1759504932.6719127,0,-1.1975149124816822,-0.8364428477314766,-0.7065127252877943,0.048049560409650825,True,0.01106572151184082,-1.1976077556610107,-0.8363633751869202,-0.7035259008407593,0.048049560409650825,0.5235987755982988,0.03244935801766732
1759504932.6826046,0,-1.1974230366971523,-0.8365211254978706,-0.7053423632316935,0.048049560409650825,True,0.01069188117980957,-1.1976077556610107,-0.8363633751869202,-0.7035259008407593,0.048049560409650825,0.5235987755982988,0.030044468174457564
1759504932.6936312,0,-1.197383120835968,-0.836554837974019,-0.7044878125932037,0.048049560409650825,True,0.011026620864868164,-1.1976077556610107,-0.8363633751869202,-0.7035259008407593,0.048049560409650825,0.5235987755982988,0.032128359958452785
1759504932.7042453,0,-1.1973735321730634,-0.8365626828433398,-0.7038919807213233,0.048049560409650825,True,0.010614156723022461,-1.1976077556610107,-0.8363633751869202,-0.7035259008407593,0.048049560409650825,0.5235987755982988,0.030756922546603886
1759504932.7149692,0,-1.1973682620927728,-0.8365668959994055,-0.70346100009092,0.048049560409650825,True,0.01072382926940918,-1.1976077556610107,-0.8363633751869202,-0.7035259008407593,0.048049560409650825,0.5235987755982988,0.029133511219718133
1759504932.7257142,0,-1.197365898663681,-0.8365686942296201,-0.7031553919454634,0.048049560409650825,True,0.010745048522949219,-1.1976077556610107,-0.8363633751869202,-0.7035259008407593,0.048049560409650825,0.5235987755982988,0.030125322139839247
1759504932.7371788,0,-1.1973548860770467,-0.8365778778515046,-0.7029162401164069,0.048049560409650825,True,0.011464595794677734,-1.1976077556610107,-0.8363633751869202,-0.7035259008407593,0.048049560409650825,0.5235987755982988,0.03066925076818414
1759504932.747999,0,-1.197359670461771,-0.8365737005012609,-0.7027780118138409,0.048049560409650825,True,0.010820150375366211,-1.1976077556610107,-0.8363633751869202,-0.7035259008407593,0.048049560409650825,0.5235987755982988,0.030056709228612616
1759504932.7587159,0,-1.1973629261282202,-0.8365708595459069,-0.7026859926841862,0.048049560409650825,True,0.010716915130615234,-1.1976077556610107,-0.8363633751869202,-0.7035259008407593,0.048049560409650825,0.5235987755982988,0.02823785245668542
1759504932.7695465,0,-1.197362565833519,-0.8365711102680972,-0.702622293177189,0.048049560409650825,True,0.01083064079284668,-1.1976077556610107,-0.8363633751869202,-0.7035259008407593,0.048049560409650825,0.5235987755982988,0.02931276700551689
1759504932.7805555,0,-1.1973599229497751,-0.8365733124100058,-0.7025787063000788,0.048049560409650825,True,0.011008977890014648,-1.1976077556610107,-0.8363633751869202,-0.7035259008407593,0.048049560409650825,0.5235987755982988,0.028248149172624054
1759504932.7914321,0,-1.1973607610761696,-0.836572577405909,-0.7025605484180062,0.048049560409650825,True,0.010876655578613281,-1.1976077556610107,-0.8363633751869202,-0.7035259008407593,0.048049560409650825,0.5235987755982988,0.028839702850268663
1759504932.8023672,0,-1.1973602609681702,-0.8365729869712037,-0.7025526210248856,0.048049560409650825,True,0.010935068130493164,-1.1976077556610107,-0.8363633751869202,-0.7035259008407593,0.048049560409650825,0.5235987755982988,0.027882293204295867
1759504932.8130305,0,-1.1973638754032554,-0.8365699181410754,-0.7025631683447955,0.048049560409650825,True,0.010663270950317383,-1.1976077556610107,-0.8363633751869202,-0.7035259008407593,0.048049560409650825,0.5235987755982988,0.028352443045812567
1759504932.8236825,0,-1.1973654142707564,-0.8365686146153208,-0.7025764969618429,0.048049560409650825,True,0.01065206527709961,-1.1976077556610107,-0.8363633751869202,-0.7035259008407593,0.048049560409650825,0.5235987755982988,0.027442522552528832
1759504932.8344774,0,-1.1870055617419737,-0.8449249325680258,-0.6898271365571205,0.11283855962071022,True,0.010794878005981445,-1.1811777353286743,-0.8496034145355225,-0.6565784811973572,0.11283855962071022,0.5235987755982988,0.029451945905833127
1759504932.845212,0,-1.1830467159566094,-0.8481106271104111,-0.6796041255306982,0.11283855962071022,True,0.01073455810546875,-1.1811777353286743,-0.8496034145355225,-0.6565784811973572,0.11283855962071022,0.5235987755982988,0.031094638640538047
1759504932.8554552,0,-1.181548125705673,-0.8493105650131386,-0.6721457133897335,0.11283855962071022,True,0.01024317741394043,-1.1811777353286743,-0.8496034145355225,-0.6565784811973572,0.11283855962071022,0.5235987755982988,0.027842803314283304
1759504932.8660934,0,-1.1809603816110092,-0.849776994752481,-0.6666834510316217,0.11283855962071022,True,0.010638236999511719,-1.1811777353286743,-0.8496034145355225,-0.6565784811973572,0.11283855962071022,0.5235987755982988,0.02667138873022941
1759504932.876803,0,-1.1807319523122504,-0.849955138235523,-0.6627227921904737,0.11283855962071022,True,0.010709524154663086,-1.1811777353286743,-0.8496034145355225,-0.6565784811973572,0.11283855962071022,0.5235987755982988,0.030331289967934775
1759504932.8875926,0,-1.1806408782969096,-0.850023903769092,-0.6598551585882539,0.11283855962071022,True,0.010789632797241211,-1.1811777353286743,-0.8496034145355225,-0.6565784811973572,0.11283855962071022,0.5235987755982988,0.03096300632447279
1759504932.898334,0,-1.1806069316475487,-0.8500478702451704,-0.6578009506866067,0.11283855962071022,True,0.010741472244262695,-1.1811777353286743,-0.8496034145355225,-0.6565784811973572,0.11283855962071022,0.5235987755982988,0.02957158072371483
1759504932.9096806,0,-1.1805727649110582,-0.8500722441522557,-0.6562651225506002,0.11283855962071022,True,0.011346578598022461,-1.1811777353286743,-0.8496034145355225,-0.6565784811973572,0.11283855962071022,0.5235987755982988,0.028594130938786495
1759504932.920492,0,-1.1805775389788626,-0.850066891173941,-0.6552465135591934,0.11283855962071022,True,0.010811328887939453,-1.1811777353286743,-0.8496034145355225,-0.6565784811973572,0.11283855962071022,0.5235987755982988,0.02766548186174892
1759504932.9306524,0,-1.1806013165567601,-0.8500473760588032,-0.6546029099776831,0.11283855962071022,True,0.010160446166992188,-1.1811777353286743,-0.8496034145355225,-0.6565784811973572,0.11283855962071022,0.5235987755982988,0.027534624132588968
1759504932.9416156,0,-1.180582793655694,-0.8500607818713142,-0.6540660656993467,0.11283855962071022,True,0.010963201522827148,-1.1811777353286743,-0.8496034145355225,-0.6565784811973572,0.11283855962071022,0.5235987755982988,0.029876013573616838
1759504932.952445,0,-1.1805801422614133,-0.850062197851158,-0.6537288562802139,0.11283855962071022,True,0.010829448699951172,-1.1811777353286743,-0.8496034145355225,-0.6565784811973572,0.11283855962071022,0.5235987755982988,0.029727094876409822
1759504932.9637017,0,-1.1805644243937201,-0.8500738236946842,-0.6534684771908168,0.11283855962071022,True,0.011256694793701172,-1.1811777353286743,-0.8496034145355225,-0.6565784811973572,0.11283855962071022,0.5235987755982988,0.02771828505722793
1759504932.974884,0,-1.1805608913206027,-0.8500762174332777,-0.6533243599380345,0.11283855962071022,True,0.011182308197021484,-1.1811777353286743,-0.8496034145355225,-0.6565784811973572,0.11283855962071022,0.5235987755982988,0.027523215341257266
1759504932.9853492,0,-1.180584036538023,-0.8500582784708143,-0.6533218490544979,0.11283855962071022,True,0.010465145111083984,-1.1811777353286743,-0.8496034145355225,-0.6565784811973572,0.11283855962071022,0.5235987755982988,0.028451196602230167
1759504932.9960883,0,-1.1805835047253834,-0.8500586071606271,-0.6533099259815387,0.11283855962071022,True,0.01073908805847168,-1.1811777353286743,-0.8496034145355225,-0.6565784811973572,0.11283855962071022,0.5235987755982988,0.02935835271239183
1759504933.0067515,0,-1.1805858929094692,-0.8500567419017797,-0.653337017448866,0.11283855962071022,True,0.010663270950317383,-1.1811777353286743,-0.8496034145355225,-0.6565784811973572,0.11283855962071022,0.5235987755982988,0.028045258030999286
1759504933.0174975,0,-1.180583982762939,-0.8500582086923288,-0.6533733199358096,0.11283855962071022,True,0.010746002197265625,-1.1811777353286743,-0.8496034145355225,-0.6565784811973572,0.11283855962071022,0.5235987755982988,0.029151795530780723
