timestamp,vehicle_id,x,y,theta,velocity,gps_available,dt,gps_x,gps_y,gps_theta,gps_velocity,control_steering,control_acceleration
1759504929.2312233,1,-1.735,-0.35,-0.7801621756414647,0.0,False,0.01,nan,nan,nan,nan,0.0,0.0
1759504929.24159,1,-1.735,-0.35,-0.7801621756414647,0.0,False,0.010366678237915039,nan,nan,nan,nan,0.0,0.0
1759504930.1823702,1,-1.7349996599784263,-0.3499999055495629,-0.7230003730894481,0.0,True,0.1,-1.734999656677246,-0.34999990463256836,-0.7177026867866516,0.0,0.0,0.0
1759504930.316999,1,-1.7349996577811777,-0.34999990493921607,-0.718095406996845,0.0,True,0.1,-1.734999656677246,-0.34999990463256836,-0.7177026867866516,0.0,0.0,0.0
1759504930.440471,1,-1.7349996570913868,-0.3499999047476075,-0.7176953592673954,0.0,True,0.1,-1.734999656677246,-0.34999990463256836,-0.7177026867866516,0.0,0.0,0.0
1759504930.565503,1,-1.734999656835023,-0.3499999046763953,-0.7176717832063346,0.0,True,0.1,-1.734999656677246,-0.34999990463256836,-0.7177026867866516,0.0,0.0,0.0
1759504930.6843326,1,-1.7349996567374888,-0.3499999046493024,-0.7176764957058612,0.0,True,0.1,-1.734999656677246,-0.34999990463256836,-0.7177026867866516,0.0,0.0,0.0
1759504930.8106778,1,-1.7349996567002555,-0.34999990463895986,-0.7176816216087474,0.0,True,0.1,-1.734999656677246,-0.34999990463256836,-0.7177026867866516,0.0,0.0,0.0
1759504930.930319,1,-1.7349996566860348,-0.3499999046350097,-0.717685623854333,0.0,True,0.1,-1.734999656677246,-0.34999990463256836,-0.7177026867866516,0.0,0.0,0.0
1759504931.0571952,1,-1.7349996566806032,-0.34999990463350084,-0.7176888025900592,0.0,True,0.1,-1.734999656677246,-0.34999990463256836,-0.7177026867866516,0.0,0.0,0.0
1759504931.193541,1,-1.7349996566785284,-0.3499999046329245,-0.7176914144383861,0.0,True,0.1,-1.734999656677246,-0.34999990463256836,-0.7177026867866516,0.0,0.0,0.0
1759504931.3125362,1,-1.734999656677736,-0.3499999046327044,-0.7176936067816975,0.0,True,0.1,-1.734999656677246,-0.34999990463256836,-0.7177026867866516,0.0,0.0,0.0
1759504931.4352567,1,-1.7351468179383112,-0.3498715121836962,-0.7175820420232331,0.0018245032193264159,True,0.1,-1.7353227138519287,-0.34971800446510315,-0.7174429297447205,0.0018245032193264159,0.1211477778629444,-0.05
1759504931.5559065,1,-1.7352030235640084,-0.3498224649349753,-0.7175053603370252,0.0018245032193264159,True,0.1,-1.7353227138519287,-0.34971800446510315,-0.7174429297447205,0.0018245032193264159,0.12142576655885051,-0.05
1759504931.6885655,1,-1.739712153703381,-0.34593110372171454,-0.7142209091764098,0.050363553888618594,True,0.1,-1.7448441982269287,-0.3414795696735382,-0.709807276725769,0.050363553888618594,0.12142576655885051,-0.05
1759504931.8076723,1,-1.7414304675622716,-0.3444401137188343,-0.7118881855787915,0.050363553888618594,True,0.1,-1.7448441982269287,-0.3414795696735382,-0.709807276725769,0.050363553888618594,0.1295468083336182,-0.05
1759504931.9238486,1,-1.747663853104904,-0.3391114033531769,-0.7074751327305862,0.05081584821958292,True,0.1,-1.753894329071045,-0.3337666690349579,-0.7023518681526184,0.05081584821958292,0.1295468083336182,-0.05
1759504932.0278656,1,-1.750039372857431,-0.3370697048706098,-0.7043071263414333,0.05081584821958292,True,0.1,-1.753894329071045,-0.3337666690349579,-0.7023518681526184,0.05081584821958292,0.13765214610472398,-0.05
1759504932.1512163,1,-1.7563890879372432,-0.3317129708932807,-0.6993656228704896,0.048580475002209154,True,0.1,-1.7626017332077026,-0.32645854353904724,-0.6947365403175354,0.048580475002209154,0.13765214610472398,-0.05
1759504932.2613082,1,-1.7588087206401497,-0.3296600870926148,-0.6959109394366969,0.048580475002209154,True,0.1,-1.7626017332077026,-0.32645854353904724,-0.6947365403175354,0.048580475002209154,0.14629652779285962,-0.05
1759504932.375845,1,-1.764997522771832,-0.3245189287868779,-0.6906930298006024,0.051240290338725285,True,0.1,-1.7712531089782715,-0.31931161880493164,-0.6867607831954956,0.051240290338725285,0.14629652779285962,-0.05
1759504932.489426,1,-1.7673551143231352,-0.3225475735067715,-0.6871299136525781,0.051240290338725285,True,0.1,-1.7712531089782715,-0.31931161880493164,-0.6867607831954956,0.051240290338725285,0.15564001293929408,-0.05
1759504932.6097407,1,-1.7739001371919059,-0.31720138381932267,-0.6815993235045603,0.04998958406538034,True,0.1,-1.7803338766098022,-0.3119378387928009,-0.6779191493988037,0.04998958406538034,0.15564001293929408,-0.05
1759504932.7113235,1,-1.7763937663342317,-0.3151515416363499,-0.6777353732913589,0.04998958406538034,True,0.1,-1.7803338766098022,-0.3119378387928009,-0.6779191493988037,0.04998958406538034,0.2126081722919544,-0.05
1759504932.8293412,1,-1.7826273646063893,-0.3101518241062329,-0.6715397527633087,0.04990756428716083,True,0.1,-1.788882851600647,-0.30512794852256775,-0.667615532875061,0.04990756428716083,0.2126081722919544,-0.05
1759504932.9456413,1,-1.7850015894286007,-0.3082336058350257,-0.6670248277092181,0.04990756428716083,True,0.1,-1.788882851600647,-0.30512794852256775,-0.667615532875061,0.04990756428716083,0.3578605807381834,-0.05
1759504933.0718813,1,-1.7918799031990325,-0.3028613612860507,-0.6578087673233028,0.048625908801356574,True,0.1,-1.7984920740127563,-0.2976819574832916,-0.6501462459564209,0.048625908801356574,0.3578605807381834,-0.05
1759504933.1776233,1,-1.7944973296578517,-0.3007967182102057,-0.6510108663907346,0.048625908801356574,True,0.1,-1.7984920740127563,-0.2976819574832916,-0.6501462459564209,0.048625908801356574,0.5067201435330055,-0.05
1759504933.2991161,1,-1.8010710036156825,-0.2958653331816363,-0.6369490407082026,0.05236806765961985,True,0.1,-1.807707667350769,-0.29085540771484375,-0.6249154210090637,0.05236806765961985,0.6,-0.05
1759504933.4011283,1,-1.803565487232409,-0.29395984212383963,-0.6273187416498782,0.05236806765961985,True,0.1,-1.807707667350769,-0.29085540771484375,-0.6249154210090637,0.05236806765961985,0.6,-0.05
1759504933.518753,1,-1.8101158675623221,-0.28931672169341155,-0.6088579182027978,0.04972796449953485,True,0.1,-1.8166526556015015,-0.2846434414386749,-0.5922449827194214,0.04972796449953485,0.6,-0.05
1759504933.633766,1,-1.8125980942728397,-0.28751537217871037,-0.5959086368128474,0.04972796449953485,True,0.1,-1.8166526556015015,-0.2846434414386749,-0.5922449827194214,0.04972796449953485,0.6,-0.05
1759504933.750882,1,-1.8196288014849167,-0.2828735761371883,-0.5742831021253245,0.05032656593870058,True,0.1,-1.8265489339828491,-0.2782600522041321,-0.5569173693656921,0.05032656593870058,0.6,-0.05
1759504933.8680077,1,-1.8222919601188958,-0.2810668493026745,-0.5594194222632041,0.05032656593870058,True,0.1,-1.8265489339828491,-0.2782600522041321,-0.5569173693656921,0.05032656593870058,0.6,-0.017770582981780327
1759504933.9785087,1,-1.8279435679737246,-0.2775275078483418,-0.5419671037584983,0.03306122027048543,True,0.1,-1.833168864250183,-0.2742566466331482,-0.533710777759552,0.03306122027048543,0.6,-0.017770582981780327
1759504934.088109,1,-1.8300911011632348,-0.276157365505583,-0.530308932139608,0.03306122027048543,True,0.1,-1.833168864250183,-0.2742566466331482,-0.533710777759552,0.03306122027048543,0.6,0.03707276508404749
1759504934.2064924,1,-1.8303351354636006,-0.27597131070402003,-0.527129033961657,0.01112392470552423,True,0.1,-1.8310790061950684,-0.2755085527896881,-0.5410212278366089,0.01112392470552423,0.6,0.03707276508404749
1759504934.3194318,1,-1.8304277075272806,-0.275899147732363,-0.5261886833055698,0.01112392470552423,True,0.1,-1.8310790061950684,-0.2755085527896881,-0.5410212278366089,0.01112392470552423,0.6,0.07640455214027703
1759504934.4419768,1,-1.822044135315866,-0.2811216152101027,-0.5410743772525564,0.05369559354910876,True,0.1,-1.8197277784347534,-0.28267449140548706,-0.5813007354736328,0.05369559354910876,0.6,0.07640455214027703
1759504934.55382,1,-1.8188574173332357,-0.28314253111669163,-0.5542740939803039,0.05369559354910876,True,0.1,-1.8197277784347534,-0.28267449140548706,-0.5813007354736328,0.05369559354910876,0.6,0.09155124778390274
1759504934.668124,1,-1.8068889088992617,-0.29142867542988937,-0.5851932725910025,0.08739865369064263,True,0.1,-1.804069995880127,-0.29368290305137634,-0.6387307047843933,0.08739865369064263,0.6,0.09155124778390274
1759504934.7824764,1,-1.8023712042676516,-0.29467691381103245,-0.6096330165336994,0.08739865369064263,True,0.1,-1.804069995880127,-0.29368290305137634,-0.6387307047843933,0.08739865369064263,0.45720562850899427,0.10425490253019552
1759504934.890442,1,-1.7895203745085975,-0.30484667491681844,-0.6476479687878722,0.10140411826863974,True,0.1,-1.7866967916488647,-0.3075156509876251,-0.6964383721351624,0.10140411826863974,0.45720562850899427,0.10425490253019552
1759504935.0009303,1,-1.7846949396678409,-0.3088444028933448,-0.675674033222549,0.10140411826863974,True,0.1,-1.7866967916488647,-0.3075156509876251,-0.6964383721351624,0.10140411826863974,0.2790064901921845,0.11967634296568529
1759504935.1145792,1,-1.7711053975738829,-0.32088538545158324,-0.7105611113752452,0.1073828201399796,True,0.1,-1.767868161201477,-0.3241553008556366,-0.7412413954734802,0.1073828201399796,0.2234662548159818,0.16450444690167376
1759504935.218784,1,-1.7660029132529422,-0.3255901272267494,-0.7344160960913477,0.1073828201399796,True,0.1,-1.767868161201477,-0.3241553008556366,-0.7412413954734802,0.1073828201399796,0.14003736303248004,0.13504690757817095
1759504935.3323672,1,-1.7480800711130247,-0.34263834187343917,-0.7601931937728317,0.15087615420514516,True,0.1,-1.7439063787460327,-0.3469060957431793,-0.771264910697937,0.15087615420514516,0.09619105167743669,0.1823486210847131
1759504935.4359012,1,-1.7413309530917263,-0.34925415034164176,-0.7770152965587798,0.15087615420514516,True,0.1,-1.7439063787460327,-0.3469060957431793,-0.771264910697937,0.15087615420514516,0.03898262901033078,0.13208703579946127
1759504935.5655372,1,-1.72268470497429,-0.3677860089634893,-0.7910680621957269,0.16388213287841089,True,0.1,-1.7183735370635986,-0.3721286952495575,-0.7833914160728455,0.16388213287841089,0.0044315340264198255,0.1828282352313924
1759504935.671226,1,-1.7156208779346112,-0.37492300730232153,-0.7991298909595166,0.16388213287841089,True,0.1,-1.7183735370635986,-0.3721286952495575,-0.7833914160728455,0.16388213287841089,-0.0427179800775388,0.18538693325508146
1759504935.7865415,1,-1.6946548580285623,-0.3958837286378755,-0.8009133298787745,0.17543011818996063,True,0.1,-1.6892590522766113,-0.4010683298110962,-0.7792997360229492,0.17543011818996063,-0.0427179800775388,0.18538693325508146
1759504935.8875844,1,-1.686653569739118,-0.4038968337721037,-0.800310057015654,0.17543011818996063,True,0.1,-1.6892590522766113,-0.4010683298110962,-0.7792997360229492,0.17543011818996063,-0.05789866038882252,0.19301212629920728
1759504936.0025618,1,-1.6649369657553057,-0.4252223804738533,-0.7943928264333984,0.20049488312102515,True,0.1,-1.6601547002792358,-0.4295194149017334,-0.7689459919929504,0.20049488312102515,-0.05789866038882252,0.19301212629920728
1759504936.1191983,1,-1.6566097385886382,-0.43333649180598355,-0.788761316254913,0.20049488312102515,True,0.1,-1.6601547002792358,-0.4295194149017334,-0.7689459919929504,0.20049488312102515,-0.05679006380466767,0.19320674433365145
1759504936.2373168,1,-1.6333644679397854,-0.45550355847574736,-0.7789878533319055,0.19328919807458098,True,0.1,-1.6274279356002808,-0.4607393145561218,-0.7559739351272583,0.19328919807458098,-0.05679006380466767,0.19320674433365145
1759504936.3537285,1,-1.6244359377799058,-0.46392072391695455,-0.7712314941831018,0.19328919807458098,True,0.1,-1.6274279356002808,-0.4607393145561218,-0.7559739351272583,0.19328919807458098,-0.04917902329998469,0.19891179270709602
1759504936.4804606,1,-1.5993902591442095,-0.48716155945785394,-0.760738840940574,0.19128822586998215,True,0.1,-1.5923992395401,-0.4932960271835327,-0.7433441877365112,0.19128822586998215,-0.04917902329998469,0.19891179270709602
1759504936.6052997,1,-1.589772101856615,-0.49598503844399516,-0.7529953477612779,0.19128822586998215,True,0.1,-1.5923992395401,-0.4932960271835327,-0.7433441877365112,0.19128822586998215,-0.041797550400740846,0.20217028025129782
1759504936.7396152,1,-1.5618871293034555,-0.5212370740239474,-0.7433456315993823,0.19714152368316962,True,0.1,-1.5535550117492676,-0.5285244584083557,-0.7312098145484924,0.19714152368316962,-0.06705219522685191,0.2533110574510701
1759504936.8612583,1,-1.5511870663718879,-0.5308296091018279,-0.7366311155773513,0.19714152368316962,True,0.1,-1.5535550117492676,-0.5285244584083557,-0.7312098145484924,0.19714152368316962,-0.08728611257035546,0.24797667480705674
1759504936.9795213,1,-1.5167168443801315,-0.5610683883551034,-0.7233967423182541,0.261981667538941,True,0.1,-1.5074297189712524,-0.5689051747322083,-0.7076103687286377,0.261981667538941,-0.08728611257035546,0.24797667480705674
1759504937.0893924,1,-1.5034633476854284,-0.572520913744175,-0.7140329192628769,0.261981667538941,True,0.1,-1.5074297189712524,-0.5689051747322083,-0.7076103687286377,0.261981667538941,-0.10115447386374754,0.21228847152763847
1759504937.2165577,1,-1.473724634265843,-0.597282127631302,-0.6981271319154025,0.22903338213533572,True,0.1,-1.466064691543579,-0.6033411026000977,-0.6822042465209961,0.22903338213533572,-0.10115447386374754,0.21228847152763847
1759504937.332293,1,-1.462276276999971,-0.6066349953409917,-0.6875038162869629,0.22903338213533572,True,0.1,-1.466064691543579,-0.6033411026000977,-0.6822042465209961,0.22903338213533572,-0.13270175295216902,0.22385520077195847
1759504937.4557421,1,-1.4325614104338962,-0.6300048197831674,-0.668858523714869,0.22374313048943353,True,0.1,-1.424908995628357,-0.6357038617134094,-0.6512174606323242,0.22374313048943353,-0.13270175295216902,0.22385520077195847
1759504937.5737352,1,-1.421113200765194,-0.6388087864425123,-0.6562726647809001,0.22374313048943353,True,0.1,-1.424908995628357,-0.6357038617134094,-0.6512174606323242,0.22374313048943353,-0.15803229136598596,0.22917361580608847
1759504937.695392,1,-1.3893291541004473,-0.6620124493071234,-0.6331300232620336,0.2199256677856343,True,0.1,-1.3804881572723389,-0.6681036353111267,-0.6099786758422852,0.2199256677856343,-0.2148169616031783,0.27708540335257403
1759504937.8164032,1,-1.3770786614969417,-0.6707279519857455,-0.616129981317421,0.2199256677856343,True,0.1,-1.3804881572723389,-0.6681036353111267,-0.6099786758422852,0.2199256677856343,-0.14405865561242948,0.2203402470797869
1759504937.9396453,1,-1.3395516534098026,-0.6953196025986632,-0.5853888289742812,0.2590729312993531,True,0.1,-1.3294731378555298,-0.7013316750526428,-0.553547203540802,0.2590729312993531,-0.21388695639186217,0.28703672482968207
1759504938.064555,1,-1.3250568462268866,-0.7044759360752608,-0.5622875682403379,0.2590729312993531,True,0.1,-1.3294731378555298,-0.7013316750526428,-0.553547203540802,0.2590729312993531,-0.11224095723482819,0.2094325009439492
1759504938.1858912,1,-1.286754840073003,-0.7264938061605901,-0.5288642523386038,0.24659555024651766,True,0.1,-1.276015043258667,-0.7320370078086853,-0.5007292628288269,0.24659555024651766,-0.16515064949967773,0.26582665362823255
1759504938.3023841,1,-1.271969248782556,-0.7346452473313605,-0.5054617625819233,0.24659555024651766,True,0.1,-1.276015043258667,-0.7320370078086853,-0.5007292628288269,0.24659555024651766,-0.11906941541236726,0.26084347583420037
1759504938.4298916,1,-1.2305632346125999,-0.7558731993728299,-0.47434709117932883,0.25684113510735007,True,0.1,-1.2188925743103027,-0.7613624930381775,-0.4554674029350281,0.25684113510735007,-0.11906941541236726,0.26084347583420037
1759504938.5434625,1,-1.21461024878142,-0.7637218577409971,-0.4535614311078433,0.25684113510735007,True,0.1,-1.2188925743103027,-0.7613624930381775,-0.4554674029350281,0.25684113510735007,-0.0943851273627967,0.2527171985891725
1759504938.671551,1,-1.1733177776700683,-0.7829175282308005,-0.4291269115827596,0.26557745794216325,True,0.1,-1.1625747680664062,-0.7876364588737488,-0.4225592315196991,0.26557745794216325,-0.0943851273627967,0.2527171985891725
1759504938.7833874,1,-1.1574437781004303,-0.7900327654497812,-0.4136681220496534,0.26557745794216325,True,0.1,-1.1625747680664062,-0.7876364588737488,-0.4225592315196991,0.26557745794216325,-0.09032336937201713,0.24167866098124505
1759504938.9097486,1,-1.1186226227505465,-0.8067050427143562,-0.39492198985840155,0.23739966472456558,True,0.1,-1.10808265209198,-0.8111528754234314,-0.3943015933036804,0.23739966472456558,-0.1405949893874041,0.2979516674506827
1759504939.033667,1,-1.1037316678654097,-0.8129258792311026,-0.382721194938755,0.23739966472456558,True,0.1,-1.10808265209198,-0.8111528754234314,-0.3943015933036804,0.23739966472456558,-0.09214084632076869,0.2431364654465413
1759504939.154961,1,-1.0577889310702089,-0.8308391336459068,-0.36203472483088994,0.285614684992295,True,0.1,-1.0457935333251953,-0.8353773951530457,-0.35386207699775696,0.285614684992295,-0.148190980702136,0.31105948764629116
1759504939.2634187,1,-1.0401644344443048,-0.8374851831967972,-0.347245114111443,0.285614684992295,True,0.1,-1.0457935333251953,-0.8353773951530457,-0.35386207699775696,0.285614684992295,-0.07574154890669504,0.22271321741225003
1759504939.3907864,1,-0.9974351556024569,-0.8522233111104515,-0.32601706078141923,0.266655535094327,True,0.1,-0.9865418672561646,-0.8557740449905396,-0.3175646662712097,0.266655535094327,-0.12103353309206,0.2846351294532232
1759504939.5117962,1,-0.9810464534711759,-0.8576578753784632,-0.31171197915494986,0.266655535094327,True,0.1,-0.9865418672561646,-0.8557740449905396,-0.3175646662712097,0.266655535094327,-0.08967677884142411,0.27952912540787056
1759504939.6320398,1,-0.9343383956767038,-0.8719534771492878,-0.29033501157545416,0.2721039469430726,True,0.1,-0.9214928150177002,-0.8756777048110962,-0.282010942697525,0.2721039469430726,-0.08967677884142411,0.27952912540787056
1759504939.7441244,1,-0.9164351450622734,-0.8772112271960132,-0.2761576313080276,0.2721039469430726,True,0.1,-0.9214928150177002,-0.8756777048110962,-0.282010942697525,0.2721039469430726,-0.06018769246990985,0.2726035626999108
1759504939.8716931,1,-0.8698854765778701,-0.8899514626768192,-0.25917135571433647,0.28185070032758164,True,0.1,-0.857886016368866,-0.8931127786636353,-0.25766295194625854,0.28185070032758164,-0.06018769246990985,0.2726035626999108
1759504939.9948366,1,-0.8520591272801034,-0.8946489377125526,-0.24847358768863437,0.28185070032758164,True,0.1,-0.857886016368866,-0.8931127786636353,-0.25766295194625854,0.28185070032758164,-0.04494099108006644,0.2606784503791352
1759504940.1167862,1,-0.8064192319106138,-0.9061393684015496,-0.23651651757471548,0.2635536471040427,True,0.1,-0.7940079569816589,-0.9092644453048706,-0.24003364145755768,0.2635536471040427,-0.07148057928760387,0.3181980289981724
1759504940.2388628,1,-0.78895941953621,-0.9104187234216854,-0.2290038437576989,0.2635536471040427,True,0.1,-0.7940079569816589,-0.9092644453048706,-0.24003364145755768,0.2635536471040427,-0.04037703548648608,0.25220055710437717
1759504940.3633215,1,-0.7390733277241464,-0.9219858623985008,-0.21814870073777115,0.28234968627658846,True,0.1,-0.725243866443634,-0.9252044558525085,-0.219523623585701,0.28234968627658846,-0.07246700096432335,0.3213195567258916
1759504940.4777923,1,-0.719994561312998,-0.9262979090930009,-0.21087885445245647,0.28234968627658846,True,0.1,-0.725243866443634,-0.9252044558525085,-0.219523623585701,0.28234968627658846,-0.0356392924079465,0.23787784060232497
1759504940.6033978,1,-0.6719379914056245,-0.9364517484222302,-0.20053267029619626,0.28679797854753947,True,0.1,-0.6595762372016907,-0.9390468597412109,-0.2004404067993164,0.28679797854753947,-0.06655845624369228,0.3021752291173348
1759504940.7260368,1,-0.6535599200076259,-0.9402234326933785,-0.1938596860689632,0.28679797854753947,True,0.1,-0.6595762372016907,-0.9390468597412109,-0.2004404067993164,0.28679797854753947,-0.06030317953601738,0.2881767681538413
1759504940.8475428,1,-0.6028942730619279,-0.9498787143636601,-0.18176034105518823,0.28731040938447133,True,0.1,-0.5890114903450012,-0.9524565935134888,-0.1777038276195526,0.28731040938447133,-0.06030317953601738,0.2881767681538413
1759504940.9626653,1,-0.5835182373250782,-0.9534420709866599,-0.17373866277429784,0.28731040938447133,True,0.1,-0.5890114903450012,-0.9524565935134888,-0.1777038276195526,0.28731040938447133,-0.04519785323973835,0.27312035258532663
1759504941.091722,1,-0.5340038092375413,-0.961822488467877,-0.16255107098571742,0.29257170982935427,True,0.1,-0.5212167501449585,-0.9639036059379578,-0.15972121059894562,0.29257170982935427,-0.04519785323973835,0.27312035258532663
1759504941.2063065,1,-0.5150710990730726,-0.9649054205527046,-0.15531885456027972,0.29257170982935427,True,0.1,-0.5212167501449585,-0.9639036059379578,-0.15972121059894562,0.29257170982935427,-0.03512571698494504,0.2665390043570497
1759504941.3279843,1,-0.469057675561588,-0.971951059626553,-0.14659832057421163,0.2756747339850285,True,0.1,-0.45745590329170227,-0.9736924767494202,-0.14660856127738953,0.2756747339850285,-0.04886498029195785,0.32679498769554155
1759504941.4436204,1,-0.4514692699017109,-0.9745571719591231,-0.1409234680964282,0.2756747339850285,True,0.1,-0.45745590329170227,-0.9736924767494202,-0.14660856127738953,0.2756747339850285,-0.02531121582833684,0.26156932699121827
1759504941.5676162,1,-0.40242524191369694,-0.9813896025219784,-0.13328686827530234,0.2763598557207847,True,0.1,-0.38902777433395386,-0.9832326173782349,-0.1334383487701416,0.2763598557207847,-0.040224248577418464,0.33234940006515556
1759504941.6867025,1,-0.38368188590691255,-0.9839248711876175,-0.12821744829780712,0.2763598557207847,True,0.1,-0.38902777433395386,-0.9832326173782349,-0.1334383487701416,0.2763598557207847,-0.015914810558651737,0.25626004708640704
1759504941.8043623,1,-0.3326560358747039,-0.990424979341016,-0.12191170652589278,0.29857901038208057,True,0.1,-0.31942427158355713,-0.992099940776825,-0.12284751981496811,0.29857901038208057,-0.030602830522102664,0.32082606137367786
1759504941.9229546,1,-0.313157358909161,-0.9928394317208313,-0.11793958432269847,0.29857901038208057,True,0.1,-0.31942427158355713,-0.992099940776825,-0.12284751981496811,0.29857901038208057,-0.025654762631035055,0.295628489465426
1759504942.0421593,1,-0.2589870043927189,-0.9992017350084214,-0.11200703757563346,0.31967964316900593,True,0.1,-0.24512994289398193,-1.000826120376587,-0.11234224587678909,0.31967964316900593,-0.025654762631035055,0.295628489465426
1759504942.165251,1,-0.23828778321742786,-1.0015622717966601,-0.10834969706528064,0.31967964316900593,True,0.1,-0.24512994289398193,-1.000826120376587,-0.11234224587678909,0.31967964316900593,-0.025964681262967915,0.276855854610143
1759504942.287661,1,-0.18896327943748611,-1.0068861897144963,-0.10301372848525503,0.2795156028906463,True,0.1,-0.17565423250198364,-1.0083218812942505,-0.10332467406988144,0.2795156028906463,-0.025964681262967915,0.276855854610143
1759504942.4002368,1,-0.170117217652551,-1.008864901249959,-0.09977642868568815,0.2795156028906463,True,0.1,-0.17565423250198364,-1.0083218812942505,-0.10332467406988144,0.2795156028906463,-0.027199053556490327,0.276786838197996
1759504942.5280185,1,-0.12109101224787608,-1.0137150962704793,-0.09477159326977969,0.2882890552103385,True,0.1,-0.10852143913507462,-1.0149544477462769,-0.09408500790596008,0.2882890552103385,-0.04006230913706155,0.3368578560303335
1759504942.640333,1,-0.10235971730596959,-1.015516536172166,-0.09134596304476972,0.2882890552103385,True,0.1,-0.10852143913507462,-1.0149544477462769,-0.09408500790596008,0.2882890552103385,-0.02407020357239631,0.25983192773433234
1759504942.771468,1,-0.050526082253207996,-1.0200596200104632,-0.08516038982955365,0.2898539883229134,True,0.1,-0.03633183240890503,-1.0212488174438477,-0.08233895897865295,0.2898539883229134,-0.0264935730008915,0.33201707027776345
1759504942.8920164,1,-0.03072183389136015,-1.0217315633458008,-0.08080749252186337,0.2898539883229134,True,0.1,-0.03633183240890503,-1.0212488174438477,-0.08233895897865295,0.2898539883229134,-0.00408952633543791,0.25184838311243396
1759504943.0149238,1,0.021568221036257322,-1.0258337135178188,-0.07627713146019843,0.30490776261818825,True,0.1,0.03510214015841484,-1.0268511772155762,-0.07720309495925903,0.30490776261818825,0.016413409918449418,0.3171960516723912
1759504943.1310756,1,0.04154470344509119,-1.027356769177242,-0.07309802290374279,0.30490776261818825,True,0.1,0.03510214015841484,-1.0268511772155762,-0.07720309495925903,0.30490776261818825,0.0646308612402251,0.29507022732053656
1759504943.253457,1,0.09356097287686965,-1.0316129571347887,-0.07766031320871214,0.29155635319336093,True,0.1,0.10773934423923492,-1.0329055786132812,-0.0922437533736229,0.29155635319336093,0.0646308612402251,0.29507022732053656
1759504943.3705523,1,0.11342544781708308,-1.0332904634400666,-0.08158741202222508,0.29155635319336093,True,0.1,0.10773934423923492,-1.0329055786132812,-0.0922437533736229,0.29155635319336093,0.07714652761861984,0.27984725277539557
1759504943.4935966,1,0.16354123135738302,-1.0384636025311273,-0.09416455421997938,0.29485444116787013,True,0.1,0.17635518312454224,-1.0401378870010376,-0.11676736921072006,0.29485444116787013,0.07714652761861984,0.27984725277539557
1759504943.613916,1,0.1826714528158421,-1.0405762400486072,-0.10386828274692661,0.29485444116787013,True,0.1,0.17635518312454224,-1.0401378870010376,-0.11676736921072006,0.29485444116787013,0.06603974659750023,0.2700974695587545
1759504943.7340102,1,0.2303183062540988,-1.0467869385462856,-0.11949177232278885,0.2842127782231097,True,0.1,0.24229931831359863,-1.0487629175186157,-0.1407468318939209,0.2842127782231097,0.08106990679602077,0.3294027588820194
1759504943.84966,1,0.24849961930109163,-1.049318265465017,-0.13128409293904042,0.2842127782231097,True,0.1,0.24229931831359863,-1.0487629175186157,-0.1407468318939209,0.2842127782231097,0.037367112102622,0.26034820792990376
1759504943.966586,1,0.2979008606492661,-1.0569986049138749,-0.14658972066643194,0.2934910853813992,True,0.1,0.3104541599750519,-1.059338092803955,-0.1615534871816635,0.2934910853813992,0.03870129291966862,0.3258855986401457
1759504944.0856047,1,0.31674784075948503,-1.0600922347955064,-0.15757950464652026,0.2934910853813992,True,0.1,0.3104541599750519,-1.059338092803955,-0.1615534871816635,0.2934910853813992,-0.001915284076922319,0.24807887599908243
1759504944.2093315,1,0.36610984341807856,-1.0685136412601217,-0.16677382945245256,0.28016175050403375,True,0.1,0.3795185387134552,-1.0709903240203857,-0.16829223930835724,0.28016175050403375,-0.013664838162910087,0.31067365533136754
1759504944.3221543,1,0.3849497427998982,-1.0718200358704468,-0.17271122349617585,0.28016175050403375,True,0.1,0.3795185387134552,-1.0709903240203857,-0.16829223930835724,0.28016175050403375,-0.04784729301339041,0.2933706828773783
1759504944.4428205,1,0.4349451169666241,-1.0802251697251732,-0.17155586022236413,0.2958841658194159,True,0.1,0.44782713055610657,-1.0822900533676147,-0.15758392214775085,0.2958841658194159,-0.04784729301339041,0.2933706828773783
1759504944.5562882,1,0.4540443548589942,-1.0834200376315357,-0.16974629101229866,0.2958841658194159,True,0.1,0.44782713055610657,-1.0822900533676147,-0.15758392214775085,0.2958841658194159,-0.0625102060667917,0.28180546215687236
1759504944.6749613,1,0.5033588211286235,-1.09088834271389,-0.1604838367308119,0.309903025556865,True,0.1,0.5149537324905396,-1.092299461364746,-0.13875366747379303,0.309903025556865,-0.0625102060667917,0.28180546215687236
1759504944.783995,1,0.5222127378890791,-1.093635154212335,-0.15297558283381107,0.309903025556865,True,0.1,0.5149537324905396,-1.092299461364746,-0.13875366747379303,0.309903025556865,-0.05878953023821509,0.2633766929743467
1759504944.9030395,1,0.5658389565827753,-1.0992525664521646,-0.1402132844306898,0.2655343737142093,True,0.1,0.5765776634216309,-1.1002527475357056,-0.1199263259768486,0.2655343737142093,-0.05878953023821509,0.2633766929743467
1759504945.0186963,1,0.5825208685319756,-1.101273677009674,-0.1308640943308923,0.2655343737142093,True,0.1,0.5765776634216309,-1.1002527475357056,-0.1199263259768486,0.2655343737142093,-0.05485847837399227,0.2723615749273584
1759504945.1318917,1,0.6260774372876446,-1.106063231948033,-0.11796934636827672,0.259171778442374,True,0.1,0.6371124982833862,-1.1069607734680176,-0.102640800178051,0.259171778442374,-0.05485847837399227,0.2723615749273584
1759504945.2285929,1,0.6424053684338865,-1.1077319291323715,-0.10900785902259535,0.259171778442374,True,0.09670114517211914,0.6371124982833862,-1.1069607734680176,-0.102640800178051,0.259171778442374,-0.051307607502476316,0.26245794081173546
1759504945.3487575,1,0.6849602983073179,-1.1117202516689106,-0.09740384204605945,0.2662597883334877,True,0.1,0.6948997378349304,-1.1124210357666016,-0.08729834854602814,0.2662597883334877,-0.051307607502476316,0.26245794081173546
1759504945.4603007,1,0.7012265918235798,-1.1131284468631772,-0.08964402708195962,0.2662597883334877,True,0.1,0.6948997378349304,-1.1124210357666016,-0.08729834854602814,0.2662597883334877,-0.06116950692152656,0.2586410714999664
1759504945.5868,1,0.7460541290924326,-1.1166003103883342,-0.07837310889858351,0.2665505210737583,True,0.1,0.7573482394218445,-1.1173073053359985,-0.06901122629642487,0.2665505210737583,-0.10517464923294106,0.31595669003291216
1759504945.7034688,1,0.7631856048489468,-1.1178184096661041,-0.07016121857591173,0.2665505210737583,True,0.1,0.7573482394218445,-1.1173073053359985,-0.06901122629642487,0.2665505210737583,-0.07443350331839582,0.2508429922645604
1759504945.8308654,1,0.8128986983897681,-1.1204005749004429,-0.05403290387766191,0.2920993537526309,True,0.1,0.8256109952926636,-1.1207842826843262,-0.03754175826907158,0.2920993537526309,-0.12367589570554749,0.3039495600582235
1759504945.9431992,1,0.8318974168594184,-1.1212189039486535,-0.041725876718757604,0.2920993537526309,True,0.1,0.8256109952926636,-1.1207842826843262,-0.03754175826907158,0.2920993537526309,-0.06717515038258348,0.2249450302824602
1759504946.0516045,1,0.8743887231425419,-1.122031520773288,-0.023411233130584463,0.25289960781300563,True,0.1,0.8850314021110535,-1.1219277381896973,-0.007330101914703846,0.25289960781300563,-0.12166425891971144,0.27497767535102163
1759504946.165919,1,0.8906241080298306,-1.1221689798486865,-0.010807336609026663,0.25289960781300563,True,0.1,0.8850314021110535,-1.1219277381896973,-0.007330101914703846,0.25289960781300563,-0.13119886177143947,0.2792190264030967
1759504946.2841,1,0.9384168540240657,-1.1215236959726564,0.012334407122988722,0.2963868553260519,True,0.1,0.9496369957923889,-1.1209944486618042,0.03358938917517662,0.2963868553260519,-0.13119886177143947,0.2792190264030967
1759504946.3836792,1,0.9566233549616835,-1.1210238368476757,0.02845997272903311,0.2963868553260519,True,0.0995790958404541,0.9496369957923889,-1.1209944486618042,0.03358938917517662,0.2963868553260519,-0.12387821174219482,0.24911294886875374
1759504946.478892,1,0.9630795063818448,-1.1206736951898548,0.03787953077078754,0.2963868553260519,True,0.09521293640136719,0.9496369957923889,-1.1209944486618042,0.03358938917517662,0.2963868553260519,-0.12387821174219482,0.24911294886875374
1759504946.6105766,1,1.016432004485841,-1.1172419005079361,0.0633138189463196,0.25639544798297526,True,0.1,1.0335735082626343,-1.1157900094985962,0.08747529238462448,0.25639544798297526,-0.18970478574106764,0.29620486389583983
1759504946.741782,1,1.036798192026977,-1.1156984617744246,0.08251402138446551,0.25639544798297526,True,0.1,1.0335735082626343,-1.1157900094985962,0.08747529238462448,0.25639544798297526,-0.09360935829115924,0.2244000874990517
1759504946.869938,1,1.0864615605570596,-1.1098895621120142,0.1125503332526323,0.25663326026468225,True,0.1,1.1013541221618652,-1.1076768636703491,0.13866561651229858,0.25663326026468225,-0.1630870068023107,0.27005222394977213
1759504946.9666119,1,1.1050785473861287,-1.107425146951712,0.13327080481891862,0.25663326026468225,True,0.09667396545410156,1.1013541221618652,-1.1076768636703491,0.13866561651229858,0.25663326026468225,-0.15285948205408495,0.253650882410847
1759504947.0757475,1,1.14518107326449,-1.1009087387973169,0.16199894986474916,0.2623048756955264,True,0.1,1.153907299041748,-1.099103569984436,0.1806296855211258,0.2623048756955264,-0.15285948205408495,0.253650882410847
1759504947.1978147,1,1.160456752002373,-1.0981438569464614,0.18112746583099515,0.2623048756955264,True,0.1,1.153907299041748,-1.099103569984436,0.1806296855211258,0.2623048756955264,-0.14850026685374296,0.2423061310868846
1759504947.3136353,1,1.201602147662178,-1.089530773539634,0.20936942614430354,0.25143969405195826,True,0.1,1.2117571830749512,-1.0870693922042847,0.22517113387584686,0.25143969405195826,-0.14850026685374296,0.2423061310868846
1759504947.4237216,1,1.2172661283385517,-1.0859822712149054,0.22781871496548778,0.25143969405195826,True,0.1,1.2117571830749512,-1.0870693922042847,0.22517113387584686,0.25143969405195826,-0.15590620315198045,0.23656950454866382
1759504947.5251412,1,1.2528489696141916,-1.0770034596228775,0.2532904019713449,0.2322633352811658,True,0.1,1.2608689069747925,-1.07474946975708,0.2636745274066925,0.2322633352811658,-0.15590620315198045,0.23656950454866382
1759504947.6318648,1,1.266387086697585,-1.0733598144487668,0.2694208190244636,0.2322633352811658,True,0.1,1.2608689069747925,-1.07474946975708,0.2636745274066925,0.2322633352811658,-0.17652336713566896,0.23927544032088796
1759504947.7437065,1,1.3019329674605027,-1.062872113637956,0.29481086687922353,0.2338029083577695,True,0.1,1.3099883794784546,-1.060292363166809,0.3062994182109833,0.2338029083577695,-0.17652336713566896,0.23927544032088796
1759504947.8534184,1,1.3154479643448254,-1.0586541368205469,0.3112183163249149,0.2338029083577695,True,0.1,1.3099883794784546,-1.060292363166809,0.3062994182109833,0.2338029083577695,-0.18950440404932145,0.23119811686802713
1759504947.9631357,1,1.3518718109865329,-1.0460889710910233,0.33835912470799023,0.24230512140105043,True,0.1,1.3601527214050293,-1.0429887771606445,0.3562110364437103,0.24230512140105043,-0.2999403097718325,0.2835415326194183
1759504948.065811,1,1.365707947214428,-1.0410659592395484,0.35803281979080825,0.24230512140105043,True,0.1,1.3601527214050293,-1.0429887771606445,0.3562110364437103,0.24230512140105043,-0.2137637008526614,0.22871972698687845
1759504948.1680093,1,1.4012301837698562,-1.0263050565760123,0.39497020746940326,0.25723181277579454,True,0.1,1.4083256721496582,-1.0228370428085327,0.42434877157211304,0.25723181277579454,-0.2137637008526614,0.22871972698687845
1759504948.2717679,1,1.4146675473030201,-1.0203406651491056,0.42034592478436306,0.25723181277579454,True,0.1,1.4083256721496582,-1.0228370428085327,0.42434877157211304,0.25723181277579454,-0.19955980529397266,0.22406844283190597
1759504948.3855739,1,1.4463134695640325,-1.0048428848758768,0.45470148427336365,0.2272548030611686,True,0.1,1.453083872795105,-1.0010738372802734,0.4767668545246124,0.2272548030611686,-0.29983386633808706,0.2742940584204851
1759504948.4905953,1,1.4582803536246252,-0.9986686600269299,0.4786909887329607,0.2272548030611686,True,0.1,1.453083872795105,-1.0010738372802734,0.4767668545246124,0.2272548030611686,-0.20805708212991192,0.2347359565492932
1759504948.6059265,1,1.4939135497320755,-0.9783479870195441,0.518538184701848,0.25762935931097775,True,0.1,1.5018545389175415,-0.9732219576835632,0.5493311285972595,0.25762935931097775,-0.30788519449081164,0.28849212002485225
1759504948.703935,1,1.507176813055598,-0.9703625479847767,0.5474640026934541,0.25762935931097775,True,0.09800839424133301,1.5018545389175415,-0.9732219576835632,0.5493311285972595,0.25762935931097775,-0.17658500100075614,0.22207463204642802
1759504948.7990627,1,1.5118595243155604,-0.9672227085103328,0.5622722032746967,0.25762935931097775,True,0.09512782096862793,1.5018545389175415,-0.9732219576835632,0.5493311285972595,0.25762935931097775,-0.2760358492044368,0.2797279448086377
1759504948.9158516,1,1.5549886362820269,-0.937166915766026,0.6110953745733312,0.2580239067066539,True,0.1,1.568215012550354,-0.9271925687789917,0.6546941995620728,0.2580239067066539,-0.2760358492044368,0.2797279448086377
1759504949.0342698,1,1.5712067310206426,-0.925307195455556,0.6466085148256182,0.2580239067066539,True,0.1,1.568215012550354,-0.9271925687789917,0.6546941995620728,0.2580239067066539,-0.17022212273649373,0.25159826483873177
1759504949.1598508,1,1.6082420666537514,-0.8943997275046122,0.6950653615162894,0.26160479072656406,True,0.1,1.6182959079742432,-0.8851304650306702,0.7290794849395752,0.26160479072656406,-0.24967263689010544,0.3039715518482424
1759504949.2660434,1,1.6221027650635946,-0.8822387750745839,0.7293740735838545,0.26160479072656406,True,0.1,1.6182959079742432,-0.8851304650306702,0.7290794849395752,0.26160479072656406,-0.11284231948729406,0.2352374027311124
1759504949.4234083,1,1.6591801442719165,-0.8463572641725968,0.7721551814393646,0.28300194129740625,True,0.1,1.6691275835037231,-0.8359189629554749,0.7935051918029785,0.28300194129740625,-0.2075320809552874,0.3005008829864322
1759504949.5316916,1,1.6730373475071743,-0.8323284505451561,0.801000322849279,0.28300194129740625,True,0.1,1.6691275835037231,-0.8359189629554749,0.7935051918029785,0.28300194129740625,-0.1713957531898842,0.27839887310419426
1759504949.651491,1,1.7061126073886106,-0.7961558151638745,0.8413317551454549,0.28600051328022236,True,0.1,1.71432363986969,-0.7865615487098694,0.8567622303962708,0.28600051328022236,-0.1713957531898842,0.27839887310419426
1759504949.7629662,1,1.7184362774072544,-0.782053434816287,0.8678306964282472,0.28600051328022236,True,0.1,1.71432363986969,-0.7865615487098694,0.8567622303962708,0.28600051328022236,-0.12846685375348876,0.26334192324912414
1759504949.8799942,1,1.746359557095565,-0.7479262321175034,0.8998014520991395,0.26092005267598234,True,0.1,1.7532442808151245,-0.7391815781593323,0.9023299813270569,0.26092005267598234,-0.12846685375348876,0.26334192324912414
1759504950.0014865,1,1.7567868965059044,-0.7346967731231552,0.9195199950904627,0.26092005267598234,True,0.1,1.7532442808151245,-0.7391815781593323,0.9023299813270569,0.26092005267598234,-0.12401069359757066,0.2698478430583682
1759504950.123297,1,1.7851046782522542,-0.6970421039590985,0.9452757340503899,0.27702972495300227,True,0.1,1.7922776937484741,-0.6874257326126099,0.9431973695755005,0.27702972495300227,-0.12401069359757066,0.2698478430583682
1759504950.2448525,1,1.7957088839158715,-0.6825029368434266,0.96098202300817,0.27702972495300227,True,0.1,1.7922776937484741,-0.6874257326126099,0.9431973695755005,0.27702972495300227,-0.12580936247324104,0.2584133086686712
1759504950.3677537,1,1.8222670445762053,-0.6441144472295726,0.9844139258729667,0.2614789112329345,True,0.1,1.8294814825057983,-0.6336755752563477,0.9855338335037231,0.2614789112329345,-0.1897065312478734,0.3141195511294544
1759504950.4833617,1,1.832230139368985,-0.6293288558965784,1.0001307594082354,0.2614789112329345,True,0.1,1.8294814825057983,-0.6336755752563477,0.9855338335037231,0.2614789112329345,-0.11618868570070973,0.2499490454857646
1759504950.607869,1,1.8583721645952713,-0.5872591058817672,1.027181756740327,0.28831815525934573,True,0.1,1.8649744987487793,-0.5762999057769775,1.038710355758667,0.28831815525934573,-0.19199274282469503,0.3162440249426982
1759504950.7154129,1,1.8681216104507943,-0.5710442590439342,1.0465891970994647,0.28831815525934573,True,0.1,1.8649744987487793,-0.5762999057769775,1.038710355758667,0.28831815525934573,-0.09604886750748243,0.2354226090329442
1759504950.844598,1,1.8910314883524073,-0.5293845897213454,1.074917783701844,0.27981859810276677,True,0.1,1.8966017961502075,-0.5186479687690735,1.0879807472229004,0.27981859810276677,-0.1656862770276959,0.29852318953991064
1759504950.955595,1,1.8995347213491398,-0.5133347670315577,1.0948512574281049,0.27981859810276677,True,0.1,1.8966017961502075,-0.5186479687690735,1.0879807472229004,0.27981859810276677,-0.07551540614344354,0.2307308868661623
1759504951.0844953,1,1.9193220004680636,-0.47313822143629886,1.1200136560090543,0.251942216752696,True,0.1,1.9244681596755981,-0.46216216683387756,1.127325415611267,0.251942216752696,-0.13688675146315532,0.28922770603648795
1759504951.2027688,1,1.926670602768783,-0.45768073664274167,1.1363650435699277,0.251942216752696,True,0.1,1.9244681596755981,-0.46216216683387756,1.127325415611267,0.251942216752696,-0.12853222548869425,0.29824997609099646
1759504951.3239398,1,1.9478089370567526,-0.4101332199467489,1.1628493024136173,0.3014995352416212,True,0.1,1.9530973434448242,-0.39768117666244507,1.1740111112594604,0.3014995352416212,-0.12853222548869425,0.29824997609099646
1759504951.4400551,1,1.9556166572204219,-0.3918534572860243,1.1806611940913507,0.3014995352416212,True,0.1,1.9530973434448242,-0.39768117666244507,1.1740111112594604,0.3014995352416212,-0.09512024370880923,0.27170117677402084
1759504951.5672216,1,1.9738217458219418,-0.34550566117992976,1.2051478650157774,0.2787540860173826,True,0.1,1.9785804748535156,-0.33281901478767395,1.213430643081665,0.2787540860173826,-0.13115522207500163,0.3260517917711134
1759504951.6895862,1,1.9805483064284326,-0.32771303536426066,1.2218419058466363,0.2787540860173826,True,0.1,1.9785804748535156,-0.33281901478767395,1.213430643081665,0.2787540860173826,-0.05952607079432326,0.2578967093402829
1759504951.8123085,1,1.9979623633949009,-0.2777250952882055,1.2437600288486648,0.3070032157325602,True,0.1,2.002295732498169,-0.264682412147522,1.2494760751724243,0.3070032157325602,-0.10336826431787216,0.33043027065754266
1759504951.917532,1,2.0043876130565663,-0.25855254562228946,1.2588577043377542,0.3070032157325602,True,0.1,2.002295732498169,-0.264682412147522,1.2494760751724243,0.3070032157325602,-0.036386479878459,0.2425189609866251
1759504952.0268466,1,2.0180215729010884,-0.2152489324865407,1.2751023995477224,0.28567469321863737,True,0.1,2.0210683345794678,-0.20530207455158234,1.2728058099746704,0.28567469321863737,-0.07362446148114898,0.3098484261981428
1759504952.1423473,1,2.023070945295574,-0.19865912374523056,1.2855576097487589,0.28567469321863737,True,0.1,2.0210683345794678,-0.20530207455158234,1.2728058099746704,0.28567469321863737,-0.03024287815316029,0.2489238726493146
1759504952.261488,1,2.0362566385851406,-0.15374369785037809,1.2968767024372578,0.2785672428768368,True,0.1,2.03959059715271,-0.14251378178596497,1.2905787229537964,0.2785672428768368,-0.0649841058240277,0.31441991174690753
1759504952.3772306,1,2.041185117369101,-0.13655669959358224,1.3039025911627462,0.2785672428768368,True,0.1,2.03959059715271,-0.14251378178596497,1.2905787229537964,0.2785672428768368,-0.032859764536532055,0.2452743177609183
1759504952.4943247,1,2.0538291709726813,-0.09087198791166273,1.313698995070907,0.28013557183133586,True,0.1,2.057105302810669,-0.07934524863958359,1.30952787399292,0.28013557183133586,-0.06725549498791139,0.3086110818824614
1759504952.6003993,1,2.058560777204991,-0.07339586635608804,1.3196540116980646,0.28013557183133586,True,0.1,2.057105302810669,-0.07934524863958359,1.30952787399292,0.28013557183133586,-0.06840466267844647,0.3016003733012047
1759504952.7164395,1,2.0708011201536216,-0.025006348111316433,1.331041142799572,0.3094215842065629,True,0.1,2.0736489295959473,-0.013632412068545818,1.3323066234588623,0.3094215842065629,-0.06840466267844647,0.3016003733012047
1759504952.834217,1,2.0753513203635525,-0.006492064403278257,1.3384139103565325,0.3094215842065629,True,0.1,2.0736489295959473,-0.013632412068545818,1.3323066234588623,0.3094215842065629,-0.05883736056249589,0.2819153236681823
1759504952.9343514,1,2.085733609671545,0.0384236126464287,1.3500600854841327,0.2917762007726741,True,0.1,2.0880281925201416,0.048627667129039764,1.3526924848556519,0.2917762007726741,-0.05883736056249589,0.2819153236681823
1759504953.0428805,1,2.0895777158561906,0.05560769634672766,1.3575300318922867,0.2917762007726741,True,0.1,2.0880281925201416,0.048627667129039764,1.3526924848556519,0.2917762007726741,-0.051777406788946934,0.2873921780671508
1759504953.1617956,1,2.0986118375709877,0.09836074134180717,1.3680508583403181,0.2631919778506232,True,0.1,2.100776433944702,0.10888072848320007,1.369673490524292,0.2631919778506232,-0.051777406788946934,0.2873921780671508
1759504953.2637842,1,2.1019632316771264,0.11471177595682121,1.3747030333710963,0.2631919778506232,True,0.1,2.100776433944702,0.10888072848320007,1.369673490524292,0.2631919778506232,-0.04442322741349969,0.2928783567994234
1759504953.3750007,1,2.111165311045743,0.161432415967071,1.3845450104868746,0.3134339959278555,True,0.1,2.1131057739257812,0.17130184173583984,1.3865461349487305,0.3134339959278555,-0.04442322741349969,0.2928783567994234
1759504953.4768884,1,2.114569484986129,0.17929939052224764,1.3909567273934442,0.3134339959278555,True,0.1,2.1131057739257812,0.17130184173583984,1.3865461349487305,0.3134339959278555,-0.03448764154382644,0.2683791506119199
1759504953.5674465,1,2.115596816413347,0.1850248282077591,1.3939521617937212,0.3134339959278555,True,0.09055805206298828,2.1131057739257812,0.17130184173583984,1.3865461349487305,0.3134339959278555,-0.03448764154382644,0.2683791506119199
1759504953.670835,1,2.124871030872203,0.23765225088413675,1.4013868227641355,0.2798527802234766,True,0.1,2.127582550048828,0.2531476616859436,1.402634859085083,0.2798527802234766,-0.055627376004029117,0.33496824141200465
1759504953.7708457,1,2.1283380880457865,0.25776722527814516,1.406364959290169,0.2798527802234766,True,0.1,2.127582550048828,0.2531476616859436,1.402634859085083,0.2798527802234766,-0.05040613336926825,0.32055905793198264
1759504953.8667188,1,2.1295406051136956,0.2650235739056025,1.4088160538014698,0.2798527802234766,True,0.09587311744689941,2.127582550048828,0.2531476616859436,1.402634859085083,0.2798527802234766,-0.05040613336926825,0.32055905793198264
1759504953.9774103,1,2.1397660392123607,0.33083040775430966,1.4196331648463554,0.32046659270680616,True,0.1,2.1429290771484375,0.35194846987724304,1.4290693998336792,0.32046659270680616,-0.0712355240030682,0.3852693531245605
1759504954.080451,1,2.1435514036326015,0.35598519222055824,1.4280768475156744,0.32046659270680616,True,0.1,2.1429290771484375,0.35194846987724304,1.4290693998336792,0.32046659270680616,-0.023515690322046368,0.26214254812187465
1759504954.1794677,1,2.1501492059669722,0.40569393340598653,1.4393540708290198,0.32134859962898793,True,0.09901666641235352,2.1514551639556885,0.41694676876068115,1.4462321996688843,0.32134859962898793,-0.023515690322046368,0.26214254812187465
1759504954.287634,1,2.1525551637725675,0.4248184251270414,1.4470042087243922,0.32134859962898793,True,0.1,2.1514551639556885,0.41694676876068115,1.4462321996688843,0.32134859962898793,-0.010829796849264994,0.2609195364543504
1759504954.398756,1,2.1575044691685115,0.4659631333065124,1.4531833849846905,0.26804644096334895,True,0.1,2.158531665802002,0.4749508202075958,1.451462984085083,0.26804644096334895,-0.026099974930613,0.329677365071674
1759504954.501481,1,2.159335419730163,0.48168618711883493,1.4569065088320272,0.26804644096334895,True,0.1,2.158531665802002,0.4749508202075958,1.451462984085083,0.26804644096334895,-0.017014648426931345,0.2830664577928569
1759504954.6086578,1,2.1647316333384783,0.5286675922182948,1.4611240428418109,0.31457456960486957,True,0.1,2.1658716201782227,0.5383862257003784,1.458469271659851,0.31457456960486957,-0.028037976573326517,0.3460547698522214
1759504954.7107515,1,2.1667460687022917,0.5466181076064156,1.463763559571178,0.31457456960486957,True,0.1,2.1658716201782227,0.5383862257003784,1.458469271659851,0.31457456960486957,-0.015540633374026669,0.2605357190023918
1759504954.8021169,1,2.167373964593177,0.5524463459607597,1.4644962454953827,0.31457456960486957,True,0.09136533737182617,2.1658716201782227,0.5383862257003784,1.458469271659851,0.31457456960486957,-0.027496096194123965,0.32803157743011424
1759504954.8968234,1,2.1735439475952956,0.6103562048937029,1.4688345246515029,0.3048126400852204,True,0.09470653533935547,2.1754770278930664,0.6284045577049255,1.4695810079574585,0.3048126400852204,-0.027496096194123965,0.32803157743011424
1759504955.0132403,1,2.175917565342544,0.6330936699071834,1.471899600103077,0.3048126400852204,True,0.1,2.1754770278930664,0.6284045577049255,1.4695810079574585,0.3048126400852204,-0.020197457452582057,0.30028175278586217
1759504955.1189167,1,2.1810433104267037,0.6858602799300868,1.4767249272188323,0.3222532430310008,True,0.1,2.1822586059570312,0.6986514329910278,1.4780707359313965,0.3222532430310008,-0.020197457452582057,0.30028175278586217
1759504955.235002,1,2.182944642841758,0.7060207672095604,1.4798869315168552,0.3222532430310008,True,0.1,2.1822586059570312,0.6986514329910278,1.4780707359313965,0.3222532430310008,-0.015296901794409123,0.27771580503133053
1759504955.3375187,1,2.186969551940085,0.7509362706556691,1.483718661990192,0.2862044410733313,True,0.1,2.1878604888916016,0.7610793709754944,1.4836366176605225,0.2862044410733313,-0.015296901794409123,0.27771580503133053
1759504955.4339554,1,2.1884327973219233,0.7677079779139172,1.4859559522357548,0.2862044410733313,True,0.09643673896789551,2.1878604888916016,0.7610793709754944,1.4836366176605225,0.2862044410733313,-0.01749092321548673,0.293603837628329
1759504955.5383725,1,2.1920120455375005,0.8100039988646593,1.488978461419264,0.2844912936867999,True,0.1,2.1927425861358643,0.8186243772506714,1.4884001016616821,0.2844912936867999,-0.01749092321548673,0.293603837628329
1759504955.6552718,1,2.1933471966692077,0.8261622994402279,1.4907593541856237,0.2844912936867999,True,0.1,2.1927425861358643,0.8186243772506714,1.4884001016616821,0.2844912936867999,-0.020711786529854948,0.29703254272229007
1759504955.7593932,1,2.1970680238940012,0.8730978145803446,1.4940320214806677,0.29822874829213064,True,0.1,2.197904109954834,0.8837321996688843,1.4946768283843994,0.29822874829213064,-0.020711786529854948,0.29703254272229007
1759504955.858684,1,2.1984470478742835,0.8909478526881666,1.4961075227046061,0.29822874829213064,True,0.09929084777832031,2.197904109954834,0.8837321996688843,1.4946768283843994,0.29822874829213064,-0.021201152402165135,0.28582541110973864
1759504955.9631255,1,2.201594994797997,0.9340796661805055,1.4996055005090483,0.2915763524488931,True,0.1,2.2022061347961426,0.9427656531333923,1.5008807182312012,0.2915763524488931,-0.021201152402165135,0.28582541110973864
1759504956.0648034,1,2.2027597874097227,0.9505572815075666,1.5018691216866653,0.2915763524488931,True,0.1,2.2022061347961426,0.9427656531333923,1.5008807182312012,0.2915763524488931,-0.02087391508911196,0.29014925345509224
1759504956.1757307,1,2.205655371501335,0.9941180924725925,1.5055887436858075,0.2793756791587228,True,0.1,2.206265687942505,1.0038141012191772,1.5073108673095703,0.2793756791587228,-0.02087391508911196,0.29014925345509224
1759504956.277871,1,2.206723520087142,1.0107593654483678,1.5080657468382865,0.2793756791587228,True,0.1,2.206265687942505,1.0038141012191772,1.5073108673095703,0.2793756791587228,-0.01636763431726962,0.2931928181894192
1759504956.3821564,1,2.209368977149225,1.0546240880295326,1.5115409193662988,0.2947992089693447,True,0.1,2.2098710536956787,1.0635496377944946,1.5128480195999146,0.2947992089693447,-0.01636763431726962,0.2931928181894192
1759504956.4895318,1,2.210342349232081,1.0713811703578304,1.5138528325279959,0.2947992089693447,True,0.1,2.2098710536956787,1.0635496377944946,1.5128480195999146,0.2947992089693447,-0.010583179868049797,0.2807909848665583
1759504956.6103826,1,2.2129643358547475,1.118903686027043,1.5167188774969302,0.3032686961996219,True,0.1,2.213526725769043,1.1295610666275024,1.517287015914917,0.3032686961996219,-0.016198784802497812,0.35140980496438806
1759504956.73017,1,2.2139348447912144,1.137057382069964,1.5186556417452408,0.3032686961996219,True,0.1,2.213526725769043,1.1295610666275024,1.517287015914917,0.3032686961996219,-0.008180192072767767,0.2759120262034711
1759504956.8351629,1,2.2165155568074533,1.1880528547099387,1.5213370043404062,0.30365343594846333,True,0.1,2.2171401977539062,1.2008280754089355,1.5219027996063232,0.30365343594846333,-0.013721030847458238,0.33959360758376655
1759504956.932868,1,2.2174593332827244,1.2072670006309079,1.5231501287320395,0.30365343594846333,True,0.09770512580871582,2.2171401977539062,1.2008280754089355,1.5219027996063232,0.30365343594846333,-0.005180231710907535,0.26099093736719825
1759504957.0221977,1,2.2177534367428855,1.2136368031228222,1.5239029598624008,0.30365343594846333,True,0.08932971954345703,2.2171401977539062,1.2008280754089355,1.5219027996063232,0.30365343594846333,-0.011918335421249537,0.33352993280641663
1759504957.1333387,1,2.2206163343146876,1.2759149890824557,1.5262908849118926,0.31688109993864294,True,0.1,2.2214748859405518,1.2948418855667114,1.5270798206329346,0.31688109993864294,-0.011918335421249537,0.33352993280641663
1759504957.2455826,1,2.221682235587412,1.2997043937916084,1.5279188762550113,0.31688109993864294,True,0.1,2.2214748859405518,1.2948418855667114,1.5270798206329346,0.31688109993864294,-0.009110741936360967,0.28669841189714723
1759504957.3646743,1,2.2238715770017596,1.3521623395852422,1.5302278463441263,0.303646140983499,True,0.1,2.22442626953125,1.3658337593078613,1.530817985534668,0.303646140983499,-0.009110741936360967,0.28669841189714723
1759504957.4855726,1,2.2246817564612686,1.3722005726493598,1.5316750437759197,0.303646140983499,True,0.1,2.22442626953125,1.3658337593078613,1.530817985534668,0.303646140983499,-0.010355955802863193,0.28291298745408777
1759504957.603324,1,2.2265655546944023,1.4215000916662035,1.5337043780913637,0.2914044879110116,True,0.1,2.22703218460083,1.4339725971221924,1.5342166423797607,0.2914044879110116,-0.015782279873201688,0.34597713100047206
1759504957.7211602,1,2.227263971360328,1.4403316308304412,1.5350906843297878,0.2914044879110116,True,0.1,2.22703218460083,1.4339725971221924,1.5342166423797607,0.2914044879110116,-0.009984431954045192,0.27502048390173994
1759504957.8332942,1,2.2290353698831344,1.4925961041084486,1.5375848082149632,0.3065244752171539,True,0.1,2.229461431503296,1.5059648752212524,1.5389996767044067,0.3065244752171539,-0.013772743117081987,0.34256763634354953
1759504957.9352808,1,2.229684878006936,1.512560281842537,1.5393831428977034,0.3065244752171539,True,0.1,2.229461431503296,1.5059648752212524,1.5389996767044067,0.3065244752171539,-0.004909994317410238,0.25834961628331615
1759504958.0205824,1,2.2298591690615712,1.518466490280123,1.540226025704471,0.3065244752171539,True,0.08530163764953613,2.229461431503296,1.5059648752212524,1.5389996767044067,0.3065244752171539,-0.004909994317410238,0.25834961628331615
1759504958.1237998,1,2.2314889577235264,1.5741201833175342,1.542075697741505,0.2992854849138711,True,0.1,2.231935739517212,1.5900276899337769,1.542612075805664,0.2992854849138711,-0.008068385233123365,0.32621968341305985
1759504958.2253742,1,2.2320915069676976,1.595378590309,1.543361659241259,0.2992854849138711,True,0.1,2.231935739517212,1.5900276899337769,1.542612075805664,0.2992854849138711,-0.00393546370558262,0.3006527002236895
1759504958.3186688,1,2.2322867122934165,1.602732718621169,1.5439815423851044,0.2992854849138711,True,0.09329462051391602,2.231935739517212,1.5900276899337769,1.542612075805664,0.2992854849138711,-0.00393546370558262,0.3006527002236895
1759504958.418728,1,2.233893298718182,1.6632731387183746,1.5452027743458974,0.3085277685062973,True,0.1,2.2343785762786865,1.681627869606018,1.5451027154922485,0.3085277685062973,-0.006234044135680961,0.3690747560903348
1759504958.5108736,1,2.2344701517196133,1.685472529660356,1.5459892955919967,0.3085277685062973,True,0.09214544296264648,2.2343785762786865,1.681627869606018,1.5451027154922485,0.3085277685062973,-0.0016033287361061355,0.2652348437681863
1759504958.610616,1,2.2347041305978843,1.6948471631479072,1.5463735417003015,0.3085277685062973,True,0.09974241256713867,2.2343785762786865,1.681627869606018,1.5451027154922485,0.3085277685062973,-0.003803352457447673,0.3306597005473277
1759504958.7170365,1,2.23624926930722,1.7579544289618618,1.5472510580373786,0.3215231659621522,True,0.1,2.2367215156555176,1.7770915031433105,1.5470302104949951,0.3215231659621522,-0.003803352457447673,0.3306597005473277
1759504958.8152368,1,2.2368244399407335,1.7818385351252757,1.5478290341945993,0.3215231659621522,True,0.09820032119750977,2.2367215156555176,1.7770915031433105,1.5470302104949951,0.3215231659621522,-0.00012692504747136013,0.22133515464186482
1759504958.9082496,1,2.2370223136065537,1.7903247036953316,1.5480069530748057,0.3215231659621522,True,0.09301280975341797,2.2367215156555176,1.7770915031433105,1.5470302104949951,0.3215231659621522,-0.004526760484866443,0.28920776069459597
1759504959.0096538,1,2.2382610650648447,1.8440246666193068,1.5485626198208156,0.2791169202015792,True,0.1,2.2386362552642822,1.8599671125411987,1.5483858585357666,0.2791169202015792,-0.008886150059446152,0.35213819388128115
1759504959.106485,1,2.2387212803457857,1.8641985840726436,1.5489387401036252,0.2791169202015792,True,0.09683108329772949,2.2386362552642822,1.8599671125411987,1.5483858585357666,0.2791169202015792,-0.006925859388761779,0.27495006409839884
1759504959.2140524,1,2.239745666527354,1.9125580604760444,1.5500682933652756,0.3115411531689834,True,0.1,2.239961624145508,1.9231960773468018,1.550897479057312,0.3115411531689834,-0.006925859388761779,0.27495006409839884
1759504959.3092864,1,2.2401123411070705,1.9304629751564197,1.5508408348410185,0.3115411531689834,True,0.09523391723632812,2.239961624145508,1.9231960773468018,1.550897479057312,0.3115411531689834,-0.006314470760587554,0.26134986171936436
1759504959.3961296,1,2.240224017518555,1.9363039401807345,1.5512389335552283,0.3115411531689834,True,0.08684325218200684,2.239961624145508,1.9231960773468018,1.550897479057312,0.3115411531689834,-0.008454507815985224,0.32512018114043484
1759504959.49189,1,2.2411805554176794,1.9884676075159111,1.5526070605552738,0.2866904342405074,True,0.09576034545898438,2.241443634033203,2.0037424564361572,1.5538712739944458,0.2866904342405074,-0.008454507815985224,0.32512018114043484
1759504959.5809395,1,2.2415193323087803,2.007657854899102,1.5536064524448445,0.2866904342405074,True,0.0890495777130127,2.241443634033203,2.0037424564361572,1.5538712739944458,0.2866904342405074,-0.0030501218218823567,0.24470771043419148
1759504959.670822,1,2.2416407928865754,2.0150792269754136,1.5541755219627449,0.2866904342405074,True,0.08988237380981445,2.241443634033203,2.0037424564361572,1.5538712739944458,0.2866904342405074,-0.004145561132538944,0.3086594604598396
1759504959.771924,1,2.242490700186721,2.0698029655182086,1.5553461253432594,0.2914032371840877,True,0.1,2.2427194118499756,2.0856168270111084,1.556022047996521,0.2914032371840877,-0.004145561132538944,0.3086594604598396
1759504959.8928816,1,2.2428029682325104,2.0907057703866205,1.5561647722329779,0.2914032371840877,True,0.1,2.2427194118499756,2.0856168270111084,1.556022047996521,0.2914032371840877,-0.001827992756675556,0.29177004062382506
1759504960.0046368,1,2.243530753952059,2.14250134147112,1.5570231334732112,0.29954132798173483,True,0.1,2.2437117099761963,2.1560020446777344,1.5571039915084839,0.29954132798173483,-0.002672440243021157,0.3484829257246774
1759504960.1188052,1,2.243799527544994,2.1622856192265503,1.5575794359063124,0.29954132798173483,True,0.1,2.2437117099761963,2.1560020446777344,1.5571039915084839,0.29954132798173483,-0.0006198340788348133,0.2683671020799189
1759504960.2279792,1,2.2444654061344473,2.2127122610003362,1.5580671974563476,0.3140895374203483,True,0.1,2.244621753692627,2.2244675159454346,1.5577073097229004,0.3140895374203483,-0.0020785805944036895,0.3422298836504385
1759504960.3387432,1,2.244714281638968,2.2319735948264983,1.5583579414773379,0.3140895374203483,True,0.1,2.244621753692627,2.2244675159454346,1.5577073097229004,0.3140895374203483,-0.000976918107424396,0.2621114033516727
