timestamp,observer_vehicle_id,vehicle_0_x,vehicle_0_y,vehicle_0_theta,vehicle_0_velocity,vehicle_1_x,vehicle_1_y,vehicle_1_theta,vehicle_1_velocity,vehicle_2_x,vehicle_2_y,vehicle_2_theta,vehicle_2_velocity
1759838806.4719265,1,0.0,0.0,0.0,0.0,-1.735,-0.35,-0.7801621756414646,0.0,0.0,0.0,0.0,0.0
1759838806.4825053,1,-0.23845052422553864,-0.16424385696980437,-0.1420221113308088,0.0,-1.735,-0.35,-0.7801621756414646,0.0,0.0,0.0,0.0,0.0
1759838806.4928706,1,-0.42771174577494675,-0.29460630051255654,-0.2547468720114401,0.0,-1.735,-0.35,-0.7801621756414646,0.0,0.0,0.0,0.0,0.0
1759838806.503582,1,-0.5782483305787741,-0.39829535459849663,-0.3444070800391107,0.0,-1.735,-0.35,-0.7801621756414646,0.0,0.0,0.0,0.0,0.0
1759838806.5147648,1,-0.6982288958989541,-0.48093753319553295,-0.41586799739620056,0.0,-1.735,-0.35,-0.7801621756414646,0.0,0.0,0.0,0.0,0.0
1759838806.5251615,1,-0.7941875499978224,-0.5470335063959201,-0.4730213657934692,0.0,-1.735,-0.35,-0.7801621756414646,0.0,0.0,0.0,0.0,0.0
1759838806.5361784,1,-0.8756162657916067,-0.6031213107465585,-0.521520643274827,0.0,-1.735,-0.35,-0.7801621756414646,0.0,0.0,0.0,0.0,0.0
1759838806.5473537,1,-0.9401684900364754,-0.6475846488767307,-0.5599682130930617,0.0,-1.735,-0.35,-0.7801621756414646,0.0,0.0,0.0,0.0,0.0
1759838806.5574307,1,-0.9915361122551493,-0.682966480910712,-0.5905629798071794,0.0,-1.735,-0.35,-0.7801621756414646,0.0,0.0,0.0,0.0,0.0
1759838806.5685368,1,-1.032466154550764,-0.7111589457182564,-0.6149410810613596,0.0,-1.735,-0.35,-0.7801621756414646,0.0,0.0,0.0,0.0,0.0
1759838806.57907,1,-1.0651847135146755,-0.7336953705643765,-0.6344283891259924,0.0,-1.735,-0.35,-0.7801621756414646,0.0,0.0,0.0,0.0,0.0
1759838806.589891,1,-1.092901433870597,-0.7527865471033897,-0.6509365815776489,0.0,-1.735,-0.35,-0.7801621756414646,0.0,0.0,0.0,0.0,0.0
1759838806.6011846,1,-1.1148704491469459,-0.7679187252126027,-0.6640214172832508,0.0,-1.735,-0.35,-0.7801621756414646,0.0,0.0,0.0,0.0,0.0
1759838806.6125276,1,-1.1323295268222469,-0.7799444746456992,-0.6744201156354067,0.0,-1.735,-0.35,-0.7801621756414646,0.0,0.0,0.0,0.0,0.0
1759838806.6236336,1,-1.1462451804645168,-0.7895295264457972,-0.6827083360838304,0.0,-1.735,-0.35,-0.7801621756414646,0.0,0.0,0.0,0.0,0.0
1759838806.6343246,1,-1.1573705054091394,-0.79719260995078,-0.6893346253025623,0.0,-1.735,-0.35,-0.7801621756414646,0.0,0.0,0.0,0.0,0.0
1759838806.6452942,1,-1.166811054800212,-0.8036952261599064,-0.69495745528374,0.0,-1.735,-0.35,-0.7801621756414646,0.0,0.0,0.0,0.0,0.0
1759838806.6554873,1,-1.1743025644953156,-0.8088553508895409,-0.6994194292190435,0.0,-1.735,-0.35,-0.7801621756414646,0.0,0.0,0.0,0.0,0.0
1759838806.668909,1,-1.1802420708063401,-0.8129464613124999,-0.7029570235661061,0.0,-1.7349991866747538,-0.34999901880820594,-0.7230008024528125,0.0,0.0,0.0,0.0,0.0
1759838806.6794379,1,-1.1849802406797714,-0.8162100955507473,-0.7057790969981287,0.0,-1.734999182124656,-0.34999901331898897,-0.7181194457472557,0.0,0.0,0.0,0.0,0.0
1759838806.6903832,1,-1.1887678011515534,-0.8188189534780357,-0.7080349835672302,0.0,-1.7349991806970992,-0.3499990115967913,-0.7176582374589202,0.0,0.0,0.0,0.0,0.0
1759838806.7006645,1,-1.191999250405814,-0.8210447640139771,-0.7099596480117266,0.0,-1.7349991801665847,-0.34999901095678093,-0.7175998141407902,0.0,0.0,0.0,0.0,0.0
1759838806.7111611,1,-1.194560107377126,-0.8228086730155714,-0.711484904938979,0.0,-1.7349991799647513,-0.34999901071329,-0.7175922566286932,0.0,0.0,0.0,0.0,0.0
1759838806.7218437,1,-1.1965942337266593,-0.8242097718736945,-0.7126964389450905,0.0,-1.7349991798877025,-0.34999901062033867,-0.7175982869227315,0.0,0.0,0.0,0.0,0.0
1759838806.7319021,1,-1.1982151235668024,-0.8253262349216705,-0.7136618475894182,0.0,-1.734999179858275,-0.3499990105848374,-0.7176102522688979,0.0,0.0,0.0,0.0,0.0
1759838806.7429461,1,-1.1995084752762624,-0.8262170908921915,-0.7144321731782061,0.0,-1.7349991798470348,-0.3499990105712773,-0.7176203357196087,0.0,0.0,0.0,0.0,0.0
1759838806.7543821,1,-1.2006017152006303,-0.8269701105903228,-0.7150833113661138,0.0,-1.7349991798427413,-0.34999901056609783,-0.7176297938461005,0.0,0.0,0.0,0.0,0.0
1759838806.7648504,1,-1.2014681130940696,-0.8275668823195994,-0.7155993415089641,0.0,-1.7349991798411013,-0.3499990105641194,-0.7176397700707806,0.0,0.0,0.0,0.0,0.0
1759838806.7763565,1,-1.2021557215338805,-0.8280405045211288,-0.7160088839191054,0.0,-1.734999179840475,-0.34999901056336374,-0.7176468560548059,0.0,0.0,0.0,0.0,0.0
1759838806.7865112,1,-1.2027036915759874,-0.8284179443003529,-0.716335257126205,0.0,-1.7349991798402358,-0.3499990105630751,-0.717654298626325,0.0,0.0,0.0,0.0,0.0
1759838806.7974944,1,-1.2031410528606696,-0.828719197168296,-0.7165957513032117,0.0,-1.7349991798401443,-0.34999901056296484,-0.7176595075711134,0.0,0.0,0.0,0.0,0.0
1759838806.808169,1,-1.2035111351494687,-0.8289741085076859,-0.716816173834016,0.0,-1.7349991798401094,-0.34999901056292276,-0.7176641382402025,0.0,0.0,0.0,0.0,0.0
1759838806.819654,1,-1.2038041269409203,-0.8291759201918698,-0.7169906809480585,0.0,-1.734999179840096,-0.34999901056290667,-0.7176674771042714,0.0,0.0,0.0,0.0,0.0
1759838806.829889,1,-1.2040370192327288,-0.8293363355584932,-0.7171293925533391,0.0,-1.734999179840091,-0.3499990105629005,-0.7176712880410978,0.0,0.0,0.0,0.0,0.0
1759838806.8407943,1,-1.2042224620091537,-0.8294640678708718,-0.7172398430324246,0.0,-1.734999179840089,-0.34999901056289817,-0.7176740344512496,0.0,0.0,0.0,0.0,0.0
1759838806.8511155,1,-1.204370594428563,-0.8295661009445464,-0.7173280713096716,0.0,-1.7349991798400883,-0.3499990105628973,-0.7176767236637982,0.0,0.0,0.0,0.0,0.0
1759838806.8638453,1,-1.2044954803788261,-0.8296521219345157,-0.7174024538944427,0.0,-1.7349991798400881,-0.34999901056289695,-0.717677780487783,0.0,0.0,0.0,0.0,0.0
1759838806.8736124,1,-1.2045946071286568,-0.8297204000805753,-0.7174614941936664,0.0,-1.734999179840088,-0.34999901056289684,-0.7176804253428077,0.0,0.0,0.0,0.0,0.0
1759838806.8843744,1,-1.2046733910451972,-0.8297746661567846,-0.7175084182178527,0.0,-1.734999179840088,-0.3499990105628968,-0.717682175493616,0.0,0.0,0.0,0.0,0.0
1759838806.8952801,1,-1.2047361575058546,-0.8298178994674271,-0.7175458021795458,0.0,-1.734999179840088,-0.34999901056289673,-0.7176836118357919,0.0,0.0,0.0,0.0,0.0
1759838806.9055865,1,-1.2047863235473162,-0.8298524536549899,-0.7175756812798271,0.0,-1.734999179840088,-0.34999901056289673,-0.7176851380871447,0.0,0.0,0.0,0.0,0.0
1759838806.9161367,1,-1.2048265058491183,-0.8298801310788552,-0.7175996140237729,0.0,-1.734999179840088,-0.34999901056289673,-0.7176863611260025,0.0,0.0,0.0,0.0,0.0
1759838806.9274864,1,-1.2048606730396314,-0.8299036653158627,-0.7176199641427364,0.0,-1.734999179840088,-0.34999901056289673,-0.7176871565741934,0.0,0.0,0.0,0.0,0.0
1759838806.937952,1,-1.204887825804778,-0.8299223680420972,-0.7176361364411498,0.0,-1.734999179840088,-0.34999901056289673,-0.7176882441915461,0.0,0.0,0.0,0.0,0.0
1759838806.9488869,1,-1.2049094473720212,-0.8299372608992603,-0.7176490143353802,0.0,-1.734999179840088,-0.34999901056289673,-0.7176890715643989,0.0,0.0,0.0,0.0,0.0
1759838806.959139,1,-1.2049267213927044,-0.8299491591821079,-0.7176593028130279,0.0,-1.734999179840088,-0.34999901056289673,-0.7176900458219072,0.0,0.0,0.0,0.0,0.0
1759838806.9701676,1,-1.2049413390523038,-0.8299592277730673,-0.717668009151107,0.0,-1.734999179840088,-0.34999901056289673,-0.717690676787333,0.0,0.0,0.0,0.0,0.0
1759838806.9805791,1,-1.2049529247223947,-0.8299672079406407,-0.717674909623785,0.0,-1.734999179840088,-0.34999901056289673,-0.7176914486367618,0.0,0.0,0.0,0.0,0.0
1759838806.990926,1,-1.2049621307509433,-0.8299735490197435,-0.7176803927721894,0.0,-1.734999179840088,-0.34999901056289673,-0.7176921627303265,0.0,0.0,0.0,0.0,0.0
1759838807.0024376,1,-1.2049694550698709,-0.8299785939840784,-0.7176847551666172,0.0,-1.734999179840088,-0.34999901056289673,-0.7176925055847362,0.0,0.0,0.0,0.0,0.0
1759838807.0126154,1,-1.204975306319456,-0.8299826243035883,-0.717688240194896,0.0,-1.734999179840088,-0.34999901056289673,-0.7176932054105903,0.0,-0.3849815082550049,0.03889300365447998,1.170851820974746,0.0
1759838807.023354,1,-1.2049799892261988,-0.8299858498727825,-0.7176910293533804,0.0,-1.734999179840088,-0.34999901056289673,-0.7176937050998866,0.0,-0.6905962726629664,0.06976793113569456,2.1139944525279866,0.0
1759838807.0342295,1,-1.2049837459816248,-0.829988437512306,-0.7176932668923378,0.0,-1.734999179840088,-0.34999901056289673,-0.7176941380697865,0.0,-0.9337916656963435,0.09433690161137419,2.878504674219653,0.0
1759838807.0456188,1,-1.204986951133132,-0.8299906452090491,-0.7176951758937362,0.0,-1.734999179840088,-0.34999901056289673,-0.7176944504793905,0.0,-1.1277103816644665,0.11392766419892301,-2.7802535156519124,0.0
1759838807.0571399,1,-1.2049895000573794,-0.8299924008988336,-0.717696694043484,0.0,-1.734999179840088,-0.34999901056289673,-0.7176947618621021,0.0,-1.282729677172272,0.12958858789894234,-1.0813947237123622,0.0
1759838807.0721838,1,-1.2049915251130692,-0.8299937957498543,-0.717697900174968,0.0,-1.734999179840088,-0.34999901056289673,-0.7176944394010007,0.0,-1.4065168187164288,0.14209426322417254,0.29524629181107387,0.0
1759838807.0823796,1,-1.2049931479360425,-0.8299949135444376,-0.7176988667349945,0.0,-1.734999179840088,-0.34999901056289673,-0.7176952412947326,0.0,-1.5122988910319952,0.15278096488887336,1.4098441267179205,0.0
1759838807.0927763,1,-1.204994451259104,-0.8299958112686391,-0.7176996429995613,0.0,-1.734999179840088,-0.34999901056289673,-0.7176959154083171,0.0,-1.5965817005121896,0.16129568974405195,2.311334765173296,0.0
1759838807.1038404,1,-1.2049954997715449,-0.8299965334802086,-0.7177002674978764,0.0,-1.734999179840088,-0.34999901056289673,-0.7176963529330997,0.0,-1.6638531408642112,0.16809183012833312,3.0453123038763352,0.0
1759838807.1147113,1,-1.2049963456407289,-0.8299971161118374,-0.7177007713010358,0.0,-1.734999179840088,-0.34999901056289673,-0.7176967658978892,0.0,-1.7176976557075523,0.1735315067560963,-2.6360386903050026,0.0
1759838807.1261704,1,-1.2049970758992001,-0.829997619111226,-0.7177012062459798,0.0,-1.734999179840088,-0.34999901056289673,-0.7176970456220602,0.0,-1.7608778034766914,0.17789380886405548,-0.9701848869291225,0.0
1759838807.13643,1,-1.20499766009493,-0.8299980215031277,-0.7177015541953552,0.0,-1.734999179840088,-0.34999901056289673,-0.717697495976708,0.0,-1.7956436000948615,0.18140604575317315,0.3849223820845806,0.0
1759838807.1473658,1,-1.2049981282351396,-0.8299983439564077,-0.7177018330215863,0.0,-1.734999179840088,-0.34999901056289673,-0.7176977916715721,0.0,-1.8236808973626535,0.18423853168227833,1.4927163714187286,0.0
1759838807.1579795,1,-1.2049985044669502,-0.8299986031035154,-0.7177020571067975,0.0,-1.734999179840088,-0.34999901056289673,-0.717698104807889,0.0,-1.8476681622232782,0.18666186049127476,2.383382891757736,0.0
1759838807.1683724,1,-1.2049988076572826,-0.8299988119399174,-0.7177022376882044,0.0,-1.734999179840088,-0.34999901056289673,-0.7176984182890518,0.0,-1.8668876796290914,0.18860352455740048,3.1107742402079177,0.0
1759838807.1798623,1,-1.2049990522807055,-0.8299989804356447,-0.7177023833869195,0.0,-1.734999179840088,-0.34999901056289673,-0.7176985575198351,0.0,-1.8823064815649975,0.19016121890682278,-2.573488187495694,0.0
1759838807.1902766,1,-1.2049992504122795,-0.8299991169079548,-0.7177025013948984,0.0,-1.734999179840088,-0.34999901056289673,-0.7176988435550983,0.0,-1.8947238267182684,0.1914156891607686,-0.924489532440704,0.0
1759838807.2004573,1,-1.2049994211777557,-0.8299992345305959,-0.7177026031035173,0.0,-1.734999179840088,-0.34999901056289673,-0.7176991343297914,0.0,-1.904750848831078,0.19242867549729348,0.4210277767670257,0.0
1759838807.211357,1,-1.204999558343298,-0.8299993290097243,-0.7177026847998775,0.0,-1.734999179840088,-0.34999901056289673,-0.7176993062128076,0.0,-1.912860341689897,0.19324794221174854,1.5243351407771366,0.0
1759838807.2215402,1,-1.204999668886813,-0.8299994051516968,-0.7177027506400488,0.0,-1.734999179840088,-0.34999901056289673,-0.717699552211812,0.0,-1.919440822653439,0.19391273951934743,2.433898659277456,0.0
1759838807.232875,1,-1.2049997580732703,-0.8299994665830054,-0.7177028037598691,0.0,-1.734999179840088,-0.34999901056289673,-0.7176996523343923,0.0,-1.9247860834601835,0.19445274791879805,-3.0943788224090234,0.0
1759838807.2430208,1,-1.204999830313304,-0.8299995163416789,-0.7177028467863299,0.0,-1.734999179840088,-0.34999901056289673,-0.7176998886696744,0.0,-1.9294087109710545,0.19491975182630655,-1.3500924936369978,0.0
1759838807.2542748,1,-1.2049998888907518,-0.8299995566896127,-0.7177028816752983,0.0,-1.734999179840088,-0.34999901056289673,-0.7176999947953391,0.0,-1.9331374956407683,0.19529645468781096,0.07234195118460221,0.0
1759838807.2941635,1,-1.2049999378881724,-0.8299995904388585,-0.7177029108583632,0.0,-1.734999179840088,-0.34999901056289673,-0.7176976505219947,0.0,-1.9360565269222618,0.19559135169419775,1.24123767325285,0.0
1759838807.3048444,1,-1.2049999776201643,-0.8299996178061108,-0.7177029345229009,0.0,-1.734999179840088,-0.34999901056289673,-0.7176986487328669,0.0,-1.9385816827463722,0.19584646872175052,0.9377579293393572,0.0
1759838807.316239,1,-1.2050000098916513,-0.829999640034594,-0.717702953743931,0.0,-1.734999179840088,-0.34999901056289673,-0.7176994839010042,0.0,-1.9406235102134812,0.19605275498306193,0.69236583475361,0.0
1759838807.32654,1,-1.2050000362049391,-0.8299996581590913,-0.7177029694162332,0.0,-1.734999179840088,-0.34999901056289673,-0.7177001660404478,0.0,-1.9422808980328508,0.1962202012253661,0.4931766892026236,0.0
1759838807.3368187,1,-1.2050000577111486,-0.8299996729724904,-0.71770298222542,0.0,-1.734999179840088,-0.34999901056289673,-0.717700664327328,0.0,-1.9436294555151932,0.19635644627333276,0.33110357059098705,0.0
1759838807.347163,1,-1.2050000753282306,-0.8299996851070727,-0.7177029927182264,0.0,-1.734999179840088,-0.34999901056289673,-0.7177010281435017,0.0,-1.9447292329422536,0.19646755701964091,0.19892948107959668,0.0
1759838807.3575788,1,-1.2050000897920738,-0.8299996950697155,-0.7177030013329507,0.0,-1.734999179840088,-0.34999901056289673,-0.7177012999899333,0.0,-1.9456281687297656,0.19655837669258194,0.09089305814521122,0.0
1759838807.3683403,1,-1.2050001024980312,-0.8299997038215329,-0.7177030089006712,0.0,-1.734999179840088,-0.34999901056289673,-0.7177014915711162,0.0,-1.9463643784974427,0.19663275612128564,0.002413468241094945,0.0
1759838807.3796208,1,-1.2050001128375327,-0.829999710943344,-0.7177030150589208,0.0,-1.734999179840088,-0.34999901056289673,-0.717701617587478,0.0,-1.9469684074354312,0.19669378129277967,-0.07018028841614618,0.0
1759838807.3904448,1,-1.205000121277425,-0.8299997167567112,-0.7177030200857553,0.0,-1.734999179840088,-0.34999901056289673,-0.7177017576379505,0.0,-1.947496555675106,0.1967471402212571,-0.13365450691567465,0.0
1759838807.4014695,1,-1.2050001281820097,-0.8299997215125642,-0.7177030241981541,0.0,-1.734999179840088,-0.34999901056289673,-0.7177018709960983,0.0,-1.9479271707195107,0.196790645350366,-0.1854069342920066,0.0
1759838807.4125063,1,-1.205000133844558,-0.8299997254129068,-0.7177030275707911,0.0,-1.734999179840088,-0.34999901056289673,-0.7177019737345933,0.0,-1.9482791386162843,0.19682620474149803,-0.2277073444919433,0.0
1759838807.4238434,1,-1.2050001384983173,-0.8299997286183994,-0.7177030303425893,0.0,-1.734999179840088,-0.34999901056289673,-0.7177020537787566,0.0,-1.948567438316395,0.19685533172124095,-0.262355946500791,0.0
1759838807.4350843,1,-1.2050001423331391,-0.8299997312598109,-0.7177030326266249,0.0,-1.734999179840088,-0.34999901056289673,-0.717702138357204,0.0,-1.9488042160121113,0.19687925342197132,-0.29081250105253176,0.0
1759838807.4453423,1,-1.205000145731299,-0.8299997336004511,-0.7177030346505829,0.0,-1.734999179840088,-0.34999901056289673,-0.7177022705359448,0.0,-1.9489994033775389,0.19689897324282687,-0.31427062237303566,0.0
1759838807.455462,1,-1.2050001485128228,-0.8299997355163545,-0.7177030363072698,0.0,-1.734999179840088,-0.34999901056289673,-0.7177023925120452,0.0,-1.9491607034796485,0.19691526942629453,-0.3336560849310543,0.0
1759838807.4747872,1,-1.2050001507697838,-0.829999737070941,-0.717703037651525,0.0,-1.734999179840088,-0.34999901056289673,-0.7177020736322106,0.0,-1.9493016776976095,0.19692951208138312,-0.3505987302746414,0.0
1759838807.4851198,1,-1.2050001526290552,-0.8299997383516003,-0.7177030387589146,0.0,-1.734999179840088,-0.34999901056289673,-0.7177022716874077,0.0,-1.9494175279172847,0.19694121645360552,-0.3645219086637451,0.0
1759838807.4952567,1,-1.2050001541646338,-0.8299997394093014,-0.7177030396735117,0.0,-1.734999179840088,-0.34999901056289673,-0.7177024668767373,0.0,-1.9495129761168086,0.19695085960541234,-0.3759931196171181,0.0
1759838807.505631,1,-1.2050001554353702,-0.82999974028458,-0.7177030404303676,0.0,-1.734999179840088,-0.34999901056289673,-0.7177026113411102,0.0,-1.9495917711861968,0.19695882028795564,-0.3854629144120601,0.0
1759838807.5171509,1,-1.205000156487834,-0.8299997410095132,-0.7177030410572194,0.0,-1.734999179840088,-0.34999901056289673,-0.7177026815798353,0.0,-1.9496568758267354,0.19696539782357364,-0.39328735813532484,0.0
1759838807.5281534,1,-1.2050001574235518,-0.8299997416540323,-0.7177030416145368,0.0,-1.734999179840088,-0.34999901056289673,-0.7177027656391957,0.0,-1.949710840820227,0.19697084991829195,-0.3997730103270735,0.0
1759838807.5384045,1,-1.2050001581943008,-0.8299997421849213,-0.717703042073598,0.0,-1.734999179840088,-0.34999901056289673,-0.7177028704486776,0.0,-1.9497557239877668,0.19697538447421142,-0.40516718523735457,0.0
1759838807.5488484,1,-1.2050001588304748,-0.8299997426231156,-0.7177030424525058,0.0,-1.734999179840088,-0.34999901056289673,-0.7177029530627371,0.0,-1.9497931285943098,0.19697916346953,-0.4096625673862283,0.0
1759838807.559856,1,-1.205000159356424,-0.8299997429853874,-0.7177030427657632,0.0,-1.734999179840088,-0.34999901056289673,-0.7177030046732717,0.0,-1.9498266302711318,0.19698254815103255,-0.41368888536849613,0.0
1759838807.5707436,1,-1.2050001597923716,-0.8299997432856665,-0.7177030430254153,0.0,-1.734999179840088,-0.34999901056289673,-0.7177030582854442,0.0,-1.9498543272996223,0.19698534638768514,-0.4170175857335145,0.0
1759838807.5821664,1,-1.2050001601543365,-0.8299997435349865,-0.7177030432410031,0.0,-1.734999179840088,-0.34999901056289673,-0.7177030931029993,0.0,-1.9498772650708347,0.19698766379556729,-0.41977430627609164,0.0
1759838807.5924451,1,-1.2050001604560743,-0.8299997437428225,-0.7177030434207193,0.0,-1.734999179840088,-0.34999901056289673,-0.7177031675596623,0.0,-1.9498963370989346,0.19698959064660426,-0.4220664318345843,0.0
1759838807.602877,1,-1.2050001607081215,-0.8299997439164319,-0.7177030435708398,0.0,-1.734999179840088,-0.34999901056289673,-0.7177032298983477,0.0,-1.9499122276298146,0.19699119607030352,-0.4239761968463462,0.0
1759838807.6144342,1,-1.2050001609337868,-0.8299997440718694,-0.717703043705247,0.0,-1.734999179840088,-0.34999901056289673,-0.717703252007416,0.0,-1.9499254778947803,0.19699253474737843,-0.42556864788646737,0.0
1759838807.6259518,1,-1.2050001611207581,-0.8299997442006545,-0.7177030438166079,0.0,-1.734999179840088,-0.34999901056289673,-0.717703280332632,0.0,-1.9499365547487753,0.19699365384428283,-0.4268998927869524,0.0
1759838807.6363263,1,-1.2050001612762906,-0.8299997443077848,-0.7177030439092438,0.0,-1.734999179840088,-0.34999901056289673,-0.7177033455396273,0.0,-1.949946536326933,0.19699466228523746,-0.4280995046105952,0.0
1759838807.6466606,1,-1.2050001614059729,-0.8299997443971094,-0.717703043986483,0.0,-1.734999179840088,-0.34999901056289673,-0.7177034056715303,0.0,-1.949954835418857,0.19699550074425165,-0.4290969108964563,0.0
1759838807.6570308,1,-1.2050001615143406,-0.8299997444717527,-0.7177030440510273,0.0,-1.734999179840088,-0.34999901056289673,-0.7177034572955794,0.0,-1.9499617510031593,0.19699619942719793,-0.42992804366579696,0.0
1759838807.6733866,1,-1.2050001616043713,-0.8299997445337655,-0.7177030441046497,0.0,-1.734999179840088,-0.34999901056289673,-0.7177033558860481,0.0,-1.9499674811118193,0.1969967783412891,-0.43061670291295223,0.0
1759838807.683506,1,-1.2050001616853177,-0.8299997445895211,-0.7177030441528618,0.0,-1.734999179840088,-0.34999901056289673,-0.7177034447142052,0.0,-1.9499722855108503,0.19699726373074042,-0.4311941079877862,0.0
1759838807.6944752,1,-1.205000161752706,-0.829999744635938,-0.7177030441929986,0.0,-1.734999179840088,-0.34999901056289673,-0.7177035082275527,0.0,-1.949976317890622,0.1969976711229225,-0.43167872979558075,0.0
1759838807.705665,1,-1.205000161808925,-0.8299997446746615,-0.7177030442264829,0.0,-1.734999179840088,-0.34999901056289673,-0.7177035570909105,0.0,-1.9499797092122786,0.19699801374886752,-0.4320863075846673,0.0
1759838807.7160075,1,-1.2050001618559933,-0.8299997447070819,-0.7177030442545169,0.0,-1.734999179840088,-0.34999901056289673,-0.7177036189861923,0.0,-1.9499827862568058,0.19699832462332761,-0.4324561147372533,0.0
1759838807.7262628,1,-1.2050001618954933,-0.8299997447342894,-0.7177030442780432,0.0,-1.734999179840088,-0.34999901056289673,-0.7177036737572458,0.0,-1.9499853598651034,0.1969985846355188,-0.4327654176244712,0.0
1759838807.7366235,1,-1.2050001619287105,-0.8299997447571693,-0.7177030442978276,0.0,-1.734999179840088,-0.34999901056289673,-0.7177037179479681,0.0,-1.9499875169022562,0.19699880256143906,-0.4330246559164105,0.0
1759838807.74769,1,-1.2050001619566788,-0.8299997447764337,-0.7177030443144855,0.0,-1.734999179840088,-0.34999901056289673,-0.7177037427117838,0.0,-1.9499893270968012,0.19699898544577718,-0.43324220976860145,0.0
1759838807.757949,1,-1.20500016198031,-0.8299997447927107,-0.7177030443285601,0.0,-1.734999179840088,-0.34999901056289673,-0.7177037826438183,0.0,-1.9499908515270943,0.19699913945929245,-0.4334254197355045,0.0
1759838807.7691436,1,-1.205000162000293,-0.8299997448064749,-0.7177030443404622,0.0,-1.734999179840088,-0.34999901056289673,-0.717703801956457,0.0,-1.9499921364288675,0.19699926927319067,-0.43357984254671433,0.0
1759838807.7793434,1,-1.2050001620186535,-0.8299997448191215,-0.7177030443513979,0.0,-1.734999179840088,-0.34999901056289673,-0.7177038399144529,0.0,-1.9499932235488804,0.19699937910515575,-0.4337104954355164,0.0
1759838807.789627,1,-1.2050001620340847,-0.8299997448297507,-0.717703044360589,0.0,-1.734999179840088,-0.34999901056289673,-0.7177038730487872,0.0,-1.949994145207262,0.19699947222049718,-0.43382126271845256,0.0
1759838807.7999368,1,-1.2050001620470825,-0.8299997448387035,-0.7177030443683304,0.0,-1.734999179840088,-0.34999901056289673,-0.7177039022567335,0.0,-1.949994928249831,0.19699955133145372,-0.43391537079528547,0.0
1759838807.8111675,1,-1.2050001620580404,-0.8299997448462513,-0.717703044374857,0.0,-1.734999179840088,-0.34999901056289673,-0.7177039142744198,0.0,-1.9499956477717242,0.19699962402490293,-0.4340018447933708,0.0
1759838807.8221135,1,-1.205000162067304,-0.8299997448526321,-0.7177030443803746,0.0,-1.734999179840088,-0.34999901056289673,-0.7177039332663178,0.0,-1.9499962543845726,0.19699968531112744,-0.434074749091054,0.0
1759838807.8334527,1,-1.2050001620751492,-0.8299997448580356,-0.7177030443850473,0.0,-1.734999179840088,-0.34999901056289673,-0.7177039479082588,0.0,-1.9499967667028593,0.1969997370707524,-0.4341363208249511,0.0
1759838807.8448617,1,-1.2050001620818078,-0.8299997448626221,-0.7177030443890131,0.0,-1.734999179840088,-0.34999901056289673,-0.7177039639308855,0.0,-1.9499972003684798,0.19699978088408188,-0.4341884398784463,0.0
1759838807.8556397,1,-1.2050001620874782,-0.8299997448665277,-0.7177030443923904,0.0,-1.734999179840088,-0.34999901056289673,-0.7177039908614695,0.0,-1.9499975686722528,0.19699981809389006,-0.43423270357641597,0.0
1759838807.8684437,1,-1.2050001620927049,-0.8299997448701278,-0.7177030443955035,0.0,-1.734999179840088,-0.34999901056289673,-0.7177039895800199,0.0,-1.949997881210742,0.19699984966971976,-0.4342702652586232,0.0
1759838807.8785791,1,-1.2050001620971318,-0.829999744873177,-0.71770304439814,0.0,-1.734999179840088,-0.34999901056289673,-0.7177040290783552,0.0,-1.9499981482058282,0.19699987664428983,-0.4343023534171554,0.0
1759838807.8892608,1,-1.2050001621008861,-0.8299997448757629,-0.717703044400376,0.0,-1.734999179840088,-0.34999901056289673,-0.7177040575545632,0.0,-1.9499983963696776,0.19699990171633608,-0.4343321783890378,0.0
1759838807.9006584,1,-1.2050001621040738,-0.8299997448779586,-0.7177030444022746,0.0,-1.734999179840088,-0.34999901056289673,-0.7177040737428815,0.0,-1.9499986064478028,0.19699992294057353,-0.43435742612027023,0.0
1759838807.9110477,1,-1.2050001621067907,-0.8299997448798301,-0.7177030444038929,0.0,-1.734999179840088,-0.34999901056289673,-0.7177041018194075,0.0,-1.9499987849735807,0.1969999409770707,-0.43437888180901524,0.0
1759838807.9225223,1,-1.2050001621091078,-0.829999744881426,-0.7177030444052729,0.0,-1.734999179840088,-0.34999901056289673,-0.7177041148745467,0.0,-1.9499989367670867,0.19699995631280073,-0.43439712474431885,0.0
1759838807.9331899,1,-1.2050001621110906,-0.8299997448827919,-0.717703044406454,0.0,-1.734999179840088,-0.34999901056289673,-0.7177041372944473,0.0,-1.949999066295012,0.19699996939903444,-0.43441269174466357,0.0
1759838807.9444299,1,-1.2050001621129338,-0.8299997448840615,-0.7177030444075518,0.0,-1.734999179840088,-0.34999901056289673,-0.7177041522682117,0.0,-1.9499991769669802,0.19699998058024684,-0.43442599258742437,0.0
1759838807.9549055,1,-1.2050001621145017,-0.8299997448851414,-0.7177030444084856,0.0,-1.734999179840088,-0.34999901056289673,-0.7177041749286399,0.0,-1.9499992718582546,0.1969999901671324,-0.4344373968657036,0.0
1759838807.9652221,1,-1.2050001621158386,-0.8299997448860622,-0.7177030444092819,0.0,-1.734999179840088,-0.34999901056289673,-0.7177041970330151,0.0,-1.9499993534129958,0.19699999840662516,-0.43444719832496054,0.0
1759838807.9767237,1,-1.2050001621169788,-0.8299997448868477,-0.717703044409961,0.0,-1.734999179840088,-0.34999901056289673,-0.7177042052886868,0.0,-1.949999430112843,0.19700000615562696,-0.43445641631054066,0.0
1759838807.9873755,1,-1.205000162117955,-0.82999974488752,-0.7177030444105423,0.0,-1.734999179840088,-0.34999901056289673,-0.7177042225396573,0.0,-1.9499994955210185,0.19700001276382878,-0.43446427723388636,0.0
1759838807.9985535,1,-1.2050001621187916,-0.8299997448880964,-0.7177030444110407,0.0,-1.734999179840088,-0.34999901056289673,-0.7177042344331817,0.0,-1.9499995513766928,0.19700001840693937,-0.4344709901129838,0.0
1759838808.009096,1,-1.2050001621195112,-0.8299997448885921,-0.7177030444114693,0.0,-1.734999179840088,-0.34999901056289673,-0.7177042519295824,0.0,-1.9499995992312782,0.1970000232416983,-0.4344767414005734,0.0
1759838808.0197132,1,-1.2050001621201314,-0.8299997448890192,-0.7177030444118385,0.0,-1.734999179840088,-0.34999901056289673,-0.7177042674894736,0.0,-1.949999640313873,0.19700002739228153,-0.43448167881283906,0.0
1759838808.0309358,1,-1.2050001621207187,-0.8299997448894235,-0.7177030444121884,0.0,-1.734999179840088,-0.34999901056289673,-0.7177042769735529,0.0,-1.949999675623445,0.19700003095961507,-0.4344859224083281,0.0
1759838808.0422113,1,-1.2050001621212203,-0.8299997448897691,-0.7177030444124871,0.0,-1.734999179840088,-0.34999901056289673,-0.7177042865626717,0.0,-1.9499997060361751,0.19700003403221963,-0.4344895774887161,0.0
1759838808.0528498,1,-1.2050001621216504,-0.8299997448900654,-0.7177030444127434,0.0,-1.734999179840088,-0.34999901056289673,-0.7177043016142566,0.0,-1.9499997347842088,0.1970000369366396,-0.43449303250159704,0.0
1759838808.0633357,1,-1.2050001621220203,-0.8299997448903201,-0.7177030444129636,0.0,-1.734999179840088,-0.34999901056289673,-0.7177043167579349,0.0,-1.949999759410629,0.19700003942465205,-0.43449599216834445,0.0
1759838808.074051,1,-1.2050001621223385,-0.8299997448905394,-0.7177030444131531,0.0,-1.734999179840088,-0.34999901056289673,-0.7177043287855724,0.0,-1.949999780543652,0.19700004155972584,-0.4344985319895938,0.0
1759838808.0852892,1,-1.205000162122613,-0.8299997448907284,-0.7177030444133166,0.0,-1.734999179840088,-0.34999901056289673,-0.7177043365231963,0.0,-1.949999798702542,0.1970000433943223,-0.43450071437185245,0.0
1759838808.095968,1,-1.20500016212285,-0.8299997448908918,-0.7177030444134579,0.0,-1.734999179840088,-0.34999901056289673,-0.71770434842424,0.0,-1.9499998143552197,0.1970000449757157,-0.43450259555107656,0.0
1759838808.1067996,1,-1.2050001621230748,-0.8299997448910466,-0.7177030444135917,0.0,-1.734999179840088,-0.34999901056289673,-0.7177043588368743,0.0,-1.9499998278727022,0.1970000463413898,-0.4345042201169913,0.0
1759838808.1179419,1,-1.2050001621232678,-0.8299997448911794,-0.7177030444137066,0.0,-1.734999179840088,-0.34999901056289673,-0.7177043669298158,0.0,-1.9499998395648455,0.1970000475226495,-0.4345056253089352,0.0
1759838808.1281192,1,-1.205000162123434,-0.829999744891294,-0.7177030444138056,0.0,-1.734999179840088,-0.34999901056289673,-0.7177043808678415,0.0,-1.9499998506819518,0.19700004864581308,-0.4345069613914506,0.0
1759838808.1389463,1,-1.2050001621235775,-0.8299997448913927,-0.7177030444138911,0.0,-1.734999179840088,-0.34999901056289673,-0.7177043896363848,0.0,-1.9499998602405406,0.19700004961151932,-0.43450811016733354,0.0
1759838808.1493416,1,-1.2050001621237016,-0.8299997448914781,-0.717703044413965,0.0,-1.734999179840088,-0.34999901056289673,-0.7177044003006507,0.0,-1.9499998684827755,0.19700005044423405,-0.4345091007404002,0.0
1759838808.159962,1,-1.2050001621238091,-0.8299997448915523,-0.7177030444140291,0.0,-1.734999179840088,-0.34999901056289673,-0.71770440892492,0.0,-1.9499998756019725,0.19700005116348804,-0.4345099563438659,0.0
1759838808.1706717,1,-1.2050001621239024,-0.8299997448916165,-0.7177030444140846,0.0,-1.734999179840088,-0.34999901056289673,-0.7177044166167619,0.0,-1.9499998817630855,0.1970000517859466,-0.4345106968023313,0.0
1759838808.1807928,1,-1.2050001621239836,-0.8299997448916726,-0.717703044414133,0.0,-1.734999179840088,-0.34999901056289673,-0.7177044270406991,0.0,-1.9499998871117032,0.19700005232631856,-0.4345113396130131,0.0
1759838808.191946,1,-1.2050001621240614,-0.8299997448917261,-0.7177030444141793,0.0,-1.734999179840088,-0.34999901056289673,-0.7177044314899206,0.0,-1.9499998917556192,0.1970000527954944,-0.43451189773083526,0.0
1759838808.2027607,1,-1.2050001621241286,-0.8299997448917724,-0.7177030444142193,0.0,-1.734999179840088,-0.34999901056289673,-0.7177044379951703,0.0,-1.9499998957987288,0.19700005320397063,-0.43451238364216704,0.0
1759838808.213982,1,-1.2050001621241868,-0.8299997448918124,-0.7177030444142539,0.0,-1.734999179840088,-0.34999901056289673,-0.7177044428756432,0.0,-1.9499998996748826,0.19700005359557926,-0.4345128494883289,0.0
1759838808.2242296,1,-1.2050001621242372,-0.8299997448918471,-0.717703044414284,0.0,-1.734999179840088,-0.34999901056289673,-0.7177044524742193,0.0,-1.949999903032203,0.19700005393477008,-0.43451325297978716,0.0
1759838808.2346706,1,-1.2050001621242814,-0.8299997448918774,-0.7177030444143102,0.0,-1.734999179840088,-0.34999901056289673,-0.7177044604065834,0.0,-1.9499999059450137,0.19700005422905195,-0.4345136030488812,0.0
1759838808.2454352,1,-1.2050001621243203,-0.8299997448919042,-0.7177030444143333,0.0,-1.734999179840088,-0.34999901056289673,-0.717704466284971,0.0,-1.9499999084758404,0.19700005448474192,-0.4345139072101835,0.0
1759838808.2559953,1,-1.2050001621243547,-0.829999744891928,-0.7177030444143538,0.0,-1.734999179840088,-0.34999901056289673,-0.7177044728261173,0.0,-1.9499999106801311,0.1970000547074419,-0.4345141721275543,0.0
1759838808.2662482,1,-1.2050001621243869,-0.82999974489195,-0.717703044414373,0.0,-1.734999179840088,-0.34999901056289673,-0.7177044802440484,0.0,-1.9499999126375036,0.19700005490519565,-0.434514407369625,0.0
1759838808.2768896,1,-1.2050001621244149,-0.8299997448919693,-0.7177030444143897,0.0,-1.734999179840088,-0.34999901056289673,-0.7177044855782828,0.0,-1.9499999143795652,0.19700005508119647,-0.43451461673506797,0.0
1759838808.287587,1,-1.2050001621244393,-0.829999744891986,-0.7177030444144042,0.0,-1.734999179840088,-0.34999901056289673,-0.7177044905371996,0.0,-1.9499999159299999,0.19700005523783723,-0.4345148030703122,0.0
1759838808.2989876,1,-1.2050001621244608,-0.8299997448920008,-0.717703044414417,0.0,-1.734999179840088,-0.34999901056289673,-0.7177044930971945,0.0,-1.9499999173422604,0.1970000553805182,-0.43451497279944146,0.0
1759838808.3099072,1,-1.20500016212448,-0.829999744892014,-0.7177030444144283,0.0,-1.734999179840088,-0.34999901056289673,-0.7177044979663627,0.0,-1.949999918571216,0.19700005550467986,-0.43451512049849944,0.0
1759838808.3203206,1,-1.2050001621244968,-0.8299997448920258,-0.7177030444144384,0.0,-1.734999179840088,-0.34999901056289673,-0.7177045046028567,0.0,-1.949999919660569,0.19700005561473743,-0.43451525141976616,0.0
1759838808.3312151,1,-1.2050001621245119,-0.8299997448920362,-0.7177030444144474,0.0,-1.734999179840088,-0.34999901056289673,-0.7177045092010701,0.0,-1.9499999206300933,0.19700005571268867,-0.4345153679396936,0.0
1759838808.3414803,1,-1.2050001621245254,-0.8299997448920455,-0.7177030444144555,0.0,-1.734999179840088,-0.34999901056289673,-0.7177045155497339,0.0,-1.94999992149297,0.19700005579986526,-0.43451547164242893,0.0
1759838808.3516357,1,-1.2050001621245374,-0.8299997448920537,-0.7177030444144626,0.0,-1.734999179840088,-0.34999901056289673,-0.7177045216199875,0.0,-1.94999992226093,0.19700005587745245,-0.4345155639378634,0.0
1759838808.3630672,1,-1.2050001621245479,-0.8299997448920611,-0.717703044414469,0.0,-1.734999179840088,-0.34999901056289673,-0.7177045234359483,0.0,-1.94999992226093,0.19700005587745245,-0.4345155639378634,0.0
1759838808.3737757,1,-1.2050001621245574,-0.8299997448920675,-0.7177030444144746,0.0,-1.734999179840088,-0.34999901056289673,-0.7177045277328027,0.0,-1.9499999229444147,0.19700005594650505,-0.43451564608080007,0.0
1759838808.384642,1,-1.2050001621245656,-0.8299997448920734,-0.7177030444144796,0.0,-1.734999179840088,-0.34999901056289673,-0.7177045316435482,0.0,-1.9499999235527161,0.19700005600796183,-0.43451571918801374,0.0
1759838808.395937,1,-1.2050001621245732,-0.8299997448920785,-0.7177030444144842,0.0,-1.734999179840088,-0.34999901056289673,-0.7177045344449251,0.0,-1.9499999240941042,0.19700005606265839,-0.43451578425343385,0.0
1759838808.4065583,1,-1.2050001621245732,-0.8299997448920785,-0.7177030444144842,0.0,-1.734999179840088,-0.34999901056289673,-0.7177045391682473,0.0,-1.9499999245759396,0.19700005611133833,-0.4345158421616578,0.0
1759838808.4167478,1,-1.2050001621245732,-0.8299997448920785,-0.7177030444144842,0.0,-1.734999179840088,-0.34999901056289673,-0.717704544646498,0.0,-1.9499999245759396,0.19700005611133833,-0.4345158421616578,0.0
1759838808.4274917,1,-1.2050001621245798,-0.8299997448920832,-0.7177030444144881,0.0,-1.734999179840088,-0.34999901056289673,-0.7177045482142539,0.0,-1.9499999245759396,0.19700005611133833,-0.4345158421616578,0.0
1759838808.4380162,1,-1.2050001621245856,-0.8299997448920873,-0.7177030444144916,0.0,-1.734999179840088,-0.34999901056289673,-0.7177045520668255,0.0,-1.9499999245759396,0.19700005611133833,-0.4345158421616578,0.0
1759838808.449364,1,-1.205000162124591,-0.8299997448920909,-0.7177030444144948,0.0,-1.734999179840088,-0.34999901056289673,-0.7177045539599689,0.0,-1.949999925004773,0.19700005615466348,-0.4345158936999771,0.0
1759838808.4595187,1,-1.205000162124591,-0.8299997448920909,-0.7177030444144948,0.0,-1.734999179840088,-0.34999901056289673,-0.7177045586151181,0.0,-1.9499999253864349,0.19700005619322286,-0.4345159395690814,0.0
1759838808.470865,1,-1.205000162124591,-0.8299997448920909,-0.7177030444144948,0.0,-1.734999179840088,-0.34999901056289673,-0.7177045604973529,0.0,-1.9499999253864349,0.19700005619322286,-0.4345159395690814,0.0
1759838808.4842134,1,-1.205000162124591,-0.8299997448920909,-0.7177030444144948,0.0,-1.734999179840088,-0.34999901056289673,-0.7177045588219428,0.0,-1.9499999253864349,0.19700005619322286,-0.4345159395690814,0.0
1759838808.4945374,1,-1.2050001621245956,-0.8299997448920943,-0.7177030444144975,0.0,-1.734999179840088,-0.34999901056289673,-0.7177045641641691,0.0,-1.9499999253864349,0.19700005619322286,-0.4345159395690814,0.0
1759838808.5047555,1,-1.2050001621245956,-0.8299997448920943,-0.7177030444144975,0.0,-1.734999179840088,-0.34999901056289673,-0.7177045692722448,0.0,-1.9499999253864349,0.19700005619322286,-0.4345159395690814,0.0
1759838808.515959,1,-1.2050001621245956,-0.8299997448920943,-0.7177030444144975,0.0,-1.734999179840088,-0.34999901056289673,-0.7177045718890476,0.0,-1.9499999253864349,0.19700005619322286,-0.4345159395690814,0.0
1759838808.5273666,1,-1.2050001621245956,-0.8299997448920943,-0.7177030444144975,0.0,-1.734999179840088,-0.34999901056289673,-0.7177045740548369,0.0,-1.9499999253864349,0.19700005619322286,-0.4345159395690814,0.0
1759838808.5376167,1,-1.2050001621245956,-0.8299997448920943,-0.7177030444144975,0.0,-1.734999179840088,-0.34999901056289673,-0.7177045781846055,0.0,-1.9499999253864349,0.19700005619322286,-0.4345159395690814,0.0
1759838808.5479493,1,-1.2050001621245956,-0.8299997448920943,-0.7177030444144975,0.0,-1.734999179840088,-0.34999901056289673,-0.7177045817175074,0.0,-1.9499999253864349,0.19700005619322286,-0.4345159395690814,0.0
1759838808.5594492,1,-1.2050001621245956,-0.8299997448920943,-0.7177030444144975,0.0,-1.734999179840088,-0.34999901056289673,-0.717704583058854,0.0,-1.9499999253864349,0.19700005619322286,-0.4345159395690814,0.0
1759838808.570487,1,-1.2050001621245956,-0.8299997448920943,-0.7177030444144975,0.0,-1.734999179840088,-0.34999901056289673,-0.7177045852568149,0.0,-1.9499999253864349,0.19700005619322286,-0.4345159395690814,0.0
1759838808.5806787,1,-1.2050001621245956,-0.8299997448920943,-0.7177030444144975,0.0,-1.734999179840088,-0.34999901056289673,-0.7177045886732607,0.0,-1.9499999253864349,0.19700005619322286,-0.4345159395690814,0.0
1759838808.5913782,1,-1.2050001621245956,-0.8299997448920943,-0.7177030444144975,0.0,-1.734999179840088,-0.34999901056289673,-0.7177045910157673,0.0,-1.9499999253864349,0.19700005619322286,-0.4345159395690814,0.0
1759838808.6016808,1,-1.2050001621245956,-0.8299997448920943,-0.7177030444144975,0.0,-1.734999179840088,-0.34999901056289673,-0.7177045936867258,0.0,-1.9499999253864349,0.19700005619322286,-0.4345159395690814,0.0
1759838808.6127656,1,-1.2050001621245956,-0.8299997448920943,-0.7177030444144975,0.0,-1.734999179840088,-0.34999901056289673,-0.7177045951205994,0.0,-1.9499999253864349,0.19700005619322286,-0.4345159395690814,0.0
1759838808.6233711,1,-1.2050001621245956,-0.8299997448920943,-0.7177030444144975,0.0,-1.734999179840088,-0.34999901056289673,-0.7177045972012229,0.0,-1.9499999253864349,0.19700005619322286,-0.4345159395690814,0.0
1759838808.633701,1,-1.2050001621245956,-0.8299997448920943,-0.7177030444144975,0.0,-1.734999179840088,-0.34999901056289673,-0.7177045995325829,0.0,-1.9499999253864349,0.19700005619322286,-0.4345159395690814,0.0
1759838808.6438837,1,-1.2050001621245956,-0.8299997448920943,-0.7177030444144975,0.0,-1.734999179840088,-0.34999901056289673,-0.71770460182303,0.0,-1.9499999253864349,0.19700005619322286,-0.4345159395690814,0.0
1759838808.6541653,1,-1.2050001621245956,-0.8299997448920943,-0.7177030444144975,0.0,-1.734999179840088,-0.34999901056289673,-0.717704603763119,0.0,-1.9499999253864349,0.19700005619322286,-0.4345159395690814,0.0
1759838808.664473,1,-1.2050001621245956,-0.8299997448920943,-0.7177030444144975,0.0,-1.734999179840088,-0.34999901056289673,-0.7177046055096881,0.0,-1.9499999253864349,0.19700005619322286,-0.4345159395690814,0.0
1759838808.6815424,1,-1.2050001621245956,-0.8299997448920943,-0.7177030444144975,0.0,-1.734999179840088,-0.34999901056289673,-0.7177046002849714,0.0,-1.9499999253864349,0.19700005619322286,-0.4345159395690814,0.0
1759838808.6872358,1,-1.2050001621245956,-0.8299997448920943,-0.7177030444144975,0.0,-1.734999179840088,-0.34999901056289673,-0.7177046082642562,0.0,-1.9499999253864349,0.19700005619322286,-0.4345159395690814,0.0
1759838808.6985552,1,-1.2050001621245956,-0.8299997448920943,-0.7177030444144975,0.0,-1.734999179840088,-0.34999901056289673,-0.7177046093971526,0.0,-1.9499999253864349,0.19700005619322286,-0.4345159395690814,0.0
1759838808.7091177,1,-1.2050001621245956,-0.8299997448920943,-0.7177030444144975,0.0,-1.734999179840088,-0.34999901056289673,-0.7177046109401157,0.0,-1.9499999253864349,0.19700005619322286,-0.4345159395690814,0.0
1759838808.7204282,1,-1.2050001621245956,-0.8299997448920943,-0.7177030444144975,0.0,-1.734999179840088,-0.34999901056289673,-0.717704611765333,0.0,-1.9499999253864349,0.19700005619322286,-0.4345159395690814,0.0
1759838808.7318003,1,-1.2050001621245956,-0.8299997448920943,-0.7177030444144975,0.0,-1.734999179840088,-0.34999901056289673,-0.7177046126699516,0.0,-1.9499999253864349,0.19700005619322286,-0.4345159395690814,0.0
1759838808.7433524,1,-1.2050001621245956,-0.8299997448920943,-0.7177030444144975,0.0,-1.734999179840088,-0.34999901056289673,-0.7177046135752949,0.0,-1.9499999253864349,0.19700005619322286,-0.4345159395690814,0.0
1759838808.7544906,1,-1.2050001621245956,-0.8299997448920943,-0.7177030444144975,0.0,-1.734999179840088,-0.34999901056289673,-0.7177046149544921,0.0,-1.9499999253864349,0.19700005619322286,-0.4345159395690814,0.0
1759838808.7649045,1,-1.2050001621245956,-0.8299997448920943,-0.7177030444144975,0.0,-1.734999179840088,-0.34999901056289673,-0.7177046168829406,0.0,-1.9499999253864349,0.19700005619322286,-0.4345159395690814,0.0
1759838808.775306,1,-1.2050001621245956,-0.8299997448920943,-0.7177030444144975,0.0,-1.734999179840088,-0.34999901056289673,-0.7177046186008411,0.0,-1.9499999253864349,0.19700005619322286,-0.4345159395690814,0.0
1759838808.7865689,1,-1.2050001621245956,-0.8299997448920943,-0.7177030444144975,0.0,-1.734999179840088,-0.34999901056289673,-0.7177046194836532,0.0,-1.9499999253864349,0.19700005619322286,-0.4345159395690814,0.0
1759838808.797957,1,-1.2050001621245956,-0.8299997448920943,-0.7177030444144975,0.0,-1.734999179840088,-0.34999901056289673,-0.7177046203081119,0.0,-1.9499999253864349,0.19700005619322286,-0.4345159395690814,0.0
1759838808.8087778,1,-1.2050001621245956,-0.8299997448920943,-0.7177030444144975,0.0,-1.734999179840088,-0.34999901056289673,-0.7177046215985392,0.0,-1.9499999253864349,0.19700005619322286,-0.4345159395690814,0.0
1759838808.819091,1,-1.2050001621245956,-0.8299997448920943,-0.7177030444144975,0.0,-1.734999179840088,-0.34999901056289673,-0.7177046231576867,0.0,-1.9499999253864349,0.19700005619322286,-0.4345159395690814,0.0
1759838808.829338,1,-1.2050001621245956,-0.8299997448920943,-0.7177030444144975,0.0,-1.734999179840088,-0.34999901056289673,-0.7177046245740257,0.0,-1.9499999253864349,0.19700005619322286,-0.4345159395690814,0.0
1759838808.839686,1,-1.2050001621245956,-0.8299997448920943,-0.7177030444144975,0.0,-1.734999179840088,-0.34999901056289673,-0.717704625749505,0.0,-1.9499999253864349,0.19700005619322286,-0.4345159395690814,0.0
1759838808.8510377,1,-1.2050001621245956,-0.8299997448920943,-0.7177030444144975,0.0,-1.734999179840088,-0.34999901056289673,-0.7177046262153794,0.0,-1.9499999253864349,0.19700005619322286,-0.4345159395690814,0.0
1759838808.8623397,1,-1.2050001621245956,-0.8299997448920943,-0.7177030444144975,0.0,-1.734999179840088,-0.34999901056289673,-0.717704626805352,0.0,-1.9499999253864349,0.19700005619322286,-0.4345159395690814,0.0
1759838808.8735511,1,-1.2050001621245956,-0.8299997448920943,-0.7177030444144975,0.0,-1.734999179840088,-0.34999901056289673,-0.7177046275440659,0.0,-1.9499999253864349,0.19700005619322286,-0.4345159395690814,0.0
1759838808.884383,1,-1.2050001621245956,-0.8299997448920943,-0.7177030444144975,0.0,-1.734999179840088,-0.34999901056289673,-0.7177046285280735,0.0,-1.9499999253864349,0.19700005619322286,-0.4345159395690814,0.0
1759838808.8946934,1,-1.2050001621245956,-0.8299997448920943,-0.7177030444144975,0.0,-1.734999179840088,-0.34999901056289673,-0.7177046297329034,0.0,-1.9499999253864349,0.19700005619322286,-0.4345159395690814,0.0
1759838808.905915,1,-1.2050001621245956,-0.8299997448920943,-0.7177030444144975,0.0,-1.734999179840088,-0.34999901056289673,-0.7177046303508376,0.0,-1.9499999253864349,0.19700005619322286,-0.4345159395690814,0.0
1759838808.9172304,1,-1.2050001621245956,-0.8299997448920943,-0.7177030444144975,0.0,-1.734999179840088,-0.34999901056289673,-0.7177046309368738,0.0,-1.9499999253864349,0.19700005619322286,-0.4345159395690814,0.0
1759838808.9274504,1,-1.2050001621245956,-0.8299997448920943,-0.7177030444144975,0.0,-1.734999179840088,-0.34999901056289673,-0.7177046320746533,0.0,-1.9499999253864349,0.19700005619322286,-0.4345159395690814,0.0
1759838808.9389892,1,-1.2050001621245956,-0.8299997448920943,-0.7177030444144975,0.0,-1.734999179840088,-0.34999901056289673,-0.7177046325058782,0.0,-1.9499999253864349,0.19700005619322286,-0.4345159395690814,0.0
1759838808.949282,1,-1.2050001621245956,-0.8299997448920943,-0.7177030444144975,0.0,-1.734999179840088,-0.34999901056289673,-0.7177046335178332,0.0,-1.9499999253864349,0.19700005619322286,-0.4345159395690814,0.0
1759838808.959323,1,-1.2050001621245956,-0.8299997448920943,-0.7177030444144975,0.0,-1.734999179840088,-0.34999901056289673,-0.7177046345404055,0.0,-1.9499999253864349,0.19700005619322286,-0.4345159395690814,0.0
1759838808.9706652,1,-1.2050001621245956,-0.8299997448920943,-0.7177030444144975,0.0,-1.734999179840088,-0.34999901056289673,-0.717704634897121,0.0,-1.9499999253864349,0.19700005619322286,-0.4345159395690814,0.0
1759838808.9841616,1,-1.2050001621245956,-0.8299997448920943,-0.7177030444144975,0.0,-1.734999179840088,-0.34999901056289673,-0.7177046344723941,0.0,-1.9499999253864349,0.19700005619322286,-0.4345159395690814,0.0
1759838808.9942603,1,-1.2050001621245956,-0.8299997448920943,-0.7177030444144975,0.0,-1.734999179840088,-0.34999901056289673,-0.7177046356338881,0.0012115364429397246,-1.9499999253864349,0.19700005619322286,-0.4345159395690814,0.0
1759838809.004897,1,-1.2050001621245956,-0.8299997448920943,-0.7177030444144975,0.0,-1.734999179840088,-0.34999901056289673,-0.7177046364974959,0.0012115364429397246,-1.9499999253864349,0.19700005619322286,-0.4345159395690814,0.0
1759838809.018603,1,-1.2050001621245956,-0.8299997448920943,-0.7177030444144975,0.0,-1.734999179840088,-0.34999901056289673,-0.7177046361906605,0.0012115364429397246,-1.9499999253864349,0.19700005619322286,-0.4345159395690814,0.0
1759838809.0308182,1,-1.2050001621245956,-0.8299997448920943,-0.7177030444144975,0.0,-1.734999179840088,-0.34999901056289673,-0.7177046366358333,0.0012115364429397246,-1.9499999253864349,0.19700005619322286,-0.4345159395690814,0.0
1759838809.044535,1,-1.2050001621245956,-0.8299997448920943,-0.7177030444144975,0.0,-1.734999179840088,-0.34999901056289673,-0.7177046367156059,0.0012115364429397246,-1.9499999253864349,0.19700005619322286,-0.4345159395690814,0.0
1759838809.0572731,1,-1.2050001621245956,-0.8299997448920943,-0.7177030444144975,0.0,-1.734999179840088,-0.34999901056289673,-0.7177046372739575,0.0012115364429397246,-1.9499999253864349,0.19700005619322286,-0.4345159395690814,0.0
1759838809.0696337,1,-1.2050001621245956,-0.8299997448920943,-0.7177030444144975,0.0,-1.734999179840088,-0.34999901056289673,-0.7177046379942631,0.0012115364429397246,-1.9499999253864349,0.19700005619322286,-0.4345159395690814,0.0
1759838809.0819118,1,-1.2050001621245956,-0.8299997448920943,-0.7177030444144975,0.0,-1.734999179840088,-0.34999901056289673,-0.7177046387057509,0.0012115364429397246,-1.9499999253864349,0.19700005619322286,-0.4345159395690814,0.0
1759838809.0940073,1,-1.2050001621245956,-0.8299997448920943,-0.7177030444144975,0.0,-1.734999179840088,-0.34999901056289673,-0.7177046394161906,0.0012115364429397246,-1.9499999253864349,0.19700005619322286,-0.4345159395690814,0.0
1759838809.1042933,1,-1.2050001621245956,-0.8299997448920943,-0.7177030444144975,0.0,-1.734999179840088,-0.34999901056289673,-0.7177046405229319,0.0012115364429397246,-1.9499999253864349,0.19700005619322286,-0.4345159395690814,0.0
1759838809.1155837,1,-1.2050001621245956,-0.8299997448920943,-0.7177030444144975,0.0,-1.734999179840088,-0.34999901056289673,-0.7177046411838042,0.0012115364429397246,-1.9499999253864349,0.19700005619322286,-0.4345159395690814,0.0
1759838809.126893,1,-1.2050001621245956,-0.8299997448920943,-0.7177030444144975,0.0,-1.734999179840088,-0.34999901056289673,-0.7177046417378001,0.0012115364429397246,-1.9499999253864349,0.19700005619322286,-0.4345159395690814,0.0
1759838809.1386015,1,-1.2050001621245956,-0.8299997448920943,-0.7177030444144975,0.0,-1.734999179840088,-0.34999901056289673,-0.7177046421448949,0.0012115364429397246,-1.9499999253864349,0.19700005619322286,-0.4345159395690814,0.0
1759838809.1504116,1,-1.2050001621245956,-0.8299997448920943,-0.7177030444144975,0.0,-1.734999179840088,-0.34999901056289673,-0.7177046425176865,0.0012115364429397246,-1.9499999253864349,0.19700005619322286,-0.4345159395690814,0.0
1759838809.1616673,1,-1.2050001621245956,-0.8299997448920943,-0.7177030444144975,0.0,-1.734999179840088,-0.34999901056289673,-0.7177046430097249,0.0012115364429397246,-1.9499999253864349,0.19700005619322286,-0.4345159395690814,0.0
1759838809.172253,1,-1.2050001621245956,-0.8299997448920943,-0.7177030444144975,0.0,-1.734999179840088,-0.34999901056289673,-0.7177046436009,0.0012115364429397246,-1.9499999253864349,0.19700005619322286,-0.4345159395690814,0.0
1759838809.1830251,1,-1.2050001621245956,-0.8299997448920943,-0.7177030444144975,0.0,-1.734999179840088,-0.34999901056289673,-0.7177046440727253,0.0012115364429397246,-1.9499999253864349,0.19700005619322286,-0.4345159395690814,0.0
1759838809.193361,1,-1.2050001621245956,-0.8299997448920943,-0.7177030444144975,0.0,-1.734999179840088,-0.34999901056289673,-0.7177046445673128,0.0012115364429397246,-1.9499999253864349,0.19700005619322286,-0.4345159395690814,0.0
1759838809.205368,1,-1.2050001621245956,-0.8299997448920943,-0.7177030444144975,0.0,-1.734999179840088,-0.34999901056289673,-0.7177046446832982,0.0012115364429397246,-1.9499999253864349,0.19700005619322286,-0.4345159395690814,0.0
1759838809.2173302,1,-1.2050001621245956,-0.8299997448920943,-0.7177030444144975,0.0,-1.734999179840088,-0.34999901056289673,-0.7177046448468758,0.0012115364429397246,-1.9499999253864349,0.19700005619322286,-0.4345159395690814,0.0
1759838809.228131,1,-1.2050001621245956,-0.8299997448920943,-0.7177030444144975,0.0,-1.734999179840088,-0.34999901056289673,-0.7177046452572249,0.0012115364429397246,-1.9499999253864349,0.19700005619322286,-0.4345159395690814,0.0
1759838809.2395415,1,-1.2050001621245956,-0.8299997448920943,-0.7177030444144975,0.0,-1.734999179840088,-0.34999901056289673,-0.7177046455344112,0.0012115364429397246,-1.9499999253864349,0.19700005619322286,-0.4345159395690814,0.0
1759838809.2496586,1,-1.2050001621245956,-0.8299997448920943,-0.7177030444144975,0.0,-1.734999179840088,-0.34999901056289673,-0.7177046460091798,0.0012115364429397246,-1.9499999253864349,0.19700005619322286,-0.4345159395690814,0.0
1759838809.2603083,1,-1.2050001621245956,-0.8299997448920943,-0.7177030444144975,0.0,-1.734999179840088,-0.34999901056289673,-0.7177046463342088,0.0012115364429397246,-1.9499999253864349,0.19700005619322286,-0.4345159395690814,0.0
1759838809.2716782,1,-1.2050001621245956,-0.8299997448920943,-0.7177030444144975,0.0,-1.734999179840088,-0.34999901056289673,-0.717704646510871,0.0012115364429397246,-1.9499999253864349,0.19700005619322286,-0.4345159395690814,0.0
1759838809.284053,1,-1.2050001621245956,-0.8299997448920943,-0.7177030444144975,0.0,-1.734999179840088,-0.34999901056289673,-0.7177046465515851,0.0012115364429397246,-1.9499999253864349,0.19700005619322286,-0.4345159395690814,0.0
1759838809.2955828,1,-1.2050001621245956,-0.8299997448920943,-0.7177030444144975,0.0,-1.734999179840088,-0.34999901056289673,-0.7177046467702546,0.0012115364429397246,-1.9499999253864349,0.19700005619322286,-0.4345159395690814,0.0
1759838809.3067954,1,-1.2050001621245956,-0.8299997448920943,-0.7177030444144975,0.0,-1.734999179840088,-0.34999901056289673,-0.7177046470460144,0.0012115364429397246,-1.9499999253864349,0.19700005619322286,-0.4345159395690814,0.0
1759838809.3174233,1,-1.2050001621245956,-0.8299997448920943,-0.7177030444144975,0.0,-1.734999179840088,-0.34999901056289673,-0.7177046473825897,0.0012115364429397246,-1.9499999253864349,0.19700005619322286,-0.4345159395690814,0.0
1759838809.3278234,1,-1.2050001621245956,-0.8299997448920943,-0.7177030444144975,0.0,-1.734999179840088,-0.34999901056289673,-0.717704647707075,0.0012115364429397246,-1.9499999253864349,0.19700005619322286,-0.4345159395690814,0.0
1759838809.3388786,1,-1.2050001621245956,-0.8299997448920943,-0.7177030444144975,0.0,-1.734999179840088,-0.34999901056289673,-0.7177046479061104,0.0012115364429397246,-1.9499999253864349,0.19700005619322286,-0.4345159395690814,0.0
1759838809.350541,1,-1.2050001621245956,-0.8299997448920943,-0.7177030444144975,0.0,-1.734999179840088,-0.34999901056289673,-0.7177046480221421,0.0012115364429397246,-1.9499999253864349,0.19700005619322286,-0.4345159395690814,0.0
1759838809.3608372,1,-1.2050001621245956,-0.8299997448920943,-0.7177030444144975,0.0,-1.734999179840088,-0.34999901056289673,-0.7177046483117522,0.0012115364429397246,-1.9499999253864349,0.19700005619322286,-0.4345159395690814,0.0
1759838809.3717027,1,-1.2050001621245956,-0.8299997448920943,-0.7177030444144975,0.0,-1.734999179840088,-0.34999901056289673,-0.7177046485083594,0.0012115364429397246,-1.9499999253864349,0.19700005619322286,-0.4345159395690814,0.0
1759838809.3822122,1,-1.2050001621245956,-0.8299997448920943,-0.7177030444144975,0.0,-1.734999179840088,-0.34999901056289673,-0.7177046487268264,0.0012115364429397246,-1.9499999253864349,0.19700005619322286,-0.4345159395690814,0.0
1759838809.3931334,1,-1.2050001621245956,-0.8299997448920943,-0.7177030444144975,0.0,-1.734999179840088,-0.34999901056289673,-0.7177046488828971,0.0012115364429397246,-1.9499999253864349,0.19700005619322286,-0.4345159395690814,0.0
1759838809.4037166,1,-1.2050001621245956,-0.8299997448920943,-0.7177030444144975,0.0,-1.734999179840088,-0.34999901056289673,-0.7177046490674233,0.0012115364429397246,-1.9499999253864349,0.19700005619322286,-0.4345159395690814,0.0
1759838809.4146314,1,-1.2050001621245956,-0.8299997448920943,-0.7177030444144975,0.0,-1.734999179840088,-0.34999901056289673,-0.7177046492080023,0.0012115364429397246,-1.9499999253864349,0.19700005619322286,-0.4345159395690814,0.0
1759838809.425961,1,-1.2050001621245956,-0.8299997448920943,-0.7177030444144975,0.0,-1.734999179840088,-0.34999901056289673,-0.7177046493076347,0.0012115364429397246,-1.9499999253864349,0.19700005619322286,-0.4345159395690814,0.0
1759838809.4362352,1,-1.2050001621245956,-0.8299997448920943,-0.7177030444144975,0.0,-1.734999179840088,-0.34999901056289673,-0.7177046495134185,0.0012115364429397246,-1.9499999253864349,0.19700005619322286,-0.4345159395690814,0.0
1759838809.4468517,1,-1.2050001621245956,-0.8299997448920943,-0.7177030444144975,0.0,-1.734999179840088,-0.34999901056289673,-0.7177046496701074,0.0012115364429397246,-1.9499999253864349,0.19700005619322286,-0.4345159395690814,0.0
1759838809.4604688,1,-1.2050001621245956,-0.8299997448920943,-0.7177030444144975,0.0,-1.734999179840088,-0.34999901056289673,-0.7177046495628616,0.0012115364429397246,-1.9499999253864349,0.19700005619322286,-0.4345159395690814,0.0
1759838809.4719517,1,-1.2050001621245956,-0.8299997448920943,-0.7177030444144975,0.0,-1.734999179840088,-0.34999901056289673,-0.7177046496983408,0.0012115364429397246,-1.9499999253864349,0.19700005619322286,-0.4345159395690814,0.0
1759838809.4918752,1,-1.2050001621245956,-0.8299997448920943,-0.7177030444144975,0.0,-1.734999179840088,-0.34999901056289673,-0.7177046492146921,0.0012115364429397246,-1.9499999253864349,0.19700005619322286,-0.4345159395690814,0.0
1759838809.5021157,1,-1.2050001621245956,-0.8299997448920943,-0.7177030444144975,0.0,-1.734999179840088,-0.34999901056289673,-0.717704649637227,0.0012115364429397246,-1.9499999253864349,0.19700005619322286,-0.4345159395690814,0.0
1759838809.5128245,1,-1.2050001621245956,-0.8299997448920943,-0.7177030444144975,0.0,-1.734999179840088,-0.34999901056289673,-0.717704649982295,0.0012115364429397246,-1.9499999253864349,0.19700005619322286,-0.4345159395690814,0.0
1759838809.5270753,1,-1.2050001621245956,-0.8299997448920943,-0.7177030444144975,0.0,-1.734999179840088,-0.34999901056289673,-0.7177046500184225,0.0012115364429397246,-1.9499999253864349,0.19700005619322286,-0.4345159395690814,0.0
1759838809.5378287,1,-1.2050001621245956,-0.8299997448920943,-0.7177030444144975,0.0,-1.734999179840088,-0.34999901056289673,-0.7177046502978683,0.0012115364429397246,-1.9499999253864349,0.19700005619322286,-0.4345159395690814,0.0
1759838809.5506332,1,-1.2050001621245956,-0.8299997448920943,-0.7177030444144975,0.0,-1.734999179840088,-0.34999901056289673,-0.7177046504123616,0.0012115364429397246,-1.9499999253864349,0.19700005619322286,-0.4345159395690814,0.0
1759838809.561213,1,-1.2050001621245956,-0.8299997448920943,-0.7177030444144975,0.0,-1.734999179840088,-0.34999901056289673,-0.7177046506514841,0.0012115364429397246,-1.9499999253864349,0.19700005619322286,-0.4345159395690814,0.0
1759838809.573532,1,-1.2050001621245956,-0.8299997448920943,-0.7177030444144975,0.0,-1.734999179840088,-0.34999901056289673,-0.7177046507541647,0.0012115364429397246,-1.9499999253864349,0.19700005619322286,-0.4345159395690814,0.0
1759838809.583734,1,-1.2050001621245956,-0.8299997448920943,-0.7177030444144975,0.0,-1.734999179840088,-0.34999901056289673,-0.7177046509659242,0.0012115364429397246,-1.9499999253864349,0.19700005619322286,-0.4345159395690814,0.0
1759838809.5946634,1,-1.2050001621245956,-0.8299997448920943,-0.7177030444144975,0.0,-1.734999179840088,-0.34999901056289673,-0.7177046511047767,0.0012115364429397246,-1.9499999253864349,0.19700005619322286,-0.4345159395690814,0.0
1759838809.604794,1,-1.2050001621245956,-0.8299997448920943,-0.7177030444144975,0.0,-1.734999179840088,-0.34999901056289673,-0.717704651262812,0.0012115364429397246,-1.9499999253864349,0.19700005619322286,-0.4345159395690814,0.0
1759838809.6191328,1,-1.2050001621245956,-0.8299997448920943,-0.7177030444144975,0.0,-1.734999179840088,-0.34999901056289673,-0.7177046511874927,0.0012115364429397246,-1.9499999253864349,0.19700005619322286,-0.4345159395690814,0.0
1759838809.6295428,1,-1.2050001621245956,-0.8299997448920943,-0.7177030444144975,0.0,-1.734999179840088,-0.34999901056289673,-0.7177046513416538,0.0012115364429397246,-1.9499999253864349,0.19700005619322286,-0.4345159395690814,0.0
1759838809.6396067,1,-1.2050001621245956,-0.8299997448920943,-0.7177030444144975,0.0,-1.734999179840088,-0.34999901056289673,-0.7177046514989094,0.0012115364429397246,-1.9499999253864349,0.19700005619322286,-0.4345159395690814,0.0
1759838809.6537936,1,-1.2050001621245956,-0.8299997448920943,-0.7177030444144975,0.0,-1.734999179840088,-0.34999901056289673,-0.7177046514453913,0.0012115364429397246,-1.9499999253864349,0.19700005619322286,-0.4345159395690814,0.0
1759838809.6648245,1,-1.2050001621245956,-0.8299997448920943,-0.7177030444144975,0.0,-1.734999179840088,-0.34999901056289673,-0.7177046515602328,0.0012115364429397246,-1.9499999253864349,0.19700005619322286,-0.4345159395690814,0.0
1759838809.6748285,1,-1.2050001621245956,-0.8299997448920943,-0.7177030444144975,0.0,-1.734999179840088,-0.34999901056289673,-0.7177046517123422,0.0012115364429397246,-1.9499999253864349,0.19700005619322286,-0.4345159395690814,0.0
1759838809.696255,1,-1.2050001621245956,-0.8299997448920943,-0.7177030444144975,0.0,-1.734999179840088,-0.34999901056289673,-0.7177046513955787,0.0012115364429397246,-1.9499999253864349,0.19700005619322286,-0.4345159395690814,0.0
