timestamp,observer_vehicle_id,vehicle_0_x,vehicle_0_y,vehicle_0_theta,vehicle_0_velocity,vehicle_1_x,vehicle_1_y,vehicle_1_theta,vehicle_1_velocity,vehicle_2_x,vehicle_2_y,vehicle_2_theta,vehicle_2_velocity
1759838806.2534678,0,-1.205,-0.83,-0.7801621756414646,0.0,0.0,0.0,0.0,0.0,0.0,0.0,0.0,0.0
1759838806.264264,0,-1.205,-0.83,-0.7801621756414646,0.0,0.0,0.0,0.0,0.0,0.0,0.0,0.0,0.0
1759838806.2748942,0,-1.205,-0.83,-0.7801621756414646,0.0,0.0,0.0,0.0,0.0,0.0,0.0,0.0,0.0
1759838806.2851312,0,-1.205,-0.83,-0.7801621756414646,0.0,0.0,0.0,0.0,0.0,0.0,0.0,0.0,0.0
1759838806.2964694,0,-1.205,-0.83,-0.7801621756414646,0.0,0.0,0.0,0.0,0.0,0.0,0.0,0.0,0.0
1759838806.3065565,0,-1.205,-0.83,-0.7801621756414646,0.0,0.0,0.0,0.0,0.0,0.0,0.0,0.0,0.0
1759838806.316958,0,-1.205,-0.83,-0.7801621756414646,0.0,0.0,0.0,0.0,0.0,0.0,0.0,0.0,0.0
1759838806.3271275,0,-1.205,-0.83,-0.7801621756414646,0.0,0.0,0.0,0.0,0.0,0.0,0.0,0.0,0.0
1759838806.3373644,0,-1.205,-0.83,-0.7801621756414646,0.0,0.0,0.0,0.0,0.0,0.0,0.0,0.0,0.0
1759838806.347696,0,-1.205,-0.83,-0.7801621756414646,0.0,0.0,0.0,0.0,0.0,0.0,0.0,0.0,0.0
1759838806.3583174,0,-1.205,-0.83,-0.7801621756414646,0.0,0.0,0.0,0.0,0.0,0.0,0.0,0.0,0.0
1759838806.3689451,0,-1.205,-0.83,-0.7801621756414646,0.0,0.0,0.0,0.0,0.0,0.0,0.0,0.0,0.0
1759838806.3798442,0,-1.205,-0.83,-0.7801621756414646,0.0,0.0,0.0,0.0,0.0,0.0,0.0,0.0,0.0
1759838806.3905485,0,-1.205,-0.83,-0.7801621756414646,0.0,0.0,0.0,0.0,0.0,0.0,0.0,0.0,0.0
1759838806.4007914,0,-1.205,-0.83,-0.7801621756414646,0.0,0.0,0.0,0.0,0.0,0.0,0.0,0.0,0.0
1759838806.4110749,0,-1.205,-0.83,-0.7801621756414646,0.0,0.0,0.0,0.0,0.0,0.0,0.0,0.0,0.0
1759838806.4222891,0,-1.205,-0.83,-0.7801621756414646,0.0,0.0,0.0,0.0,0.0,0.0,0.0,0.0,0.0
1759838806.4337587,0,-1.205,-0.83,-0.7801621756414646,0.0,0.0,0.0,0.0,0.0,0.0,0.0,0.0,0.0
1759838806.447933,0,-1.2050001607735952,-0.8299997470180194,-0.7229993841106719,0.0,0.0,0.0,0.0,0.0,0.0,0.0,0.0,0.0
1759838806.4581957,0,-1.205000161673033,-0.8299997456027273,-0.7181197722433197,0.0,0.0,0.0,0.0,0.0,0.0,0.0,0.0,0.0
1759838806.469408,0,-1.2050001619552244,-0.8299997451586908,-0.7176570454483908,0.0,0.0,0.0,0.0,0.0,0.0,0.0,0.0,0.0
1759838806.4809866,0,-1.2050001620600936,-0.829999744993676,-0.7175947095747812,0.0,-0.3452967290878296,-0.06965640068054199,1.7421195999502814,0.0,0.0,0.0,0.0,0.0
1759838806.4918633,0,-1.205000162099991,-0.8299997449308965,-0.7175902580772391,0.0,-0.6188500296516155,-0.1248400636184815,-3.140308838643803,0.0,0.0,0.0,0.0,0.0
1759838806.5025733,0,-1.2050001621152215,-0.8299997449069307,-0.7175990195442044,0.0,-0.836165496302448,-0.16867891856245348,-0.7836695436047545,0.0,0.0,0.0,0.0,0.0
1759838806.513199,0,-1.2050001621210387,-0.8299997448977774,-0.7176108625174998,0.0,-1.009259259581145,-0.20359696879158545,1.1139896366341688,0.0,0.0,0.0,0.0,0.0
1759838806.5241542,0,-1.2050001621232607,-0.8299997448942812,-0.7176218551980753,0.0,-1.1474292431187838,-0.23146987613347228,2.6502188770847206,0.0,0.0,0.0,0.0,0.0
1759838806.5345216,0,-1.2050001621241093,-0.8299997448929457,-0.7176326059365702,0.0,-1.2640885508135389,-0.2550034540546044,-2.4166952685741894,0.0,0.0,0.0,0.0,0.0
1759838806.5458362,0,-1.2050001621244335,-0.8299997448924357,-0.7176404177825759,0.0,-1.3565200842025542,-0.27364958470944895,-0.19825771338843423,0.0,0.0,0.0,0.0,0.0
1759838806.5569243,0,-1.2050001621245572,-0.8299997448922408,-0.7176475818830639,0.0,-1.4299696261160637,-0.2884664951819148,1.5858919820138297,0.0,0.0,0.0,0.0,0.0
1759838806.5675304,0,-1.2050001621246045,-0.8299997448921663,-0.7176541387519517,0.0,-1.4885181807907588,-0.30027744281081586,3.0286878435214315,0.0,0.0,0.0,0.0,0.0
1759838806.57907,0,-1.2050001621246227,-0.8299997448921379,-0.717658765185563,0.0,-1.535259864060806,-0.3097066008191827,-2.079990243527038,0.0,0.0,0.0,0.0,0.0
1759838806.589891,0,-1.2050001621246296,-0.829999744892127,-0.7176633877042562,0.0,-1.57485592834927,-0.317694279494089,0.07502233527103311,0.0,0.0,0.0,0.0,0.0
1759838806.6011846,0,-1.2050001621246322,-0.8299997448921229,-0.7176669606562847,0.0,-1.6062408299561701,-0.32402552765686427,1.8046203067742,0.0,0.0,0.0,0.0,0.0
1759838806.6125276,0,-1.2050001621246331,-0.8299997448921214,-0.7176700448042563,0.0,-1.6311828416073002,-0.32905705738475793,-3.082210053443221,0.0,0.0,0.0,0.0,0.0
1759838806.6231203,0,-1.2050001621246336,-0.8299997448921207,-0.717673181105244,0.0,-1.651073381292076,-0.3330695581857213,-0.7442337362157694,0.0,0.0,0.0,0.0,0.0
1759838806.6338189,0,-1.2050001621246338,-0.8299997448921205,-0.7176757402095681,0.0,-1.666973473444114,-0.3362770695708587,1.1457481937828604,0.0,0.0,0.0,0.0,0.0
1759838806.6514497,0,-1.2050001621246338,-0.8299997448921204,-0.7176746862402563,0.0,-1.6803730856008627,-0.33898016136040454,2.6636481310251123,0.0,0.0,0.0,0.0,0.0
1759838806.6618392,0,-1.2050001621246338,-0.8299997448921204,-0.7176779752123537,0.0,-1.6910197820075759,-0.34112790991507286,-2.3936013681630155,0.0,0.0,0.0,0.0,0.0
1759838806.672687,0,-1.2050001621246338,-0.8299997448921204,-0.7176805366892829,0.0,-1.6994960368887324,-0.34283781723980183,-0.18565185634443512,0.0,0.0,0.0,0.0,0.0
1759838806.6836395,0,-1.2050001621246338,-0.8299997448921204,-0.7176825048037223,0.0,-1.7062609020539243,-0.34420248744603654,1.5979276381589573,0.0,0.0,0.0,0.0,0.0
1759838806.6939845,0,-1.2050001621246338,-0.8299997448921204,-0.717684318992978,0.0,-1.7116773401453307,-0.3452951406633231,3.0464579394485445,0.0,0.0,0.0,0.0,0.0
1759838806.7048666,0,-1.2050001621246338,-0.8299997448921204,-0.7176856027685244,0.0,-1.7162860655629424,-0.3462246918930307,2.302606165904681,0.0,0.0,0.0,0.0,0.0
1759838806.7153397,0,-1.2050001621246338,-0.8299997448921204,-0.717686824468954,0.0,-1.719944845108792,-0.34696264495334467,1.7120763756537494,0.0,0.0,0.0,0.0,0.0
1759838806.7254162,0,-1.2050001621246338,-0.8299997448921204,-0.7176879859096061,0.0,-1.7228579226815053,-0.34755019456730113,1.2419034487414493,0.0,0.0,0.0,0.0,0.0
1759838806.7365031,0,-1.2050001621246338,-0.8299997448921204,-0.7176886593870577,0.0,-1.725180385518114,-0.3480186208652684,0.8670561876311512,0.0,0.0,0.0,0.0,0.0
1759838806.7476244,0,-1.2050001621246338,-0.8299997448921204,-0.7176892812599167,0.0,-1.7271410336843107,-0.34841407139633007,0.550606088402482,0.0,0.0,0.0,0.0,0.0
1759838806.7579782,0,-1.2050001621246338,-0.8299997448921204,-0.7176900941060822,0.0,-1.7286939010309597,-0.34872727507432183,0.2999721223456072,0.0,0.0,0.0,0.0,0.0
1759838806.7683933,0,-1.2050001621246338,-0.8299997448921204,-0.7176907993090467,0.0,-1.7299267684967177,-0.34897593676817806,0.10098637946665659,0.0,0.0,0.0,0.0,0.0
1759838806.779417,0,-1.2050001621246338,-0.8299997448921204,-0.7176912724567543,0.0,-1.73090739070142,-0.3491737221629808,-0.05728678720041662,0.0,0.0,0.0,0.0,0.0
1759838806.7901084,0,-1.2050001621246338,-0.8299997448921204,-0.7176918104578949,0.0,-1.731689685056146,-0.34933150606493557,-0.1835496886465833,0.0,0.0,0.0,0.0,0.0
1759838806.8005614,0,-1.2050001621246338,-0.8299997448921204,-0.7176923702095568,0.0,-1.7323154965644234,-0.3494577283507895,-0.28455614013904856,0.0,0.0,0.0,0.0,0.0
1759838806.8113573,0,-1.2050001621246338,-0.8299997448921204,-0.7176928033203787,0.0,-1.7328458976523062,-0.3495647069487323,-0.37016327750583755,0.0,0.0,0.0,0.0,0.0
1759838806.8216772,0,-1.2050001621246338,-0.8299997448921204,-0.717693312084851,0.0,-1.7332670263271,-0.3496496459811216,-0.43813376462541154,0.0,0.0,0.0,0.0,0.0
1759838806.8324144,0,-1.2050001621246338,-0.8299997448921204,-0.7176936892570431,0.0,-1.7336020729723407,-0.34971722280396783,-0.4922105469674074,0.0,0.0,0.0,0.0,0.0
1759838806.842816,0,-1.2050001621246338,-0.8299997448921204,-0.7176941114637002,0.0,-1.733869405817214,-0.34977114217476474,-0.5353582706364497,0.0,0.0,0.0,0.0,0.0
1759838806.8541129,0,-1.2050001621246338,-0.8299997448921204,-0.7176943369807098,0.0,-1.7340830326475827,-0.3498142293767293,-0.5698378028817729,0.0,0.0,0.0,0.0,0.0
1759838806.8655071,0,-1.2050001621246338,-0.8299997448921204,-0.7176945683176505,0.0,-1.7342639894892835,-0.349850727245334,-0.599044374208335,0.0,0.0,0.0,0.0,0.0
1759838806.8768196,0,-1.2050001621246338,-0.8299997448921204,-0.7176948434143675,0.0,-1.7344075404786703,-0.34987968058635976,-0.6222136126362351,0.0,0.0,0.0,0.0,0.0
1759838806.8874345,0,-1.2050001621246338,-0.8299997448921204,-0.7176952438917485,0.0,-1.7345218061115488,-0.34990272725326454,-0.6406561723398134,0.0,0.0,0.0,0.0,0.0
1759838806.8987484,0,-1.2050001621246338,-0.8299997448921204,-0.7176955020942692,0.0,-1.7346129229809162,-0.34992110495865875,-0.6553625040773463,0.0,0.0,0.0,0.0,0.0
1759838806.9102318,0,-1.2050001621246338,-0.8299997448921204,-0.7176957342390473,0.0,-1.734689940184235,-0.34993663884917436,-0.6677931390340667,0.0,0.0,0.0,0.0,0.0
1759838806.9207656,0,-1.2050001621246338,-0.8299997448921204,-0.7176961132694295,0.0,-1.7347509491442934,-0.34994894397666765,-0.6776400314021999,0.0,0.0,0.0,0.0,0.0
1759838806.9310398,0,-1.2050001621246338,-0.8299997448921204,-0.7176964900926954,0.0,-1.7347994117574588,-0.34995871858408745,-0.6854619338778765,0.0,0.0,0.0,0.0,0.0
1759838806.9416459,0,-1.2050001621246338,-0.8299997448921204,-0.7176967710542108,0.0,-1.7348379891602448,-0.34996649940610425,-0.6916883559101821,0.0,0.0,0.0,0.0,0.0
1759838806.9526103,0,-1.2050001621246338,-0.8299997448921204,-0.7176969781350131,0.0,-1.7348687633727942,-0.34997270637322125,-0.69665533712734,0.0,0.0,0.0,0.0,0.0
1759838806.963853,0,-1.2050001621246338,-0.8299997448921204,-0.7176971472944728,0.0,-1.7348947807413715,-0.3499779539145181,-0.7008545601240536,0.0,0.0,0.0,0.0,0.0
1759838806.974298,0,-1.2050001621246338,-0.8299997448921204,-0.7176974206855284,0.0,-1.734915389695705,-0.34998211061232665,-0.7041808609648943,0.0,0.0,0.0,0.0,0.0
1759838806.9848094,0,-1.2050001621246338,-0.8299997448921204,-0.7176976635505667,0.0,-1.7349317541791718,-0.3499854112267811,-0.7068221009926535,0.0,0.0,0.0,0.0,0.0
1759838806.996039,0,-1.2050001621246338,-0.8299997448921204,-0.7176978040131576,0.0,-1.7349447711951287,-0.34998803667787515,-0.7089230572285705,0.0,0.0,0.0,0.0,0.0
1759838807.0070357,0,-1.2050001621246338,-0.8299997448921204,-0.7176979762579485,0.0,-1.734955155516749,-0.34999013113090877,-0.7105990946043083,0.0,-0.38715759515762327,0.03911284422874451,1.1703669245986792,0.0
1759838807.0184128,0,-1.2050001621246338,-0.8299997448921204,-0.717698111282008,0.0,-1.7349634577343969,-0.3499918056365312,-0.7119390788216764,0.0,-0.6938918873696185,0.07010087272400761,2.1120182270152092,0.0
1759838807.028547,0,-1.2050001621246338,-0.8299997448921204,-0.7176983781479542,0.0,-1.7349705073889492,-0.34999322750797385,-0.7130768984065873,0.0,-0.937878444275412,0.09474977103705444,2.874015943151606,0.0
1759838807.0394478,0,-1.2050001621246338,-0.8299997448921204,-0.7176985410226528,0.0,-1.7349761033043403,-0.34999435616927643,-0.7139800833896544,0.0,-1.1322664556742226,0.11438794449631888,-2.7879690653967715,0.0
1759838807.0571399,0,-1.2050001621246338,-0.8299997448921204,-0.7176980849327208,0.0,-1.7349805254274588,-0.34999524808398397,-0.7146938174107746,0.0,-1.2864268331469162,0.12996209545125254,-1.0876557262280773,0.0
1759838807.068479,0,-1.2050001621246338,-0.8299997448921204,-0.7176983763251883,0.0,-1.7349840578403528,-0.34999596054967713,-0.7152639515276763,0.0,-1.410019784535799,0.1424481525915653,0.29063073246530036,0.0
1759838807.0791438,0,-1.2050001621246338,-0.8299997448921204,-0.717698723482652,0.0,-1.7349868890986966,-0.3499965315968619,-0.7157209187690591,0.0,-1.5094413470229338,0.1524922796735989,1.4137529493319259,0.0
1759838807.0895824,0,-1.2050001621246338,-0.8299997448921204,-0.717699026426942,0.0,-1.734989164607019,-0.3499969905527266,-0.7160881875360288,0.0,-1.5945558153134614,0.16109102339320605,2.313310291389537,0.0
1759838807.1007895,0,-1.2050001621246338,-0.8299997448921204,-0.7176992130857371,0.0,-1.7349909963792942,-0.34999736000979265,-0.7163838369688112,0.0,-1.6624297510972186,0.16794803126469332,3.0452351814587657,0.0
1759838807.1116157,0,-1.2050001621246338,-0.8299997448921204,-0.7176994033075133,0.0,-1.7349925746382857,-0.3499976783348073,-0.7166385691655702,0.0,-1.7167201485237942,0.17343275346624992,-2.6382557037066694,0.0
1759838807.1225429,0,-1.2050001621246338,-0.8299997448921204,-0.7176995638904398,0.0,-1.7349938340796036,-0.34999793235628174,-0.7168418439483123,0.0,-1.7602512407731714,0.17783050996528957,-0.9703909748183459,0.0
1759838807.1333735,0,-1.2050001621246338,-0.8299997448921204,-0.7176997145669368,0.0,-1.7349948417984016,-0.3499981356068907,-0.7170044905256324,0.0,-1.7952482110450072,0.1813661013209571,0.3850817609825195,0.0
1759838807.1448433,0,-1.2050001621246338,-0.8299997448921204,-0.7176998087248769,0.0,-1.7349956496027805,-0.3499982985360057,-0.7171348707643164,0.0,-1.823435398086498,0.18421372996053334,1.4924333180367013,0.0
1759838807.1554525,0,-1.2050001621246338,-0.8299997448921204,-0.7176999594701137,0.0,-1.7349962994920585,-0.34999842961462785,-0.7172397633860839,0.0,-1.846219895503449,0.1865155484175279,2.402175542826758,0.0
1759838807.1659992,0,-1.2050001621246338,-0.8299997448921204,-0.7177001002686794,0.0,-1.7349968236661422,-0.3499985353372778,-0.7173243654802599,0.0,-1.8657606785925613,0.18848966855524849,3.1246909193704213,0.0
1759838807.1772792,0,-1.2050001621246338,-0.8299997448921204,-0.7177001812757062,0.0,-1.7349972471339499,-0.3499986207480988,-0.7173927135052376,0.0,-1.8814320775929547,0.19007288168503184,-2.563992004106,0.0
1759838807.1887565,0,-1.2050001621246338,-0.8299997448921204,-0.7177002518961544,0.0,-1.7349975900567836,-0.34999868991349986,-0.7174480615103831,0.0,-1.8940306656394323,0.19134566211844523,-0.9160878522483046,0.0
1759838807.1994112,0,-1.2050001621246338,-0.8299997448921204,-0.7177003748193442,0.0,-1.7349978852083408,-0.34999874944373177,-0.7174956991952602,0.0,-1.9041951370301717,0.19237253435638146,0.4280061655967844,0.0
1759838807.2098277,0,-1.2050001621246338,-0.8299997448921204,-0.7177005010879842,0.0,-1.7349981228663642,-0.34999879737787587,-0.7175340573803076,0.0,-1.9124182351179448,0.19320327811191546,1.5297990337447056,0.0
1759838807.22103,0,-1.2050001621246338,-0.8299997448921204,-0.7177005715780247,0.0,-1.7349983145289356,-0.34999883603502346,-0.7175649918645026,0.0,-1.9190808843939628,0.1938763765259542,2.4381940034086673,0.0
1759838807.2318122,0,-1.2050001621246338,-0.8299997448921204,-0.7177006630827947,0.0,-1.7349984695710572,-0.34999886730605434,-0.7175900157803928,0.0,-1.9244956764287071,0.1944234093622848,-3.091445462518874,0.0
1759838807.2430208,0,-1.2050001621246338,-0.8299997448921204,-0.717700729969966,0.0,-1.7349985952412925,-0.3499988926529586,-0.717610299051569,0.0,-1.9291715461057022,0.19489579209375557,-1.3476969252520312,0.0
1759838807.2584317,0,-1.2050001621246338,-0.8299997448921204,-0.7177006053247225,0.0,-1.7349986968744413,-0.34999891315173204,-0.7176267027187374,0.0,-1.9329259618430945,0.19527508435030239,0.07354453086569393,0.0
1759838807.2693717,0,-1.2050001621246338,-0.8299997448921204,-0.7177007427123313,0.0,-1.7349987797818183,-0.3499989298736339,-0.7176400840321819,0.0,-1.9359662702242715,0.1955822334534264,1.2397129307108792,0.0
1759838807.2797737,0,-1.2050001621246338,-0.8299997448921204,-0.7177008979053809,0.0,-1.7349988519211936,-0.3499989444236969,-0.7176517273820158,0.0,-1.938436006901072,0.19583174018436472,2.2017092607559454,0.0
1759838807.291126,0,-1.2050001621246338,-0.8299997448921204,-0.7177009872634841,0.0,-1.7349989103077135,-0.3499989561998945,-0.7176611510105531,0.0,-1.9404448494930675,0.19603468479494068,3.000393378138427,0.0
1759838807.30127,0,-1.2050001621246338,-0.8299997448921204,-0.7177011143314473,0.0,-1.7349989577515865,-0.34999896576902845,-0.7176688084876175,0.0,-1.9420853399004998,0.19620041638994792,-2.615882722933873,0.0
1759838807.3115048,0,-1.2050001621246338,-0.8299997448921204,-0.7177012182741649,0.0,-1.7349989963896433,-0.349998973562084,-0.7176750446992449,0.0,-1.9434279791968083,0.19633605738552373,-0.9891998763416525,0.0
1759838807.3223188,0,-1.2050001621246338,-0.8299997448921204,-0.7177012838518452,0.0,-1.7349990279088428,-0.34999897991931034,-0.7176801319219184,0.0,-1.944595193755051,0.19645398730348423,-0.890685005685347,0.0
1759838807.3337367,0,-1.2050001621246338,-0.8299997448921204,-0.7177013221847304,0.0,-1.7349990536656832,-0.3499989851143047,-0.7176842890954528,0.0,-1.9455427624417598,0.19654972522647055,-0.8107086157835225,0.0
1759838807.34399,0,-1.2050001621246338,-0.8299997448921204,-0.7177014050739672,0.0,-1.734999074797233,-0.3499989893764068,-0.7176876997436106,0.0,-1.9463150612811952,0.1966277547011138,-0.7455252955981193,0.0
1759838807.3550513,0,-1.2050001621246338,-0.8299997448921204,-0.7177014526144632,0.0,-1.7349990921573144,-0.34999899287782715,-0.7176905016739029,0.0,-1.9469453911119967,0.19669144028891727,-0.6923243983734407,0.0
1759838807.365808,0,-1.2050001621246338,-0.8299997448921204,-0.7177015089889824,0.0,-1.7349991074069655,-0.3499989959535868,-0.7176929629791201,0.0,-1.9474613259620508,0.19674356794112158,-0.6487786298073921,0.0
1759838807.3760686,0,-1.2050001621246338,-0.8299997448921204,-0.7177015786770404,0.0,-1.7349991198557797,-0.34999899846443516,-0.7176949722271767,0.0,-1.9478849059405332,0.19678636448761716,-0.6130277676388916,0.0
1759838807.3871543,0,-1.2050001621246338,-0.8299997448921204,-0.7177016157795038,0.0,-1.734999130032068,-0.34999900051692917,-0.7176966146877972,0.0,-1.948233119917068,0.19682154640459673,-0.5836379227155225,0.0
1759838807.3977065,0,-1.2050001621246338,-0.8299997448921204,-0.7177016692842919,0.0,-1.7349991383768408,-0.3499990022000179,-0.7176979615404481,0.0,-1.948520275761213,0.19685055929250392,-0.5594014867968742,0.0
1759838807.4086905,0,-1.2050001621246338,-0.8299997448921204,-0.7177017077517611,0.0,-1.734999145232455,-0.3499990035827526,-0.7176990680417565,0.0,-1.9487726597599888,0.19687605899524493,-0.5380998530744938,0.0
1759838807.419701,0,-1.2050001621246338,-0.8299997448921204,-0.7177017457956509,0.0,-1.7349991508783378,-0.3499990047214921,-0.7176999792915516,0.0,-1.9489792920777953,0.19689693616141363,-0.5206597381287248,0.0
1759838807.4305036,0,-1.2050001621246338,-0.8299997448921204,-0.7177017903161004,0.0,-1.7349991555405806,-0.34999900566183745,-0.7177007317810662,0.0,-1.9491489291167072,0.19691407549705733,-0.506342086906073,0.0
1759838807.44173,0,-1.2050001621246338,-0.8299997448921204,-0.7177018226746981,0.0,-1.734999159702687,-0.34999900650130844,-0.7177014035482164,0.0,-1.949288460536962,0.19692817310133015,-0.4945654005018365,0.0
1759838807.4584925,0,-1.2050001621246338,-0.8299997448921204,-0.7177017224080835,0.0,-1.7349991630843824,-0.34999900718337534,-0.7177019493564205,0.0,-1.9494102925751,0.19694048244254006,-0.48428257169867495,0.0
1759838807.469625,0,-1.2050001621246338,-0.8299997448921204,-0.7177017990884149,0.0,-1.7349991658608797,-0.34999900774337755,-0.7177023974851651,0.0,-1.949509949227225,0.1969505512861184,-0.47587138274904195,0.0
1759838807.4810715,0,-1.2050001621246338,-0.8299997448921204,-0.7177018675060705,0.0,-1.734999168145296,-0.3499990082041301,-0.7177027661916893,0.0,-1.949591640814602,0.19695880502329927,-0.4689764754611713,0.0
1759838807.4921992,0,-1.2050001621246338,-0.8299997448921204,-0.7177019334339453,0.0,-1.7349991700303766,-0.3499990085843391,-0.7177030704451124,0.0,-1.9496588037444909,0.1969655908526533,-0.4633078112861169,0.0
1759838807.5034723,0,-1.2050001621246338,-0.8299997448921204,-0.7177019870148698,0.0,-1.7349991715894841,-0.34999900889880137,-0.7177033220862603,0.0,-1.9497141493268377,0.19697118271229863,-0.4586365511070714,0.0
1759838807.5150816,0,-1.2050001621246338,-0.8299997448921204,-0.7177020274311978,0.0,-1.7349991729650693,-0.3499990091762483,-0.717703544106747,0.0,-1.9497598518574595,0.196975800282949,-0.4547791807023896,0.0
1759838807.5260406,0,-1.2050001621246338,-0.8299997448921204,-0.7177020778172807,0.0,-1.734999174096241,-0.3499990094043986,-0.717703726678706,0.0,-1.9497977193271392,0.19697962623556517,-0.4515831026109638,0.0
1759838807.5368497,0,-1.2050001621246338,-0.8299997448921204,-0.7177021254564782,0.0,-1.7349991750288796,-0.349999009592506,-0.7177038772072856,0.0,-1.9498291767885239,0.19698280455082362,-0.44892803999406117,0.0
1759838807.5472844,0,-1.2050001621246338,-0.8299997448921204,-0.7177021738063658,0.0,-1.7349991758000434,-0.349999009748045,-0.7177040016737062,0.0,-1.9498572679645723,0.1969856427523037,-0.4465570975178435,0.0
1759838807.558303,0,-1.2050001621246338,-0.8299997448921204,-0.7177022051264093,0.0,-1.734999176438698,-0.3499990098768576,-0.7177041047530536,0.0,-1.9498804233387863,0.19698798226337486,-0.4446027450129159,0.0
1759838807.5687103,0,-1.2050001621246338,-0.8299997448921204,-0.7177022442830925,0.0,-1.7349991769693138,-0.34999900998387945,-0.7177041903948198,0.0,-1.9498995715973806,0.19698991691416304,-0.4429865998017489,0.0
1759838807.5790658,0,-1.2050001621246338,-0.8299997448921204,-0.7177022799608181,0.0,-1.7349991774112081,-0.34999901007300677,-0.717704261716868,0.0,-1.9499154438898205,0.19699152057660202,-0.4416469516404948,0.0
1759838807.589391,0,-1.2050001621246338,-0.8299997448921204,-0.717702311840771,0.0,-1.7349991777800664,-0.34999901014740314,-0.7177043212508729,0.0,-1.949928631380472,0.19699285297918356,-0.4405339052630105,0.0
1759838807.600842,0,-1.2050001621246338,-0.8299997448921204,-0.7177023230154038,0.0,-1.7349991781109726,-0.3499990102141449,-0.7177043746594104,0.0,-1.949939597105464,0.1969939609049197,-0.4396083796416823,0.0
1759838807.611314,0,-1.2050001621246338,-0.8299997448921204,-0.717702351294708,0.0,-1.734999178385103,-0.3499990102694353,-0.7177044189042932,0.0,-1.949948749907545,0.1969948856613759,-0.4388358677613596,0.0
1759838807.6218915,0,-1.2050001621246338,-0.8299997448921204,-0.7177023766675479,0.0,-1.7349991786126955,-0.3499990103153393,-0.7177044556378863,0.0,-1.9499564058809804,0.19699565918524328,-0.43818969073468156,0.0
1759838807.6332405,0,-1.2050001621246338,-0.8299997448921204,-0.7177023895585961,0.0,-1.7349991788019012,-0.349999010353501,-0.7177044861758659,0.0,-1.9499632876988946,0.19699635449204556,-0.43760885373526026,0.0
1759838807.6441376,0,-1.2050001621246338,-0.8299997448921204,-0.7177024103744749,0.0,-1.734999178959678,-0.3499990103853236,-0.7177045116411368,0.0,-1.9499690015036621,0.1969969317882442,-0.4371265990086878,0.0
1759838807.6585486,0,-1.2050001621246338,-0.8299997448921204,-0.7177023864373364,0.0,-1.7349991790909391,-0.34999901041179815,-0.717704532826809,0.0,-1.949973735153583,0.19699741005416618,-0.43672707099869057,0.0
1759838807.6691647,0,-1.2050001621246338,-0.8299997448921204,-0.7177024229725113,0.0,-1.7349991792010402,-0.3499990104340048,-0.7177045505971608,0.0,-1.9499776886619848,0.1969978094982257,-0.43639338824422974,0.0
1759838807.6793613,0,-1.2050001621246338,-0.8299997448921204,-0.7177024624961597,0.0,-1.7349991792936565,-0.3499990104526849,-0.7177045655454977,0.0,-1.9499810000901736,0.1969981440694936,-0.4361138981389884,0.0
1759838807.6898434,0,-1.2050001621246338,-0.8299997448921204,-0.7177024919933519,0.0,-1.7349991793776594,-0.3499990104696277,-0.7177045791036117,0.0,-1.9499837787768592,0.19699842481504337,-0.4358793723121064,0.0
1759838807.701097,0,-1.2050001621246338,-0.8299997448921204,-0.7177025083816417,0.0,-1.7349991794477075,-0.34999901048375603,-0.717704590409454,0.0,-1.9499861132039251,0.19699866067467212,-0.4356823427438727,0.0
1759838807.7114294,0,-1.2050001621246338,-0.8299997448921204,-0.7177025342339682,0.0,-1.734999179506334,-0.34999901049558063,-0.717704599871827,0.0,-1.9499882283141234,0.1969988743755469,-0.4355038238879014,0.0
1759838807.722148,0,-1.2050001621246338,-0.8299997448921204,-0.7177025532768297,0.0,-1.7349991795554855,-0.3499990105054942,-0.717704607804924,0.0,-1.9499899945203012,0.1969990528247859,-0.43535475311772215,0.0
1759838807.733582,0,-1.2050001621246338,-0.8299997448921204,-0.717702563513992,0.0,-1.7349991795967479,-0.34999901051381654,-0.7177046144646775,0.0,-1.9499914713904238,0.1969992020408586,-0.43523010279694485,0.0
1759838807.7441108,0,-1.2050001621246338,-0.8299997448921204,-0.7177025837669824,0.0,-1.7349991796315154,-0.34999901052082893,-0.7177046200761816,0.0,-1.9499927108872823,0.19699932727384323,-0.4351254871786463,0.0
1759838807.75484,0,-1.2050001621246338,-0.8299997448921204,-0.7177026007421965,0.0,-1.7349991796629627,-0.34999901052717164,-0.717704625151769,0.0,-1.9499937532319727,0.19699943258749184,-0.4350375115347272,0.0
1759838807.766046,0,-1.2050001621246338,-0.8299997448921204,-0.717702612174806,0.0,-1.7349991796892714,-0.34999901053247795,-0.7177046293980218,0.0,-1.9499946312038834,0.196999521293681,-0.43496340922969573,0.0
1759838807.7763045,0,-1.2050001621246338,-0.8299997448921204,-0.7177026323787103,0.0,-1.734999179711363,-0.3499990105369337,-0.7177046329636287,0.0,-1.9499953734808264,0.1969995962898832,-0.4349007598080262,0.0
1759838807.7865317,0,-1.2050001621246338,-0.8299997448921204,-0.7177026508432487,0.0,-1.7349991797299555,-0.34999901054068366,-0.7177046359644482,0.0,-1.949996002429677,0.19699965983594317,-0.43484767546786224,0.0
1759838807.7966537,0,-1.2050001621246338,-0.8299997448921204,-0.7177026679222074,0.0,-1.7349991797456394,-0.3499990105438471,-0.7177046384958603,0.0,-1.9499965787756417,0.1969997180672528,-0.43479903089968025,0.0
1759838807.807107,0,-1.2050001621246338,-0.8299997448921204,-0.7177026803402384,0.0,-1.7349991797588924,-0.3499990105465201,-0.7177046406349032,0.0,-1.9499970635106072,0.19699976704261413,-0.4347581184538083,0.0
1759838807.8184242,0,-1.2050001621246338,-0.8299997448921204,-0.7177026853031983,0.0,-1.7349991797701019,-0.349999010548781,-0.7177046424441337,0.0,-1.9499974716148638,0.19699980827556582,-0.4347236737685728,0.0
1759838807.8293588,0,-1.2050001621246338,-0.8299997448921204,-0.7177026947564862,0.0,-1.734999179779611,-0.34999901055069893,-0.7177046439788857,0.0,-1.9499978162131197,0.19699984309216723,-0.43469458909655195,0.0
1759838807.8396854,0,-1.2050001621246338,-0.8299997448921204,-0.7177027093197806,0.0,-1.7349991797883546,-0.3499990105524625,-0.7177046453901358,0.0,-1.9499981081156401,0.1969998725846372,-0.4346699520331802,0.0
1759838807.8505042,0,-1.2050001621246338,-0.8299997448921204,-0.7177027193016503,0.0,-1.7349991797957223,-0.34999901055394855,-0.7177046465792807,0.0,-1.949998355740099,0.1969998976034582,-0.4346490521126179,0.0
1759838807.8613558,0,-1.2050001621246338,-0.8299997448921204,-0.717702728840008,0.0,-1.7349991798019444,-0.3499990105552035,-0.7177046475835314,0.0,-1.949998566266716,0.19699991887408622,-0.43463128331227713,0.0
1759838807.8715887,0,-1.2050001621246338,-0.8299997448921204,-0.7177027424881111,0.0,-1.7349991798072157,-0.3499990105562667,-0.7177046484343405,0.0,-1.9499987458243127,0.19699993701574875,-0.43461612834931845,0.0
1759838807.8826146,0,-1.2050001621246338,-0.8299997448921204,-0.7177027498807931,0.0,-1.7349991798116862,-0.34999901055716837,-0.7177046491558687,0.0,-1.9499989122540384,0.19699995383103241,-0.43460208140071976,0.0
1759838807.8929234,0,-1.2050001621246338,-0.8299997448921204,-0.7177027619026041,0.0,-1.73499917981549,-0.3499990105579356,-0.7177046497698223,0.0,-1.9499990531675688,0.19699996806827866,-0.43459018806189725,0.0
1759838807.904327,0,-1.2050001621246338,-0.8299997448921204,-0.7177027665932414,0.0,-1.7349991798187283,-0.34999901055858873,-0.717704650292493,0.0,-1.9499991725450945,0.19699998012962738,-0.4345801123980784,0.0
1759838807.9152691,0,-1.2050001621246338,-0.8299997448921204,-0.7177027748902381,0.0,-1.7349991798214937,-0.3499990105591465,-0.7177046507388088,0.0,-1.9499992739871708,0.1969999903788619,-0.43457155051632423,0.0
1759838807.926103,0,-1.2050001621246338,-0.8299997448921204,-0.7177027840683117,0.0,-1.7349991798240634,-0.3499990105596648,-0.7177046511535824,0.0,-1.9499993603980688,0.1969999991094162,-0.4345642572912893,0.0
1759838807.937233,0,-1.2050001621246338,-0.8299997448921204,-0.7177027914237524,0.0,-1.7349991798262425,-0.3499990105601043,-0.7177046515052745,0.0,-1.9499994341357534,0.19700000655952812,-0.4345580337067568,0.0
1759838807.947512,0,-1.2050001621246338,-0.8299997448921204,-0.7177028033012292,0.0,-1.7349991798280966,-0.3499990105604783,-0.7177046518045495,0.0,-1.9499994972858528,0.19700001293991978,-0.43455270373221877,0.0
1759838807.9584835,0,-1.2050001621246338,-0.8299997448921204,-0.7177028105427325,0.0,-1.7349991798296762,-0.34999901056079685,-0.7177046520594974,0.0,-1.9499995514225787,0.19700001840964224,-0.43454813450154905,0.0
1759838807.9688072,0,-1.2050001621246338,-0.8299997448921204,-0.7177028206900271,0.0,-1.7349991798310263,-0.34999901056106913,-0.7177046522773912,0.0,-1.9499996023095258,0.19700002355102217,-0.4345438395576696,0.0
1759838807.979275,0,-1.2050001621246338,-0.8299997448921204,-0.7177028292561349,0.0,-1.7349991798321822,-0.3499990105613023,-0.7177046524639699,0.0,-1.9499996456459228,0.19700002792952973,-0.4345401818929109,0.0
1759838807.9894364,0,-1.2050001621246338,-0.8299997448921204,-0.7177028384679431,0.0,-1.7349991798331745,-0.34999901056150245,-0.7177046526241533,0.0,-1.9499996826495767,0.1970000316682064,-0.4345370587223244,0.0
1759838807.9995627,0,-1.2050001621246338,-0.8299997448921204,-0.7177028468789715,0.0,-1.7349991798340285,-0.3499990105616747,-0.7177046527619676,0.0,-1.9499997143140235,0.1970000348674345,-0.4345343861897791,0.0
1759838808.010611,0,-1.2050001621246338,-0.8299997448921204,-0.7177028505172345,0.0,-1.734999179834835,-0.34999901056183735,-0.7177046528921313,0.0,-1.949999741426583,0.19700003760676113,-0.4345320978441782,0.0
1759838808.0212324,0,-1.2050001621246338,-0.8299997448921204,-0.7177028564017185,0.0,-1.734999179835523,-0.3499990105619761,-0.7177046530031695,0.0,-1.9499997647093728,0.19700003995914567,-0.43453013273760116,0.0
1759838808.0314426,0,-1.2050001621246338,-0.8299997448921204,-0.7177028639920451,0.0,-1.7349991798361117,-0.3499990105620948,-0.7177046530981602,0.0,-1.9499997847596187,0.19700004198492904,-0.43452844046314293,0.0
1759838808.0417018,0,-1.2050001621246338,-0.8299997448921204,-0.7177028707827819,0.0,-1.7349991798366162,-0.34999901056219657,-0.717704653179587,0.0,-1.9499998036538198,0.19700004389391104,-0.4345268457607985,0.0
1759838808.0523405,0,-1.2050001621246338,-0.8299997448921204,-0.7177028756015672,0.0,-1.7349991798370494,-0.3499990105622839,-0.7177046532494902,0.0,-1.9499998197984123,0.1970000455250854,-0.43452548313006034,0.0
1759838808.0658622,0,-1.2050001621246338,-0.8299997448921204,-0.7177028701718093,0.0,-1.7349991798374202,-0.34999901056235866,-0.7177046533093466,0.0,-1.9499998335609288,0.19700004691558592,-0.43452432155054377,0.0
1759838808.0761385,0,-1.2050001621246338,-0.8299997448921204,-0.7177028791403792,0.0,-1.7349991798377402,-0.3499990105624232,-0.7177046533610127,0.0,-1.949999845385515,0.197000048110287,-0.4345233235355957,0.0
1759838808.086296,0,-1.2050001621246338,-0.8299997448921204,-0.7177028880744238,0.0,-1.7349991798380417,-0.34999901056248406,-0.7177046534097032,0.0,-1.949999855568165,0.1970000491390945,-0.43452246410282336,0.0
1759838808.0964909,0,-1.2050001621246338,-0.8299997448921204,-0.7177028955579932,0.0,-1.7349991798383007,-0.34999901056253624,-0.7177046534514636,0.0,-1.9499998643542658,0.19700005002680118,-0.43452172254114435,0.0
1759838808.1067996,0,-1.2050001621246338,-0.8299997448921204,-0.7177029016522738,0.0,-1.734999179838523,-0.34999901056258104,-0.7177046534873482,0.0,-1.9499998719493337,0.19700005079417143,-0.4345210815046372,0.0
1759838808.117436,0,-1.2050001621246338,-0.8299997448921204,-0.7177029061108264,0.0,-1.7349991798387143,-0.3499990105626197,-0.7177046535182317,0.0,-1.9499998785245178,0.1970000514584974,-0.434520526548042,0.0
1759838808.1281192,0,-1.2050001621246338,-0.8299997448921204,-0.7177029102718766,0.0,-1.7349991798388795,-0.3499990105626529,-0.7177046535448651,0.0,-1.9499998847701714,0.1970000520895291,-0.4345199994043897,0.0
1759838808.1389463,0,-1.2050001621246338,-0.8299997448921204,-0.7177029140044944,0.0,-1.734999179839022,-0.3499990105626817,-0.7177046535678766,0.0,-1.949999890140241,0.19700005263209588,-0.43451954616148913,0.0
1759838808.1493416,0,-1.2050001621246338,-0.8299997448921204,-0.7177029189945792,0.0,-1.7349991798391455,-0.3499990105627066,-0.7177046535878158,0.0,-1.9499998947707755,0.1970000530999435,-0.4345191553365975,0.0
1759838808.159962,0,-1.2050001621246338,-0.8299997448921204,-0.7177029230865148,0.0,-1.7349991798392526,-0.34999901056272825,-0.7177046536051211,0.0,-1.9499998987703808,0.19700005350404498,-0.4345188177631837,0.0
1759838808.171188,0,-1.2050001621246338,-0.8299997448921204,-0.7177029254781537,0.0,-1.7349991798393547,-0.3499990105627489,-0.7177046536216137,0.0,-1.9499999022286614,0.1970000538534535,-0.4345185258785035,0.0
1759838808.1813214,0,-1.2050001621246338,-0.8299997448921204,-0.7177029309150669,0.0,-1.7349991798394429,-0.34999901056276667,-0.7177046536358488,0.0,-1.949999905231122,0.19700005415680813,-0.4345182724657842,0.0
1759838808.1914299,0,-1.2050001621246338,-0.8299997448921204,-0.7177029359327012,0.0,-1.7349991798395192,-0.34999901056278204,-0.7177046536481607,0.0,-1.9499999078431167,0.1970000544207119,-0.43451805200905674,0.0
1759838808.2022288,0,-1.2050001621246338,-0.8299997448921204,-0.7177029387642229,0.0,-1.7349991798395852,-0.34999901056279537,-0.7177046536588182,0.0,-1.949999910117026,0.19700005465045708,-0.43451786008729437,0.0
1759838808.2134633,0,-1.2050001621246338,-0.8299997448921204,-0.7177029406485733,0.0,-1.7349991798396422,-0.3499990105628069,-0.7177046536680556,0.0,-1.9499999122965768,0.19700005487066874,-0.4345176761295343,0.0
1759838808.2242296,0,-1.2050001621246338,-0.8299997448921204,-0.717702943950755,0.0,-1.7349991798396922,-0.34999901056281696,-0.7177046536760863,0.0,-1.9499999141825175,0.19700005506121537,-0.4345175169529796,0.0
1759838808.2346706,0,-1.2050001621246338,-0.8299997448921204,-0.717702947959669,0.0,-1.7349991798397357,-0.34999901056282573,-0.717704653683109,0.0,-1.949999915818759,0.1970000552265336,-0.43451737885143826,0.0
1759838808.2459548,0,-1.2050001621246338,-0.8299997448921204,-0.7177029499874905,0.0,-1.7349991798397775,-0.3499990105628341,-0.7177046536898206,0.0,-1.9499999172391103,0.19700005537003926,-0.43451725897141164,0.0
1759838808.2559953,0,-1.2050001621246338,-0.8299997448921204,-0.7177029546440323,0.0,-1.7349991798398137,-0.3499990105628414,-0.717704653695639,0.0,-1.9499999184774932,0.19700005549515967,-0.434517154449818,0.0
1759838808.2667553,0,-1.2050001621246338,-0.8299997448921204,-0.7177029574709266,0.0,-1.734999179839845,-0.3499990105628477,-0.7177046537006864,0.0,-1.9499999195771558,0.1970000556062645,-0.43451706163643966,0.0
1759838808.2768896,0,-1.2050001621246338,-0.8299997448921204,-0.7177029612933108,0.0,-1.734999179839872,-0.3499990105628532,-0.7177046537050791,0.0,-1.9499999205558554,0.19700005570514775,-0.434516979032533,0.0
1759838808.2881114,0,-1.2050001621246338,-0.8299997448921204,-0.7177029628371621,0.0,-1.7349991798398958,-0.349999010562858,-0.7177046537089126,0.0,-1.9499999214645585,0.1970000557969589,-0.43451690233645157,0.0
1759838808.2984734,0,-1.2050001621246338,-0.8299997448921204,-0.7177029660526273,0.0,-1.7349991798399171,-0.34999901056286226,-0.7177046537123245,0.0,-1.9499999222544555,0.1970000558767664,-0.4345168356678165,0.0
1759838808.3093786,0,-1.2050001621246338,-0.8299997448921204,-0.7177029682070993,0.0,-1.734999179839936,-0.34999901056286603,-0.717704653715361,0.0,-1.9499999229417782,0.19700005594621023,-0.43451677765664265,0.0
1759838808.3203206,0,-1.2050001621246338,-0.8299997448921204,-0.7177029703257568,0.0,-1.7349991798399527,-0.3499990105628694,-0.7177046537180635,0.0,-1.9499999235503693,0.19700005600769946,-0.4345167262905137,0.0
1759838808.3306916,0,-1.2050001621246338,-0.8299997448921204,-0.7177029733896259,0.0,-1.7349991798399678,-0.34999901056287247,-0.7177046537205178,0.0,-1.9499999240920156,0.19700005606242488,-0.43451668057465886,0.0
1759838808.3414803,0,-1.2050001621246338,-0.8299997448921204,-0.7177029756045866,0.0,-1.7349991798399809,-0.34999901056287513,-0.7177046537226548,0.0,-1.9499999245740807,0.1970000561111305,-0.4345166398875481,0.0
1759838808.3516357,0,-1.2050001621246338,-0.8299997448921204,-0.7177029786583091,0.0,-1.7349991798399926,-0.3499990105628775,-0.7177046537245549,0.0,-1.9499999250031188,0.19700005615447852,-0.43451660367601946,0.0
1759838808.362542,0,-1.2050001621246338,-0.8299997448921204,-0.7177029803752148,0.0,-1.734999179840003,-0.34999901056287963,-0.7177046537262461,0.0,-1.949999925386856,0.19700005619324953,-0.4345165712879524,0.0
1759838808.3732529,0,-1.2050001621246338,-0.8299997448921204,-0.7177029823731509,0.0,-1.7349991798400124,-0.3499990105628815,-0.7177046537277514,0.0,-1.9499999257264888,0.19700005622756445,-0.4345165426223793,0.0
1759838808.3841245,0,-1.2050001621246338,-0.8299997448921204,-0.7177029841588798,0.0,-1.7349991798400206,-0.3499990105628832,-0.717704653729091,0.0,-1.949999926028762,0.1970000562581047,-0.43451651711001926,0.0
1759838808.3944013,0,-1.2050001621246338,-0.8299997448921204,-0.7177029867116929,0.0,-1.7349991798400206,-0.3499990105628832,-0.717704653729091,0.0,-1.949999926297785,0.19700005628528555,-0.4345164944040188,0.0
1759838808.4055092,0,-1.2050001621246338,-0.8299997448921204,-0.7177029880484227,0.0,-1.734999179840028,-0.3499990105628846,-0.7177046537302831,0.0,-1.9499999265372154,0.1970000563094765,-0.4345164741956784,0.0
1759838808.4167478,0,-1.2050001621246338,-0.8299997448921204,-0.7177029893174662,0.0,-1.7349991798400346,-0.34999901056288596,-0.7177046537313442,0.0,-1.9499999265372154,0.1970000563094765,-0.4345164741956784,0.0
1759838808.4274917,0,-1.2050001621246338,-0.8299997448921204,-0.717702991307302,0.0,-1.7349991798400404,-0.3499990105628871,-0.7177046537322885,0.0,-1.9499999265372154,0.1970000563094765,-0.4345164741956784,0.0
1759838808.4374943,0,-1.2050001621246338,-0.8299997448921204,-0.7177029940425719,0.0,-1.7349991798400455,-0.3499990105628882,-0.7177046537331291,0.0,-1.9499999265372154,0.1970000563094765,-0.4345164741956784,0.0
1759838808.4478464,0,-1.2050001621246338,-0.8299997448921204,-0.7177029960594794,0.0,-1.7349991798400501,-0.3499990105628891,-0.7177046537338772,0.0,-1.9499999267503085,0.19700005633100645,-0.4345164562102555,0.0
1759838808.4580028,0,-1.2050001621246338,-0.8299997448921204,-0.717702998059341,0.0,-1.7349991798400501,-0.3499990105628891,-0.7177046537338772,0.0,-1.9499999269399615,0.1970000563501681,-0.4345164402032291,0.0
1759838808.4693427,0,-1.2050001621246338,-0.8299997448921204,-0.7177029986929977,0.0,-1.7349991798400501,-0.3499990105628891,-0.7177046537338772,0.0,-1.9499999271087527,0.19700005636722195,-0.4345164259569756,0.0
1759838808.47953,0,-1.2050001621246338,-0.8299997448921204,-0.7177030006149945,0.0,-1.7349991798400544,-0.34999901056288996,-0.7177046537345428,0.0,-1.9499999271087527,0.19700005636722195,-0.4345164259569756,0.0
1759838808.4899776,0,-1.2050001621246338,-0.8299997448921204,-0.7177030021749965,0.0,-1.7349991798400581,-0.3499990105628907,-0.7177046537351354,0.0,-1.9499999271087527,0.19700005636722195,-0.4345164259569756,0.0
1759838808.5006406,0,-1.2050001621246338,-0.8299997448921204,-0.7177030034344014,0.0,-1.7349991798400612,-0.34999901056289134,-0.7177046537356627,0.0,-1.9499999271087527,0.19700005636722195,-0.4345164259569756,0.0
1759838808.511967,0,-1.2050001621246338,-0.8299997448921204,-0.7177030041081167,0.0,-1.7349991798400612,-0.34999901056289134,-0.7177046537356627,0.0,-1.9499999271087527,0.19700005636722195,-0.4345164259569756,0.0
1759838808.5221908,0,-1.2050001621246338,-0.8299997448921204,-0.7177030058684384,0.0,-1.7349991798400612,-0.34999901056289134,-0.7177046537356627,0.0,-1.9499999272589768,0.1970000563823999,-0.43451641327780993,0.0
1759838808.5325427,0,-1.2050001621246338,-0.8299997448921204,-0.7177030073968247,0.0,-1.7349991798400612,-0.34999901056289134,-0.7177046537356627,0.0,-1.9499999272589768,0.1970000563823999,-0.43451641327780993,0.0
1759838808.5427527,0,-1.2050001621246338,-0.8299997448921204,-0.7177030088934835,0.0,-1.7349991798400612,-0.34999901056289134,-0.7177046537356627,0.0,-1.9499999272589768,0.1970000563823999,-0.43451641327780993,0.0
1759838808.5530624,0,-1.2050001621246338,-0.8299997448921204,-0.7177030101741444,0.0,-1.7349991798400612,-0.34999901056289134,-0.7177046537356627,0.0,-1.9499999272589768,0.1970000563823999,-0.43451641327780993,0.0
1759838808.564256,0,-1.2050001621246338,-0.8299997448921204,-0.7177030107159297,0.0,-1.7349991798400612,-0.34999901056289134,-0.7177046537356627,0.0,-1.9499999272589768,0.1970000563823999,-0.43451641327780993,0.0
1759838808.5745578,0,-1.2050001621246338,-0.8299997448921204,-0.7177030120152246,0.0,-1.7349991798400612,-0.34999901056289134,-0.7177046537356627,0.0,-1.9499999272589768,0.1970000563823999,-0.43451641327780993,0.0
1759838808.584765,0,-1.2050001621246338,-0.8299997448921204,-0.717703013319209,0.0,-1.7349991798400612,-0.34999901056289134,-0.7177046537356627,0.0,-1.9499999272589768,0.1970000563823999,-0.43451641327780993,0.0
1759838808.5955296,0,-1.2050001621246338,-0.8299997448921204,-0.7177030141356546,0.0,-1.7349991798400612,-0.34999901056289134,-0.7177046537356627,0.0,-1.9499999272589768,0.1970000563823999,-0.43451641327780993,0.0
1759838808.6068804,0,-1.2050001621246338,-0.8299997448921204,-0.7177030145907892,0.0,-1.7349991798400612,-0.34999901056289134,-0.7177046537356627,0.0,-1.9499999272589768,0.1970000563823999,-0.43451641327780993,0.0
1759838808.6169977,0,-1.2050001621246338,-0.8299997448921204,-0.7177030159501713,0.0,-1.7349991798400612,-0.34999901056289134,-0.7177046537356627,0.0,-1.9499999272589768,0.1970000563823999,-0.43451641327780993,0.0
1759838808.6269994,0,-1.2050001621246338,-0.8299997448921204,-0.7177030172684731,0.0,-1.7349991798400612,-0.34999901056289134,-0.7177046537356627,0.0,-1.9499999272589768,0.1970000563823999,-0.43451641327780993,0.0
1759838808.6383226,0,-1.2050001621246338,-0.8299997448921204,-0.7177030176570298,0.0,-1.7349991798400612,-0.34999901056289134,-0.7177046537356627,0.0,-1.9499999272589768,0.1970000563823999,-0.43451641327780993,0.0
1759838808.6489558,0,-1.2050001621246338,-0.8299997448921204,-0.717703018530429,0.0,-1.7349991798400612,-0.34999901056289134,-0.7177046537356627,0.0,-1.9499999272589768,0.1970000563823999,-0.43451641327780993,0.0
1759838808.6593382,0,-1.2050001621246338,-0.8299997448921204,-0.7177030195440519,0.0,-1.7349991798400612,-0.34999901056289134,-0.7177046537356627,0.0,-1.9499999272589768,0.1970000563823999,-0.43451641327780993,0.0
1759838808.670641,0,-1.2050001621246338,-0.8299997448921204,-0.7177030200058354,0.0,-1.7349991798400612,-0.34999901056289134,-0.7177046537356627,0.0,-1.9499999272589768,0.1970000563823999,-0.43451641327780993,0.0
1759838808.682048,0,-1.2050001621246338,-0.8299997448921204,-0.7177030204928805,0.0,-1.7349991798400612,-0.34999901056289134,-0.7177046537356627,0.0,-1.9499999272589768,0.1970000563823999,-0.43451641327780993,0.0
1759838808.6922913,0,-1.2050001621246338,-0.8299997448921204,-0.7177030216426737,0.0,-1.7349991798400612,-0.34999901056289134,-0.7177046537356627,0.0,-1.9499999272589768,0.1970000563823999,-0.43451641327780993,0.0
1759838808.7028499,0,-1.2050001621246338,-0.8299997448921204,-0.7177030225375916,0.0,-1.7349991798400612,-0.34999901056289134,-0.7177046537356627,0.0,-1.9499999272589768,0.1970000563823999,-0.43451641327780993,0.0
1759838808.7142699,0,-1.2050001621246338,-0.8299997448921204,-0.7177030229611603,0.0,-1.7349991798400612,-0.34999901056289134,-0.7177046537356627,0.0,-1.9499999272589768,0.1970000563823999,-0.43451641327780993,0.0
1759838808.7245624,0,-1.2050001621246338,-0.8299997448921204,-0.7177030239416133,0.0,-1.7349991798400612,-0.34999901056289134,-0.7177046537356627,0.0,-1.9499999272589768,0.1970000563823999,-0.43451641327780993,0.0
1759838808.735592,0,-1.2050001621246338,-0.8299997448921204,-0.7177030245297473,0.0,-1.7349991798400612,-0.34999901056289134,-0.7177046537356627,0.0,-1.9499999272589768,0.1970000563823999,-0.43451641327780993,0.0
1759838808.746192,0,-1.2050001621246338,-0.8299997448921204,-0.7177030252873138,0.0,-1.7349991798400612,-0.34999901056289134,-0.7177046537356627,0.0,-1.9499999272589768,0.1970000563823999,-0.43451641327780993,0.0
1759838808.7566662,0,-1.2050001621246338,-0.8299997448921204,-0.7177030260526003,0.0,-1.7349991798400612,-0.34999901056289134,-0.7177046537356627,0.0,-1.9499999272589768,0.1970000563823999,-0.43451641327780993,0.0
1759838808.7679543,0,-1.2050001621246338,-0.8299997448921204,-0.717703026445303,0.0,-1.7349991798400612,-0.34999901056289134,-0.7177046537356627,0.0,-1.9499999272589768,0.1970000563823999,-0.43451641327780993,0.0
1759838808.7784088,0,-1.2050001621246338,-0.8299997448921204,-0.7177030271853138,0.0,-1.7349991798400612,-0.34999901056289134,-0.7177046537356627,0.0,-1.9499999272589768,0.1970000563823999,-0.43451641327780993,0.0
1759838808.789709,0,-1.2050001621246338,-0.8299997448921204,-0.7177030275785173,0.0,-1.7349991798400612,-0.34999901056289134,-0.7177046537356627,0.0,-1.9499999272589768,0.1970000563823999,-0.43451641327780993,0.0
1759838808.8009963,0,-1.2050001621246338,-0.8299997448921204,-0.7177030280083834,0.0,-1.7349991798400612,-0.34999901056289134,-0.7177046537356627,0.0,-1.9499999272589768,0.1970000563823999,-0.43451641327780993,0.0
1759838808.8113043,0,-1.2050001621246338,-0.8299997448921204,-0.7177030287988657,0.0,-1.7349991798400612,-0.34999901056289134,-0.7177046537356627,0.0,-1.9499999272589768,0.1970000563823999,-0.43451641327780993,0.0
1759838808.8216128,0,-1.2050001621246338,-0.8299997448921204,-0.7177030295103072,0.0,-1.7349991798400612,-0.34999901056289134,-0.7177046537356627,0.0,-1.9499999272589768,0.1970000563823999,-0.43451641327780993,0.0
1759838808.8329318,0,-1.2050001621246338,-0.8299997448921204,-0.7177030298234008,0.0,-1.7349991798400612,-0.34999901056289134,-0.7177046537356627,0.0,-1.9499999272589768,0.1970000563823999,-0.43451641327780993,0.0
1759838808.844289,0,-1.2050001621246338,-0.8299997448921204,-0.7177030301556453,0.0,-1.7349991798400612,-0.34999901056289134,-0.7177046537356627,0.0,-1.9499999272589768,0.1970000563823999,-0.43451641327780993,0.0
1759838808.8555892,0,-1.2050001621246338,-0.8299997448921204,-0.717703030550382,0.0,-1.7349991798400612,-0.34999901056289134,-0.7177046537356627,0.0,-1.9499999272589768,0.1970000563823999,-0.43451641327780993,0.0
1759838808.8675082,0,-1.2050001621246338,-0.8299997448921204,-0.7177030307998411,0.0,-1.7349991798400612,-0.34999901056289134,-0.7177046537356627,0.0,-1.9499999272589768,0.1970000563823999,-0.43451641327780993,0.0
1759838808.8781924,0,-1.2050001621246338,-0.8299997448921204,-0.7177030314416921,0.0,-1.7349991798400612,-0.34999901056289134,-0.7177046537356627,0.0,-1.9499999272589768,0.1970000563823999,-0.43451641327780993,0.0
1759838808.889531,0,-1.2050001621246338,-0.8299997448921204,-0.7177030318655007,0.0,-1.7349991798400612,-0.34999901056289134,-0.7177046537356627,0.0,-1.9499999272589768,0.1970000563823999,-0.43451641327780993,0.0
1759838808.9008634,0,-1.2050001621246338,-0.8299997448921204,-0.7177030322777753,0.0,-1.7349991798400612,-0.34999901056289134,-0.7177046537356627,0.0,-1.9499999272589768,0.1970000563823999,-0.43451641327780993,0.0
1759838808.9120123,0,-1.2050001621246338,-0.8299997448921204,-0.7177030327313361,0.0,-1.7349991798400612,-0.34999901056289134,-0.7177046537356627,0.0,-1.9499999272589768,0.1970000563823999,-0.43451641327780993,0.0
1759838808.9223025,0,-1.2050001621246338,-0.8299997448921204,-0.717703033362648,0.0,-1.7349991798400612,-0.34999901056289134,-0.7177046537356627,0.0,-1.9499999272589768,0.1970000563823999,-0.43451641327780993,0.0
1759838808.9327083,0,-1.2050001621246338,-0.8299997448921204,-0.717703033885309,0.0,-1.7349991798400612,-0.34999901056289134,-0.7177046537356627,0.0,-1.9499999272589768,0.1970000563823999,-0.43451641327780993,0.0
1759838808.943111,0,-1.2050001621246338,-0.8299997448921204,-0.7177030343389887,0.0,-1.7349991798400612,-0.34999901056289134,-0.7177046537356627,0.0,-1.9499999272589768,0.1970000563823999,-0.43451641327780993,0.0
1759838808.9535499,0,-1.2050001621246338,-0.8299997448921204,-0.7177030347342868,0.0,-1.7349991798400612,-0.34999901056289134,-0.7177046537356627,0.0,-1.9499999272589768,0.1970000563823999,-0.43451641327780993,0.0
1759838808.9650254,0,-1.2050001621246338,-0.8299997448921204,-0.7177030348846412,0.0,-1.7349991798400612,-0.34999901056289134,-0.7177046537356627,0.0,-1.9499999272589768,0.1970000563823999,-0.43451641327780993,0.0
1759838808.9763155,0,-1.2050001621246338,-0.8299997448921204,-0.717703035109043,0.0,-1.7349991798400612,-0.34999901056289134,-0.7177046537356627,0.0,-1.9499999272589768,0.1970000563823999,-0.43451641327780993,0.0
1759838808.9877021,0,-1.2050001621246338,-0.8299997448921204,-0.7177030353451261,0.0,-1.7349991798400612,-0.34999901056289134,-0.7177046537356627,0.0,-1.9499999272589768,0.1970000563823999,-0.43451641327780993,0.0
1759838809.0087733,0,-1.2050001621246338,-0.8299997448921204,-0.7177030339094426,0.0,-1.7349991798400612,-0.34999901056289134,-0.7177046537356627,0.0,-1.9499999272589768,0.1970000563823999,-0.43451641327780993,0.0
1759838809.0191116,0,-1.2050001621246338,-0.8299997448921204,-0.7177030348596087,0.0,-1.7349991798400612,-0.34999901056289134,-0.7177046537356627,0.0,-1.9499999272589768,0.1970000563823999,-0.43451641327780993,0.0
1759838809.0298097,0,-1.2050001621246338,-0.8299997448921204,-0.717703035673761,0.0,-1.7349991798400612,-0.34999901056289134,-0.7177046537356627,0.0,-1.9499999272589768,0.1970000563823999,-0.43451641327780993,0.0
1759838809.0404723,0,-1.2050001621246338,-0.8299997448921204,-0.7177030363165818,0.0,-1.7349991798400612,-0.34999901056289134,-0.7177046537356627,0.0,-1.9499999272589768,0.1970000563823999,-0.43451641327780993,0.0
1759838809.0511081,0,-1.2050001621246338,-0.8299997448921204,-0.7177030368320736,0.0,-1.7349991798400612,-0.34999901056289134,-0.7177046537356627,0.0,-1.9499999272589768,0.1970000563823999,-0.43451641327780993,0.0
1759838809.0625567,0,-1.2050001621246338,-0.8299997448921204,-0.7177030371357684,0.0,-1.7349991798400612,-0.34999901056289134,-0.7177046537356627,0.0,-1.9499999272589768,0.1970000563823999,-0.43451641327780993,0.0
1759838809.075297,0,-1.2050001621246338,-0.8299997448921204,-0.7177030372299775,0.0,-1.7349991798400612,-0.34999901056289134,-0.7177046537356627,0.0,-1.9499999272589768,0.1970000563823999,-0.43451641327780993,0.0
1759838809.0866075,0,-1.2050001621246338,-0.8299997448921204,-0.7177030375581737,0.0,-1.7349991798400612,-0.34999901056289134,-0.7177046537356627,0.0,-1.9499999272589768,0.1970000563823999,-0.43451641327780993,0.0
1759838809.096757,0,-1.2050001621246338,-0.8299997448921204,-0.717703038017067,0.0,-1.7349991798400612,-0.34999901056289134,-0.7177046537356627,0.0,-1.9499999272589768,0.1970000563823999,-0.43451641327780993,0.0
1759838809.10742,0,-1.2050001621246338,-0.8299997448921204,-0.717703038334907,0.0,-1.7349991798400612,-0.34999901056289134,-0.7177046537356627,0.0,-1.9499999272589768,0.1970000563823999,-0.43451641327780993,0.0
1759838809.1186807,0,-1.2050001621246338,-0.8299997448921204,-0.7177030385316119,0.0,-1.7349991798400612,-0.34999901056289134,-0.7177046537356627,0.0,-1.9499999272589768,0.1970000563823999,-0.43451641327780993,0.0
1759838809.1295953,0,-1.2050001621246338,-0.8299997448921204,-0.7177030387595895,0.0,-1.7349991798400612,-0.34999901056289134,-0.7177046537356627,0.0,-1.9499999272589768,0.1970000563823999,-0.43451641327780993,0.0
1759838809.1396563,0,-1.2050001621246338,-0.8299997448921204,-0.7177030390696935,0.0,-1.7349991798400612,-0.34999901056289134,-0.7177046537356627,0.0,-1.9499999272589768,0.1970000563823999,-0.43451641327780993,0.0
1759838809.1509368,0,-1.2050001621246338,-0.8299997448921204,-0.7177030392022415,0.0,-1.7349991798400612,-0.34999901056289134,-0.7177046537356627,0.0,-1.9499999272589768,0.1970000563823999,-0.43451641327780993,0.0
1759838809.1616673,0,-1.2050001621246338,-0.8299997448921204,-0.7177030393934949,0.0,-1.7349991798400612,-0.34999901056289134,-0.7177046537356627,0.0,-1.9499999272589768,0.1970000563823999,-0.43451641327780993,0.0
1759838809.172253,0,-1.2050001621246338,-0.8299997448921204,-0.7177030395910009,0.0,-1.7349991798400612,-0.34999901056289134,-0.7177046537356627,0.0,-1.9499999272589768,0.1970000563823999,-0.43451641327780993,0.0
1759838809.1830251,0,-1.2050001621246338,-0.8299997448921204,-0.7177030397540225,0.0,-1.7349991798400612,-0.34999901056289134,-0.7177046537356627,0.0,-1.9499999272589768,0.1970000563823999,-0.43451641327780993,0.0
1759838809.1943696,0,-1.2050001621246338,-0.8299997448921204,-0.7177030398538945,0.0,-1.7349991798400612,-0.34999901056289134,-0.7177046537356627,0.0,-1.9499999272589768,0.1970000563823999,-0.43451641327780993,0.0
1759838809.205368,0,-1.2050001621246338,-0.8299997448921204,-0.7177030399969393,0.0,-1.7349991798400612,-0.34999901056289134,-0.7177046537356627,0.0,-1.9499999272589768,0.1970000563823999,-0.43451641327780993,0.0
1759838809.216321,0,-1.2050001621246338,-0.8299997448921204,-0.71770304014521,0.0,-1.7349991798400612,-0.34999901056289134,-0.7177046537356627,0.0,-1.9499999272589768,0.1970000563823999,-0.43451641327780993,0.0
1759838809.228131,0,-1.2050001621246338,-0.8299997448921204,-0.7177030402156248,0.0,-1.7349991798400612,-0.34999901056289134,-0.7177046537356627,0.0,-1.9499999272589768,0.1970000563823999,-0.43451641327780993,0.0
1759838809.2395415,0,-1.2050001621246338,-0.8299997448921204,-0.7177030403376499,0.0,-1.7349991798400612,-0.34999901056289134,-0.7177046537356627,0.0,-1.9499999272589768,0.1970000563823999,-0.43451641327780993,0.0
1759838809.2496586,0,-1.2050001621246338,-0.8299997448921204,-0.7177030405701323,0.0,-1.7349991798400612,-0.34999901056289134,-0.7177046537356627,0.0,-1.9499999272589768,0.1970000563823999,-0.43451641327780993,0.0
1759838809.2608147,0,-1.2050001621246338,-0.8299997448921204,-0.7177030406908571,0.0,-1.7349991798400612,-0.34999901056289134,-0.7177046537356627,0.0,-1.9499999272589768,0.1970000563823999,-0.43451641327780993,0.0
1759838809.2711506,0,-1.2050001621246338,-0.8299997448921204,-0.7177030408663541,0.0,-1.7349991798400612,-0.34999901056289134,-0.7177046537356627,0.0,-1.9499999272589768,0.1970000563823999,-0.43451641327780993,0.0
1759838809.281859,0,-1.2050001621246338,-0.8299997448921204,-0.7177030409960281,0.0,-1.7349991798400612,-0.34999901056289134,-0.7177046537356627,0.0,-1.9499999272589768,0.1970000563823999,-0.43451641327780993,0.0
1759838809.29269,0,-1.2050001621246338,-0.8299997448921204,-0.7177030411066737,0.0,-1.7349991798400612,-0.34999901056289134,-0.7177046537356627,0.0,-1.9499999272589768,0.1970000563823999,-0.43451641327780993,0.0
1759838809.3027549,0,-1.2050001621246338,-0.8299997448921204,-0.7177030412657608,0.0,-1.7349991798400612,-0.34999901056289134,-0.7177046537356627,0.0,-1.9499999272589768,0.1970000563823999,-0.43451641327780993,0.0
1759838809.3128655,0,-1.2050001621246338,-0.8299997448921204,-0.7177030414033165,0.0,-1.7349991798400612,-0.34999901056289134,-0.7177046537356627,0.0,-1.9499999272589768,0.1970000563823999,-0.43451641327780993,0.0
1759838809.324269,0,-1.2050001621246338,-0.8299997448921204,-0.7177030414411227,0.0,-1.7349991798400612,-0.34999901056289134,-0.7177046537356627,0.0,-1.9499999272589768,0.1970000563823999,-0.43451641327780993,0.0
1759838809.335029,0,-1.2050001621246338,-0.8299997448921204,-0.7177030415311343,0.0,-1.7349991798400612,-0.34999901056289134,-0.7177046537356627,0.0,-1.9499999272589768,0.1970000563823999,-0.43451641327780993,0.0
1759838809.3453794,0,-1.2050001621246338,-0.8299997448921204,-0.7177030416480861,0.0,-1.7349991798400612,-0.34999901056289134,-0.7177046537356627,0.0,-1.9499999272589768,0.1970000563823999,-0.43451641327780993,0.0
1759838809.356794,0,-1.2050001621246338,-0.8299997448921204,-0.7177030416942713,0.0,-1.7349991798400612,-0.34999901056289134,-0.7177046537356627,0.0,-1.9499999272589768,0.1970000563823999,-0.43451641327780993,0.0
1759838809.3676023,0,-1.2050001621246338,-0.8299997448921204,-0.7177030417836061,0.0,-1.7349991798400612,-0.34999901056289134,-0.7177046537356627,0.0,-1.9499999272589768,0.1970000563823999,-0.43451641327780993,0.0
1759838809.3785005,0,-1.2050001621246338,-0.8299997448921204,-0.7177030418682477,0.0,-1.7349991798400612,-0.34999901056289134,-0.7177046537356627,0.0,-1.9499999272589768,0.1970000563823999,-0.43451641327780993,0.0
1759838809.388539,0,-1.2050001621246338,-0.8299997448921204,-0.7177030419959394,0.0,-1.7349991798400612,-0.34999901056289134,-0.7177046537356627,0.0,-1.9499999272589768,0.1970000563823999,-0.43451641327780993,0.0
1759838809.3991308,0,-1.2050001621246338,-0.8299997448921204,-0.7177030420802293,0.0,-1.7349991798400612,-0.34999901056289134,-0.7177046537356627,0.0,-1.9499999272589768,0.1970000563823999,-0.43451641327780993,0.0
1759838809.4105628,0,-1.2050001621246338,-0.8299997448921204,-0.7177030421169482,0.0,-1.7349991798400612,-0.34999901056289134,-0.7177046537356627,0.0,-1.9499999272589768,0.1970000563823999,-0.43451641327780993,0.0
1759838809.421194,0,-1.2050001621246338,-0.8299997448921204,-0.7177030422007391,0.0,-1.7349991798400612,-0.34999901056289134,-0.7177046537356627,0.0,-1.9499999272589768,0.1970000563823999,-0.43451641327780993,0.0
1759838809.4326086,0,-1.2050001621246338,-0.8299997448921204,-0.7177030422467183,0.0,-1.7349991798400612,-0.34999901056289134,-0.7177046537356627,0.0,-1.9499999272589768,0.1970000563823999,-0.43451641327780993,0.0
1759838809.4428277,0,-1.2050001621246338,-0.8299997448921204,-0.7177030423510189,0.0,-1.7349991798400612,-0.34999901056289134,-0.7177046537356627,0.0,-1.9499999272589768,0.1970000563823999,-0.43451641327780993,0.0
1759838809.4529305,0,-1.2050001621246338,-0.8299997448921204,-0.7177030424501502,0.0,-1.7349991798400612,-0.34999901056289134,-0.7177046537356627,0.0,-1.9499999272589768,0.1970000563823999,-0.43451641327780993,0.0
1759838809.4635255,0,-1.2050001621246338,-0.8299997448921204,-0.7177030425156872,0.0,-1.7349991798400612,-0.34999901056289134,-0.7177046537356627,0.0,-1.9499999272589768,0.1970000563823999,-0.43451641327780993,0.0
1759838809.4745414,0,-1.2050001621246338,-0.8299997448921204,-0.7177030425601156,0.0,-1.7349991798400612,-0.34999901056289134,-0.7177046537356627,0.0,-1.9499999272589768,0.1970000563823999,-0.43451641327780993,0.0
1759838809.4858115,0,-1.2050001621246338,-0.8299997448921204,-0.7177030425980497,0.0,-1.7349991798400612,-0.34999901056289134,-0.7177046537356627,0.0,-1.9499999272589768,0.1970000563823999,-0.43451641327780993,0.0
1759838809.4965503,0,-1.2050001621246338,-0.8299997448921204,-0.7177030426619666,0.0,-1.7349991798400612,-0.34999901056289134,-0.7177046537356627,0.0,-1.9499999272589768,0.1970000563823999,-0.43451641327780993,0.0
1759838809.5077846,0,-1.2050001621246338,-0.8299997448921204,-0.7177030427067344,0.0,-1.7349991798400612,-0.34999901056289134,-0.7177046537356627,0.0,-1.9499999272589768,0.1970000563823999,-0.43451641327780993,0.0
1759838809.518925,0,-1.2050001621246338,-0.8299997448921204,-0.7177030427571616,0.0,-1.7349991798400612,-0.34999901056289134,-0.7177046537356627,0.0,-1.9499999272589768,0.1970000563823999,-0.43451641327780993,0.0
1759838809.529178,0,-1.2050001621246338,-0.8299997448921204,-0.7177030428385809,0.0,-1.7349991798400612,-0.34999901056289134,-0.7177046537356627,0.0,-1.9499999272589768,0.1970000563823999,-0.43451641327780993,0.0
1759838809.5399625,0,-1.2050001621246338,-0.8299997448921204,-0.7177030428938771,0.0,-1.7349991798400612,-0.34999901056289134,-0.7177046537356627,0.0,-1.9499999272589768,0.1970000563823999,-0.43451641327780993,0.0
1759838809.5511403,0,-1.2050001621246338,-0.8299997448921204,-0.7177030429330422,0.0,-1.7349991798400612,-0.34999901056289134,-0.7177046537356627,0.0,-1.9499999272589768,0.1970000563823999,-0.43451641327780993,0.0
