timestamp,observer_vehicle_id,vehicle_0_x,vehicle_0_y,vehicle_0_theta,vehicle_0_velocity,vehicle_1_x,vehicle_1_y,vehicle_1_theta,vehicle_1_velocity,vehicle_2_x,vehicle_2_y,vehicle_2_theta,vehicle_2_velocity
1759838806.9970484,2,0.0,0.0,0.0,0.0,0.0,0.0,0.0,0.0,-1.95,0.197,-0.8848819307611251,0.0
1759838807.0085685,2,0.0,0.0,0.0,0.0,0.0,0.0,0.0,0.0,-1.95,0.197,-0.8848819307611251,0.0
1759838807.0200658,2,0.0,0.0,0.0,0.0,0.0,0.0,0.0,0.0,-1.95,0.197,-0.8848819307611251,0.0
1759838807.0300722,2,0.0,0.0,0.0,0.0,-0.34186785368328854,-0.06896453434833347,-0.14141802048297905,0.0,-1.95,0.197,-0.8848819307611251,0.0
1759838807.0410004,2,-0.2363819468960628,-0.16281902840154316,-0.14079005817958434,0.0,-0.61332848238044,-0.12372591553788649,-0.2537111897172548,0.0,-1.95,0.197,-0.8848819307611251,0.0
1759838807.0519054,2,-0.4242808613698523,-0.29224311976745043,-0.25270342317220584,0.0,-0.8294468859207226,-0.1673231853708921,-0.34311133801819,0.0,-1.95,0.197,-0.8848819307611251,0.0
1759838807.0623488,2,-0.574099231557828,-0.39543747022871745,-0.34193585962561307,0.0,-1.0020331615103102,-0.20213877859708518,-0.41450386350267204,0.0,-1.95,0.197,-0.8848819307611251,0.0
1759838807.073779,2,-0.6937255029749935,-0.477835612469277,-0.41318575807930075,0.0,-1.1400511794706398,-0.22998096451121325,-0.4715967860475805,0.0,-1.95,0.197,-0.8848819307611251,0.0
1759838807.0838997,2,-0.7896343354210931,-0.5438972686957849,-0.47030945249560757,0.0,-1.2508760576047593,-0.25233751553636735,-0.5174409176824721,0.0,-1.95,0.197,-0.8848819307611251,0.0
1759838807.0942988,2,-0.8666879650875443,-0.5969715295767155,-0.5162029107149777,0.0,-1.3400499673241855,-0.2703264463280815,-0.5543288486633474,0.0,-1.95,0.197,-0.8848819307611251,0.0
1759838807.1043456,2,-0.9287677544429463,-0.6397318635148374,-0.5531778881609772,0.0,-1.4120047430806637,-0.2848417847862608,-0.5840938641280794,0.0,-1.95,0.197,-0.8848819307611251,0.0
1759838807.1157546,2,-0.9788256844274877,-0.6742115842841193,-0.5829925968027163,0.0,-1.4740299502532062,-0.29735404496055634,-0.6097513862492252,0.0,-1.95,0.197,-0.8848819307611251,0.0
1759838807.1261704,2,-1.0221026462762008,-0.7040205987748764,-0.6087685329794119,0.0,-1.52360070419427,-0.30735388532579977,-0.630256964122857,0.0,-1.95,0.197,-0.8848819307611251,0.0
1759838807.13643,2,-1.0567235610642778,-0.7278673594187672,-0.6293888919841841,0.0,-1.5633217861813093,-0.3153667648449894,-0.6466880989181546,0.0,-1.95,0.197,-0.8848819307611251,0.0
1759838807.1473658,2,-1.0844667325444608,-0.7469767553963161,-0.6459128388340618,0.0,-1.59520392145201,-0.3217983043690635,-0.6598765529075431,0.0,-1.95,0.197,-0.8848819307611251,0.0
1759838807.1579795,2,-1.1067631800968751,-0.762334467670707,-0.6591926945477586,0.0,-1.620868490607877,-0.32697558278824085,-0.6704930309632237,0.0,-1.95,0.197,-0.8848819307611251,0.0
1759838807.1683724,2,-1.124731005130538,-0.7747106404406023,-0.6698944049155231,0.0,-1.64158415285292,-0.3311545249878496,-0.6790623302293723,0.0,-1.95,0.197,-0.8848819307611251,0.0
1759838807.1793537,2,-1.1392361712847923,-0.784701746322631,-0.678533741436683,0.0,-1.6583345873068251,-0.3345335672107432,-0.6859913621847888,0.0,-1.95,0.197,-0.8848819307611251,0.0
1759838807.1948555,2,-1.15091626700763,-0.7927469539292239,-0.6854904544088649,0.0,-1.6726376207280456,-0.33741889857207363,-0.6919079953269173,0.0,-1.9499999290704728,0.19700005603432655,-0.4727053897837017,0.0
1759838807.2062368,2,-1.1609837688778535,-0.7996814127339873,-0.6914866998609556,0.0,-1.6841302371527618,-0.3397372883581716,-0.6966620634483944,0.0,-1.9499999286736618,0.19700005634780712,-0.43747594636216114,0.0
1759838807.2169833,2,-1.1690826410852,-0.8052598865610442,-0.6963104214024433,0.0,-1.69339554602593,-0.3416063664395038,-0.7004947772466935,0.0,-1.9499999285491656,0.19700005644615914,-0.4341733584131333,0.0
1759838807.2281945,2,-1.175610811937162,-0.8097564669865497,-0.7001986267672046,0.0,-1.700879979345872,-0.34311619093224227,-0.7035908090412583,0.0,-1.9499999285028997,0.19700005648270913,-0.4337351605922102,0.0
1759838807.2384977,2,-1.1808918971842985,-0.8133940593667435,-0.7033440628250717,0.0,-1.7069476661868064,-0.34434021709629403,-0.7061007854918389,0.0,-1.949999928485298,0.19700005649661453,-0.4337060244761872,0.0
1759838807.2491856,2,-1.1851724709356743,-0.8163425030543938,-0.7058935901278619,0.0,-1.7118763264132844,-0.3453344689799329,-0.708139588980825,0.0,-1.9499999284785787,0.19700005650192284,-0.4337565513116495,0.0
1759838807.2594414,2,-1.188652332130252,-0.8187394188346098,-0.7079662097440158,0.0,-1.7158915906729708,-0.3461444627449837,-0.7098005545182484,0.0,-1.9499999284760123,0.19700005650395025,-0.43384121488401567,0.0
1759838807.2698789,2,-1.1914873338328609,-0.820692157733653,-0.7096547483988946,0.0,-1.7193749259575692,-0.34684715120572446,-0.7112414808157024,0.0,-1.949999928475032,0.19700005650472466,-0.43392150987855693,0.0
1759838807.280785,2,-1.1939466655922173,-0.8223861365371676,-0.7111195364930334,0.0,-1.7221891649409513,-0.34741486378514025,-0.7124056268502245,0.0,-1.9499999284746576,0.19700005650502045,-0.4339893938329559,0.0
1759838807.291126,2,-1.195935538830866,-0.8237560652165054,-0.7123041175604881,0.0,-1.7244700100005177,-0.34787497553814356,-0.7133491276499547,0.0,-1.9499999284745146,0.19700005650513341,-0.4340554069777518,0.0
1759838807.30127,2,-1.1975481606403358,-0.8248668332749157,-0.7132646017317973,0.0,-1.726323385126848,-0.348248854366419,-0.714115800031561,0.0,-1.94999992847446,0.19700005650517657,-0.4341116064483046,0.0
1759838807.312018,2,-1.1988578738368443,-0.8257689589784237,-0.7140446722894532,0.0,-1.7278318744367702,-0.34855315985085517,-0.7147398059737126,0.0,-1.9499999284744391,0.19700005650519306,-0.4341531609469591,0.0
1759838807.3233871,2,-1.1999234341166571,-0.8265029130376934,-0.7146793243674086,0.0,-1.7290617803419945,-0.34880126708624515,-0.7152485723190218,0.0,-1.9499999284744312,0.19700005650519936,-0.434185341808341,0.0
1759838807.3342903,2,-1.200793071239394,-0.8271019159363714,-0.7151972838085289,0.0,-1.7300676877932493,-0.3490041874200112,-0.7156646788321465,0.0,-1.949999928474428,0.19700005650520178,-0.43421759789212194,0.0
1759838807.345503,2,-1.2015043059413302,-0.8275918118216339,-0.715620898117404,0.0,-1.7308921163591418,-0.3491704982665494,-0.7160057142777492,0.0,-1.949999928474427,0.1970000565052027,-0.4342441027967432,0.0
1759838807.3560607,2,-1.202087920417239,-0.8279938033576894,-0.7159685012956356,0.0,-1.731614416953019,-0.3493162069770338,-0.716304503178429,0.0,-1.9499999284744265,0.19700005650520303,-0.43427052901136065,0.0
1759838807.3673296,2,-1.2026000742556602,-0.8283465730656083,-0.7162735422247549,0.0,-1.7322020595847023,-0.34943475132105634,-0.7165475890867081,0.0,-1.9499999284744263,0.19700005650520316,-0.4342896871094801,0.0
1759838807.378102,2,-1.2030169885136421,-0.8286337420956579,-0.7165218580687013,0.0,-1.7326816527807887,-0.3495314990002791,-0.7167459789607395,0.0,-1.9499999284744263,0.19700005650520322,-0.4343087439021201,0.0
1759838807.393019,2,-1.2033555649061798,-0.8288669522878768,-0.7167235155583259,0.0,-1.7330721010438854,-0.3496102635941462,-0.7169074928903859,0.0,-1.9499999284744263,0.19700005650520325,-0.4343104840843104,0.0
1759838807.3998084,2,-1.2036341048207826,-0.8290588095716592,-0.7168894150751766,0.0,-1.7333941512892228,-0.3496752303494792,-0.7170407131031115,0.0,-1.9499999284744263,0.19700005650520325,-0.43434400935642076,0.0
1759838807.410987,2,-1.2038624152717858,-0.8292160689829401,-0.71702539771726,0.0,-1.7336587926659244,-0.34972861609229444,-0.7171501854013338,0.0,-1.9499999284744263,0.19700005650520325,-0.43435493855728957,0.0
1759838807.4212754,2,-1.2040502268444244,-0.8293454329135664,-0.7171372590610969,0.0,-1.7338938624069944,-0.3497760363895163,-0.7172474250133632,0.0,-1.9499999284744263,0.19700005650520325,-0.4343665984512626,0.0
1759838807.4315126,2,-1.2042159562958383,-0.8294595867591161,-0.717235968202861,0.0,-1.7340854438330289,-0.3498146838484508,-0.7173266751263505,0.0,-1.9499999284744263,0.19700005650520325,-0.4343768452601573,0.0
1759838807.4422405,2,-1.2043510893606604,-0.8295526659244591,-0.717316454011139,0.0,-1.7342418585223904,-0.34984623716971464,-0.7173913780678691,0.0,-1.9499999284744263,0.19700005650520325,-0.43438434600131615,0.0
1759838807.4529378,2,-1.204461547843311,-0.8296287493270201,-0.7173822435369593,0.0,-1.7343698776439938,-0.3498720622919481,-0.7174443348187484,0.0,-1.9499999284744263,0.19700005650520325,-0.434391330971188,0.0
1759838807.4634655,2,-1.2045520745596647,-0.8296911038011865,-0.7174361616209316,0.0,-1.7344749311455965,-0.34989325459108256,-0.717487791546491,0.0,-1.9499999284744263,0.19700005650520325,-0.4343982637695749,0.0
1759838807.4742665,2,-1.204626418180252,-0.8297423114176344,-0.7174804409866159,0.0,-1.7345613148939811,-0.349910680666446,-0.7175235252914655,0.0,-1.9499999284744263,0.19700005650520325,-0.4344039585370201,0.0
1759838807.4856274,2,-1.204687578004067,-0.8297844380826421,-0.7175168680288084,0.0,-1.73463246974332,-0.34992503463684244,-0.7175529594071122,0.0,-1.9499999284744263,0.19700005650520325,-0.43440810440311856,0.0
1759838807.4957628,2,-1.204738095940841,-0.8298192346544209,-0.7175469567193827,0.0,-1.7346950265110284,-0.34993765412799627,-0.7175788368160636,0.0,-1.9499999284744263,0.19700005650520325,-0.4344149999241349,0.0
1759838807.5071528,2,-1.2047798524919258,-0.8298479964154871,-0.7175718270926654,0.0,-1.7347462189127174,-0.34994798110114284,-0.717600013209318,0.0,-1.9499999284744263,0.19700005650520325,-0.43441856749512725,0.0
1759838807.5186613,2,-1.2048168424875776,-0.8298734749904447,-0.7175938584859604,0.0,-1.7347882128231624,-0.34995645247523693,-0.7176173845287429,0.0,-1.9499999284744263,0.19700005650520325,-0.43442198148569494,0.0
1759838807.5292048,2,-1.2048472352923338,-0.8298944094442209,-0.7176119605652691,0.0,-1.7348227904769038,-0.34996342777801387,-0.7176316880185049,0.0,-1.9499999284744263,0.19700005650520325,-0.43442737186076735,0.0
1759838807.5399263,2,-1.2048722613145197,-0.8299116472776114,-0.7176268661668425,0.0,-1.7348513225972533,-0.3499691835236117,-0.7176434906958744,0.0,-1.9499999284744263,0.19700005650520325,-0.4344319311236102,0.0
1759838807.550372,2,-1.2048929247024507,-0.8299258801443364,-0.7176391733655401,0.0,-1.7348749305712265,-0.34997394592789877,-0.717653256436967,0.0,-1.9499999284744263,0.19700005650520325,-0.43443648916419875,0.0
1759838807.5615714,2,-1.204910009556004,-0.8299376481295504,-0.7176493491744685,0.0,-1.7348944908172843,-0.34997789178957184,-0.7176613477835145,0.0,-1.9499999284744263,0.19700005650520325,-0.43443933692023506,0.0
1759838807.5718002,2,-1.2049241880527297,-0.8299474142267138,-0.7176577939453368,0.0,-1.7349107575734763,-0.3499811732600408,-0.717668076735756,0.0,-1.9499999284744263,0.19700005650520325,-0.4344436356467191,0.0
1759838807.5832138,2,-1.2049359632383243,-0.8299555249318794,-0.7176648072942271,0.0,-1.7349252728052782,-0.3499841013978911,-0.7176740811474788,0.0,-1.9499999284744263,0.19700005650520325,-0.4344457304954865,0.0
1759838807.5976965,2,-1.204946405705365,-0.8299627176653348,-0.7176710268704745,0.0,-1.7349371911688982,-0.3499865056730764,-0.7176790113313858,0.0,-1.9499999284744263,0.19700005650520325,-0.43444371793999714,0.0
1759838807.6081805,2,-1.204955036904608,-0.8299686628040951,-0.7176761676481843,0.0,-1.7349470575810255,-0.34998849601089466,-0.7176830926992515,0.0,-1.9499999284744263,0.19700005650520325,-0.4344486161761232,0.0
1759838807.6187768,2,-1.2049621866356406,-0.8299735875129206,-0.717680426057345,0.0,-1.7349552431476485,-0.3499901472740492,-0.7176864787638253,0.0,-1.9499999284744263,0.19700005650520325,-0.43445294723367844,0.0
1759838807.6290479,2,-1.2049681255390436,-0.8299776782080627,-0.7176839632925975,0.0,-1.734962052952418,-0.3499915210066475,-0.717689295726871,0.0,-1.9499999284744263,0.19700005650520325,-0.4344569737804314,0.0
1759838807.6404655,2,-1.204973062514015,-0.8299810787785318,-0.717686903775162,0.0,-1.7349677225165479,-0.34999266472006174,-0.7176916410147581,0.0,-1.9499999284744263,0.19700005650520325,-0.4344590028863422,0.0
1759838807.6518884,2,-1.204977176768931,-0.8299839126624082,-0.7176893542422834,0.0,-1.7349724544275973,-0.3499936192820031,-0.7176935984304277,0.0,-1.9499999284744263,0.19700005650520325,-0.4344609582201038,0.0
1759838807.6633205,2,-1.2049806138443726,-0.8299862801075167,-0.7176914013785294,0.0,-1.7349767046874096,-0.34999447668109945,-0.7176953566048881,0.0,-1.9499999284744263,0.19700005650520325,-0.43446293828272786,0.0
1759838807.6744425,2,-1.204983690753708,-0.8299883994715167,-0.7176932339983637,0.0,-1.7349802290160463,-0.349995187639093,-0.7176968144886112,0.0,-1.9499999284744263,0.19700005650520325,-0.4344652411988914,0.0
1759838807.6855435,2,-1.204986246786174,-0.8299901600574168,-0.7176947563817959,0.0,-1.7349831586200701,-0.3499957786241042,-0.7176980263568737,0.0,-1.9499999284744263,0.19700005650520325,-0.43446743275506355,0.0
1759838807.6965227,2,-1.204988375616938,-0.8299916263883323,-0.7176960243221401,0.0,-1.734985600157248,-0.34999627115205834,-0.7176990363300282,0.0,-1.9499999284744263,0.19700005650520325,-0.4344695886494563,0.0
1759838807.7077045,2,-1.2049901524106945,-0.829992850237433,-0.7176970825877972,0.0,-1.7349876392497596,-0.34999668249540067,-0.7176998798267872,0.0,-1.9499999284744263,0.19700005650520325,-0.43447138957688125,0.0
1759838807.7180908,2,-1.2049916405635155,-0.829993875271703,-0.7176979689377277,0.0,-1.7349893481844028,-0.3499970272364479,-0.7177005867495112,0.0,-1.9499999284744263,0.19700005650520325,-0.4344738008093181,0.0
1759838807.7287912,2,-1.2049928892344386,-0.8299947353517098,-0.7176987126512566,0.0,-1.7349908817538617,-0.3499973366013165,-0.7177012211301786,0.0,-1.9499999284744263,0.19700005650520325,-0.4344756516074746,0.0
1759838807.7387943,2,-1.2049939403863732,-0.8299954593813531,-0.717699338721665,0.0,-1.734992159511519,-0.34999759436162037,-0.7177017496910146,0.0,-1.9499999284744263,0.19700005650520325,-0.4344778832209873,0.0
1759838807.749793,2,-1.2049948958755314,-0.8299961175188229,-0.7176999078149311,0.0,-1.734993225074294,-0.349997809316141,-0.7177021904747173,0.0,-1.9499999284744263,0.19700005650520325,-0.43447901401437505,0.0
1759838807.7599938,2,-1.2049956938837114,-0.8299966671839651,-0.7177003831118797,0.0,-1.7349941167547225,-0.34999798919361375,-0.717702559329758,0.0,-1.9499999284744263,0.19700005650520325,-0.4344807298133766,0.0
1759838807.7701588,2,-1.2049963618837605,-0.8299971272999783,-0.7177007809754518,0.0,-1.734994864619629,-0.349998140059378,-0.7177028686936643,0.0,-1.9499999284744263,0.19700005650520325,-0.43448231097060847,0.0
1759838807.7803574,2,-1.2049969222666745,-0.8299975132896988,-0.7177011147418164,0.0,-1.7349954932160816,-0.3499982668652803,-0.7177031287206457,0.0,-1.9499999284744263,0.19700005650520325,-0.4344836901488592,0.0
1759838807.7938662,2,-1.2049973912622969,-0.8299978363321839,-0.7177013940775349,0.0,-1.7349960202847674,-0.3499983731901251,-0.7177033467493646,0.0,-1.9499999284744263,0.19700005650520325,-0.43448265663661617,0.0
1759838807.8050811,2,-1.2049977861519843,-0.8299981083307696,-0.7177016292754542,0.0,-1.734996464912715,-0.34999846288431263,-0.7177035306754154,0.0,-1.9499999284744263,0.19700005650520325,-0.4344837701372377,0.0
1759838807.8163507,2,-1.2049981194086958,-0.8299983378767848,-0.71770182776452,0.0,-1.7349968701069052,-0.3499985446235822,-0.7177036982891868,0.0,-1.9499999284744263,0.19700005650520325,-0.43448497071417336,0.0
1759838807.8267963,2,-1.2049984237749798,-0.8299985475231781,-0.7177020090463284,0.0,-1.7349972100018565,-0.34999861319012565,-0.717703838891091,0.0,-1.9499999284744263,0.19700005650520325,-0.4344866410874353,0.0
1759838807.8376195,2,-1.2049986790275289,-0.8299987233402091,-0.7177021610757949,0.0,-1.734997495614649,-0.34999867080640346,-0.7177039570384842,0.0,-1.9499999284744263,0.19700005650520325,-0.43448788498983854,0.0
1759838807.8484485,2,-1.2049988935876963,-0.8299988711284748,-0.7177022888687117,0.0,-1.7349977361678943,-0.3499987193328805,-0.7177040565464181,0.0,-1.9499999284744263,0.19700005650520325,-0.4344890018843621,0.0
1759838807.8592849,2,-1.2049990743581054,-0.8299989956424775,-0.7177023965363095,0.0,-1.7349979392347559,-0.34999876029728066,-0.7177041405476289,0.0,-1.9499999284744263,0.19700005650520325,-0.43449003500328937,0.0
1759838807.8700328,2,-1.2049992270299328,-0.829999100802279,-0.7177024874682768,0.0,-1.7349981110714596,-0.3499987949616638,-0.7177042116300845,0.0,-1.9499999284744263,0.19700005650520325,-0.434491052786246,0.0
1759838807.8800912,2,-1.2049993563926247,-0.8299991899068324,-0.7177025645172272,0.0,-1.734998256956977,-0.3499988243909496,-0.7177042719774989,0.0,-1.9499999284744263,0.19700005650520325,-0.4344923575786659,0.0
1759838807.8913722,2,-1.2049994660411532,-0.8299992654323414,-0.7177026298243409,0.0,-1.7349983909156992,-0.34999885141425935,-0.7177043273912417,0.0,-1.9499999284744263,0.19700005650520325,-0.4344928865218521,0.0
1759838807.902215,2,-1.204999566656362,-0.8299993347357326,-0.7177026897511725,0.0,-1.734998503719158,-0.3499988741699468,-0.7177043740538386,0.0,-1.9499999284744263,0.19700005650520325,-0.43449365986806754,0.0
1759838807.913147,2,-1.204999651426243,-0.8299993931249195,-0.7177027402404617,0.0,-1.7349985989152756,-0.3499988933737293,-0.7177044134329331,0.0,-1.9499999284744263,0.19700005650520325,-0.43449439068529294,0.0
1759838807.9245641,2,-1.2049997229622795,-0.8299994423986823,-0.7177027828476187,0.0,-1.7349986793815195,-0.34999890960607455,-0.7177044467188265,0.0,-1.9499999284744263,0.19700005650520325,-0.43449489627822935,0.0
1759838807.935718,2,-1.2049997834982338,-0.8299994840956281,-0.7177028189030815,0.0,-1.7349987475856419,-0.3499989233647989,-0.7177044749323361,0.0,-1.9499999284744263,0.19700005650520325,-0.4344955712576528,0.0
1759838807.9464567,2,-1.2049998348764774,-0.8299995194847761,-0.7177028495041743,0.0,-1.7349988055663221,-0.34999893506116214,-0.7177044989167878,0.0,-1.9499999284744263,0.19700005650520325,-0.43449643129539695,0.0
1759838807.9574728,2,-1.2049998785618763,-0.8299995495751205,-0.7177028755233772,0.0,-1.7349988549451232,-0.34999894502228013,-0.7177045193429618,0.0,-1.9499999284744263,0.19700005650520325,-0.43449711968417226,0.0
1759838807.9688072,2,-1.2049999157727682,-0.829999575205848,-0.7177028976863372,0.0,-1.7349989009039868,-0.3499989542934988,-0.717704538354435,0.0,-1.9499999284744263,0.19700005650520325,-0.4344976563387313,0.0
1759838807.979275,2,-1.2049999475848614,-0.8299995971179026,-0.7177029166337506,0.0,-1.734998939777652,-0.3499989621354301,-0.717704554435025,0.0,-1.9499999284744263,0.19700005650520325,-0.4344985342368197,0.0
1759838807.9894364,2,-1.2049999773433608,-0.8299996176154492,-0.7177029343580351,0.0,-1.7349989727458517,-0.34999896878605985,-0.7177045680727435,0.0,-1.9499999284744263,0.19700005650520325,-0.43449943871210905,0.0
1759838808.000766,2,-1.2050000025554006,-0.8299996349814108,-0.7177029493744296,0.0,-1.7349990007172091,-0.3499989744286835,-0.7177045796434539,0.0,-1.9499999284744263,0.19700005650520325,-0.43449981276440747,0.0
1759838808.0116222,2,-1.2050000239809824,-0.8299996497392739,-0.7177029621355939,0.0,-1.7349990245216744,-0.34999897923072576,-0.7177045894904762,0.0,-1.9499999284744263,0.19700005650520325,-0.4345003696506638,0.0
1759838808.02174,2,-1.2050000422501805,-0.8299996623230314,-0.7177029730168033,0.0,-1.7349990448483594,-0.3499989833312001,-0.7177045978988701,0.0,-1.9499999284744263,0.19700005650520325,-0.43450116056051513,0.0
1759838808.0324512,2,-1.205000057846517,-0.8299996730657315,-0.7177029823060455,0.0,-1.7349990622256852,-0.3499989868367043,-0.7177046050872237,0.0,-1.9499999284744263,0.19700005650520325,-0.4345016711379195,0.0
1759838808.0432582,2,-1.2050000711882956,-0.8299996822555002,-0.7177029902524635,0.0,-1.7349990771118358,-0.34999898983966704,-0.7177046112450707,0.0,-1.9499999284744263,0.19700005650520325,-0.4345021194638061,0.0
1759838808.0539196,2,-1.20500008262917,-0.8299996901359331,-0.7177029970666954,0.0,-1.7349990909775135,-0.34999899263677126,-0.717704616980786,0.0,-1.9499999284744263,0.19700005650520325,-0.43450260596604195,0.0
1759838808.0643444,2,-1.205000093317798,-0.8299996974982214,-0.7177030034328862,0.0,-1.7349991027864047,-0.3499989950189627,-0.7177046218656853,0.0,-1.9499999284744263,0.19700005650520325,-0.43450314232981135,0.0
1759838808.0756166,2,-1.205000102414157,-0.8299997037637605,-0.7177030088507149,0.0,-1.734999112852307,-0.3499989970495434,-0.7177046260295749,0.0,-1.9499999284744263,0.19700005650520325,-0.43450340598933934,0.0
1759838808.086296,2,-1.2050001101804293,-0.8299997091131407,-0.7177030134763386,0.0,-1.734999121460172,-0.3499989987859962,-0.7177046295903285,0.0,-1.9499999284744263,0.19700005650520325,-0.4345038608416729,0.0
1759838808.097008,2,-1.2050001168252933,-0.829999713690099,-0.717703017434047,0.0,-1.7349991288368627,-0.3499990002740859,-0.7177046326417912,0.0,-1.9499999284744263,0.19700005650520325,-0.43450429710203403,0.0
1759838808.1078403,2,-1.2050001225219864,-0.8299997176139604,-0.7177030208270208,0.0,-1.7349991351709628,-0.34999900155185526,-0.7177046352619728,0.0,-1.9499999284744263,0.19700005650520325,-0.43450468338780013,0.0
1759838808.1179419,2,-1.2050001274222728,-0.8299997209892599,-0.7177030237456515,0.0,-1.7349991406281844,-0.3499990026527331,-0.7177046375194225,0.0,-1.9499999284744263,0.19700005650520325,-0.43450523549648246,0.0
1759838808.1286492,2,-1.2050001316419015,-0.8299997238957249,-0.7177030262588797,0.0,-1.7349991457590312,-0.3499990036877718,-0.7177046396418632,0.0,-1.9499999284744263,0.19700005650520325,-0.43450558595428923,0.0
1759838808.1389463,2,-1.2050001352856685,-0.8299997264055384,-0.7177030284291223,0.0,-1.734999150148324,-0.3499990045732178,-0.7177046414575503,0.0,-1.9499999284744263,0.19700005650520325,-0.43450601123413074,0.0
1759838808.1493416,2,-1.2050001387225884,-0.8299997287728765,-0.717703030476166,0.0,-1.7349991539105896,-0.3499990053321745,-0.7177046430138597,0.0,-1.9499999284744263,0.19700005650520325,-0.4345063824513957,0.0
1759838808.1604686,2,-1.2050001416673075,-0.8299997308011884,-0.7177030322300527,0.0,-1.7349991571384322,-0.3499990059833228,-0.7177046443490983,0.0,-1.9499999284744263,0.19700005650520325,-0.4345065740985401,0.0
1759838808.1717036,2,-1.20500014419552,-0.829999732542612,-0.7177030337358665,0.0,-1.734999159913445,-0.3499990065431223,-0.7177046454970181,0.0,-1.9499999284744263,0.19700005650520325,-0.4345067717742417,0.0
1759838808.1818414,2,-1.2050001463749318,-0.8299997340437828,-0.7177030350339331,0.0,-1.7349991623088425,-0.3499990070263426,-0.7177046464879049,0.0,-1.9499999284744263,0.19700005650520325,-0.4345072198357726,0.0
1759838808.1924758,2,-1.2050001482559227,-0.8299997353394025,-0.717703036154259,0.0,-1.7349991643790004,-0.3499990074439528,-0.7177046473442522,0.0,-1.9499999284744263,0.19700005650520325,-0.43450753214245097,0.0
1759838808.2032804,2,-1.205000149882297,-0.8299997364596433,-0.7177030371229343,0.0,-1.7349991661712958,-0.3499990078055101,-0.7177046480856581,0.0,-1.9499999284744263,0.19700005650520325,-0.4345077927634246,0.0
1759838808.213982,2,-1.205000151291745,-0.8299997374304658,-0.7177030379624072,0.0,-1.7349991678732812,-0.34999900814884927,-0.7177046487897063,0.0,-1.9499999284744263,0.19700005650520325,-0.43450807069099895,0.0
1759838808.2242296,2,-1.2050001526306946,-0.8299997383527296,-0.7177030387598912,0.0,-1.7349991693388163,-0.34999900844448956,-0.7177046493959435,0.0,-1.9499999284744263,0.19700005650520325,-0.4345084204781706,0.0
1759838808.2351816,2,-1.2050001537833541,-0.8299997391466772,-0.7177030394464199,0.0,-1.73499917060187,-0.34999900869928363,-0.7177046499184219,0.0,-1.9499999284744263,0.19700005650520325,-0.43450862192094775,0.0
1759838808.2454352,2,-1.2050001547789633,-0.8299997398324493,-0.7177030400394089,0.0,-1.7349991716940631,-0.3499990089196103,-0.7177046503702217,0.0,-1.9499999284744263,0.19700005650520325,-0.4345089399141262,0.0
1759838808.2559953,2,-1.2050001556402232,-0.8299997404256821,-0.7177030405523788,0.0,-1.7349991726399268,-0.3499990091104181,-0.7177046507614904,0.0,-1.9499999284744263,0.19700005650520325,-0.4345091862991506,0.0
1759838808.2667553,2,-1.2050001563865482,-0.8299997409397482,-0.7177030409968931,0.0,-1.734999173460468,-0.34999900927594474,-0.7177046511009177,0.0,-1.9499999284744263,0.19700005650520325,-0.43450938974228137,0.0
1759838808.2768896,2,-1.2050001570353446,-0.8299997413866367,-0.7177030413833189,0.0,-1.7349991741745685,-0.3499990094199993,-0.7177046513963145,0.0,-1.9499999284744263,0.19700005650520325,-0.43450968515596244,0.0
1759838808.287587,2,-1.205000157599894,-0.8299997417754964,-0.717703041719567,0.0,-1.7349991748593345,-0.3499990095581362,-0.7177046516795768,0.0,-1.9499999284744263,0.19700005650520325,-0.4345098753709742,0.0
1759838808.2979507,2,-1.205000158141114,-0.8299997421482866,-0.7177030420419198,0.0,-1.7349991754510121,-0.3499990096774945,-0.7177046519243317,0.0,-1.9499999284744263,0.19700005650520325,-0.4345101075414277,0.0
1759838808.3088572,2,-1.2050001586089076,-0.8299997424705011,-0.7177030423205396,0.0,-1.7349991759628287,-0.34999900978074255,-0.7177046521360513,0.0,-1.9499999284744263,0.19700005650520325,-0.43451025646587915,0.0
1759838808.3198147,2,-1.2050001590140624,-0.8299997427495703,-0.7177030425618515,0.0,-1.7349991764064645,-0.34999900987023663,-0.717704652319567,0.0,-1.9499999284744263,0.19700005650520325,-0.43451040742593783,0.0
1759838808.330168,2,-1.205000159366086,-0.8299997429920429,-0.7177030427715181,0.0,-1.73499917679223,-0.34999900994805655,-0.7177046524791438,0.0,-1.9499999284744263,0.19700005650520325,-0.4345106439998929,0.0
1759838808.3404698,2,-1.2050001596725874,-0.82999974320316,-0.7177030429540716,0.0,-1.734999177128375,-0.34999901001586664,-0.7177046526181946,0.0,-1.9499999284744263,0.19700005650520325,-0.43451087105039754,0.0
1759838808.3511295,2,-1.2050001599423126,-0.8299997433889456,-0.717703043114721,0.0,-1.7349991774266635,-0.34999901007603995,-0.7177046527415853,0.0,-1.9499999284744263,0.19700005650520325,-0.43451103650011547,0.0
1759838808.362016,2,-1.2050001601823679,-0.8299997435542948,-0.717703043257699,0.0,-1.7349991777097624,-0.3499990101331491,-0.7177046528586927,0.0,-1.9499999284744263,0.19700005650520325,-0.4345111725620611,0.0
1759838808.3721974,2,-1.2050001603960172,-0.8299997437014557,-0.7177030433849493,0.0,-1.7349991779553153,-0.3499990101826842,-0.7177046529602688,0.0,-1.9499999284744263,0.19700005650520325,-0.4345113906721707,0.0
1759838808.3836005,2,-1.205000160591918,-0.8299997438363914,-0.7177030435016286,0.0,-1.734999178168266,-0.34999901022564245,-0.7177046530483586,0.0,-1.9499999284744263,0.19700005650520325,-0.4345114643602308,0.0
1759838808.3949258,2,-1.205000160762146,-0.8299997439536438,-0.7177030436030172,0.0,-1.73499917835337,-0.34999901026298313,-0.717704653124929,0.0,-1.9499999284744263,0.19700005650520325,-0.43451156512355027,0.0
1759838808.4060335,2,-1.2050001609120198,-0.8299997440568763,-0.7177030436922825,0.0,-1.734999178516909,-0.34999901029597363,-0.717704653192579,0.0,-1.9499999284744263,0.19700005650520325,-0.43451170629936975,0.0
1759838808.4167478,2,-1.2050001610454073,-0.8299997441487531,-0.7177030437717287,0.0,-1.7349991786624588,-0.3499990103253352,-0.7177046532527875,0.0,-1.9499999284744263,0.19700005650520325,-0.43451188925435075,0.0
1759838808.4274917,2,-1.2050001611641221,-0.8299997442305236,-0.7177030438424358,0.0,-1.734999178791998,-0.34999901035146697,-0.7177046533063731,0.0,-1.9499999284744263,0.19700005650520325,-0.4345120583612054,0.0
1759838808.4385455,2,-1.2050001612697785,-0.8299997443032991,-0.7177030439053651,0.0,-1.7349991789098496,-0.349999010375241,-0.717704653355124,0.0,-1.9499999284744263,0.19700005650520325,-0.43451218902796995,0.0
1759838808.449364,2,-1.2050001613638126,-0.8299997443680694,-0.7177030439613722,0.0,-1.7349991790124366,-0.3499990103959358,-0.7177046533975605,0.0,-1.9499999284744263,0.19700005650520325,-0.43451233816790946,0.0
1759838808.4605258,2,-1.2050001614475028,-0.829999744425715,-0.7177030440112185,0.0,-1.7349991791034782,-0.3499990104143015,-0.717704653435221,0.0,-1.9499999284744263,0.19700005650520325,-0.4345124535487237,0.0
1759838808.470865,2,-1.2050001615219872,-0.8299997444770196,-0.7177030440555817,0.0,-1.7349991791845054,-0.34999901043064696,-0.717704653468739,0.0,-1.9499999284744263,0.19700005650520325,-0.4345126344594679,0.0
1759838808.4811244,2,-1.2050001615882784,-0.8299997445226808,-0.7177030440950648,0.0,-1.7349991792566195,-0.34999901044519444,-0.7177046534985699,0.0,-1.9499999284744263,0.19700005650520325,-0.43451280340061155,0.0
1759838808.4915004,2,-1.2050001616472774,-0.8299997445633192,-0.7177030441302049,0.0,-1.734999179320801,-0.3499990104581417,-0.7177046535251195,0.0,-1.9499999284744263,0.19700005650520325,-0.43451294319737954,0.0
1759838808.5027187,2,-1.2050001616997865,-0.8299997445994873,-0.7177030441614797,0.0,-1.734999179320801,-0.3499990104581417,-0.7177046535251195,0.0,-1.9499999284744263,0.19700005650520325,-0.4345130098951202,0.0
1759838808.5134873,2,-1.2050001616997865,-0.8299997445994873,-0.7177030441614797,0.0,-1.734999179320801,-0.3499990104581417,-0.7177046535251195,0.0,-1.9499999284744263,0.19700005650520325,-0.43451311576061613,0.0
1759838808.5237482,2,-1.2050001617465196,-0.8299997446316769,-0.7177030441893142,0.0,-1.734999179320801,-0.3499990104581417,-0.7177046535251195,0.0,-1.9499999284744263,0.19700005650520325,-0.43451325545488295,0.0
1759838808.5340602,2,-1.2050001617881123,-0.8299997446603258,-0.7177030442140869,0.0,-1.7349991793779227,-0.34999901046966475,-0.7177046535487485,0.0,-1.9499999284744263,0.19700005650520325,-0.4345133786756392,0.0
1759838808.5443122,2,-1.2050001618251298,-0.8299997446858232,-0.7177030442361345,0.0,-1.734999179428761,-0.34999901047992027,-0.7177046535697783,0.0,-1.9499999284744263,0.19700005650520325,-0.43451349356441676,0.0
1759838808.5545802,2,-1.2050001618580752,-0.8299997447085159,-0.717703044255757,0.0,-1.734999179474007,-0.3499990104890477,-0.7177046535884949,0.0,-1.9499999284744263,0.19700005650520325,-0.4345135971906551,0.0
1759838808.5658014,2,-1.2050001618580752,-0.8299997447085159,-0.717703044255757,0.0,-1.734999179474007,-0.3499990104890477,-0.7177046535884949,0.0,-1.9499999284744263,0.19700005650520325,-0.4345136376575578,0.0
1759838808.5771286,2,-1.2050001618580752,-0.8299997447085159,-0.717703044255757,0.0,-1.734999179474007,-0.3499990104890477,-0.7177046535884949,0.0,-1.9499999284744263,0.19700005650520325,-0.4345136830394214,0.0
1759838808.5883405,2,-1.2050001618580752,-0.8299997447085159,-0.717703044255757,0.0,-1.734999179474007,-0.3499990104890477,-0.7177046535884949,0.0,-1.9499999284744263,0.19700005650520325,-0.434513747873277,0.0
1759838808.59864,2,-1.2050001618873967,-0.8299997447287124,-0.717703044273221,0.0,-1.734999179474007,-0.3499990104890477,-0.7177046535884949,0.0,-1.9499999284744263,0.19700005650520325,-0.4345138672192768,0.0
1759838808.609522,2,-1.2050001619134927,-0.8299997447466873,-0.7177030442887639,0.0,-1.7349991795142758,-0.3499990104971711,-0.7177046536051527,0.0,-1.9499999284744263,0.19700005650520325,-0.43451394615644645,0.0
1759838808.6202059,2,-1.2050001619134927,-0.8299997447466873,-0.7177030442887639,0.0,-1.7349991795142758,-0.3499990104971711,-0.7177046536051527,0.0,-1.9499999284744263,0.19700005650520325,-0.4345140312617026,0.0
1759838808.6316602,2,-1.2050001619134927,-0.8299997447466873,-0.7177030442887639,0.0,-1.7349991795142758,-0.3499990104971711,-0.7177046536051527,0.0,-1.9499999284744263,0.19700005650520325,-0.43451407630384686,0.0
1759838808.642875,2,-1.2050001619134927,-0.8299997447466873,-0.7177030442887639,0.0,-1.7349991795142758,-0.3499990104971711,-0.7177046536051527,0.0,-1.9499999284744263,0.19700005650520325,-0.4345141393277956,0.0
1759838808.6541653,2,-1.2050001619134927,-0.8299997447466873,-0.7177030442887639,0.0,-1.7349991795142758,-0.3499990104971711,-0.7177046536051527,0.0,-1.9499999284744263,0.19700005650520325,-0.4345142028356399,0.0
1759838808.664473,2,-1.2050001619134927,-0.8299997447466873,-0.7177030442887639,0.0,-1.7349991795142758,-0.3499990104971711,-0.7177046536051527,0.0,-1.9499999284744263,0.19700005650520325,-0.43451430965566473,0.0
1759838808.6747258,2,-1.2050001619134927,-0.8299997447466873,-0.7177030442887639,0.0,-1.7349991795142758,-0.3499990104971711,-0.7177046536051527,0.0,-1.9499999284744263,0.19700005650520325,-0.4345144067395452,0.0
1759838808.6862226,2,-1.2050001619134927,-0.8299997447466873,-0.7177030442887639,0.0,-1.7349991795142758,-0.3499990104971711,-0.7177046536051527,0.0,-1.9499999284744263,0.19700005650520325,-0.43451444192964317,0.0
1759838808.6964555,2,-1.2050001619134927,-0.8299997447466873,-0.7177030442887639,0.0,-1.7349991795142758,-0.3499990104971711,-0.7177046536051527,0.0,-1.9499999284744263,0.19700005650520325,-0.4345145300812927,0.0
1759838808.7075973,2,-1.2050001619134927,-0.8299997447466873,-0.7177030442887639,0.0,-1.7349991795142758,-0.3499990104971711,-0.7177046536051527,0.0,-1.9499999284744263,0.19700005650520325,-0.4345145769817087,0.0
1759838808.7178195,2,-1.2050001619134927,-0.8299997447466873,-0.7177030442887639,0.0,-1.7349991795142758,-0.3499990104971711,-0.7177046536051527,0.0,-1.9499999284744263,0.19700005650520325,-0.43451465702051806,0.0
1759838808.7291965,2,-1.2050001619134927,-0.8299997447466873,-0.7177030442887639,0.0,-1.7349991795142758,-0.3499990104971711,-0.7177046536051527,0.0,-1.9499999284744263,0.19700005650520325,-0.43451468975496965,0.0
1759838808.7402713,2,-1.2050001619134927,-0.8299997447466873,-0.7177030442887639,0.0,-1.7349991795142758,-0.3499990104971711,-0.7177046536051527,0.0,-1.9499999284744263,0.19700005650520325,-0.43451473635615656,0.0
1759838808.7508066,2,-1.2050001619134927,-0.8299997447466873,-0.7177030442887639,0.0,-1.7349991795142758,-0.3499990104971711,-0.7177046536051527,0.0,-1.9499999284744263,0.19700005650520325,-0.43451480227650485,0.0
1759838808.7613246,2,-1.2050001619134927,-0.8299997447466873,-0.7177030442887639,0.0,-1.7349991795142758,-0.3499990104971711,-0.7177046536051527,0.0,-1.9499999284744263,0.19700005650520325,-0.43451486371843023,0.0
1759838808.772569,2,-1.2050001619134927,-0.8299997447466873,-0.7177030442887639,0.0,-1.7349991795142758,-0.3499990104971711,-0.7177046536051527,0.0,-1.9499999284744263,0.19700005650520325,-0.434514897915383,0.0
1759838808.784049,2,-1.2050001619134927,-0.8299997447466873,-0.7177030442887639,0.0,-1.7349991795142758,-0.3499990104971711,-0.7177046536051527,0.0,-1.9499999284744263,0.19700005650520325,-0.43451492760848964,0.0
1759838808.7943277,2,-1.2050001619134927,-0.8299997447466873,-0.7177030442887639,0.0,-1.7349991795142758,-0.3499990104971711,-0.7177046536051527,0.0,-1.9499999284744263,0.19700005650520325,-0.434514995574542,0.0
1759838808.810294,2,-1.2050001619134927,-0.8299997447466873,-0.7177030442887639,0.0,-1.7349991795142758,-0.3499990104971711,-0.7177046536051527,0.0,-1.9499999284744263,0.19700005650520325,-0.434514906383999,0.0
1759838808.8216128,2,-1.2050001619134927,-0.8299997447466873,-0.7177030442887639,0.0,-1.7349991795142758,-0.3499990104971711,-0.7177046536051527,0.0,-1.9499999284744263,0.19700005650520325,-0.43451497615112444,0.0
1759838808.8329318,2,-1.2050001619134927,-0.8299997447466873,-0.7177030442887639,0.0,-1.7349991795142758,-0.3499990104971711,-0.7177046536051527,0.0,-1.9499999284744263,0.19700005650520325,-0.43451504710063915,0.0
1759838808.843282,2,-1.2050001619134927,-0.8299997447466873,-0.7177030442887639,0.0,-1.7349991795142758,-0.3499990104971711,-0.7177046536051527,0.0,-1.9499999284744263,0.19700005650520325,-0.4345151319117235,0.0
1759838808.8545802,2,-1.2050001619134927,-0.8299997447466873,-0.7177030442887639,0.0,-1.7349991795142758,-0.3499990104971711,-0.7177046536051527,0.0,-1.9499999284744263,0.19700005650520325,-0.434515180807768,0.0
1759838808.8659399,2,-1.2050001619134927,-0.8299997447466873,-0.7177030442887639,0.0,-1.7349991795142758,-0.3499990104971711,-0.7177046536051527,0.0,-1.9499999284744263,0.19700005650520325,-0.4345152228279012,0.0
1759838808.8766549,2,-1.2050001619134927,-0.8299997447466873,-0.7177030442887639,0.0,-1.7349991795142758,-0.3499990104971711,-0.7177046536051527,0.0,-1.9499999284744263,0.19700005650520325,-0.4345152762262465,0.0
1759838808.8869467,2,-1.2050001619134927,-0.8299997447466873,-0.7177030442887639,0.0,-1.7349991795142758,-0.3499990104971711,-0.7177046536051527,0.0,-1.9499999284744263,0.19700005650520325,-0.4345153323176696,0.0
1759838808.8982868,2,-1.2050001619134927,-0.8299997447466873,-0.7177030442887639,0.0,-1.7349991795142758,-0.3499990104971711,-0.7177046536051527,0.0,-1.9499999284744263,0.19700005650520325,-0.4345153595254452,0.0
1759838808.9084346,2,-1.2050001619134927,-0.8299997447466873,-0.7177030442887639,0.0,-1.7349991795142758,-0.3499990104971711,-0.7177046536051527,0.0,-1.9499999284744263,0.19700005650520325,-0.4345154090362815,0.0
1759838808.9187455,2,-1.2050001619134927,-0.8299997447466873,-0.7177030442887639,0.0,-1.7349991795142758,-0.3499990104971711,-0.7177046536051527,0.0,-1.9499999284744263,0.19700005650520325,-0.4345154496083605,0.0
1759838808.9294918,2,-1.2050001619134927,-0.8299997447466873,-0.7177030442887639,0.0,-1.7349991795142758,-0.3499990104971711,-0.7177046536051527,0.0,-1.9499999284744263,0.19700005650520325,-0.43451547717463157,0.0
1759838808.9405055,2,-1.2050001619134927,-0.8299997447466873,-0.7177030442887639,0.0,-1.7349991795142758,-0.3499990104971711,-0.7177046536051527,0.0,-1.9499999284744263,0.19700005650520325,-0.4345154987415292,0.0
1759838808.9520147,2,-1.2050001619134927,-0.8299997447466873,-0.7177030442887639,0.0,-1.7349991795142758,-0.3499990104971711,-0.7177046536051527,0.0,-1.9499999284744263,0.19700005650520325,-0.43451551295448,0.0
1759838808.9634562,2,-1.2050001619134927,-0.8299997447466873,-0.7177030442887639,0.0,-1.7349991795142758,-0.3499990104971711,-0.7177046536051527,0.0,-1.9499999284744263,0.19700005650520325,-0.4345155316830827,0.0
1759838808.9737544,2,-1.2050001619134927,-0.8299997447466873,-0.7177030442887639,0.0,-1.7349991795142758,-0.3499990104971711,-0.7177046536051527,0.0,-1.9499999284744263,0.19700005650520325,-0.43451557062817514,0.0
1759838808.9846675,2,-1.2050001619134927,-0.8299997447466873,-0.7177030442887639,0.0,-1.7349991795142758,-0.3499990104971711,-0.7177046536051527,0.0,-1.9499999284744263,0.19700005650520325,-0.4345155962243048,0.0
1759838808.9947681,2,-1.2050001619134927,-0.8299997447466873,-0.7177030442887639,0.0,-1.7349991795142758,-0.3499990104971711,-0.7177046536051527,0.0,-1.9499999284744263,0.19700005650520325,-0.43451563191452536,0.006
1759838809.0097823,2,-1.2050001619134927,-0.8299997447466873,-0.7177030442887639,0.0,-1.7349991795142758,-0.3499990104971711,-0.7177046536051527,0.0,-1.9499999284744263,0.19700005650520325,-0.4345155947016596,0.006
1759838809.018603,2,-1.2050001619134927,-0.8299997447466873,-0.7177030442887639,0.0,-1.7349991795142758,-0.3499990104971711,-0.7177046536051527,0.0,-1.9499999284744263,0.19700005650520325,-0.4345156579767995,0.006
1759838809.0313253,2,-1.2050001619134927,-0.8299997447466873,-0.7177030442887639,0.0,-1.7349991795142758,-0.3499990104971711,-0.7177046536051527,0.0,-1.9499999284744263,0.19700005650520325,-0.43451566188548796,0.006
1759838809.0419815,2,-1.2050001619134927,-0.8299997447466873,-0.7177030442887639,0.0,-1.7349991795142758,-0.3499990104971711,-0.7177046536051527,0.0,-1.9499999284744263,0.19700005650520325,-0.43451569459843853,0.006
1759838809.0521178,2,-1.2050001619134927,-0.8299997447466873,-0.7177030442887639,0.0,-1.7349991795142758,-0.3499990104971711,-0.7177046536051527,0.0,-1.9499999284744263,0.19700005650520325,-0.43451573097354057,0.006
1759838809.0630615,2,-1.2050001619134927,-0.8299997447466873,-0.7177030442887639,0.0,-1.7349991795142758,-0.3499990104971711,-0.7177046536051527,0.0,-1.9499999284744263,0.19700005650520325,-0.4345157521277425,0.006
1759838809.0732536,2,-1.2050001619134927,-0.8299997447466873,-0.7177030442887639,0.0,-1.7349991795142758,-0.3499990104971711,-0.7177046536051527,0.0,-1.9499999284744263,0.19700005650520325,-0.43451577981437595,0.006
1759838809.0834963,2,-1.2050001619134927,-0.8299997447466873,-0.7177030442887639,0.0,-1.7349991795142758,-0.3499990104971711,-0.7177046536051527,0.0,-1.9499999284744263,0.19700005650520325,-0.43451580355309893,0.006
1759838809.094535,2,-1.2050001619134927,-0.8299997447466873,-0.7177030442887639,0.0,-1.7349991795142758,-0.3499990104971711,-0.7177046536051527,0.0,-1.9499999284744263,0.19700005650520325,-0.43451581586251464,0.006
1759838809.1053004,2,-1.2050001619134927,-0.8299997447466873,-0.7177030442887639,0.0,-1.7349991795142758,-0.3499990104971711,-0.7177046536051527,0.0,-1.9499999284744263,0.19700005650520325,-0.4345158313382243,0.006
1759838809.1160998,2,-1.2050001619134927,-0.8299997447466873,-0.7177030442887639,0.0,-1.7349991795142758,-0.3499990104971711,-0.7177046536051527,0.0,-1.9499999284744263,0.19700005650520325,-0.434515846431065,0.006
1759838809.126893,2,-1.2050001619134927,-0.8299997447466873,-0.7177030442887639,0.0,-1.7349991795142758,-0.3499990104971711,-0.7177046536051527,0.0,-1.9499999284744263,0.19700005650520325,-0.43451586133661735,0.006
1759838809.1391373,2,-1.2050001619134927,-0.8299997447466873,-0.7177030442887639,0.0,-1.7349991795142758,-0.3499990104971711,-0.7177046536051527,0.0,-1.9499999284744263,0.19700005650520325,-0.43451586255542907,0.006
1759838809.14932,2,-1.2050001619134927,-0.8299997447466873,-0.7177030442887639,0.0,-1.7349991795142758,-0.3499990104971711,-0.7177046536051527,0.0,-1.9499999284744263,0.19700005650520325,-0.43451588593110557,0.006
1759838809.1601412,2,-1.2050001619134927,-0.8299997447466873,-0.7177030442887639,0.0,-1.7349991795142758,-0.3499990104971711,-0.7177046536051527,0.0,-1.9499999284744263,0.19700005650520325,-0.4345159016902578,0.006
1759838809.171243,2,-1.2050001619134927,-0.8299997447466873,-0.7177030442887639,0.0,-1.7349991795142758,-0.3499990104971711,-0.7177046536051527,0.0,-1.9499999284744263,0.19700005650520325,-0.4345159137729855,0.006
1759838809.1814413,2,-1.2050001619134927,-0.8299997447466873,-0.7177030442887639,0.0,-1.7349991795142758,-0.3499990104971711,-0.7177046536051527,0.0,-1.9499999284744263,0.19700005650520325,-0.4345159331156622,0.006
1759838809.1923401,2,-1.2050001619134927,-0.8299997447466873,-0.7177030442887639,0.0,-1.7349991795142758,-0.3499990104971711,-0.7177046536051527,0.0,-1.9499999284744263,0.19700005650520325,-0.4345159448588962,0.006
1759838809.2038403,2,-1.2050001619134927,-0.8299997447466873,-0.7177030442887639,0.0,-1.7349991795142758,-0.3499990104971711,-0.7177046536051527,0.0,-1.9499999284744263,0.19700005650520325,-0.43451595158053635,0.006
1759838809.2178366,2,-1.2050001619134927,-0.8299997447466873,-0.7177030442887639,0.0,-1.7349991795142758,-0.3499990104971711,-0.7177046536051527,0.0,-1.9499999284744263,0.19700005650520325,-0.4345159417926734,0.006
1759838809.2291424,2,-1.2050001619134927,-0.8299997447466873,-0.7177030442887639,0.0,-1.7349991795142758,-0.3499990104971711,-0.7177046536051527,0.0,-1.9499999284744263,0.19700005650520325,-0.4345159575976254,0.006
1759838809.240049,2,-1.2050001619134927,-0.8299997447466873,-0.7177030442887639,0.0,-1.7349991795142758,-0.3499990104971711,-0.7177046536051527,0.0,-1.9499999284744263,0.19700005650520325,-0.43451597624256705,0.006
1759838809.2501647,2,-1.2050001619134927,-0.8299997447466873,-0.7177030442887639,0.0,-1.7349991795142758,-0.3499990104971711,-0.7177046536051527,0.0,-1.9499999284744263,0.19700005650520325,-0.43451599765090343,0.006
1759838809.2608147,2,-1.2050001619134927,-0.8299997447466873,-0.7177030442887639,0.0,-1.7349991795142758,-0.3499990104971711,-0.7177046536051527,0.0,-1.9499999284744263,0.19700005650520325,-0.43451601211265256,0.006
1759838809.2716782,2,-1.2050001619134927,-0.8299997447466873,-0.7177030442887639,0.0,-1.7349991795142758,-0.3499990104971711,-0.7177046536051527,0.0,-1.9499999284744263,0.19700005650520325,-0.43451602326663163,0.006
1759838809.284053,2,-1.2050001619134927,-0.8299997447466873,-0.7177030442887639,0.0,-1.7349991795142758,-0.3499990104971711,-0.7177046536051527,0.0,-1.9499999284744263,0.19700005650520325,-0.43451602482996415,0.006
1759838809.2961035,2,-1.2050001619134927,-0.8299997447466873,-0.7177030442887639,0.0,-1.7349991795142758,-0.3499990104971711,-0.7177046536051527,0.0,-1.9499999284744263,0.19700005650520325,-0.43451603043759945,0.006
1759838809.3067954,2,-1.2050001619134927,-0.8299997447466873,-0.7177030442887639,0.0,-1.7349991795142758,-0.3499990104971711,-0.7177046536051527,0.0,-1.9499999284744263,0.19700005650520325,-0.43451604489980866,0.006
1759838809.3174233,2,-1.2050001619134927,-0.8299997447466873,-0.7177030442887639,0.0,-1.7349991795142758,-0.3499990104971711,-0.7177046536051527,0.0,-1.9499999284744263,0.19700005650520325,-0.43451605827121575,0.006
1759838809.3283286,2,-1.2050001619134927,-0.8299997447466873,-0.7177030442887639,0.0,-1.7349991795142758,-0.3499990104971711,-0.7177046536051527,0.0,-1.9499999284744263,0.19700005650520325,-0.4345160684598124,0.006
1759838809.3388786,2,-1.2050001619134927,-0.8299997447466873,-0.7177030442887639,0.0,-1.7349991795142758,-0.3499990104971711,-0.7177046536051527,0.0,-1.9499999284744263,0.19700005650520325,-0.4345160793964844,0.006
1759838809.3495295,2,-1.2050001619134927,-0.8299997447466873,-0.7177030442887639,0.0,-1.7349991795142758,-0.3499990104971711,-0.7177046536051527,0.0,-1.9499999284744263,0.19700005650520325,-0.4345160886890902,0.006
1759838809.359828,2,-1.2050001619134927,-0.8299997447466873,-0.7177030442887639,0.0,-1.7349991795142758,-0.3499990104971711,-0.7177046536051527,0.0,-1.9499999284744263,0.19700005650520325,-0.4345160987091923,0.006
1759838809.3701293,2,-1.2050001619134927,-0.8299997447466873,-0.7177030442887639,0.0,-1.7349991795142758,-0.3499990104971711,-0.7177046536051527,0.0,-1.9499999284744263,0.19700005650520325,-0.43451610758746995,0.006
1759838809.3811996,2,-1.2050001619134927,-0.8299997447466873,-0.7177030442887639,0.0,-1.7349991795142758,-0.3499990104971711,-0.7177046536051527,0.0,-1.9499999284744263,0.19700005650520325,-0.43451611222078057,0.006
1759838809.3920846,2,-1.2050001619134927,-0.8299997447466873,-0.7177030442887639,0.0,-1.7349991795142758,-0.3499990104971711,-0.7177046536051527,0.0,-1.9499999284744263,0.19700005650520325,-0.43451611787851085,0.006
1759838809.4027057,2,-1.2050001619134927,-0.8299997447466873,-0.7177030442887639,0.0,-1.7349991795142758,-0.3499990104971711,-0.7177046536051527,0.0,-1.9499999284744263,0.19700005650520325,-0.43451612474901674,0.006
1759838809.4196246,2,-1.2050001619134927,-0.8299997447466873,-0.7177030442887639,0.0,-1.7349991795142758,-0.3499990104971711,-0.7177046536051527,0.0,-1.9499999284744263,0.19700005650520325,-0.43451610750291536,0.006
1759838809.4305754,2,-1.2050001619134927,-0.8299997447466873,-0.7177030442887639,0.0,-1.7349991795142758,-0.3499990104971711,-0.7177046536051527,0.0,-1.9499999284744263,0.19700005650520325,-0.43451611927838485,0.006
1759838809.4412851,2,-1.2050001619134927,-0.8299997447466873,-0.7177030442887639,0.0,-1.7349991795142758,-0.3499990104971711,-0.7177046536051527,0.0,-1.9499999284744263,0.19700005650520325,-0.434516131757956,0.006
1759838809.4519236,2,-1.2050001619134927,-0.8299997447466873,-0.7177030442887639,0.0,-1.7349991795142758,-0.3499990104971711,-0.7177046536051527,0.0,-1.9499999284744263,0.19700005650520325,-0.43451614238106195,0.006
1759838809.462516,2,-1.2050001619134927,-0.8299997447466873,-0.7177030442887639,0.0,-1.7349991795142758,-0.3499990104971711,-0.7177046536051527,0.0,-1.9499999284744263,0.19700005650520325,-0.4345161513707155,0.006
1759838809.4740188,2,-1.2050001619134927,-0.8299997447466873,-0.7177030442887639,0.0,-1.7349991795142758,-0.3499990104971711,-0.7177046536051527,0.0,-1.9499999284744263,0.19700005650520325,-0.43451615613864547,0.006
1759838809.4842968,2,-1.2050001619134927,-0.8299997447466873,-0.7177030442887639,0.0,-1.7349991795142758,-0.3499990104971711,-0.7177046536051527,0.0,-1.9499999284744263,0.19700005650520325,-0.43451616450185787,0.006
1759838809.49554,2,-1.2050001619134927,-0.8299997447466873,-0.7177030442887639,0.0,-1.7349991795142758,-0.3499990104971711,-0.7177046536051527,0.0,-1.9499999284744263,0.19700005650520325,-0.4345161689830377,0.006
1759838809.5057483,2,-1.2050001619134927,-0.8299997447466873,-0.7177030442887639,0.0,-1.7349991795142758,-0.3499990104971711,-0.7177046536051527,0.0,-1.9499999284744263,0.19700005650520325,-0.4345161762120924,0.006
1759838809.5164013,2,-1.2050001619134927,-0.8299997447466873,-0.7177030442887639,0.0,-1.7349991795142758,-0.3499990104971711,-0.7177046536051527,0.0,-1.9499999284744263,0.19700005650520325,-0.4345161813523042,0.006
1759838809.5270753,2,-1.2050001619134927,-0.8299997447466873,-0.7177030442887639,0.0,-1.7349991795142758,-0.3499990104971711,-0.7177046536051527,0.0,-1.9499999284744263,0.19700005650520325,-0.4345161859431421,0.006
1759838809.5378287,2,-1.2050001619134927,-0.8299997447466873,-0.7177030442887639,0.0,-1.7349991795142758,-0.3499990104971711,-0.7177046536051527,0.0,-1.9499999284744263,0.19700005650520325,-0.4345161900503669,0.006
1759838809.5491161,2,-1.2050001619134927,-0.8299997447466873,-0.7177030442887639,0.0,-1.7349991795142758,-0.3499990104971711,-0.7177046536051527,0.0,-1.9499999284744263,0.19700005650520325,-0.43451619267461794,0.006
1759838809.5596945,2,-1.2050001619134927,-0.8299997447466873,-0.7177030442887639,0.0,-1.7349991795142758,-0.3499990104971711,-0.7177046536051527,0.0,-1.9499999284744263,0.19700005650520325,-0.4345161972874934,0.006
1759838809.570343,2,-1.2050001619134927,-0.8299997447466873,-0.7177030442887639,0.0,-1.7349991795142758,-0.3499990104971711,-0.7177046536051527,0.0,-1.9499999284744263,0.19700005650520325,-0.43451620148488956,0.006
1759838809.5821364,2,-1.2050001619134927,-0.8299997447466873,-0.7177030442887639,0.0,-1.7349991795142758,-0.3499990104971711,-0.7177046536051527,0.0,-1.9499999284744263,0.19700005650520325,-0.4345162028215839,0.006
1759838809.5935996,2,-1.2050001619134927,-0.8299997447466873,-0.7177030442887639,0.0,-1.7349991795142758,-0.3499990104971711,-0.7177046536051527,0.0,-1.9499999284744263,0.19700005650520325,-0.4345162054431668,0.006
1759838809.6037202,2,-1.2050001619134927,-0.8299997447466873,-0.7177030442887639,0.0,-1.7349991795142758,-0.3499990104971711,-0.7177046536051527,0.0,-1.9499999284744263,0.19700005650520325,-0.43451621121197803,0.006
1759838809.6196532,2,-1.2050001619134927,-0.8299997447466873,-0.7177030442887639,0.0,-1.7349991795142758,-0.3499990104971711,-0.7177046536051527,0.0,-1.9499999284744263,0.19700005650520325,-0.43451620467371477,0.006
1759838809.6300504,2,-1.2050001619134927,-0.8299997447466873,-0.7177030442887639,0.0,-1.7349991795142758,-0.3499990104971711,-0.7177046536051527,0.0,-1.9499999284744263,0.19700005650520325,-0.434516211694703,0.006
1759838809.6413946,2,-1.2050001619134927,-0.8299997447466873,-0.7177030442887639,0.0,-1.7349991795142758,-0.3499990104971711,-0.7177046536051527,0.0,-1.9499999284744263,0.19700005650520325,-0.43451621648149263,0.006
1759838809.6543002,2,-1.2050001619134927,-0.8299997447466873,-0.7177030442887639,0.0,-1.7349991795142758,-0.3499990104971711,-0.7177046536051527,0.0,-1.9499999284744263,0.19700005650520325,-0.43451621788715933,0.006
1759838809.6653347,2,-1.2050001619134927,-0.8299997447466873,-0.7177030442887639,0.0,-1.7349991795142758,-0.3499990104971711,-0.7177046536051527,0.0,-1.9499999284744263,0.19700005650520325,-0.43451622296217707,0.006
1759838809.6753397,2,-1.2050001619134927,-0.8299997447466873,-0.7177030442887639,0.0,-1.7349991795142758,-0.3499990104971711,-0.7177046536051527,0.0,-1.9499999284744263,0.19700005650520325,-0.4345162292324183,0.006
1759838809.6855147,2,-1.2050001619134927,-0.8299997447466873,-0.7177030442887639,0.0,-1.7349991795142758,-0.3499990104971711,-0.7177046536051527,0.0,-1.9499999284744263,0.19700005650520325,-0.434516234087825,0.006
1759838809.6988027,2,-1.2050001619134927,-0.8299997447466873,-0.7177030442887639,0.0,-1.7349991795142758,-0.3499990104971711,-0.7177046536051527,0.0,-1.9499999284744263,0.19700005650520325,-0.43451623327517014,0.006
1759838809.7095568,2,-1.2050001619134927,-0.8299997447466873,-0.7177030442887639,0.0,-1.7349991795142758,-0.3499990104971711,-0.7177046536051527,0.0,-1.9499999284744263,0.19700005650520325,-0.43451623707574427,0.006
1759838809.720444,2,-1.2050001619134927,-0.8299997447466873,-0.7177030442887639,0.0,-1.7349991795142758,-0.3499990104971711,-0.7177046536051527,0.0,-1.9499999284744263,0.19700005650520325,-0.43451624047705373,0.006
1759838809.7319543,2,-1.2050001619134927,-0.8299997447466873,-0.7177030442887639,0.0,-1.7349991795142758,-0.3499990104971711,-0.7177046536051527,0.0,-1.9499999284744263,0.19700005650520325,-0.4345162426291793,0.006
1759838809.7433977,2,-1.2050001619134927,-0.8299997447466873,-0.7177030442887639,0.0,-1.7349991795142758,-0.3499990104971711,-0.7177046536051527,0.0,-1.9499999284744263,0.19700005650520325,-0.43451624483762075,0.006
1759838809.7543864,2,-1.2050001619134927,-0.8299997447466873,-0.7177030442887639,0.0,-1.7349991795142758,-0.3499990104971711,-0.7177046536051527,0.0,-1.9499999284744263,0.19700005650520325,-0.4345162476232698,0.006
1759838809.765467,2,-1.2050001619134927,-0.8299997447466873,-0.7177030442887639,0.0,-1.7349991795142758,-0.3499990104971711,-0.7177046536051527,0.0,-1.9499999284744263,0.19700005650520325,-0.43451625008439626,0.006
1759838809.7758436,2,-1.2050001619134927,-0.8299997447466873,-0.7177030442887639,0.0,-1.7349991795142758,-0.3499990104971711,-0.7177046536051527,0.0,-1.9499999284744263,0.19700005650520325,-0.43451625320477666,0.006
1759838809.7861638,2,-1.2050001619134927,-0.8299997447466873,-0.7177030442887639,0.0,-1.7349991795142758,-0.3499990104971711,-0.7177046536051527,0.0,-1.9499999284744263,0.19700005650520325,-0.4345162559907756,0.006
1759838809.7988791,2,-1.2050001619134927,-0.8299997447466873,-0.7177030442887639,0.0,-1.7349991795142758,-0.3499990104971711,-0.7177046536051527,0.0,-1.9499999284744263,0.19700005650520325,-0.4345162557159501,0.006
1759838809.8101633,2,-1.2050001619134927,-0.8299997447466873,-0.7177030442887639,0.0,-1.7349991795142758,-0.3499990104971711,-0.7177046536051527,0.0,-1.9499999284744263,0.19700005650520325,-0.4345162575247734,0.006
1759838809.8298326,2,-1.2050001619134927,-0.8299997447466873,-0.7177030442887639,0.0,-1.7349991795142758,-0.3499990104971711,-0.7177046536051527,0.0,-1.9499999284744263,0.19700005650520325,-0.4345162509682474,0.006
1759838809.8394752,2,-1.2050001619134927,-0.8299997447466873,-0.7177030442887639,0.0,-1.7349991795142758,-0.3499990104971711,-0.7177046536051527,0.0,-1.9499999284744263,0.19700005650520325,-0.4345162568734331,0.006
1759838809.8507466,2,-1.2050001619134927,-0.8299997447466873,-0.7177030442887639,0.0,-1.7349991795142758,-0.3499990104971711,-0.7177046536051527,0.0,-1.9499999284744263,0.19700005650520325,-0.4345162605676602,0.006
1759838809.8627691,2,-1.2050001619134927,-0.8299997447466873,-0.7177030442887639,0.0,-1.7349991795142758,-0.3499990104971711,-0.7177046536051527,0.0,-1.9499999284744263,0.19700005650520325,-0.434516262831755,0.006
1759838809.8738773,2,-1.2050001619134927,-0.8299997447466873,-0.7177030442887639,0.0,-1.7349991795142758,-0.3499990104971711,-0.7177046536051527,0.0,-1.9499999284744263,0.19700005650520325,-0.43451626562385925,0.006
1759838809.88591,2,-1.2050001619134927,-0.8299997447466873,-0.7177030442887639,0.0,-1.7349991795142758,-0.3499990104971711,-0.7177046536051527,0.0,-1.9499999284744263,0.19700005650520325,-0.43451626726174375,0.006
1759838809.8969948,2,-1.2050001619134927,-0.8299997447466873,-0.7177030442887639,0.0,-1.7349991795142758,-0.3499990104971711,-0.7177046536051527,0.0,-1.9499999284744263,0.19700005650520325,-0.43451626955713785,0.006
1759838809.9093297,2,-1.2050001619134927,-0.8299997447466873,-0.7177030442887639,0.0,-1.7349991795142758,-0.3499990104971711,-0.7177046536051527,0.0,-1.9499999284744263,0.19700005650520325,-0.4345162706227157,0.006
1759838809.919613,2,-1.2050001619134927,-0.8299997447466873,-0.7177030442887639,0.0,-1.7349991795142758,-0.3499990104971711,-0.7177046536051527,0.0,-1.9499999284744263,0.19700005650520325,-0.43451627325809206,0.006
1759838809.9311879,2,-1.2050001619134927,-0.8299997447466873,-0.7177030442887639,0.0,-1.7349991795142758,-0.3499990104971711,-0.7177046536051527,0.0,-1.9499999284744263,0.19700005650520325,-0.43451627457671904,0.006
1759838809.9421847,2,-1.2050001619134927,-0.8299997447466873,-0.7177030442887639,0.0,-1.7349991795142758,-0.3499990104971711,-0.7177046536051527,0.0,-1.9499999284744263,0.19700005650520325,-0.43451627618494193,0.006
1759838809.9536858,2,-1.2050001619134927,-0.8299997447466873,-0.7177030442887639,0.0,-1.7349991795142758,-0.3499990104971711,-0.7177046536051527,0.0,-1.9499999284744263,0.19700005650520325,-0.43451627730835257,0.006
1759838809.9642794,2,-1.2050001619134927,-0.8299997447466873,-0.7177030442887639,0.0,-1.7349991795142758,-0.3499990104971711,-0.7177046536051527,0.0,-1.9499999284744263,0.19700005650520325,-0.4345162789834198,0.006
1759838809.9745605,2,-1.2050001619134927,-0.8299997447466873,-0.7177030442887639,0.0,-1.7349991795142758,-0.3499990104971711,-0.7177046536051527,0.0,-1.9499999284744263,0.19700005650520325,-0.4345162806626668,0.006
1759838809.9894297,2,-1.2050001619134927,-0.8299997447466873,-0.7177030442887639,0.0,-1.7349991795142758,-0.3499990104971711,-0.7177046536051527,0.0,-1.9499999284744263,0.19700005650520325,-0.4345162793259263,0.006
1759838810.0004904,2,-1.2050001619134927,-0.8299997447466873,-0.7177030442887639,0.0,-1.7349991795142758,-0.3499990104971711,-0.7177046536051527,0.0,-1.9499999284744263,0.19700005650520325,-0.434516280868781,0.006
1759838810.014973,2,-1.2050001619134927,-0.8299997447466873,-0.7177030442887639,0.0,-1.7349991795142758,-0.3499990104971711,-0.7177046536051527,0.0,-1.9499999284744263,0.19700005650520325,-0.4345162805035869,0.006
1759838810.02945,2,-1.2050001619134927,-0.8299997447466873,-0.7177030442887639,0.0,-1.7349991795142758,-0.3499990104971711,-0.7177046536051527,0.0,-1.9499999284744263,0.19700005650520325,-0.43451628058618397,0.006
1759838810.0396008,2,-1.2050001619134927,-0.8299997447466873,-0.7177030442887639,0.0,-1.7349991795142758,-0.3499990104971711,-0.7177046536051527,0.0,-1.9499999284744263,0.19700005650520325,-0.43451628325554736,0.006
1759838810.0510306,2,-1.2050001619134927,-0.8299997447466873,-0.7177030442887639,0.0,-1.7349991795142758,-0.3499990104971711,-0.7177046536051527,0.0,-1.9499999284744263,0.19700005650520325,-0.43451628486241134,0.006
1759838810.0635643,2,-1.2050001619134927,-0.8299997447466873,-0.7177030442887639,0.0,-1.7349991795142758,-0.3499990104971711,-0.7177046536051527,0.0,-1.9499999284744263,0.19700005650520325,-0.4345162856603242,0.006
1759838810.0750127,2,-1.2050001619134927,-0.8299997447466873,-0.7177030442887639,0.0,-1.7349991795142758,-0.3499990104971711,-0.7177046536051527,0.0,-1.9499999284744263,0.19700005650520325,-0.43451628693855504,0.006
1759838810.0888724,2,-1.2050001619134927,-0.8299997447466873,-0.7177030442887639,0.0,-1.7349991795142758,-0.3499990104971711,-0.7177046536051527,0.0,-1.9499999284744263,0.19700005650520325,-0.4345162870519417,0.006
1759838810.0994322,2,-1.2050001619134927,-0.8299997447466873,-0.7177030442887639,0.0,-1.7349991795142758,-0.3499990104971711,-0.7177046536051527,0.0,-1.9499999284744263,0.19700005650520325,-0.4345162887352672,0.006
1759838810.1132026,2,-1.2050001619134927,-0.8299997447466873,-0.7177030442887639,0.0,-1.7349991795142758,-0.3499990104971711,-0.7177046536051527,0.0,-1.9499999284744263,0.19700005650520325,-0.4345162889095313,0.006
