timestamp,vehicle_id,x,y,theta,velocity,gps_available,dt,gps_x,gps_y,gps_theta,gps_velocity,control_steering,control_acceleration
1759838806.4719265,1,-1.735,-0.35,-0.7801621756414647,0.0,False,0.01,nan,nan,nan,nan,0.0,0.0
1759838806.4825053,1,-1.735,-0.35,-0.7801621756414647,0.0,False,0.01057887077331543,nan,nan,nan,nan,0.0,0.0
1759838806.4928706,1,-1.735,-0.35,-0.7801621756414647,0.0,False,0.01036524772644043,nan,nan,nan,nan,0.0,0.0
1759838806.503582,1,-1.735,-0.35,-0.7801621756414647,0.0,False,0.010711431503295898,nan,nan,nan,nan,0.0,0.0
1759838806.5147648,1,-1.735,-0.35,-0.7801621756414647,0.0,False,0.011182785034179688,nan,nan,nan,nan,0.0,0.0
1759838806.5251615,1,-1.735,-0.35,-0.7801621756414647,0.0,False,0.010396718978881836,nan,nan,nan,nan,0.0,0.0
1759838806.5361784,1,-1.735,-0.35,-0.7801621756414647,0.0,False,0.011016845703125,nan,nan,nan,nan,0.0,0.0
1759838806.5473537,1,-1.735,-0.35,-0.7801621756414647,0.0,False,0.011175394058227539,nan,nan,nan,nan,0.0,0.0
1759838806.5574307,1,-1.735,-0.35,-0.7801621756414647,0.0,False,0.01007699966430664,nan,nan,nan,nan,0.0,0.0
1759838806.5685368,1,-1.735,-0.35,-0.7801621756414647,0.0,False,0.011106014251708984,nan,nan,nan,nan,0.0,0.0
1759838806.57907,1,-1.735,-0.35,-0.7801621756414647,0.0,False,0.010533332824707031,nan,nan,nan,nan,0.0,0.0
1759838806.589891,1,-1.735,-0.35,-0.7801621756414647,0.0,False,0.010820865631103516,nan,nan,nan,nan,0.0,0.0
1759838806.6011846,1,-1.735,-0.35,-0.7801621756414647,0.0,False,0.011293649673461914,nan,nan,nan,nan,0.0,0.0
1759838806.6125276,1,-1.735,-0.35,-0.7801621756414647,0.0,False,0.011343002319335938,nan,nan,nan,nan,0.0,0.0
1759838806.6236336,1,-1.735,-0.35,-0.7801621756414647,0.0,False,0.011106014251708984,nan,nan,nan,nan,0.0,0.0
1759838806.6343246,1,-1.735,-0.35,-0.7801621756414647,0.0,False,0.010690927505493164,nan,nan,nan,nan,0.0,0.0
1759838806.6452942,1,-1.735,-0.35,-0.7801621756414647,0.0,False,0.01096963882446289,nan,nan,nan,nan,0.0,0.0
1759838806.6554873,1,-1.735,-0.35,-0.7801621756414647,0.0,False,0.010193109512329102,nan,nan,nan,nan,0.0,0.0
1759838806.668909,1,-1.7349991866747538,-0.34999901880820594,-0.7230008024528125,0.0,True,0.013421773910522461,-1.734999179840088,-0.34999901056289673,-0.7177046537399292,0.0,0.0,0.0
1759838806.6794379,1,-1.734999182124656,-0.34999901331898897,-0.7181194457472557,0.0,True,0.010528802871704102,-1.734999179840088,-0.34999901056289673,-0.7177046537399292,0.0,0.0,0.0
1759838806.6903832,1,-1.7349991806970992,-0.3499990115967913,-0.7176582374589202,0.0,True,0.010945320129394531,-1.734999179840088,-0.34999901056289673,-0.7177046537399292,0.0,0.0,0.0
1759838806.7006645,1,-1.7349991801665847,-0.34999901095678093,-0.7175998141407902,0.0,True,0.01028132438659668,-1.734999179840088,-0.34999901056289673,-0.7177046537399292,0.0,0.0,0.0
1759838806.7111611,1,-1.7349991799647513,-0.34999901071329,-0.7175922566286932,0.0,True,0.01049661636352539,-1.734999179840088,-0.34999901056289673,-0.7177046537399292,0.0,0.0,0.0
1759838806.7218437,1,-1.7349991798877025,-0.34999901062033867,-0.7175982869227315,0.0,True,0.01068258285522461,-1.734999179840088,-0.34999901056289673,-0.7177046537399292,0.0,0.0,0.0
1759838806.7319021,1,-1.734999179858275,-0.3499990105848374,-0.7176102522688979,0.0,True,0.010058403015136719,-1.734999179840088,-0.34999901056289673,-0.7177046537399292,0.0,0.0,0.0
1759838806.7429461,1,-1.7349991798470348,-0.3499990105712773,-0.7176203357196087,0.0,True,0.011044025421142578,-1.734999179840088,-0.34999901056289673,-0.7177046537399292,0.0,0.0,0.0
1759838806.7543821,1,-1.7349991798427413,-0.34999901056609783,-0.7176297938461005,0.0,True,0.011435985565185547,-1.734999179840088,-0.34999901056289673,-0.7177046537399292,0.0,0.0,0.0
1759838806.7648504,1,-1.7349991798411013,-0.3499990105641194,-0.7176397700707806,0.0,True,0.010468244552612305,-1.734999179840088,-0.34999901056289673,-0.7177046537399292,0.0,0.0,0.0
1759838806.7763565,1,-1.734999179840475,-0.34999901056336374,-0.7176468560548059,0.0,True,0.011506080627441406,-1.734999179840088,-0.34999901056289673,-0.7177046537399292,0.0,0.0,0.0
1759838806.7865112,1,-1.7349991798402358,-0.3499990105630751,-0.717654298626325,0.0,True,0.01015472412109375,-1.734999179840088,-0.34999901056289673,-0.7177046537399292,0.0,0.0,0.0
1759838806.7974944,1,-1.7349991798401443,-0.34999901056296484,-0.7176595075711134,0.0,True,0.01098322868347168,-1.734999179840088,-0.34999901056289673,-0.7177046537399292,0.0,0.0,0.0
1759838806.808169,1,-1.7349991798401094,-0.34999901056292276,-0.7176641382402025,0.0,True,0.010674476623535156,-1.734999179840088,-0.34999901056289673,-0.7177046537399292,0.0,0.0,0.0
1759838806.819654,1,-1.734999179840096,-0.34999901056290667,-0.7176674771042713,0.0,True,0.011485099792480469,-1.734999179840088,-0.34999901056289673,-0.7177046537399292,0.0,0.0,0.0
1759838806.829889,1,-1.734999179840091,-0.3499990105629005,-0.7176712880410978,0.0,True,0.010235071182250977,-1.734999179840088,-0.34999901056289673,-0.7177046537399292,0.0,0.0,0.0
1759838806.8407943,1,-1.734999179840089,-0.34999901056289817,-0.7176740344512496,0.0,True,0.010905265808105469,-1.734999179840088,-0.34999901056289673,-0.7177046537399292,0.0,0.0,0.0
1759838806.8511155,1,-1.7349991798400883,-0.3499990105628973,-0.7176767236637982,0.0,True,0.01032114028930664,-1.734999179840088,-0.34999901056289673,-0.7177046537399292,0.0,0.0,0.0
1759838806.8638453,1,-1.7349991798400881,-0.34999901056289695,-0.717677780487783,0.0,True,0.012729883193969727,-1.734999179840088,-0.34999901056289673,-0.7177046537399292,0.0,0.0,0.0
1759838806.8736124,1,-1.734999179840088,-0.34999901056289684,-0.7176804253428077,0.0,True,0.00976705551147461,-1.734999179840088,-0.34999901056289673,-0.7177046537399292,0.0,0.0,0.0
1759838806.8843744,1,-1.734999179840088,-0.3499990105628968,-0.717682175493616,0.0,True,0.01076197624206543,-1.734999179840088,-0.34999901056289673,-0.7177046537399292,0.0,0.0,0.0
1759838806.8952801,1,-1.734999179840088,-0.34999901056289673,-0.7176836118357919,0.0,True,0.010905742645263672,-1.734999179840088,-0.34999901056289673,-0.7177046537399292,0.0,0.0,0.0
1759838806.9055865,1,-1.734999179840088,-0.34999901056289673,-0.7176851380871447,0.0,True,0.010306358337402344,-1.734999179840088,-0.34999901056289673,-0.7177046537399292,0.0,0.0,0.0
1759838806.9161367,1,-1.734999179840088,-0.34999901056289673,-0.7176863611260025,0.0,True,0.010550260543823242,-1.734999179840088,-0.34999901056289673,-0.7177046537399292,0.0,0.0,0.0
1759838806.9274864,1,-1.734999179840088,-0.34999901056289673,-0.7176871565741934,0.0,True,0.011349678039550781,-1.734999179840088,-0.34999901056289673,-0.7177046537399292,0.0,0.0,0.0
1759838806.937952,1,-1.734999179840088,-0.34999901056289673,-0.717688244191546,0.0,True,0.010465621948242188,-1.734999179840088,-0.34999901056289673,-0.7177046537399292,0.0,0.0,0.0
1759838806.9488869,1,-1.734999179840088,-0.34999901056289673,-0.7176890715643989,0.0,True,0.010934829711914062,-1.734999179840088,-0.34999901056289673,-0.7177046537399292,0.0,0.0,0.0
1759838806.959139,1,-1.734999179840088,-0.34999901056289673,-0.7176900458219073,0.0,True,0.010252237319946289,-1.734999179840088,-0.34999901056289673,-0.7177046537399292,0.0,0.0,0.0
1759838806.9701676,1,-1.734999179840088,-0.34999901056289673,-0.717690676787333,0.0,True,0.011028528213500977,-1.734999179840088,-0.34999901056289673,-0.7177046537399292,0.0,0.0,0.0
1759838806.9805791,1,-1.734999179840088,-0.34999901056289673,-0.7176914486367618,0.0,True,0.010411500930786133,-1.734999179840088,-0.34999901056289673,-0.7177046537399292,0.0,0.0,0.0
1759838806.990926,1,-1.734999179840088,-0.34999901056289673,-0.7176921627303265,0.0,True,0.01034688949584961,-1.734999179840088,-0.34999901056289673,-0.7177046537399292,0.0,0.0,0.0
1759838807.0024376,1,-1.734999179840088,-0.34999901056289673,-0.7176925055847363,0.0,True,0.011511564254760742,-1.734999179840088,-0.34999901056289673,-0.7177046537399292,0.0,0.0,0.0
1759838807.0126154,1,-1.734999179840088,-0.34999901056289673,-0.7176932054105905,0.0,True,0.010177850723266602,-1.734999179840088,-0.34999901056289673,-0.7177046537399292,0.0,0.0,0.0
1759838807.023354,1,-1.734999179840088,-0.34999901056289673,-0.7176937050998866,0.0,True,0.010738611221313477,-1.734999179840088,-0.34999901056289673,-0.7177046537399292,0.0,0.0,0.0
1759838807.0342295,1,-1.734999179840088,-0.34999901056289673,-0.7176941380697865,0.0,True,0.010875463485717773,-1.734999179840088,-0.34999901056289673,-0.7177046537399292,0.0,0.0,0.0
1759838807.0456188,1,-1.734999179840088,-0.34999901056289673,-0.7176944504793905,0.0,True,0.01138925552368164,-1.734999179840088,-0.34999901056289673,-0.7177046537399292,0.0,0.0,0.0
1759838807.0571399,1,-1.734999179840088,-0.34999901056289673,-0.7176947618621021,0.0,True,0.011521100997924805,-1.734999179840088,-0.34999901056289673,-0.7177046537399292,0.0,0.0,0.0
1759838807.0721838,1,-1.734999179840088,-0.34999901056289673,-0.7176944394010007,0.0,True,0.015043973922729492,-1.734999179840088,-0.34999901056289673,-0.7177046537399292,0.0,0.0,0.0
1759838807.0823796,1,-1.734999179840088,-0.34999901056289673,-0.7176952412947326,0.0,True,0.010195732116699219,-1.734999179840088,-0.34999901056289673,-0.7177046537399292,0.0,0.0,0.0
1759838807.0927763,1,-1.734999179840088,-0.34999901056289673,-0.7176959154083171,0.0,True,0.010396718978881836,-1.734999179840088,-0.34999901056289673,-0.7177046537399292,0.0,0.0,0.0
1759838807.1038404,1,-1.734999179840088,-0.34999901056289673,-0.7176963529330997,0.0,True,0.01106405258178711,-1.734999179840088,-0.34999901056289673,-0.7177046537399292,0.0,0.0,0.0
1759838807.1147113,1,-1.734999179840088,-0.34999901056289673,-0.7176967658978892,0.0,True,0.010870933532714844,-1.734999179840088,-0.34999901056289673,-0.7177046537399292,0.0,0.0,0.0
1759838807.1261704,1,-1.734999179840088,-0.34999901056289673,-0.7176970456220602,0.0,True,0.011459112167358398,-1.734999179840088,-0.34999901056289673,-0.7177046537399292,0.0,0.0,0.0
1759838807.13643,1,-1.734999179840088,-0.34999901056289673,-0.717697495976708,0.0,True,0.010259628295898438,-1.734999179840088,-0.34999901056289673,-0.7177046537399292,0.0,0.0,0.0
1759838807.1473658,1,-1.734999179840088,-0.34999901056289673,-0.7176977916715721,0.0,True,0.010935783386230469,-1.734999179840088,-0.34999901056289673,-0.7177046537399292,0.0,0.0,0.0
1759838807.1579795,1,-1.734999179840088,-0.34999901056289673,-0.717698104807889,0.0,True,0.010613679885864258,-1.734999179840088,-0.34999901056289673,-0.7177046537399292,0.0,0.0,0.0
1759838807.1683724,1,-1.734999179840088,-0.34999901056289673,-0.7176984182890518,0.0,True,0.010392904281616211,-1.734999179840088,-0.34999901056289673,-0.7177046537399292,0.0,0.0,0.0
1759838807.1798623,1,-1.734999179840088,-0.34999901056289673,-0.7176985575198351,0.0,True,0.0114898681640625,-1.734999179840088,-0.34999901056289673,-0.7177046537399292,0.0,0.0,0.0
1759838807.1902766,1,-1.734999179840088,-0.34999901056289673,-0.7176988435550982,0.0,True,0.010414361953735352,-1.734999179840088,-0.34999901056289673,-0.7177046537399292,0.0,0.0,0.0
1759838807.2004573,1,-1.734999179840088,-0.34999901056289673,-0.7176991343297914,0.0,True,0.01018071174621582,-1.734999179840088,-0.34999901056289673,-0.7177046537399292,0.0,0.0,0.0
1759838807.211357,1,-1.734999179840088,-0.34999901056289673,-0.7176993062128076,0.0,True,0.010899782180786133,-1.734999179840088,-0.34999901056289673,-0.7177046537399292,0.0,0.0,0.0
1759838807.2215402,1,-1.734999179840088,-0.34999901056289673,-0.7176995522118119,0.0,True,0.010183095932006836,-1.734999179840088,-0.34999901056289673,-0.7177046537399292,0.0,0.0,0.0
1759838807.232875,1,-1.734999179840088,-0.34999901056289673,-0.7176996523343924,0.0,True,0.011334896087646484,-1.734999179840088,-0.34999901056289673,-0.7177046537399292,0.0,0.0,0.0
1759838807.2430208,1,-1.734999179840088,-0.34999901056289673,-0.7176998886696744,0.0,True,0.01014566421508789,-1.734999179840088,-0.34999901056289673,-0.7177046537399292,0.0,0.0,0.0
1759838807.2542748,1,-1.734999179840088,-0.34999901056289673,-0.7176999947953391,0.0,True,0.011254072189331055,-1.734999179840088,-0.34999901056289673,-0.7177046537399292,0.0,0.0,0.0
1759838807.2941635,1,-1.734999179840088,-0.34999901056289673,-0.7176976505219947,0.0,True,0.039888620376586914,-1.734999179840088,-0.34999901056289673,-0.7177046537399292,0.0,0.0,0.0
1759838807.3048444,1,-1.734999179840088,-0.34999901056289673,-0.7176986487328669,0.0,True,0.010680913925170898,-1.734999179840088,-0.34999901056289673,-0.7177046537399292,0.0,0.0,0.0
1759838807.316239,1,-1.734999179840088,-0.34999901056289673,-0.7176994839010042,0.0,True,0.011394739151000977,-1.734999179840088,-0.34999901056289673,-0.7177046537399292,0.0,0.0,0.0
1759838807.32654,1,-1.734999179840088,-0.34999901056289673,-0.7177001660404478,0.0,True,0.010300874710083008,-1.734999179840088,-0.34999901056289673,-0.7177046537399292,0.0,0.0,0.0
1759838807.3368187,1,-1.734999179840088,-0.34999901056289673,-0.717700664327328,0.0,True,0.010278701782226562,-1.734999179840088,-0.34999901056289673,-0.7177046537399292,0.0,0.0,0.0
1759838807.347163,1,-1.734999179840088,-0.34999901056289673,-0.7177010281435017,0.0,True,0.010344266891479492,-1.734999179840088,-0.34999901056289673,-0.7177046537399292,0.0,0.0,0.0
1759838807.3575788,1,-1.734999179840088,-0.34999901056289673,-0.7177012999899333,0.0,True,0.010415792465209961,-1.734999179840088,-0.34999901056289673,-0.7177046537399292,0.0,0.0,0.0
1759838807.3683403,1,-1.734999179840088,-0.34999901056289673,-0.7177014915711162,0.0,True,0.010761499404907227,-1.734999179840088,-0.34999901056289673,-0.7177046537399292,0.0,0.0,0.0
1759838807.3796208,1,-1.734999179840088,-0.34999901056289673,-0.717701617587478,0.0,True,0.011280536651611328,-1.734999179840088,-0.34999901056289673,-0.7177046537399292,0.0,0.0,0.0
1759838807.3904448,1,-1.734999179840088,-0.34999901056289673,-0.7177017576379505,0.0,True,0.010823965072631836,-1.734999179840088,-0.34999901056289673,-0.7177046537399292,0.0,0.0,0.0
1759838807.4014695,1,-1.734999179840088,-0.34999901056289673,-0.7177018709960983,0.0,True,0.011024713516235352,-1.734999179840088,-0.34999901056289673,-0.7177046537399292,0.0,0.0,0.0
1759838807.4125063,1,-1.734999179840088,-0.34999901056289673,-0.7177019737345933,0.0,True,0.011036872863769531,-1.734999179840088,-0.34999901056289673,-0.7177046537399292,0.0,0.0,0.0
1759838807.4238434,1,-1.734999179840088,-0.34999901056289673,-0.7177020537787566,0.0,True,0.011337041854858398,-1.734999179840088,-0.34999901056289673,-0.7177046537399292,0.0,0.0,0.0
1759838807.4350843,1,-1.734999179840088,-0.34999901056289673,-0.717702138357204,0.0,True,0.011240959167480469,-1.734999179840088,-0.34999901056289673,-0.7177046537399292,0.0,0.0,0.0
1759838807.4453423,1,-1.734999179840088,-0.34999901056289673,-0.7177022705359448,0.0,True,0.010257959365844727,-1.734999179840088,-0.34999901056289673,-0.7177046537399292,0.0,0.0,0.0
1759838807.455462,1,-1.734999179840088,-0.34999901056289673,-0.7177023925120452,0.0,True,0.01011967658996582,-1.734999179840088,-0.34999901056289673,-0.7177046537399292,0.0,0.0,0.0
1759838807.4747872,1,-1.734999179840088,-0.34999901056289673,-0.7177020736322106,0.0,True,0.01932525634765625,-1.734999179840088,-0.34999901056289673,-0.7177046537399292,0.0,0.0,0.0
1759838807.4851198,1,-1.734999179840088,-0.34999901056289673,-0.7177022716874077,0.0,True,0.010332584381103516,-1.734999179840088,-0.34999901056289673,-0.7177046537399292,0.0,0.0,0.0
1759838807.4952567,1,-1.734999179840088,-0.34999901056289673,-0.7177024668767373,0.0,True,0.010136842727661133,-1.734999179840088,-0.34999901056289673,-0.7177046537399292,0.0,0.0,0.0
1759838807.505631,1,-1.734999179840088,-0.34999901056289673,-0.7177026113411102,0.0,True,0.010374307632446289,-1.734999179840088,-0.34999901056289673,-0.7177046537399292,0.0,0.0,0.0
1759838807.5171509,1,-1.734999179840088,-0.34999901056289673,-0.7177026815798353,0.0,True,0.011519908905029297,-1.734999179840088,-0.34999901056289673,-0.7177046537399292,0.0,0.0,0.0
1759838807.5281534,1,-1.734999179840088,-0.34999901056289673,-0.7177027656391957,0.0,True,0.011002540588378906,-1.734999179840088,-0.34999901056289673,-0.7177046537399292,0.0,0.0,0.0
1759838807.5384045,1,-1.734999179840088,-0.34999901056289673,-0.7177028704486776,0.0,True,0.010251045227050781,-1.734999179840088,-0.34999901056289673,-0.7177046537399292,0.0,0.0,0.0
1759838807.5488484,1,-1.734999179840088,-0.34999901056289673,-0.7177029530627372,0.0,True,0.010443925857543945,-1.734999179840088,-0.34999901056289673,-0.7177046537399292,0.0,0.0,0.0
1759838807.559856,1,-1.734999179840088,-0.34999901056289673,-0.7177030046732717,0.0,True,0.011007547378540039,-1.734999179840088,-0.34999901056289673,-0.7177046537399292,0.0,0.0,0.0
1759838807.5707436,1,-1.734999179840088,-0.34999901056289673,-0.7177030582854442,0.0,True,0.010887622833251953,-1.734999179840088,-0.34999901056289673,-0.7177046537399292,0.0,0.0,0.0
1759838807.5821664,1,-1.734999179840088,-0.34999901056289673,-0.7177030931029993,0.0,True,0.011422872543334961,-1.734999179840088,-0.34999901056289673,-0.7177046537399292,0.0,0.0,0.0
1759838807.5924451,1,-1.734999179840088,-0.34999901056289673,-0.7177031675596623,0.0,True,0.010278701782226562,-1.734999179840088,-0.34999901056289673,-0.7177046537399292,0.0,0.0,0.0
1759838807.602877,1,-1.734999179840088,-0.34999901056289673,-0.7177032298983477,0.0,True,0.010431766510009766,-1.734999179840088,-0.34999901056289673,-0.7177046537399292,0.0,0.0,0.0
1759838807.6144342,1,-1.734999179840088,-0.34999901056289673,-0.717703252007416,0.0,True,0.011557340621948242,-1.734999179840088,-0.34999901056289673,-0.7177046537399292,0.0,0.0,0.0
1759838807.6259518,1,-1.734999179840088,-0.34999901056289673,-0.717703280332632,0.0,True,0.011517524719238281,-1.734999179840088,-0.34999901056289673,-0.7177046537399292,0.0,0.0,0.0
1759838807.6363263,1,-1.734999179840088,-0.34999901056289673,-0.7177033455396273,0.0,True,0.01037454605102539,-1.734999179840088,-0.34999901056289673,-0.7177046537399292,0.0,0.0,0.0
1759838807.6466606,1,-1.734999179840088,-0.34999901056289673,-0.7177034056715303,0.0,True,0.010334253311157227,-1.734999179840088,-0.34999901056289673,-0.7177046537399292,0.0,0.0,0.0
1759838807.6570308,1,-1.734999179840088,-0.34999901056289673,-0.7177034572955794,0.0,True,0.010370254516601562,-1.734999179840088,-0.34999901056289673,-0.7177046537399292,0.0,0.0,0.0
1759838807.6733866,1,-1.734999179840088,-0.34999901056289673,-0.717703355886048,0.0,True,0.01635575294494629,-1.734999179840088,-0.34999901056289673,-0.7177046537399292,0.0,0.0,0.0
1759838807.683506,1,-1.734999179840088,-0.34999901056289673,-0.7177034447142052,0.0,True,0.010119438171386719,-1.734999179840088,-0.34999901056289673,-0.7177046537399292,0.0,0.0,0.0
1759838807.6944752,1,-1.734999179840088,-0.34999901056289673,-0.7177035082275527,0.0,True,0.010969161987304688,-1.734999179840088,-0.34999901056289673,-0.7177046537399292,0.0,0.0,0.0
1759838807.705665,1,-1.734999179840088,-0.34999901056289673,-0.7177035570909105,0.0,True,0.011189937591552734,-1.734999179840088,-0.34999901056289673,-0.7177046537399292,0.0,0.0,0.0
1759838807.7160075,1,-1.734999179840088,-0.34999901056289673,-0.7177036189861923,0.0,True,0.01034235954284668,-1.734999179840088,-0.34999901056289673,-0.7177046537399292,0.0,0.0,0.0
1759838807.7262628,1,-1.734999179840088,-0.34999901056289673,-0.7177036737572458,0.0,True,0.01025533676147461,-1.734999179840088,-0.34999901056289673,-0.7177046537399292,0.0,0.0,0.0
1759838807.7366235,1,-1.734999179840088,-0.34999901056289673,-0.717703717947968,0.0,True,0.0103607177734375,-1.734999179840088,-0.34999901056289673,-0.7177046537399292,0.0,0.0,0.0
1759838807.74769,1,-1.734999179840088,-0.34999901056289673,-0.7177037427117838,0.0,True,0.011066436767578125,-1.734999179840088,-0.34999901056289673,-0.7177046537399292,0.0,0.0,0.0
1759838807.757949,1,-1.734999179840088,-0.34999901056289673,-0.7177037826438184,0.0,True,0.010259151458740234,-1.734999179840088,-0.34999901056289673,-0.7177046537399292,0.0,0.0,0.0
1759838807.7691436,1,-1.734999179840088,-0.34999901056289673,-0.717703801956457,0.0,True,0.011194467544555664,-1.734999179840088,-0.34999901056289673,-0.7177046537399292,0.0,0.0,0.0
1759838807.7793434,1,-1.734999179840088,-0.34999901056289673,-0.7177038399144529,0.0,True,0.010199785232543945,-1.734999179840088,-0.34999901056289673,-0.7177046537399292,0.0,0.0,0.0
1759838807.789627,1,-1.734999179840088,-0.34999901056289673,-0.7177038730487872,0.0,True,0.010283708572387695,-1.734999179840088,-0.34999901056289673,-0.7177046537399292,0.0,0.0,0.0
1759838807.7999368,1,-1.734999179840088,-0.34999901056289673,-0.7177039022567335,0.0,True,0.010309696197509766,-1.734999179840088,-0.34999901056289673,-0.7177046537399292,0.0,0.0,0.0
1759838807.8111675,1,-1.734999179840088,-0.34999901056289673,-0.7177039142744199,0.0,True,0.011230707168579102,-1.734999179840088,-0.34999901056289673,-0.7177046537399292,0.0,0.0,0.0
1759838807.8221135,1,-1.734999179840088,-0.34999901056289673,-0.7177039332663178,0.0,True,0.010946035385131836,-1.734999179840088,-0.34999901056289673,-0.7177046537399292,0.0,0.0,0.0
1759838807.8334527,1,-1.734999179840088,-0.34999901056289673,-0.7177039479082588,0.0,True,0.011339187622070312,-1.734999179840088,-0.34999901056289673,-0.7177046537399292,0.0,0.0,0.0
1759838807.8448617,1,-1.734999179840088,-0.34999901056289673,-0.7177039639308855,0.0,True,0.01140904426574707,-1.734999179840088,-0.34999901056289673,-0.7177046537399292,0.0,0.0,0.0
1759838807.8556397,1,-1.734999179840088,-0.34999901056289673,-0.7177039908614695,0.0,True,0.010777950286865234,-1.734999179840088,-0.34999901056289673,-0.7177046537399292,0.0,0.0,0.0
1759838807.8684437,1,-1.734999179840088,-0.34999901056289673,-0.7177039895800199,0.0,True,0.012804031372070312,-1.734999179840088,-0.34999901056289673,-0.7177046537399292,0.0,0.0,0.0
1759838807.8785791,1,-1.734999179840088,-0.34999901056289673,-0.7177040290783552,0.0,True,0.010135412216186523,-1.734999179840088,-0.34999901056289673,-0.7177046537399292,0.0,0.0,0.0
1759838807.8892608,1,-1.734999179840088,-0.34999901056289673,-0.7177040575545632,0.0,True,0.010681629180908203,-1.734999179840088,-0.34999901056289673,-0.7177046537399292,0.0,0.0,0.0
1759838807.9006584,1,-1.734999179840088,-0.34999901056289673,-0.7177040737428815,0.0,True,0.011397600173950195,-1.734999179840088,-0.34999901056289673,-0.7177046537399292,0.0,0.0,0.0
1759838807.9110477,1,-1.734999179840088,-0.34999901056289673,-0.7177041018194075,0.0,True,0.010389328002929688,-1.734999179840088,-0.34999901056289673,-0.7177046537399292,0.0,0.0,0.0
1759838807.9225223,1,-1.734999179840088,-0.34999901056289673,-0.7177041148745467,0.0,True,0.011474609375,-1.734999179840088,-0.34999901056289673,-0.7177046537399292,0.0,0.0,0.0
1759838807.9331899,1,-1.734999179840088,-0.34999901056289673,-0.7177041372944473,0.0,True,0.010667562484741211,-1.734999179840088,-0.34999901056289673,-0.7177046537399292,0.0,0.0,0.0
1759838807.9444299,1,-1.734999179840088,-0.34999901056289673,-0.7177041522682117,0.0,True,0.011240005493164062,-1.734999179840088,-0.34999901056289673,-0.7177046537399292,0.0,0.0,0.0
1759838807.9549055,1,-1.734999179840088,-0.34999901056289673,-0.7177041749286399,0.0,True,0.010475635528564453,-1.734999179840088,-0.34999901056289673,-0.7177046537399292,0.0,0.0,0.0
1759838807.9652221,1,-1.734999179840088,-0.34999901056289673,-0.7177041970330151,0.0,True,0.010316610336303711,-1.734999179840088,-0.34999901056289673,-0.7177046537399292,0.0,0.0,0.0
1759838807.9767237,1,-1.734999179840088,-0.34999901056289673,-0.7177042052886868,0.0,True,0.011501550674438477,-1.734999179840088,-0.34999901056289673,-0.7177046537399292,0.0,0.0,0.0
1759838807.9873755,1,-1.734999179840088,-0.34999901056289673,-0.7177042225396573,0.0,True,0.010651826858520508,-1.734999179840088,-0.34999901056289673,-0.7177046537399292,0.0,0.0,0.0
1759838807.9985535,1,-1.734999179840088,-0.34999901056289673,-0.7177042344331817,0.0,True,0.011178016662597656,-1.734999179840088,-0.34999901056289673,-0.7177046537399292,0.0,0.0,0.0
1759838808.009096,1,-1.734999179840088,-0.34999901056289673,-0.7177042519295824,0.0,True,0.01054239273071289,-1.734999179840088,-0.34999901056289673,-0.7177046537399292,0.0,0.0,0.0
1759838808.0197132,1,-1.734999179840088,-0.34999901056289673,-0.7177042674894736,0.0,True,0.010617256164550781,-1.734999179840088,-0.34999901056289673,-0.7177046537399292,0.0,0.0,0.0
1759838808.0309358,1,-1.734999179840088,-0.34999901056289673,-0.7177042769735529,0.0,True,0.011222600936889648,-1.734999179840088,-0.34999901056289673,-0.7177046537399292,0.0,0.0,0.0
1759838808.0422113,1,-1.734999179840088,-0.34999901056289673,-0.7177042865626717,0.0,True,0.011275529861450195,-1.734999179840088,-0.34999901056289673,-0.7177046537399292,0.0,0.0,0.0
1759838808.0528498,1,-1.734999179840088,-0.34999901056289673,-0.7177043016142566,0.0,True,0.01063847541809082,-1.734999179840088,-0.34999901056289673,-0.7177046537399292,0.0,0.0,0.0
1759838808.0633357,1,-1.734999179840088,-0.34999901056289673,-0.7177043167579349,0.0,True,0.01048588752746582,-1.734999179840088,-0.34999901056289673,-0.7177046537399292,0.0,0.0,0.0
1759838808.074051,1,-1.734999179840088,-0.34999901056289673,-0.7177043287855724,0.0,True,0.010715246200561523,-1.734999179840088,-0.34999901056289673,-0.7177046537399292,0.0,0.0,0.0
1759838808.0852892,1,-1.734999179840088,-0.34999901056289673,-0.7177043365231963,0.0,True,0.011238336563110352,-1.734999179840088,-0.34999901056289673,-0.7177046537399292,0.0,0.0,0.0
1759838808.095968,1,-1.734999179840088,-0.34999901056289673,-0.71770434842424,0.0,True,0.010678768157958984,-1.734999179840088,-0.34999901056289673,-0.7177046537399292,0.0,0.0,0.0
1759838808.1067996,1,-1.734999179840088,-0.34999901056289673,-0.7177043588368743,0.0,True,0.010831594467163086,-1.734999179840088,-0.34999901056289673,-0.7177046537399292,0.0,0.0,0.0
1759838808.1179419,1,-1.734999179840088,-0.34999901056289673,-0.7177043669298158,0.0,True,0.011142253875732422,-1.734999179840088,-0.34999901056289673,-0.7177046537399292,0.0,0.0,0.0
1759838808.1281192,1,-1.734999179840088,-0.34999901056289673,-0.7177043808678416,0.0,True,0.010177373886108398,-1.734999179840088,-0.34999901056289673,-0.7177046537399292,0.0,0.0,0.0
1759838808.1389463,1,-1.734999179840088,-0.34999901056289673,-0.7177043896363848,0.0,True,0.010827064514160156,-1.734999179840088,-0.34999901056289673,-0.7177046537399292,0.0,0.0,0.0
1759838808.1493416,1,-1.734999179840088,-0.34999901056289673,-0.7177044003006507,0.0,True,0.010395288467407227,-1.734999179840088,-0.34999901056289673,-0.7177046537399292,0.0,0.0,0.0
1759838808.159962,1,-1.734999179840088,-0.34999901056289673,-0.71770440892492,0.0,True,0.010620355606079102,-1.734999179840088,-0.34999901056289673,-0.7177046537399292,0.0,0.0,0.0
1759838808.1706717,1,-1.734999179840088,-0.34999901056289673,-0.7177044166167619,0.0,True,0.010709762573242188,-1.734999179840088,-0.34999901056289673,-0.7177046537399292,0.0,0.0,0.0
1759838808.1807928,1,-1.734999179840088,-0.34999901056289673,-0.7177044270406991,0.0,True,0.01012110710144043,-1.734999179840088,-0.34999901056289673,-0.7177046537399292,0.0,0.0,0.0
1759838808.191946,1,-1.734999179840088,-0.34999901056289673,-0.7177044314899206,0.0,True,0.011153221130371094,-1.734999179840088,-0.34999901056289673,-0.7177046537399292,0.0,0.0,0.0
1759838808.2027607,1,-1.734999179840088,-0.34999901056289673,-0.7177044379951703,0.0,True,0.010814666748046875,-1.734999179840088,-0.34999901056289673,-0.7177046537399292,0.0,0.0,0.0
1759838808.213982,1,-1.734999179840088,-0.34999901056289673,-0.7177044428756432,0.0,True,0.01122140884399414,-1.734999179840088,-0.34999901056289673,-0.7177046537399292,0.0,0.0,0.0
1759838808.2242296,1,-1.734999179840088,-0.34999901056289673,-0.7177044524742193,0.0,True,0.010247468948364258,-1.734999179840088,-0.34999901056289673,-0.7177046537399292,0.0,0.0,0.0
1759838808.2346706,1,-1.734999179840088,-0.34999901056289673,-0.7177044604065834,0.0,True,0.010441064834594727,-1.734999179840088,-0.34999901056289673,-0.7177046537399292,0.0,0.0,0.0
1759838808.2454352,1,-1.734999179840088,-0.34999901056289673,-0.717704466284971,0.0,True,0.010764598846435547,-1.734999179840088,-0.34999901056289673,-0.7177046537399292,0.0,0.0,0.0
1759838808.2559953,1,-1.734999179840088,-0.34999901056289673,-0.7177044728261173,0.0,True,0.010560035705566406,-1.734999179840088,-0.34999901056289673,-0.7177046537399292,0.0,0.0,0.0
1759838808.2662482,1,-1.734999179840088,-0.34999901056289673,-0.7177044802440484,0.0,True,0.010252952575683594,-1.734999179840088,-0.34999901056289673,-0.7177046537399292,0.0,0.0,0.0
1759838808.2768896,1,-1.734999179840088,-0.34999901056289673,-0.7177044855782828,0.0,True,0.010641336441040039,-1.734999179840088,-0.34999901056289673,-0.7177046537399292,0.0,0.0,0.0
1759838808.287587,1,-1.734999179840088,-0.34999901056289673,-0.7177044905371996,0.0,True,0.010697364807128906,-1.734999179840088,-0.34999901056289673,-0.7177046537399292,0.0,0.0,0.0
1759838808.2989876,1,-1.734999179840088,-0.34999901056289673,-0.7177044930971945,0.0,True,0.011400699615478516,-1.734999179840088,-0.34999901056289673,-0.7177046537399292,0.0,0.0,0.0
1759838808.3099072,1,-1.734999179840088,-0.34999901056289673,-0.7177044979663627,0.0,True,0.010919570922851562,-1.734999179840088,-0.34999901056289673,-0.7177046537399292,0.0,0.0,0.0
1759838808.3203206,1,-1.734999179840088,-0.34999901056289673,-0.7177045046028567,0.0,True,0.010413408279418945,-1.734999179840088,-0.34999901056289673,-0.7177046537399292,0.0,0.0,0.0
1759838808.3312151,1,-1.734999179840088,-0.34999901056289673,-0.7177045092010701,0.0,True,0.010894536972045898,-1.734999179840088,-0.34999901056289673,-0.7177046537399292,0.0,0.0,0.0
1759838808.3414803,1,-1.734999179840088,-0.34999901056289673,-0.7177045155497339,0.0,True,0.010265111923217773,-1.734999179840088,-0.34999901056289673,-0.7177046537399292,0.0,0.0,0.0
1759838808.3516357,1,-1.734999179840088,-0.34999901056289673,-0.7177045216199875,0.0,True,0.010155439376831055,-1.734999179840088,-0.34999901056289673,-0.7177046537399292,0.0,0.0,0.0
1759838808.3630672,1,-1.734999179840088,-0.34999901056289673,-0.7177045234359483,0.0,True,0.011431455612182617,-1.734999179840088,-0.34999901056289673,-0.7177046537399292,0.0,0.0,0.0
1759838808.3737757,1,-1.734999179840088,-0.34999901056289673,-0.7177045277328027,0.0,True,0.01070857048034668,-1.734999179840088,-0.34999901056289673,-0.7177046537399292,0.0,0.0,0.0
1759838808.384642,1,-1.734999179840088,-0.34999901056289673,-0.7177045316435482,0.0,True,0.010866165161132812,-1.734999179840088,-0.34999901056289673,-0.7177046537399292,0.0,0.0,0.0
1759838808.395937,1,-1.734999179840088,-0.34999901056289673,-0.7177045344449251,0.0,True,0.011295080184936523,-1.734999179840088,-0.34999901056289673,-0.7177046537399292,0.0,0.0,0.0
1759838808.4065583,1,-1.734999179840088,-0.34999901056289673,-0.7177045391682473,0.0,True,0.010621309280395508,-1.734999179840088,-0.34999901056289673,-0.7177046537399292,0.0,0.0,0.0
1759838808.4167478,1,-1.734999179840088,-0.34999901056289673,-0.717704544646498,0.0,True,0.010189533233642578,-1.734999179840088,-0.34999901056289673,-0.7177046537399292,0.0,0.0,0.0
1759838808.4274917,1,-1.734999179840088,-0.34999901056289673,-0.7177045482142539,0.0,True,0.010743856430053711,-1.734999179840088,-0.34999901056289673,-0.7177046537399292,0.0,0.0,0.0
1759838808.4380162,1,-1.734999179840088,-0.34999901056289673,-0.7177045520668255,0.0,True,0.010524511337280273,-1.734999179840088,-0.34999901056289673,-0.7177046537399292,0.0,0.0,0.0
1759838808.449364,1,-1.734999179840088,-0.34999901056289673,-0.7177045539599689,0.0,True,0.011347770690917969,-1.734999179840088,-0.34999901056289673,-0.7177046537399292,0.0,0.0,0.0
1759838808.4595187,1,-1.734999179840088,-0.34999901056289673,-0.7177045586151181,0.0,True,0.01015472412109375,-1.734999179840088,-0.34999901056289673,-0.7177046537399292,0.0,0.0,0.0
1759838808.470865,1,-1.734999179840088,-0.34999901056289673,-0.7177045604973529,0.0,True,0.01134634017944336,-1.734999179840088,-0.34999901056289673,-0.7177046537399292,0.0,0.0,0.0
1759838808.4842134,1,-1.734999179840088,-0.34999901056289673,-0.7177045588219428,0.0,True,0.01334834098815918,-1.734999179840088,-0.34999901056289673,-0.7177046537399292,0.0,0.0,0.0
1759838808.4945374,1,-1.734999179840088,-0.34999901056289673,-0.7177045641641691,0.0,True,0.01032400131225586,-1.734999179840088,-0.34999901056289673,-0.7177046537399292,0.0,0.0,0.0
1759838808.5047555,1,-1.734999179840088,-0.34999901056289673,-0.7177045692722448,0.0,True,0.010218143463134766,-1.734999179840088,-0.34999901056289673,-0.7177046537399292,0.0,0.0,0.0
1759838808.515959,1,-1.734999179840088,-0.34999901056289673,-0.7177045718890476,0.0,True,0.011203527450561523,-1.734999179840088,-0.34999901056289673,-0.7177046537399292,0.0,0.0,0.0
1759838808.5273666,1,-1.734999179840088,-0.34999901056289673,-0.7177045740548369,0.0,True,0.011407613754272461,-1.734999179840088,-0.34999901056289673,-0.7177046537399292,0.0,0.0,0.0
1759838808.5376167,1,-1.734999179840088,-0.34999901056289673,-0.7177045781846054,0.0,True,0.010250091552734375,-1.734999179840088,-0.34999901056289673,-0.7177046537399292,0.0,0.0,0.0
1759838808.5479493,1,-1.734999179840088,-0.34999901056289673,-0.7177045817175074,0.0,True,0.010332584381103516,-1.734999179840088,-0.34999901056289673,-0.7177046537399292,0.0,0.0,0.0
1759838808.5594492,1,-1.734999179840088,-0.34999901056289673,-0.717704583058854,0.0,True,0.011499881744384766,-1.734999179840088,-0.34999901056289673,-0.7177046537399292,0.0,0.0,0.0
1759838808.570487,1,-1.734999179840088,-0.34999901056289673,-0.7177045852568149,0.0,True,0.011037826538085938,-1.734999179840088,-0.34999901056289673,-0.7177046537399292,0.0,0.0,0.0
1759838808.5806787,1,-1.734999179840088,-0.34999901056289673,-0.7177045886732607,0.0,True,0.010191679000854492,-1.734999179840088,-0.34999901056289673,-0.7177046537399292,0.0,0.0,0.0
1759838808.5913782,1,-1.734999179840088,-0.34999901056289673,-0.7177045910157673,0.0,True,0.01069951057434082,-1.734999179840088,-0.34999901056289673,-0.7177046537399292,0.0,0.0,0.0
1759838808.6016808,1,-1.734999179840088,-0.34999901056289673,-0.7177045936867259,0.0,True,0.010302543640136719,-1.734999179840088,-0.34999901056289673,-0.7177046537399292,0.0,0.0,0.0
1759838808.6127656,1,-1.734999179840088,-0.34999901056289673,-0.7177045951205994,0.0,True,0.011084794998168945,-1.734999179840088,-0.34999901056289673,-0.7177046537399292,0.0,0.0,0.0
1759838808.6233711,1,-1.734999179840088,-0.34999901056289673,-0.717704597201223,0.0,True,0.010605573654174805,-1.734999179840088,-0.34999901056289673,-0.7177046537399292,0.0,0.0,0.0
1759838808.633701,1,-1.734999179840088,-0.34999901056289673,-0.717704599532583,0.0,True,0.010329961776733398,-1.734999179840088,-0.34999901056289673,-0.7177046537399292,0.0,0.0,0.0
1759838808.6438837,1,-1.734999179840088,-0.34999901056289673,-0.71770460182303,0.0,True,0.010182619094848633,-1.734999179840088,-0.34999901056289673,-0.7177046537399292,0.0,0.0,0.0
1759838808.6541653,1,-1.734999179840088,-0.34999901056289673,-0.717704603763119,0.0,True,0.010281562805175781,-1.734999179840088,-0.34999901056289673,-0.7177046537399292,0.0,0.0,0.0
1759838808.664473,1,-1.734999179840088,-0.34999901056289673,-0.7177046055096881,0.0,True,0.010307788848876953,-1.734999179840088,-0.34999901056289673,-0.7177046537399292,0.0,0.0,0.0
1759838808.6815424,1,-1.734999179840088,-0.34999901056289673,-0.7177046002849714,0.0,True,0.017069339752197266,-1.734999179840088,-0.34999901056289673,-0.7177046537399292,0.0,0.0,0.0
1759838808.6872358,1,-1.734999179840088,-0.34999901056289673,-0.7177046082642562,0.0,True,0.0056934356689453125,-1.734999179840088,-0.34999901056289673,-0.7177046537399292,0.0,0.0,0.0
1759838808.6985552,1,-1.734999179840088,-0.34999901056289673,-0.7177046093971526,0.0,True,0.011319398880004883,-1.734999179840088,-0.34999901056289673,-0.7177046537399292,0.0,0.0,0.0
1759838808.7091177,1,-1.734999179840088,-0.34999901056289673,-0.7177046109401157,0.0,True,0.010562419891357422,-1.734999179840088,-0.34999901056289673,-0.7177046537399292,0.0,0.0,0.0
1759838808.7204282,1,-1.734999179840088,-0.34999901056289673,-0.717704611765333,0.0,True,0.011310577392578125,-1.734999179840088,-0.34999901056289673,-0.7177046537399292,0.0,0.0,0.0
1759838808.7318003,1,-1.734999179840088,-0.34999901056289673,-0.7177046126699516,0.0,True,0.011372089385986328,-1.734999179840088,-0.34999901056289673,-0.7177046537399292,0.0,0.0,0.0
1759838808.7433524,1,-1.734999179840088,-0.34999901056289673,-0.7177046135752949,0.0,True,0.011552095413208008,-1.734999179840088,-0.34999901056289673,-0.7177046537399292,0.0,0.0,0.0
1759838808.7544906,1,-1.734999179840088,-0.34999901056289673,-0.7177046149544921,0.0,True,0.011138200759887695,-1.734999179840088,-0.34999901056289673,-0.7177046537399292,0.0,0.0,0.0
1759838808.7649045,1,-1.734999179840088,-0.34999901056289673,-0.7177046168829406,0.0,True,0.010413885116577148,-1.734999179840088,-0.34999901056289673,-0.7177046537399292,0.0,0.0,0.0
1759838808.775306,1,-1.734999179840088,-0.34999901056289673,-0.7177046186008411,0.0,True,0.010401487350463867,-1.734999179840088,-0.34999901056289673,-0.7177046537399292,0.0,0.0,0.0
1759838808.7865689,1,-1.734999179840088,-0.34999901056289673,-0.7177046194836532,0.0,True,0.011262893676757812,-1.734999179840088,-0.34999901056289673,-0.7177046537399292,0.0,0.0,0.0
1759838808.797957,1,-1.734999179840088,-0.34999901056289673,-0.7177046203081119,0.0,True,0.011388063430786133,-1.734999179840088,-0.34999901056289673,-0.7177046537399292,0.0,0.0,0.0
1759838808.8087778,1,-1.734999179840088,-0.34999901056289673,-0.7177046215985392,0.0,True,0.010820865631103516,-1.734999179840088,-0.34999901056289673,-0.7177046537399292,0.0,0.0,0.0
1759838808.819091,1,-1.734999179840088,-0.34999901056289673,-0.7177046231576867,0.0,True,0.010313272476196289,-1.734999179840088,-0.34999901056289673,-0.7177046537399292,0.0,0.0,0.0
1759838808.829338,1,-1.734999179840088,-0.34999901056289673,-0.7177046245740257,0.0,True,0.010246992111206055,-1.734999179840088,-0.34999901056289673,-0.7177046537399292,0.0,0.0,0.0
1759838808.839686,1,-1.734999179840088,-0.34999901056289673,-0.717704625749505,0.0,True,0.010347843170166016,-1.734999179840088,-0.34999901056289673,-0.7177046537399292,0.0,0.0,0.0
1759838808.8510377,1,-1.734999179840088,-0.34999901056289673,-0.7177046262153794,0.0,True,0.011351823806762695,-1.734999179840088,-0.34999901056289673,-0.7177046537399292,0.0,0.0,0.0
1759838808.8623397,1,-1.734999179840088,-0.34999901056289673,-0.717704626805352,0.0,True,0.011301994323730469,-1.734999179840088,-0.34999901056289673,-0.7177046537399292,0.0,0.0,0.0
1759838808.8735511,1,-1.734999179840088,-0.34999901056289673,-0.7177046275440659,0.0,True,0.011211395263671875,-1.734999179840088,-0.34999901056289673,-0.7177046537399292,0.0,0.0,0.0
1759838808.884383,1,-1.734999179840088,-0.34999901056289673,-0.7177046285280735,0.0,True,0.010831832885742188,-1.734999179840088,-0.34999901056289673,-0.7177046537399292,0.0,0.0,0.0
1759838808.8946934,1,-1.734999179840088,-0.34999901056289673,-0.7177046297329035,0.0,True,0.01031041145324707,-1.734999179840088,-0.34999901056289673,-0.7177046537399292,0.0,0.0,0.0
1759838808.905915,1,-1.734999179840088,-0.34999901056289673,-0.7177046303508376,0.0,True,0.011221647262573242,-1.734999179840088,-0.34999901056289673,-0.7177046537399292,0.0,0.0,0.0
1759838808.9172304,1,-1.734999179840088,-0.34999901056289673,-0.7177046309368738,0.0,True,0.011315345764160156,-1.734999179840088,-0.34999901056289673,-0.7177046537399292,0.0,0.0,0.0
1759838808.9274504,1,-1.734999179840088,-0.34999901056289673,-0.7177046320746534,0.0,True,0.010220050811767578,-1.734999179840088,-0.34999901056289673,-0.7177046537399292,0.0,0.0,0.0
1759838808.9389892,1,-1.734999179840088,-0.34999901056289673,-0.7177046325058782,0.0,True,0.01153874397277832,-1.734999179840088,-0.34999901056289673,-0.7177046537399292,0.0,0.0,0.0
1759838808.949282,1,-1.734999179840088,-0.34999901056289673,-0.7177046335178332,0.0,True,0.010292768478393555,-1.734999179840088,-0.34999901056289673,-0.7177046537399292,0.0,0.0,0.0
1759838808.959323,1,-1.734999179840088,-0.34999901056289673,-0.7177046345404055,0.0,True,0.010040998458862305,-1.734999179840088,-0.34999901056289673,-0.7177046537399292,0.0,0.0,0.0
1759838808.9706652,1,-1.734999179840088,-0.34999901056289673,-0.717704634897121,0.0,True,0.011342287063598633,-1.734999179840088,-0.34999901056289673,-0.7177046537399292,0.0,0.0,0.0
1759838808.9841616,1,-1.734999179840088,-0.34999901056289673,-0.7177046344723941,0.0,True,0.01349639892578125,-1.734999179840088,-0.34999901056289673,-0.7177046537399292,0.0,0.0,0.0
1759838808.9942603,1,-1.734999179840088,-0.34999901056289673,-0.7177046356338881,0.0,True,0.010098695755004883,-1.734999179840088,-0.34999901056289673,-0.7177046537399292,0.0,0.12115364429397246,0.0
1759838809.004897,1,-1.734999179840088,-0.34999901056289673,-0.7177046364974959,0.0,True,0.01063680648803711,-1.734999179840088,-0.34999901056289673,-0.7177046537399292,0.0,0.12115364429397246,0.0
1759838809.018603,1,-1.734999179840088,-0.34999901056289673,-0.7177046361906605,0.0,True,0.013705968856811523,-1.734999179840088,-0.34999901056289673,-0.7177046537399292,0.0,0.12115364429397246,0.0
1759838809.0308182,1,-1.734999179840088,-0.34999901056289673,-0.7177046366358333,0.0,True,0.012215137481689453,-1.734999179840088,-0.34999901056289673,-0.7177046537399292,0.0,0.12115364429397246,0.0
1759838809.044535,1,-1.734999179840088,-0.34999901056289673,-0.7177046367156059,0.0,True,0.013716697692871094,-1.734999179840088,-0.34999901056289673,-0.7177046537399292,0.0,0.12115364429397246,0.0
1759838809.0572731,1,-1.734999179840088,-0.34999901056289673,-0.7177046372739575,0.0,True,0.012738227844238281,-1.734999179840088,-0.34999901056289673,-0.7177046537399292,0.0,0.12115364429397246,0.0
1759838809.0696337,1,-1.734999179840088,-0.34999901056289673,-0.7177046379942631,0.0,True,0.012360572814941406,-1.734999179840088,-0.34999901056289673,-0.7177046537399292,0.0,0.12115364429397246,0.0
1759838809.0819118,1,-1.734999179840088,-0.34999901056289673,-0.7177046387057509,0.0,True,0.012278079986572266,-1.734999179840088,-0.34999901056289673,-0.7177046537399292,0.0,0.12115364429397246,0.0
1759838809.0940073,1,-1.734999179840088,-0.34999901056289673,-0.7177046394161906,0.0,True,0.012095451354980469,-1.734999179840088,-0.34999901056289673,-0.7177046537399292,0.0,0.12115364429397246,0.0
1759838809.1042933,1,-1.734999179840088,-0.34999901056289673,-0.7177046405229319,0.0,True,0.010286092758178711,-1.734999179840088,-0.34999901056289673,-0.7177046537399292,0.0,0.12115364429397246,0.0
1759838809.1155837,1,-1.734999179840088,-0.34999901056289673,-0.7177046411838042,0.0,True,0.011290311813354492,-1.734999179840088,-0.34999901056289673,-0.7177046537399292,0.0,0.12115364429397246,0.0
1759838809.126893,1,-1.734999179840088,-0.34999901056289673,-0.7177046417378001,0.0,True,0.011309385299682617,-1.734999179840088,-0.34999901056289673,-0.7177046537399292,0.0,0.12115364429397246,0.0
1759838809.1386015,1,-1.734999179840088,-0.34999901056289673,-0.7177046421448949,0.0,True,0.011708498001098633,-1.734999179840088,-0.34999901056289673,-0.7177046537399292,0.0,0.12115364429397246,0.0
1759838809.1504116,1,-1.734999179840088,-0.34999901056289673,-0.7177046425176865,0.0,True,0.011810064315795898,-1.734999179840088,-0.34999901056289673,-0.7177046537399292,0.0,0.12115364429397246,0.0
1759838809.1616673,1,-1.734999179840088,-0.34999901056289673,-0.7177046430097249,0.0,True,0.011255741119384766,-1.734999179840088,-0.34999901056289673,-0.7177046537399292,0.0,0.12115364429397246,0.0
1759838809.172253,1,-1.734999179840088,-0.34999901056289673,-0.7177046436009,0.0,True,0.010585546493530273,-1.734999179840088,-0.34999901056289673,-0.7177046537399292,0.0,0.12115364429397246,0.0
1759838809.1830251,1,-1.734999179840088,-0.34999901056289673,-0.7177046440727253,0.0,True,0.010772228240966797,-1.734999179840088,-0.34999901056289673,-0.7177046537399292,0.0,0.12115364429397246,0.0
1759838809.193361,1,-1.734999179840088,-0.34999901056289673,-0.7177046445673128,0.0,True,0.010335922241210938,-1.734999179840088,-0.34999901056289673,-0.7177046537399292,0.0,0.12115364429397246,0.0
1759838809.205368,1,-1.734999179840088,-0.34999901056289673,-0.7177046446832982,0.0,True,0.012006998062133789,-1.734999179840088,-0.34999901056289673,-0.7177046537399292,0.0,0.12115364429397246,0.0
1759838809.2173302,1,-1.734999179840088,-0.34999901056289673,-0.7177046448468758,0.0,True,0.011962175369262695,-1.734999179840088,-0.34999901056289673,-0.7177046537399292,0.0,0.12115364429397246,0.0
1759838809.228131,1,-1.734999179840088,-0.34999901056289673,-0.7177046452572249,0.0,True,0.010800838470458984,-1.734999179840088,-0.34999901056289673,-0.7177046537399292,0.0,0.12115364429397246,0.0
1759838809.2395415,1,-1.734999179840088,-0.34999901056289673,-0.7177046455344112,0.0,True,0.01141047477722168,-1.734999179840088,-0.34999901056289673,-0.7177046537399292,0.0,0.12115364429397246,0.0
1759838809.2496586,1,-1.734999179840088,-0.34999901056289673,-0.7177046460091798,0.0,True,0.010117053985595703,-1.734999179840088,-0.34999901056289673,-0.7177046537399292,0.0,0.12115364429397246,0.0
1759838809.2603083,1,-1.734999179840088,-0.34999901056289673,-0.7177046463342087,0.0,True,0.010649681091308594,-1.734999179840088,-0.34999901056289673,-0.7177046537399292,0.0,0.12115364429397246,0.0
1759838809.2716782,1,-1.734999179840088,-0.34999901056289673,-0.717704646510871,0.0,True,0.011369943618774414,-1.734999179840088,-0.34999901056289673,-0.7177046537399292,0.0,0.12115364429397246,0.0
1759838809.284053,1,-1.734999179840088,-0.34999901056289673,-0.7177046465515851,0.0,True,0.0123748779296875,-1.734999179840088,-0.34999901056289673,-0.7177046537399292,0.0,0.12115364429397246,0.0
1759838809.2955828,1,-1.734999179840088,-0.34999901056289673,-0.7177046467702546,0.0,True,0.011529684066772461,-1.734999179840088,-0.34999901056289673,-0.7177046537399292,0.0,0.12115364429397246,0.0
1759838809.3067954,1,-1.734999179840088,-0.34999901056289673,-0.7177046470460144,0.0,True,0.011212587356567383,-1.734999179840088,-0.34999901056289673,-0.7177046537399292,0.0,0.12115364429397246,0.0
1759838809.3174233,1,-1.734999179840088,-0.34999901056289673,-0.7177046473825897,0.0,True,0.010627985000610352,-1.734999179840088,-0.34999901056289673,-0.7177046537399292,0.0,0.12115364429397246,0.0
1759838809.3278234,1,-1.734999179840088,-0.34999901056289673,-0.717704647707075,0.0,True,0.010400056838989258,-1.734999179840088,-0.34999901056289673,-0.7177046537399292,0.0,0.12115364429397246,0.0
1759838809.3388786,1,-1.734999179840088,-0.34999901056289673,-0.7177046479061104,0.0,True,0.011055231094360352,-1.734999179840088,-0.34999901056289673,-0.7177046537399292,0.0,0.12115364429397246,0.0
1759838809.350541,1,-1.734999179840088,-0.34999901056289673,-0.7177046480221421,0.0,True,0.011662483215332031,-1.734999179840088,-0.34999901056289673,-0.7177046537399292,0.0,0.12115364429397246,0.0
1759838809.3608372,1,-1.734999179840088,-0.34999901056289673,-0.7177046483117522,0.0,True,0.010296106338500977,-1.734999179840088,-0.34999901056289673,-0.7177046537399292,0.0,0.12115364429397246,0.0
1759838809.3717027,1,-1.734999179840088,-0.34999901056289673,-0.7177046485083594,0.0,True,0.010865449905395508,-1.734999179840088,-0.34999901056289673,-0.7177046537399292,0.0,0.12115364429397246,0.0
1759838809.3822122,1,-1.734999179840088,-0.34999901056289673,-0.7177046487268264,0.0,True,0.010509490966796875,-1.734999179840088,-0.34999901056289673,-0.7177046537399292,0.0,0.12115364429397246,0.0
1759838809.3931334,1,-1.734999179840088,-0.34999901056289673,-0.7177046488828971,0.0,True,0.010921239852905273,-1.734999179840088,-0.34999901056289673,-0.7177046537399292,0.0,0.12115364429397246,0.0
1759838809.4037166,1,-1.734999179840088,-0.34999901056289673,-0.7177046490674233,0.0,True,0.010583162307739258,-1.734999179840088,-0.34999901056289673,-0.7177046537399292,0.0,0.12115364429397246,0.0
1759838809.4146314,1,-1.734999179840088,-0.34999901056289673,-0.7177046492080024,0.0,True,0.010914802551269531,-1.734999179840088,-0.34999901056289673,-0.7177046537399292,0.0,0.12115364429397246,0.0
1759838809.425961,1,-1.734999179840088,-0.34999901056289673,-0.7177046493076347,0.0,True,0.01132965087890625,-1.734999179840088,-0.34999901056289673,-0.7177046537399292,0.0,0.12115364429397246,0.0
1759838809.4362352,1,-1.734999179840088,-0.34999901056289673,-0.7177046495134185,0.0,True,0.010274171829223633,-1.734999179840088,-0.34999901056289673,-0.7177046537399292,0.0,0.12115364429397246,0.0
1759838809.4468517,1,-1.734999179840088,-0.34999901056289673,-0.7177046496701074,0.0,True,0.010616540908813477,-1.734999179840088,-0.34999901056289673,-0.7177046537399292,0.0,0.12115364429397246,0.0
1759838809.4604688,1,-1.734999179840088,-0.34999901056289673,-0.7177046495628616,0.0,True,0.01361703872680664,-1.734999179840088,-0.34999901056289673,-0.7177046537399292,0.0,0.12115364429397246,0.0
1759838809.4719517,1,-1.734999179840088,-0.34999901056289673,-0.7177046496983408,0.0,True,0.011482954025268555,-1.734999179840088,-0.34999901056289673,-0.7177046537399292,0.0,0.12115364429397246,0.0
1759838809.4918752,1,-1.734999179840088,-0.34999901056289673,-0.7177046492146921,0.0,True,0.01992344856262207,-1.734999179840088,-0.34999901056289673,-0.7177046537399292,0.0,0.12115364429397246,0.0
1759838809.5021157,1,-1.734999179840088,-0.34999901056289673,-0.717704649637227,0.0,True,0.010240554809570312,-1.734999179840088,-0.34999901056289673,-0.7177046537399292,0.0,0.12115364429397246,0.0
1759838809.5128245,1,-1.734999179840088,-0.34999901056289673,-0.717704649982295,0.0,True,0.010708808898925781,-1.734999179840088,-0.34999901056289673,-0.7177046537399292,0.0,0.12115364429397246,0.0
1759838809.5270753,1,-1.734999179840088,-0.34999901056289673,-0.7177046500184225,0.0,True,0.014250755310058594,-1.734999179840088,-0.34999901056289673,-0.7177046537399292,0.0,0.12115364429397246,0.0
1759838809.5378287,1,-1.734999179840088,-0.34999901056289673,-0.7177046502978683,0.0,True,0.010753393173217773,-1.734999179840088,-0.34999901056289673,-0.7177046537399292,0.0,0.12115364429397246,0.0
1759838809.5506332,1,-1.734999179840088,-0.34999901056289673,-0.7177046504123616,0.0,True,0.012804508209228516,-1.734999179840088,-0.34999901056289673,-0.7177046537399292,0.0,0.12115364429397246,0.0
1759838809.561213,1,-1.734999179840088,-0.34999901056289673,-0.7177046506514841,0.0,True,0.010579824447631836,-1.734999179840088,-0.34999901056289673,-0.7177046537399292,0.0,0.12115364429397246,0.0
1759838809.573532,1,-1.734999179840088,-0.34999901056289673,-0.7177046507541647,0.0,True,0.012319087982177734,-1.734999179840088,-0.34999901056289673,-0.7177046537399292,0.0,0.12115364429397246,0.0
1759838809.583734,1,-1.734999179840088,-0.34999901056289673,-0.7177046509659242,0.0,True,0.01020193099975586,-1.734999179840088,-0.34999901056289673,-0.7177046537399292,0.0,0.12115364429397246,0.0
1759838809.5946634,1,-1.734999179840088,-0.34999901056289673,-0.7177046511047767,0.0,True,0.010929346084594727,-1.734999179840088,-0.34999901056289673,-0.7177046537399292,0.0,0.12115364429397246,0.0
1759838809.604794,1,-1.734999179840088,-0.34999901056289673,-0.717704651262812,0.0,True,0.010130643844604492,-1.734999179840088,-0.34999901056289673,-0.7177046537399292,0.0,0.12115364429397246,0.0
1759838809.6191328,1,-1.734999179840088,-0.34999901056289673,-0.7177046511874927,0.0,True,0.01433873176574707,-1.734999179840088,-0.34999901056289673,-0.7177046537399292,0.0,0.12115364429397246,0.0
1759838809.6295428,1,-1.734999179840088,-0.34999901056289673,-0.7177046513416538,0.0,True,0.010410070419311523,-1.734999179840088,-0.34999901056289673,-0.7177046537399292,0.0,0.12115364429397246,0.0
1759838809.6396067,1,-1.734999179840088,-0.34999901056289673,-0.7177046514989094,0.0,True,0.010063886642456055,-1.734999179840088,-0.34999901056289673,-0.7177046537399292,0.0,0.12115364429397246,0.0
1759838809.6537936,1,-1.734999179840088,-0.34999901056289673,-0.7177046514453913,0.0,True,0.014186859130859375,-1.734999179840088,-0.34999901056289673,-0.7177046537399292,0.0,0.12115364429397246,0.0
1759838809.6648245,1,-1.734999179840088,-0.34999901056289673,-0.7177046515602328,0.0,True,0.011030912399291992,-1.734999179840088,-0.34999901056289673,-0.7177046537399292,0.0,0.12115364429397246,0.0
1759838809.6748285,1,-1.734999179840088,-0.34999901056289673,-0.7177046517123422,0.0,True,0.010004043579101562,-1.734999179840088,-0.34999901056289673,-0.7177046537399292,0.0,0.12115364429397246,0.0
1759838809.696255,1,-1.734999179840088,-0.34999901056289673,-0.7177046513955787,0.0,True,0.02142643928527832,-1.734999179840088,-0.34999901056289673,-0.7177046537399292,0.0,0.12115364429397246,0.0
1759838809.7074938,1,-1.734999179840088,-0.34999901056289673,-0.717704651578444,0.0,True,0.011238813400268555,-1.734999179840088,-0.34999901056289673,-0.7177046537399292,0.0,0.12115364429397246,0.0
1759838809.7188313,1,-1.734999179840088,-0.34999901056289673,-0.7177046517496528,0.0,True,0.011337518692016602,-1.734999179840088,-0.34999901056289673,-0.7177046537399292,0.0,0.12115364429397246,0.0
1759838809.7314327,1,-1.734999179840088,-0.34999901056289673,-0.717704651844473,0.0,True,0.012601375579833984,-1.734999179840088,-0.34999901056289673,-0.7177046537399292,0.0,0.12115364429397246,0.0
1759838809.7428563,1,-1.734999179840088,-0.34999901056289673,-0.7177046519653896,0.0,True,0.011423587799072266,-1.734999179840088,-0.34999901056289673,-0.7177046537399292,0.0,0.12115364429397246,0.0
1759838809.7543864,1,-1.734999179840088,-0.34999901056289673,-0.717704652064878,0.0,True,0.011530160903930664,-1.734999179840088,-0.34999901056289673,-0.7177046537399292,0.0,0.12115364429397246,0.0
1759838809.7649589,1,-1.734999179840088,-0.34999901056289673,-0.7177046521783268,0.0,True,0.010572433471679688,-1.734999179840088,-0.34999901056289673,-0.7177046537399292,0.0,0.12115364429397246,0.0
1759838809.775334,1,-1.734999179840088,-0.34999901056289673,-0.7177046522776855,0.0,True,0.010375022888183594,-1.734999179840088,-0.34999901056289673,-0.7177046537399292,0.0,0.12115364429397246,0.0
1759838809.785655,1,-1.734999179840088,-0.34999901056289673,-0.7177046523602826,0.0,True,0.01032114028930664,-1.734999179840088,-0.34999901056289673,-0.7177046537399292,0.0,0.12115364429397246,0.0
1759838809.7956865,1,-1.734999179840088,-0.34999901056289673,-0.7177046524367388,0.0,True,0.010031461715698242,-1.734999179840088,-0.34999901056289673,-0.7177046537399292,0.0,0.12115364429397246,0.0
1759838809.8068917,1,-1.734999179840088,-0.34999901056289673,-0.7177046524689281,0.0,True,0.011205196380615234,-1.734999179840088,-0.34999901056289673,-0.7177046537399292,0.0,0.12115364429397246,0.0
1759838809.8184052,1,-1.734999179840088,-0.34999901056289673,-0.7177046524927704,0.0,True,0.011513471603393555,-1.734999179840088,-0.34999901056289673,-0.7177046537399292,0.0,0.12115364429397246,0.0
1759838809.831357,1,-1.734999179840088,-0.34999901056289673,-0.7177046524853399,0.0,True,0.012951850891113281,-1.734999179840088,-0.34999901056289673,-0.7177046537399292,0.0,0.12115364429397246,0.0
1759838809.8420033,1,-1.734999179840088,-0.34999901056289673,-0.7177046525481572,0.0,True,0.010646343231201172,-1.734999179840088,-0.34999901056289673,-0.7177046537399292,0.0,0.12115364429397246,0.0
1759838809.854375,1,-1.734999179840088,-0.34999901056289673,-0.7177046525666597,0.0,True,0.012371540069580078,-1.734999179840088,-0.34999901056289673,-0.7177046537399292,0.0,0.12115364429397246,0.0
1759838809.8659081,1,-1.734999179840088,-0.34999901056289673,-0.7177046526085888,0.0,True,0.011533260345458984,-1.734999179840088,-0.34999901056289673,-0.7177046537399292,0.0,0.12115364429397246,0.0
1759838809.8784971,1,-1.734999179840088,-0.34999901056289673,-0.717704652627873,0.0,True,0.012588977813720703,-1.734999179840088,-0.34999901056289673,-0.7177046537399292,0.0,0.12115364429397246,0.0
1759838809.8900692,1,-1.734999179840088,-0.34999901056289673,-0.717704652673536,0.0,True,0.011572122573852539,-1.734999179840088,-0.34999901056289673,-0.7177046537399292,0.0,0.12115364429397246,0.0
1759838809.9078813,1,-1.734999179840088,-0.34999901056289673,-0.7177046525961419,0.0,True,0.017812013626098633,-1.734999179840088,-0.34999901056289673,-0.7177046537399292,0.0,0.12115364429397246,0.0
1759838809.916536,1,-1.734999179840088,-0.34999901056289673,-0.7177046527269333,0.0,True,0.00865483283996582,-1.734999179840088,-0.34999901056289673,-0.7177046537399292,0.0,0.12115364429397246,0.0
1759838809.9274857,1,-1.734999179840088,-0.34999901056289673,-0.7177046527946409,0.0,True,0.01094961166381836,-1.734999179840088,-0.34999901056289673,-0.7177046537399292,0.0,0.12115364429397246,0.0
1759838809.940141,1,-1.734999179840088,-0.34999901056289673,-0.7177046528172113,0.0,True,0.012655258178710938,-1.734999179840088,-0.34999901056289673,-0.7177046537399292,0.0,0.12115364429397246,0.0
1759838809.9516406,1,-1.734999179840088,-0.34999901056289673,-0.7177046528602169,0.0,True,0.011499643325805664,-1.734999179840088,-0.34999901056289673,-0.7177046537399292,0.0,0.12115364429397246,0.0
1759838809.9642794,1,-1.734999179840088,-0.34999901056289673,-0.7177046528816504,0.0,True,0.01263880729675293,-1.734999179840088,-0.34999901056289673,-0.7177046537399292,0.0,0.12115364429397246,0.0
1759838809.9745605,1,-1.734999179840088,-0.34999901056289673,-0.7177046529417126,0.0,True,0.010281085968017578,-1.734999179840088,-0.34999901056289673,-0.7177046537399292,0.0,0.12115364429397246,0.0
1759838809.9889,1,-1.734999179840088,-0.34999901056289673,-0.7177046529316975,0.0,True,0.014339447021484375,-1.734999179840088,-0.34999901056289673,-0.7177046537399292,0.0,0.12115364429397246,0.0
1759838810.0007966,1,-1.734999179840088,-0.34999901056289673,-0.7177046529667521,0.0,True,0.011896610260009766,-1.734999179840088,-0.34999901056289673,-0.7177046537399292,0.0,0.12115364429397246,0.0
1759838810.0144289,1,-1.734999179840088,-0.34999901056289673,-0.7177046529779645,0.0,True,0.01363229751586914,-1.734999179840088,-0.34999901056289673,-0.7177046537399292,0.0,0.12115364429397246,0.0
1759838810.0258467,1,-1.734999179840088,-0.34999901056289673,-0.7177046530231728,0.0,True,0.011417865753173828,-1.734999179840088,-0.34999901056289673,-0.7177046537399292,0.0,0.12115364429397246,0.0
1759838810.0396008,1,-1.734999179840088,-0.34999901056289673,-0.7177046530340583,0.0,True,0.013754129409790039,-1.734999179840088,-0.34999901056289673,-0.7177046537399292,0.0,0.12115364429397246,0.0
1759838810.050522,1,-1.734999179840088,-0.34999901056289673,-0.7177046530829827,0.0,True,0.010921239852905273,-1.734999179840088,-0.34999901056289673,-0.7177046537399292,0.0,0.12115364429397246,0.0
1759838810.063034,1,-1.734999179840088,-0.34999901056289673,-0.7177046531065638,0.0,True,0.012511968612670898,-1.734999179840088,-0.34999901056289673,-0.7177046537399292,0.0,0.12115364429397246,0.0
1759838810.073496,1,-1.734999179840088,-0.34999901056289673,-0.7177046531516282,0.0,True,0.010462045669555664,-1.734999179840088,-0.34999901056289673,-0.7177046537399292,0.0,0.12115364429397246,0.0
1759838810.0888724,1,-1.734999179840088,-0.34999901056289673,-0.7177046531361295,0.0,True,0.01537632942199707,-1.734999179840088,-0.34999901056289673,-0.7177046537399292,0.0,0.12115364429397246,0.0
1759838810.0989065,1,-1.734999179840088,-0.34999901056289673,-0.7177046531861286,0.0,True,0.01003408432006836,-1.734999179840088,-0.34999901056289673,-0.7177046537399292,0.0,0.12115364429397246,0.0
1759838810.1183023,1,-1.734999179840088,-0.34999901056289673,-0.7177046531369164,0.0,True,0.019395828247070312,-1.734999179840088,-0.34999901056289673,-0.7177046537399292,0.0,0.12115364429397246,0.0
1759838810.1290467,1,-1.734999179840088,-0.34999901056289673,-0.7177046531903848,0.0,True,0.010744333267211914,-1.734999179840088,-0.34999901056289673,-0.7177046537399292,0.0,0.12115364429397246,0.0
1759838810.1403039,1,-1.734999179840088,-0.34999901056289673,-0.71770465323333,0.0,True,0.011257171630859375,-1.734999179840088,-0.34999901056289673,-0.7177046537399292,0.0,0.0,0.0
