timestamp,vehicle_id,x,y,theta,velocity,gps_available,dt,gps_x,gps_y,gps_theta,gps_velocity,control_steering,control_acceleration
1759838806.2534678,0,-1.205,-0.83,-0.7801621756414647,0.0,False,0.01,nan,nan,nan,nan,0.0,0.0
1759838806.264264,0,-1.205,-0.83,-0.7801621756414647,0.0,False,0.010796308517456055,nan,nan,nan,nan,0.0,0.0
1759838806.2748942,0,-1.205,-0.83,-0.7801621756414647,0.0,False,0.010630130767822266,nan,nan,nan,nan,0.0,0.0
1759838806.2851312,0,-1.205,-0.83,-0.7801621756414647,0.0,False,0.010236978530883789,nan,nan,nan,nan,0.0,0.0
1759838806.2964694,0,-1.205,-0.83,-0.7801621756414647,0.0,False,0.011338233947753906,nan,nan,nan,nan,0.0,0.0
1759838806.3065565,0,-1.205,-0.83,-0.7801621756414647,0.0,False,0.010087013244628906,nan,nan,nan,nan,0.0,0.0
1759838806.316958,0,-1.205,-0.83,-0.7801621756414647,0.0,False,0.010401487350463867,nan,nan,nan,nan,0.0,0.0
1759838806.3271275,0,-1.205,-0.83,-0.7801621756414647,0.0,False,0.010169506072998047,nan,nan,nan,nan,0.0,0.0
1759838806.3373644,0,-1.205,-0.83,-0.7801621756414647,0.0,False,0.010236978530883789,nan,nan,nan,nan,0.0,0.0
1759838806.347696,0,-1.205,-0.83,-0.7801621756414647,0.0,False,0.01033163070678711,nan,nan,nan,nan,0.0,0.0
1759838806.3583174,0,-1.205,-0.83,-0.7801621756414647,0.0,False,0.010621309280395508,nan,nan,nan,nan,0.0,0.0
1759838806.3689451,0,-1.205,-0.83,-0.7801621756414647,0.0,False,0.01062774658203125,nan,nan,nan,nan,0.0,0.0
1759838806.3798442,0,-1.205,-0.83,-0.7801621756414647,0.0,False,0.010899066925048828,nan,nan,nan,nan,0.0,0.0
1759838806.3905485,0,-1.205,-0.83,-0.7801621756414647,0.0,False,0.010704278945922852,nan,nan,nan,nan,0.0,0.0
1759838806.4007914,0,-1.205,-0.83,-0.7801621756414647,0.0,False,0.010242938995361328,nan,nan,nan,nan,0.0,0.0
1759838806.4110749,0,-1.205,-0.83,-0.7801621756414647,0.0,False,0.010283470153808594,nan,nan,nan,nan,0.0,0.0
1759838806.4222891,0,-1.205,-0.83,-0.7801621756414647,0.0,False,0.011214256286621094,nan,nan,nan,nan,0.0,0.0
1759838806.4337587,0,-1.205,-0.83,-0.7801621756414647,0.0,False,0.011469602584838867,nan,nan,nan,nan,0.0,0.0
1759838806.447933,0,-1.2050001607735952,-0.8299997470180194,-0.7229993841106719,0.0,True,0.014174222946166992,-1.2050001621246338,-0.8299997448921204,-0.7177030444145203,0.0,0.0,0.0
1759838806.4581957,0,-1.205000161673033,-0.8299997456027273,-0.7181197722433197,0.0,True,0.010262727737426758,-1.2050001621246338,-0.8299997448921204,-0.7177030444145203,0.0,0.0,0.0
1759838806.469408,0,-1.2050001619552244,-0.8299997451586908,-0.7176570454483908,0.0,True,0.011212348937988281,-1.2050001621246338,-0.8299997448921204,-0.7177030444145203,0.0,0.0,0.0
1759838806.4809866,0,-1.2050001620600936,-0.829999744993676,-0.7175947095747812,0.0,True,0.011578559875488281,-1.2050001621246338,-0.8299997448921204,-0.7177030444145203,0.0,0.0,0.0
1759838806.4918633,0,-1.205000162099991,-0.8299997449308965,-0.7175902580772391,0.0,True,0.010876655578613281,-1.2050001621246338,-0.8299997448921204,-0.7177030444145203,0.0,0.0,0.0
1759838806.5025733,0,-1.2050001621152215,-0.8299997449069307,-0.7175990195442044,0.0,True,0.010710000991821289,-1.2050001621246338,-0.8299997448921204,-0.7177030444145203,0.0,0.0,0.0
1759838806.513199,0,-1.2050001621210387,-0.8299997448977774,-0.7176108625174997,0.0,True,0.010625839233398438,-1.2050001621246338,-0.8299997448921204,-0.7177030444145203,0.0,0.0,0.0
1759838806.5241542,0,-1.2050001621232607,-0.8299997448942812,-0.7176218551980753,0.0,True,0.010955095291137695,-1.2050001621246338,-0.8299997448921204,-0.7177030444145203,0.0,0.0,0.0
1759838806.5345216,0,-1.2050001621241093,-0.8299997448929457,-0.7176326059365703,0.0,True,0.010367393493652344,-1.2050001621246338,-0.8299997448921204,-0.7177030444145203,0.0,0.0,0.0
1759838806.5458362,0,-1.2050001621244335,-0.8299997448924357,-0.7176404177825759,0.0,True,0.011314630508422852,-1.2050001621246338,-0.8299997448921204,-0.7177030444145203,0.0,0.0,0.0
1759838806.5569243,0,-1.2050001621245572,-0.8299997448922408,-0.7176475818830639,0.0,True,0.011088132858276367,-1.2050001621246338,-0.8299997448921204,-0.7177030444145203,0.0,0.0,0.0
1759838806.5675304,0,-1.2050001621246045,-0.8299997448921663,-0.7176541387519517,0.0,True,0.010606050491333008,-1.2050001621246338,-0.8299997448921204,-0.7177030444145203,0.0,0.0,0.0
1759838806.57907,0,-1.2050001621246227,-0.8299997448921379,-0.717658765185563,0.0,True,0.011539697647094727,-1.2050001621246338,-0.8299997448921204,-0.7177030444145203,0.0,0.0,0.0
1759838806.589891,0,-1.2050001621246296,-0.829999744892127,-0.7176633877042562,0.0,True,0.010820865631103516,-1.2050001621246338,-0.8299997448921204,-0.7177030444145203,0.0,0.0,0.0
1759838806.6011846,0,-1.2050001621246322,-0.8299997448921229,-0.7176669606562847,0.0,True,0.011293649673461914,-1.2050001621246338,-0.8299997448921204,-0.7177030444145203,0.0,0.0,0.0
1759838806.6125276,0,-1.2050001621246331,-0.8299997448921214,-0.7176700448042563,0.0,True,0.011343002319335938,-1.2050001621246338,-0.8299997448921204,-0.7177030444145203,0.0,0.0,0.0
1759838806.6231203,0,-1.2050001621246336,-0.8299997448921207,-0.7176731811052441,0.0,True,0.01059269905090332,-1.2050001621246338,-0.8299997448921204,-0.7177030444145203,0.0,0.0,0.0
1759838806.6338189,0,-1.2050001621246338,-0.8299997448921205,-0.7176757402095681,0.0,True,0.010698556900024414,-1.2050001621246338,-0.8299997448921204,-0.7177030444145203,0.0,0.0,0.0
1759838806.6514497,0,-1.2050001621246338,-0.8299997448921204,-0.7176746862402563,0.0,True,0.017630815505981445,-1.2050001621246338,-0.8299997448921204,-0.7177030444145203,0.0,0.0,0.0
1759838806.6618392,0,-1.2050001621246338,-0.8299997448921204,-0.7176779752123537,0.0,True,0.010389566421508789,-1.2050001621246338,-0.8299997448921204,-0.7177030444145203,0.0,0.0,0.0
1759838806.672687,0,-1.2050001621246338,-0.8299997448921204,-0.7176805366892829,0.0,True,0.010847806930541992,-1.2050001621246338,-0.8299997448921204,-0.7177030444145203,0.0,0.0,0.0
1759838806.6836395,0,-1.2050001621246338,-0.8299997448921204,-0.7176825048037223,0.0,True,0.010952472686767578,-1.2050001621246338,-0.8299997448921204,-0.7177030444145203,0.0,0.0,0.0
1759838806.6939845,0,-1.2050001621246338,-0.8299997448921204,-0.717684318992978,0.0,True,0.010344982147216797,-1.2050001621246338,-0.8299997448921204,-0.7177030444145203,0.0,0.0,0.0
1759838806.7048666,0,-1.2050001621246338,-0.8299997448921204,-0.7176856027685243,0.0,True,0.010882139205932617,-1.2050001621246338,-0.8299997448921204,-0.7177030444145203,0.0,0.0,0.0
1759838806.7153397,0,-1.2050001621246338,-0.8299997448921204,-0.717686824468954,0.0,True,0.010473012924194336,-1.2050001621246338,-0.8299997448921204,-0.7177030444145203,0.0,0.0,0.0
1759838806.7254162,0,-1.2050001621246338,-0.8299997448921204,-0.7176879859096061,0.0,True,0.010076522827148438,-1.2050001621246338,-0.8299997448921204,-0.7177030444145203,0.0,0.0,0.0
1759838806.7365031,0,-1.2050001621246338,-0.8299997448921204,-0.7176886593870577,0.0,True,0.01108694076538086,-1.2050001621246338,-0.8299997448921204,-0.7177030444145203,0.0,0.0,0.0
1759838806.7476244,0,-1.2050001621246338,-0.8299997448921204,-0.7176892812599167,0.0,True,0.011121273040771484,-1.2050001621246338,-0.8299997448921204,-0.7177030444145203,0.0,0.0,0.0
1759838806.7579782,0,-1.2050001621246338,-0.8299997448921204,-0.7176900941060822,0.0,True,0.010353803634643555,-1.2050001621246338,-0.8299997448921204,-0.7177030444145203,0.0,0.0,0.0
1759838806.7683933,0,-1.2050001621246338,-0.8299997448921204,-0.7176907993090467,0.0,True,0.010415077209472656,-1.2050001621246338,-0.8299997448921204,-0.7177030444145203,0.0,0.0,0.0
1759838806.779417,0,-1.2050001621246338,-0.8299997448921204,-0.7176912724567543,0.0,True,0.011023759841918945,-1.2050001621246338,-0.8299997448921204,-0.7177030444145203,0.0,0.0,0.0
1759838806.7901084,0,-1.2050001621246338,-0.8299997448921204,-0.7176918104578949,0.0,True,0.010691404342651367,-1.2050001621246338,-0.8299997448921204,-0.7177030444145203,0.0,0.0,0.0
1759838806.8005614,0,-1.2050001621246338,-0.8299997448921204,-0.7176923702095568,0.0,True,0.010452985763549805,-1.2050001621246338,-0.8299997448921204,-0.7177030444145203,0.0,0.0,0.0
1759838806.8113573,0,-1.2050001621246338,-0.8299997448921204,-0.7176928033203787,0.0,True,0.010795831680297852,-1.2050001621246338,-0.8299997448921204,-0.7177030444145203,0.0,0.0,0.0
1759838806.8216772,0,-1.2050001621246338,-0.8299997448921204,-0.717693312084851,0.0,True,0.010319948196411133,-1.2050001621246338,-0.8299997448921204,-0.7177030444145203,0.0,0.0,0.0
1759838806.8324144,0,-1.2050001621246338,-0.8299997448921204,-0.7176936892570431,0.0,True,0.010737180709838867,-1.2050001621246338,-0.8299997448921204,-0.7177030444145203,0.0,0.0,0.0
1759838806.842816,0,-1.2050001621246338,-0.8299997448921204,-0.7176941114637003,0.0,True,0.010401725769042969,-1.2050001621246338,-0.8299997448921204,-0.7177030444145203,0.0,0.0,0.0
1759838806.8541129,0,-1.2050001621246338,-0.8299997448921204,-0.7176943369807098,0.0,True,0.011296749114990234,-1.2050001621246338,-0.8299997448921204,-0.7177030444145203,0.0,0.0,0.0
1759838806.8655071,0,-1.2050001621246338,-0.8299997448921204,-0.7176945683176505,0.0,True,0.011394262313842773,-1.2050001621246338,-0.8299997448921204,-0.7177030444145203,0.0,0.0,0.0
1759838806.8768196,0,-1.2050001621246338,-0.8299997448921204,-0.7176948434143675,0.0,True,0.011312484741210938,-1.2050001621246338,-0.8299997448921204,-0.7177030444145203,0.0,0.0,0.0
1759838806.8874345,0,-1.2050001621246338,-0.8299997448921204,-0.7176952438917485,0.0,True,0.010614871978759766,-1.2050001621246338,-0.8299997448921204,-0.7177030444145203,0.0,0.0,0.0
1759838806.8987484,0,-1.2050001621246338,-0.8299997448921204,-0.7176955020942692,0.0,True,0.011313915252685547,-1.2050001621246338,-0.8299997448921204,-0.7177030444145203,0.0,0.0,0.0
1759838806.9102318,0,-1.2050001621246338,-0.8299997448921204,-0.7176957342390473,0.0,True,0.011483430862426758,-1.2050001621246338,-0.8299997448921204,-0.7177030444145203,0.0,0.0,0.0
1759838806.9207656,0,-1.2050001621246338,-0.8299997448921204,-0.7176961132694295,0.0,True,0.010533809661865234,-1.2050001621246338,-0.8299997448921204,-0.7177030444145203,0.0,0.0,0.0
1759838806.9310398,0,-1.2050001621246338,-0.8299997448921204,-0.7176964900926954,0.0,True,0.010274171829223633,-1.2050001621246338,-0.8299997448921204,-0.7177030444145203,0.0,0.0,0.0
1759838806.9416459,0,-1.2050001621246338,-0.8299997448921204,-0.7176967710542108,0.0,True,0.010606050491333008,-1.2050001621246338,-0.8299997448921204,-0.7177030444145203,0.0,0.0,0.0
1759838806.9526103,0,-1.2050001621246338,-0.8299997448921204,-0.7176969781350131,0.0,True,0.010964393615722656,-1.2050001621246338,-0.8299997448921204,-0.7177030444145203,0.0,0.0,0.0
1759838806.963853,0,-1.2050001621246338,-0.8299997448921204,-0.7176971472944729,0.0,True,0.01124262809753418,-1.2050001621246338,-0.8299997448921204,-0.7177030444145203,0.0,0.0,0.0
1759838806.974298,0,-1.2050001621246338,-0.8299997448921204,-0.7176974206855284,0.0,True,0.010445117950439453,-1.2050001621246338,-0.8299997448921204,-0.7177030444145203,0.0,0.0,0.0
1759838806.9848094,0,-1.2050001621246338,-0.8299997448921204,-0.7176976635505667,0.0,True,0.010511398315429688,-1.2050001621246338,-0.8299997448921204,-0.7177030444145203,0.0,0.0,0.0
1759838806.996039,0,-1.2050001621246338,-0.8299997448921204,-0.7176978040131576,0.0,True,0.011229515075683594,-1.2050001621246338,-0.8299997448921204,-0.7177030444145203,0.0,0.0,0.0
1759838807.0070357,0,-1.2050001621246338,-0.8299997448921204,-0.7176979762579485,0.0,True,0.010996818542480469,-1.2050001621246338,-0.8299997448921204,-0.7177030444145203,0.0,0.0,0.0
1759838807.0184128,0,-1.2050001621246338,-0.8299997448921204,-0.717698111282008,0.0,True,0.011377096176147461,-1.2050001621246338,-0.8299997448921204,-0.7177030444145203,0.0,0.0,0.0
1759838807.028547,0,-1.2050001621246338,-0.8299997448921204,-0.7176983781479542,0.0,True,0.010134220123291016,-1.2050001621246338,-0.8299997448921204,-0.7177030444145203,0.0,0.0,0.0
1759838807.0394478,0,-1.2050001621246338,-0.8299997448921204,-0.7176985410226528,0.0,True,0.010900735855102539,-1.2050001621246338,-0.8299997448921204,-0.7177030444145203,0.0,0.0,0.0
1759838807.0571399,0,-1.2050001621246338,-0.8299997448921204,-0.7176980849327208,0.0,True,0.017692089080810547,-1.2050001621246338,-0.8299997448921204,-0.7177030444145203,0.0,0.0,0.0
1759838807.068479,0,-1.2050001621246338,-0.8299997448921204,-0.7176983763251883,0.0,True,0.011339187622070312,-1.2050001621246338,-0.8299997448921204,-0.7177030444145203,0.0,0.0,0.0
1759838807.0791438,0,-1.2050001621246338,-0.8299997448921204,-0.717698723482652,0.0,True,0.010664701461791992,-1.2050001621246338,-0.8299997448921204,-0.7177030444145203,0.0,0.0,0.0
1759838807.0895824,0,-1.2050001621246338,-0.8299997448921204,-0.717699026426942,0.0,True,0.010438680648803711,-1.2050001621246338,-0.8299997448921204,-0.7177030444145203,0.0,0.0,0.0
1759838807.1007895,0,-1.2050001621246338,-0.8299997448921204,-0.7176992130857371,0.0,True,0.011207103729248047,-1.2050001621246338,-0.8299997448921204,-0.7177030444145203,0.0,0.0,0.0
1759838807.1116157,0,-1.2050001621246338,-0.8299997448921204,-0.7176994033075133,0.0,True,0.01082611083984375,-1.2050001621246338,-0.8299997448921204,-0.7177030444145203,0.0,0.0,0.0
1759838807.1225429,0,-1.2050001621246338,-0.8299997448921204,-0.7176995638904398,0.0,True,0.010927200317382812,-1.2050001621246338,-0.8299997448921204,-0.7177030444145203,0.0,0.0,0.0
1759838807.1333735,0,-1.2050001621246338,-0.8299997448921204,-0.7176997145669368,0.0,True,0.01083064079284668,-1.2050001621246338,-0.8299997448921204,-0.7177030444145203,0.0,0.0,0.0
1759838807.1448433,0,-1.2050001621246338,-0.8299997448921204,-0.7176998087248769,0.0,True,0.011469841003417969,-1.2050001621246338,-0.8299997448921204,-0.7177030444145203,0.0,0.0,0.0
1759838807.1554525,0,-1.2050001621246338,-0.8299997448921204,-0.7176999594701137,0.0,True,0.010609149932861328,-1.2050001621246338,-0.8299997448921204,-0.7177030444145203,0.0,0.0,0.0
1759838807.1659992,0,-1.2050001621246338,-0.8299997448921204,-0.7177001002686794,0.0,True,0.010546684265136719,-1.2050001621246338,-0.8299997448921204,-0.7177030444145203,0.0,0.0,0.0
1759838807.1772792,0,-1.2050001621246338,-0.8299997448921204,-0.7177001812757062,0.0,True,0.011280059814453125,-1.2050001621246338,-0.8299997448921204,-0.7177030444145203,0.0,0.0,0.0
1759838807.1887565,0,-1.2050001621246338,-0.8299997448921204,-0.7177002518961544,0.0,True,0.011477231979370117,-1.2050001621246338,-0.8299997448921204,-0.7177030444145203,0.0,0.0,0.0
1759838807.1994112,0,-1.2050001621246338,-0.8299997448921204,-0.7177003748193442,0.0,True,0.010654687881469727,-1.2050001621246338,-0.8299997448921204,-0.7177030444145203,0.0,0.0,0.0
1759838807.2098277,0,-1.2050001621246338,-0.8299997448921204,-0.7177005010879842,0.0,True,0.010416507720947266,-1.2050001621246338,-0.8299997448921204,-0.7177030444145203,0.0,0.0,0.0
1759838807.22103,0,-1.2050001621246338,-0.8299997448921204,-0.7177005715780247,0.0,True,0.011202335357666016,-1.2050001621246338,-0.8299997448921204,-0.7177030444145203,0.0,0.0,0.0
1759838807.2318122,0,-1.2050001621246338,-0.8299997448921204,-0.7177006630827947,0.0,True,0.010782241821289062,-1.2050001621246338,-0.8299997448921204,-0.7177030444145203,0.0,0.0,0.0
1759838807.2430208,0,-1.2050001621246338,-0.8299997448921204,-0.717700729969966,0.0,True,0.011208534240722656,-1.2050001621246338,-0.8299997448921204,-0.7177030444145203,0.0,0.0,0.0
1759838807.2584317,0,-1.2050001621246338,-0.8299997448921204,-0.7177006053247226,0.0,True,0.015410900115966797,-1.2050001621246338,-0.8299997448921204,-0.7177030444145203,0.0,0.0,0.0
1759838807.2693717,0,-1.2050001621246338,-0.8299997448921204,-0.7177007427123314,0.0,True,0.010940074920654297,-1.2050001621246338,-0.8299997448921204,-0.7177030444145203,0.0,0.0,0.0
1759838807.2797737,0,-1.2050001621246338,-0.8299997448921204,-0.7177008979053809,0.0,True,0.01040196418762207,-1.2050001621246338,-0.8299997448921204,-0.7177030444145203,0.0,0.0,0.0
1759838807.291126,0,-1.2050001621246338,-0.8299997448921204,-0.7177009872634841,0.0,True,0.011352300643920898,-1.2050001621246338,-0.8299997448921204,-0.7177030444145203,0.0,0.0,0.0
1759838807.30127,0,-1.2050001621246338,-0.8299997448921204,-0.7177011143314473,0.0,True,0.01014399528503418,-1.2050001621246338,-0.8299997448921204,-0.7177030444145203,0.0,0.0,0.0
1759838807.3115048,0,-1.2050001621246338,-0.8299997448921204,-0.7177012182741649,0.0,True,0.010234832763671875,-1.2050001621246338,-0.8299997448921204,-0.7177030444145203,0.0,0.0,0.0
1759838807.3223188,0,-1.2050001621246338,-0.8299997448921204,-0.7177012838518451,0.0,True,0.01081395149230957,-1.2050001621246338,-0.8299997448921204,-0.7177030444145203,0.0,0.0,0.0
1759838807.3337367,0,-1.2050001621246338,-0.8299997448921204,-0.7177013221847304,0.0,True,0.011417865753173828,-1.2050001621246338,-0.8299997448921204,-0.7177030444145203,0.0,0.0,0.0
1759838807.34399,0,-1.2050001621246338,-0.8299997448921204,-0.7177014050739672,0.0,True,0.010253429412841797,-1.2050001621246338,-0.8299997448921204,-0.7177030444145203,0.0,0.0,0.0
1759838807.3550513,0,-1.2050001621246338,-0.8299997448921204,-0.7177014526144632,0.0,True,0.01106119155883789,-1.2050001621246338,-0.8299997448921204,-0.7177030444145203,0.0,0.0,0.0
1759838807.365808,0,-1.2050001621246338,-0.8299997448921204,-0.7177015089889824,0.0,True,0.010756731033325195,-1.2050001621246338,-0.8299997448921204,-0.7177030444145203,0.0,0.0,0.0
1759838807.3760686,0,-1.2050001621246338,-0.8299997448921204,-0.7177015786770404,0.0,True,0.010260581970214844,-1.2050001621246338,-0.8299997448921204,-0.7177030444145203,0.0,0.0,0.0
1759838807.3871543,0,-1.2050001621246338,-0.8299997448921204,-0.7177016157795038,0.0,True,0.011085748672485352,-1.2050001621246338,-0.8299997448921204,-0.7177030444145203,0.0,0.0,0.0
1759838807.3977065,0,-1.2050001621246338,-0.8299997448921204,-0.7177016692842919,0.0,True,0.010552167892456055,-1.2050001621246338,-0.8299997448921204,-0.7177030444145203,0.0,0.0,0.0
1759838807.4086905,0,-1.2050001621246338,-0.8299997448921204,-0.7177017077517611,0.0,True,0.010983943939208984,-1.2050001621246338,-0.8299997448921204,-0.7177030444145203,0.0,0.0,0.0
1759838807.419701,0,-1.2050001621246338,-0.8299997448921204,-0.7177017457956509,0.0,True,0.01101064682006836,-1.2050001621246338,-0.8299997448921204,-0.7177030444145203,0.0,0.0,0.0
1759838807.4305036,0,-1.2050001621246338,-0.8299997448921204,-0.7177017903161005,0.0,True,0.010802507400512695,-1.2050001621246338,-0.8299997448921204,-0.7177030444145203,0.0,0.0,0.0
1759838807.44173,0,-1.2050001621246338,-0.8299997448921204,-0.7177018226746981,0.0,True,0.011226415634155273,-1.2050001621246338,-0.8299997448921204,-0.7177030444145203,0.0,0.0,0.0
1759838807.4584925,0,-1.2050001621246338,-0.8299997448921204,-0.7177017224080835,0.0,True,0.016762495040893555,-1.2050001621246338,-0.8299997448921204,-0.7177030444145203,0.0,0.0,0.0
1759838807.469625,0,-1.2050001621246338,-0.8299997448921204,-0.7177017990884149,0.0,True,0.011132478713989258,-1.2050001621246338,-0.8299997448921204,-0.7177030444145203,0.0,0.0,0.0
1759838807.4810715,0,-1.2050001621246338,-0.8299997448921204,-0.7177018675060705,0.0,True,0.011446475982666016,-1.2050001621246338,-0.8299997448921204,-0.7177030444145203,0.0,0.0,0.0
1759838807.4921992,0,-1.2050001621246338,-0.8299997448921204,-0.7177019334339452,0.0,True,0.011127710342407227,-1.2050001621246338,-0.8299997448921204,-0.7177030444145203,0.0,0.0,0.0
1759838807.5034723,0,-1.2050001621246338,-0.8299997448921204,-0.7177019870148698,0.0,True,0.01127314567565918,-1.2050001621246338,-0.8299997448921204,-0.7177030444145203,0.0,0.0,0.0
1759838807.5150816,0,-1.2050001621246338,-0.8299997448921204,-0.7177020274311978,0.0,True,0.011609315872192383,-1.2050001621246338,-0.8299997448921204,-0.7177030444145203,0.0,0.0,0.0
1759838807.5260406,0,-1.2050001621246338,-0.8299997448921204,-0.7177020778172807,0.0,True,0.01095890998840332,-1.2050001621246338,-0.8299997448921204,-0.7177030444145203,0.0,0.0,0.0
1759838807.5368497,0,-1.2050001621246338,-0.8299997448921204,-0.7177021254564782,0.0,True,0.010809183120727539,-1.2050001621246338,-0.8299997448921204,-0.7177030444145203,0.0,0.0,0.0
1759838807.5472844,0,-1.2050001621246338,-0.8299997448921204,-0.7177021738063658,0.0,True,0.010434627532958984,-1.2050001621246338,-0.8299997448921204,-0.7177030444145203,0.0,0.0,0.0
1759838807.558303,0,-1.2050001621246338,-0.8299997448921204,-0.7177022051264093,0.0,True,0.011018753051757812,-1.2050001621246338,-0.8299997448921204,-0.7177030444145203,0.0,0.0,0.0
1759838807.5687103,0,-1.2050001621246338,-0.8299997448921204,-0.7177022442830925,0.0,True,0.010407209396362305,-1.2050001621246338,-0.8299997448921204,-0.7177030444145203,0.0,0.0,0.0
1759838807.5790658,0,-1.2050001621246338,-0.8299997448921204,-0.7177022799608181,0.0,True,0.010355472564697266,-1.2050001621246338,-0.8299997448921204,-0.7177030444145203,0.0,0.0,0.0
1759838807.589391,0,-1.2050001621246338,-0.8299997448921204,-0.717702311840771,0.0,True,0.010325193405151367,-1.2050001621246338,-0.8299997448921204,-0.7177030444145203,0.0,0.0,0.0
1759838807.600842,0,-1.2050001621246338,-0.8299997448921204,-0.7177023230154038,0.0,True,0.011451005935668945,-1.2050001621246338,-0.8299997448921204,-0.7177030444145203,0.0,0.0,0.0
1759838807.611314,0,-1.2050001621246338,-0.8299997448921204,-0.717702351294708,0.0,True,0.01047205924987793,-1.2050001621246338,-0.8299997448921204,-0.7177030444145203,0.0,0.0,0.0
1759838807.6218915,0,-1.2050001621246338,-0.8299997448921204,-0.7177023766675479,0.0,True,0.01057744026184082,-1.2050001621246338,-0.8299997448921204,-0.7177030444145203,0.0,0.0,0.0
1759838807.6332405,0,-1.2050001621246338,-0.8299997448921204,-0.7177023895585961,0.0,True,0.011348962783813477,-1.2050001621246338,-0.8299997448921204,-0.7177030444145203,0.0,0.0,0.0
1759838807.6441376,0,-1.2050001621246338,-0.8299997448921204,-0.7177024103744749,0.0,True,0.010897159576416016,-1.2050001621246338,-0.8299997448921204,-0.7177030444145203,0.0,0.0,0.0
1759838807.6585486,0,-1.2050001621246338,-0.8299997448921204,-0.7177023864373364,0.0,True,0.014410972595214844,-1.2050001621246338,-0.8299997448921204,-0.7177030444145203,0.0,0.0,0.0
1759838807.6691647,0,-1.2050001621246338,-0.8299997448921204,-0.7177024229725113,0.0,True,0.010616064071655273,-1.2050001621246338,-0.8299997448921204,-0.7177030444145203,0.0,0.0,0.0
1759838807.6793613,0,-1.2050001621246338,-0.8299997448921204,-0.7177024624961597,0.0,True,0.010196685791015625,-1.2050001621246338,-0.8299997448921204,-0.7177030444145203,0.0,0.0,0.0
1759838807.6898434,0,-1.2050001621246338,-0.8299997448921204,-0.7177024919933519,0.0,True,0.010482072830200195,-1.2050001621246338,-0.8299997448921204,-0.7177030444145203,0.0,0.0,0.0
1759838807.701097,0,-1.2050001621246338,-0.8299997448921204,-0.7177025083816417,0.0,True,0.011253595352172852,-1.2050001621246338,-0.8299997448921204,-0.7177030444145203,0.0,0.0,0.0
1759838807.7114294,0,-1.2050001621246338,-0.8299997448921204,-0.7177025342339682,0.0,True,0.010332345962524414,-1.2050001621246338,-0.8299997448921204,-0.7177030444145203,0.0,0.0,0.0
1759838807.722148,0,-1.2050001621246338,-0.8299997448921204,-0.7177025532768297,0.0,True,0.010718584060668945,-1.2050001621246338,-0.8299997448921204,-0.7177030444145203,0.0,0.0,0.0
1759838807.733582,0,-1.2050001621246338,-0.8299997448921204,-0.717702563513992,0.0,True,0.011434078216552734,-1.2050001621246338,-0.8299997448921204,-0.7177030444145203,0.0,0.0,0.0
1759838807.7441108,0,-1.2050001621246338,-0.8299997448921204,-0.7177025837669824,0.0,True,0.010528802871704102,-1.2050001621246338,-0.8299997448921204,-0.7177030444145203,0.0,0.0,0.0
1759838807.75484,0,-1.2050001621246338,-0.8299997448921204,-0.7177026007421965,0.0,True,0.010729074478149414,-1.2050001621246338,-0.8299997448921204,-0.7177030444145203,0.0,0.0,0.0
1759838807.766046,0,-1.2050001621246338,-0.8299997448921204,-0.717702612174806,0.0,True,0.01120615005493164,-1.2050001621246338,-0.8299997448921204,-0.7177030444145203,0.0,0.0,0.0
1759838807.7763045,0,-1.2050001621246338,-0.8299997448921204,-0.7177026323787103,0.0,True,0.01025843620300293,-1.2050001621246338,-0.8299997448921204,-0.7177030444145203,0.0,0.0,0.0
1759838807.7865317,0,-1.2050001621246338,-0.8299997448921204,-0.7177026508432487,0.0,True,0.010227203369140625,-1.2050001621246338,-0.8299997448921204,-0.7177030444145203,0.0,0.0,0.0
1759838807.7966537,0,-1.2050001621246338,-0.8299997448921204,-0.7177026679222074,0.0,True,0.010122060775756836,-1.2050001621246338,-0.8299997448921204,-0.7177030444145203,0.0,0.0,0.0
1759838807.807107,0,-1.2050001621246338,-0.8299997448921204,-0.7177026803402384,0.0,True,0.010453224182128906,-1.2050001621246338,-0.8299997448921204,-0.7177030444145203,0.0,0.0,0.0
1759838807.8184242,0,-1.2050001621246338,-0.8299997448921204,-0.7177026853031983,0.0,True,0.011317253112792969,-1.2050001621246338,-0.8299997448921204,-0.7177030444145203,0.0,0.0,0.0
1759838807.8293588,0,-1.2050001621246338,-0.8299997448921204,-0.7177026947564862,0.0,True,0.010934591293334961,-1.2050001621246338,-0.8299997448921204,-0.7177030444145203,0.0,0.0,0.0
1759838807.8396854,0,-1.2050001621246338,-0.8299997448921204,-0.7177027093197808,0.0,True,0.010326623916625977,-1.2050001621246338,-0.8299997448921204,-0.7177030444145203,0.0,0.0,0.0
1759838807.8505042,0,-1.2050001621246338,-0.8299997448921204,-0.7177027193016503,0.0,True,0.010818719863891602,-1.2050001621246338,-0.8299997448921204,-0.7177030444145203,0.0,0.0,0.0
1759838807.8613558,0,-1.2050001621246338,-0.8299997448921204,-0.717702728840008,0.0,True,0.010851621627807617,-1.2050001621246338,-0.8299997448921204,-0.7177030444145203,0.0,0.0,0.0
1759838807.8715887,0,-1.2050001621246338,-0.8299997448921204,-0.7177027424881111,0.0,True,0.010232925415039062,-1.2050001621246338,-0.8299997448921204,-0.7177030444145203,0.0,0.0,0.0
1759838807.8826146,0,-1.2050001621246338,-0.8299997448921204,-0.7177027498807931,0.0,True,0.01102590560913086,-1.2050001621246338,-0.8299997448921204,-0.7177030444145203,0.0,0.0,0.0
1759838807.8929234,0,-1.2050001621246338,-0.8299997448921204,-0.7177027619026042,0.0,True,0.01030874252319336,-1.2050001621246338,-0.8299997448921204,-0.7177030444145203,0.0,0.0,0.0
1759838807.904327,0,-1.2050001621246338,-0.8299997448921204,-0.7177027665932414,0.0,True,0.011403560638427734,-1.2050001621246338,-0.8299997448921204,-0.7177030444145203,0.0,0.0,0.0
1759838807.9152691,0,-1.2050001621246338,-0.8299997448921204,-0.7177027748902383,0.0,True,0.010942220687866211,-1.2050001621246338,-0.8299997448921204,-0.7177030444145203,0.0,0.0,0.0
1759838807.926103,0,-1.2050001621246338,-0.8299997448921204,-0.7177027840683117,0.0,True,0.010833978652954102,-1.2050001621246338,-0.8299997448921204,-0.7177030444145203,0.0,0.0,0.0
1759838807.937233,0,-1.2050001621246338,-0.8299997448921204,-0.7177027914237524,0.0,True,0.01112985610961914,-1.2050001621246338,-0.8299997448921204,-0.7177030444145203,0.0,0.0,0.0
1759838807.947512,0,-1.2050001621246338,-0.8299997448921204,-0.7177028033012292,0.0,True,0.010278940200805664,-1.2050001621246338,-0.8299997448921204,-0.7177030444145203,0.0,0.0,0.0
1759838807.9584835,0,-1.2050001621246338,-0.8299997448921204,-0.7177028105427325,0.0,True,0.010971546173095703,-1.2050001621246338,-0.8299997448921204,-0.7177030444145203,0.0,0.0,0.0
1759838807.9688072,0,-1.2050001621246338,-0.8299997448921204,-0.7177028206900271,0.0,True,0.010323762893676758,-1.2050001621246338,-0.8299997448921204,-0.7177030444145203,0.0,0.0,0.0
1759838807.979275,0,-1.2050001621246338,-0.8299997448921204,-0.7177028292561349,0.0,True,0.010467767715454102,-1.2050001621246338,-0.8299997448921204,-0.7177030444145203,0.0,0.0,0.0
1759838807.9894364,0,-1.2050001621246338,-0.8299997448921204,-0.7177028384679431,0.0,True,0.010161399841308594,-1.2050001621246338,-0.8299997448921204,-0.7177030444145203,0.0,0.0,0.0
1759838807.9995627,0,-1.2050001621246338,-0.8299997448921204,-0.7177028468789715,0.0,True,0.010126352310180664,-1.2050001621246338,-0.8299997448921204,-0.7177030444145203,0.0,0.0,0.0
1759838808.010611,0,-1.2050001621246338,-0.8299997448921204,-0.7177028505172345,0.0,True,0.011048316955566406,-1.2050001621246338,-0.8299997448921204,-0.7177030444145203,0.0,0.0,0.0
1759838808.0212324,0,-1.2050001621246338,-0.8299997448921204,-0.7177028564017185,0.0,True,0.010621309280395508,-1.2050001621246338,-0.8299997448921204,-0.7177030444145203,0.0,0.0,0.0
1759838808.0314426,0,-1.2050001621246338,-0.8299997448921204,-0.7177028639920451,0.0,True,0.010210275650024414,-1.2050001621246338,-0.8299997448921204,-0.7177030444145203,0.0,0.0,0.0
1759838808.0417018,0,-1.2050001621246338,-0.8299997448921204,-0.7177028707827819,0.0,True,0.010259151458740234,-1.2050001621246338,-0.8299997448921204,-0.7177030444145203,0.0,0.0,0.0
1759838808.0523405,0,-1.2050001621246338,-0.8299997448921204,-0.7177028756015673,0.0,True,0.010638713836669922,-1.2050001621246338,-0.8299997448921204,-0.7177030444145203,0.0,0.0,0.0
1759838808.0658622,0,-1.2050001621246338,-0.8299997448921204,-0.7177028701718093,0.0,True,0.013521671295166016,-1.2050001621246338,-0.8299997448921204,-0.7177030444145203,0.0,0.0,0.0
1759838808.0761385,0,-1.2050001621246338,-0.8299997448921204,-0.7177028791403792,0.0,True,0.010276317596435547,-1.2050001621246338,-0.8299997448921204,-0.7177030444145203,0.0,0.0,0.0
1759838808.086296,0,-1.2050001621246338,-0.8299997448921204,-0.7177028880744238,0.0,True,0.010157585144042969,-1.2050001621246338,-0.8299997448921204,-0.7177030444145203,0.0,0.0,0.0
1759838808.0964909,0,-1.2050001621246338,-0.8299997448921204,-0.7177028955579932,0.0,True,0.010194778442382812,-1.2050001621246338,-0.8299997448921204,-0.7177030444145203,0.0,0.0,0.0
1759838808.1067996,0,-1.2050001621246338,-0.8299997448921204,-0.7177029016522738,0.0,True,0.01030874252319336,-1.2050001621246338,-0.8299997448921204,-0.7177030444145203,0.0,0.0,0.0
1759838808.117436,0,-1.2050001621246338,-0.8299997448921204,-0.7177029061108264,0.0,True,0.010636329650878906,-1.2050001621246338,-0.8299997448921204,-0.7177030444145203,0.0,0.0,0.0
1759838808.1281192,0,-1.2050001621246338,-0.8299997448921204,-0.7177029102718766,0.0,True,0.010683298110961914,-1.2050001621246338,-0.8299997448921204,-0.7177030444145203,0.0,0.0,0.0
1759838808.1389463,0,-1.2050001621246338,-0.8299997448921204,-0.7177029140044944,0.0,True,0.010827064514160156,-1.2050001621246338,-0.8299997448921204,-0.7177030444145203,0.0,0.0,0.0
1759838808.1493416,0,-1.2050001621246338,-0.8299997448921204,-0.7177029189945792,0.0,True,0.010395288467407227,-1.2050001621246338,-0.8299997448921204,-0.7177030444145203,0.0,0.0,0.0
1759838808.159962,0,-1.2050001621246338,-0.8299997448921204,-0.7177029230865148,0.0,True,0.010620355606079102,-1.2050001621246338,-0.8299997448921204,-0.7177030444145203,0.0,0.0,0.0
1759838808.171188,0,-1.2050001621246338,-0.8299997448921204,-0.7177029254781537,0.0,True,0.011226177215576172,-1.2050001621246338,-0.8299997448921204,-0.7177030444145203,0.0,0.0,0.0
1759838808.1813214,0,-1.2050001621246338,-0.8299997448921204,-0.7177029309150669,0.0,True,0.01013326644897461,-1.2050001621246338,-0.8299997448921204,-0.7177030444145203,0.0,0.0,0.0
1759838808.1914299,0,-1.2050001621246338,-0.8299997448921204,-0.7177029359327012,0.0,True,0.010108470916748047,-1.2050001621246338,-0.8299997448921204,-0.7177030444145203,0.0,0.0,0.0
1759838808.2022288,0,-1.2050001621246338,-0.8299997448921204,-0.7177029387642229,0.0,True,0.010798931121826172,-1.2050001621246338,-0.8299997448921204,-0.7177030444145203,0.0,0.0,0.0
1759838808.2134633,0,-1.2050001621246338,-0.8299997448921204,-0.7177029406485733,0.0,True,0.011234521865844727,-1.2050001621246338,-0.8299997448921204,-0.7177030444145203,0.0,0.0,0.0
1759838808.2242296,0,-1.2050001621246338,-0.8299997448921204,-0.717702943950755,0.0,True,0.010766267776489258,-1.2050001621246338,-0.8299997448921204,-0.7177030444145203,0.0,0.0,0.0
1759838808.2346706,0,-1.2050001621246338,-0.8299997448921204,-0.717702947959669,0.0,True,0.010441064834594727,-1.2050001621246338,-0.8299997448921204,-0.7177030444145203,0.0,0.0,0.0
1759838808.2459548,0,-1.2050001621246338,-0.8299997448921204,-0.7177029499874905,0.0,True,0.011284112930297852,-1.2050001621246338,-0.8299997448921204,-0.7177030444145203,0.0,0.0,0.0
1759838808.2559953,0,-1.2050001621246338,-0.8299997448921204,-0.7177029546440323,0.0,True,0.010040521621704102,-1.2050001621246338,-0.8299997448921204,-0.7177030444145203,0.0,0.0,0.0
1759838808.2667553,0,-1.2050001621246338,-0.8299997448921204,-0.7177029574709266,0.0,True,0.010760068893432617,-1.2050001621246338,-0.8299997448921204,-0.7177030444145203,0.0,0.0,0.0
1759838808.2768896,0,-1.2050001621246338,-0.8299997448921204,-0.7177029612933108,0.0,True,0.010134220123291016,-1.2050001621246338,-0.8299997448921204,-0.7177030444145203,0.0,0.0,0.0
1759838808.2881114,0,-1.2050001621246338,-0.8299997448921204,-0.7177029628371621,0.0,True,0.011221885681152344,-1.2050001621246338,-0.8299997448921204,-0.7177030444145203,0.0,0.0,0.0
1759838808.2984734,0,-1.2050001621246338,-0.8299997448921204,-0.7177029660526273,0.0,True,0.010361909866333008,-1.2050001621246338,-0.8299997448921204,-0.7177030444145203,0.0,0.0,0.0
1759838808.3093786,0,-1.2050001621246338,-0.8299997448921204,-0.7177029682070994,0.0,True,0.010905265808105469,-1.2050001621246338,-0.8299997448921204,-0.7177030444145203,0.0,0.0,0.0
1759838808.3203206,0,-1.2050001621246338,-0.8299997448921204,-0.7177029703257567,0.0,True,0.01094198226928711,-1.2050001621246338,-0.8299997448921204,-0.7177030444145203,0.0,0.0,0.0
1759838808.3306916,0,-1.2050001621246338,-0.8299997448921204,-0.7177029733896259,0.0,True,0.010370969772338867,-1.2050001621246338,-0.8299997448921204,-0.7177030444145203,0.0,0.0,0.0
1759838808.3414803,0,-1.2050001621246338,-0.8299997448921204,-0.7177029756045865,0.0,True,0.010788679122924805,-1.2050001621246338,-0.8299997448921204,-0.7177030444145203,0.0,0.0,0.0
1759838808.3516357,0,-1.2050001621246338,-0.8299997448921204,-0.7177029786583091,0.0,True,0.010155439376831055,-1.2050001621246338,-0.8299997448921204,-0.7177030444145203,0.0,0.0,0.0
1759838808.362542,0,-1.2050001621246338,-0.8299997448921204,-0.7177029803752148,0.0,True,0.010906219482421875,-1.2050001621246338,-0.8299997448921204,-0.7177030444145203,0.0,0.0,0.0
1759838808.3732529,0,-1.2050001621246338,-0.8299997448921204,-0.7177029823731509,0.0,True,0.010710954666137695,-1.2050001621246338,-0.8299997448921204,-0.7177030444145203,0.0,0.0,0.0
1759838808.3841245,0,-1.2050001621246338,-0.8299997448921204,-0.7177029841588798,0.0,True,0.010871648788452148,-1.2050001621246338,-0.8299997448921204,-0.7177030444145203,0.0,0.0,0.0
1759838808.3944013,0,-1.2050001621246338,-0.8299997448921204,-0.7177029867116929,0.0,True,0.01027679443359375,-1.2050001621246338,-0.8299997448921204,-0.7177030444145203,0.0,0.0,0.0
1759838808.4055092,0,-1.2050001621246338,-0.8299997448921204,-0.7177029880484227,0.0,True,0.011107921600341797,-1.2050001621246338,-0.8299997448921204,-0.7177030444145203,0.0,0.0,0.0
1759838808.4167478,0,-1.2050001621246338,-0.8299997448921204,-0.7177029893174662,0.0,True,0.011238574981689453,-1.2050001621246338,-0.8299997448921204,-0.7177030444145203,0.0,0.0,0.0
1759838808.4274917,0,-1.2050001621246338,-0.8299997448921204,-0.7177029913073021,0.0,True,0.010743856430053711,-1.2050001621246338,-0.8299997448921204,-0.7177030444145203,0.0,0.0,0.0
1759838808.4374943,0,-1.2050001621246338,-0.8299997448921204,-0.7177029940425719,0.0,True,0.010002613067626953,-1.2050001621246338,-0.8299997448921204,-0.7177030444145203,0.0,0.0,0.0
1759838808.4478464,0,-1.2050001621246338,-0.8299997448921204,-0.7177029960594794,0.0,True,0.010352134704589844,-1.2050001621246338,-0.8299997448921204,-0.7177030444145203,0.0,0.0,0.0
1759838808.4580028,0,-1.2050001621246338,-0.8299997448921204,-0.717702998059341,0.0,True,0.010156393051147461,-1.2050001621246338,-0.8299997448921204,-0.7177030444145203,0.0,0.0,0.0
1759838808.4693427,0,-1.2050001621246338,-0.8299997448921204,-0.7177029986929977,0.0,True,0.011339902877807617,-1.2050001621246338,-0.8299997448921204,-0.7177030444145203,0.0,0.0,0.0
1759838808.47953,0,-1.2050001621246338,-0.8299997448921204,-0.7177030006149945,0.0,True,0.010187387466430664,-1.2050001621246338,-0.8299997448921204,-0.7177030444145203,0.0,0.0,0.0
1759838808.4899776,0,-1.2050001621246338,-0.8299997448921204,-0.7177030021749964,0.0,True,0.010447502136230469,-1.2050001621246338,-0.8299997448921204,-0.7177030444145203,0.0,0.0,0.0
1759838808.5006406,0,-1.2050001621246338,-0.8299997448921204,-0.7177030034344014,0.0,True,0.010663032531738281,-1.2050001621246338,-0.8299997448921204,-0.7177030444145203,0.0,0.0,0.0
1759838808.511967,0,-1.2050001621246338,-0.8299997448921204,-0.7177030041081167,0.0,True,0.011326313018798828,-1.2050001621246338,-0.8299997448921204,-0.7177030444145203,0.0,0.0,0.0
1759838808.5221908,0,-1.2050001621246338,-0.8299997448921204,-0.7177030058684384,0.0,True,0.010223865509033203,-1.2050001621246338,-0.8299997448921204,-0.7177030444145203,0.0,0.0,0.0
1759838808.5325427,0,-1.2050001621246338,-0.8299997448921204,-0.7177030073968247,0.0,True,0.010351896286010742,-1.2050001621246338,-0.8299997448921204,-0.7177030444145203,0.0,0.0,0.0
1759838808.5427527,0,-1.2050001621246338,-0.8299997448921204,-0.7177030088934835,0.0,True,0.010210037231445312,-1.2050001621246338,-0.8299997448921204,-0.7177030444145203,0.0,0.0,0.0
1759838808.5530624,0,-1.2050001621246338,-0.8299997448921204,-0.7177030101741444,0.0,True,0.010309696197509766,-1.2050001621246338,-0.8299997448921204,-0.7177030444145203,0.0,0.0,0.0
1759838808.564256,0,-1.2050001621246338,-0.8299997448921204,-0.7177030107159297,0.0,True,0.011193513870239258,-1.2050001621246338,-0.8299997448921204,-0.7177030444145203,0.0,0.0,0.0
1759838808.5745578,0,-1.2050001621246338,-0.8299997448921204,-0.7177030120152246,0.0,True,0.010301828384399414,-1.2050001621246338,-0.8299997448921204,-0.7177030444145203,0.0,0.0,0.0
1759838808.584765,0,-1.2050001621246338,-0.8299997448921204,-0.717703013319209,0.0,True,0.010207176208496094,-1.2050001621246338,-0.8299997448921204,-0.7177030444145203,0.0,0.0,0.0
1759838808.5955296,0,-1.2050001621246338,-0.8299997448921204,-0.7177030141356546,0.0,True,0.010764598846435547,-1.2050001621246338,-0.8299997448921204,-0.7177030444145203,0.0,0.0,0.0
1759838808.6068804,0,-1.2050001621246338,-0.8299997448921204,-0.7177030145907892,0.0,True,0.011350870132446289,-1.2050001621246338,-0.8299997448921204,-0.7177030444145203,0.0,0.0,0.0
1759838808.6169977,0,-1.2050001621246338,-0.8299997448921204,-0.7177030159501712,0.0,True,0.010117292404174805,-1.2050001621246338,-0.8299997448921204,-0.7177030444145203,0.0,0.0,0.0
1759838808.6269994,0,-1.2050001621246338,-0.8299997448921204,-0.7177030172684731,0.0,True,0.010001659393310547,-1.2050001621246338,-0.8299997448921204,-0.7177030444145203,0.0,0.0,0.0
1759838808.6383226,0,-1.2050001621246338,-0.8299997448921204,-0.7177030176570298,0.0,True,0.011323213577270508,-1.2050001621246338,-0.8299997448921204,-0.7177030444145203,0.0,0.0,0.0
1759838808.6489558,0,-1.2050001621246338,-0.8299997448921204,-0.717703018530429,0.0,True,0.010633230209350586,-1.2050001621246338,-0.8299997448921204,-0.7177030444145203,0.0,0.0,0.0
1759838808.6593382,0,-1.2050001621246338,-0.8299997448921204,-0.7177030195440519,0.0,True,0.010382413864135742,-1.2050001621246338,-0.8299997448921204,-0.7177030444145203,0.0,0.0,0.0
1759838808.670641,0,-1.2050001621246338,-0.8299997448921204,-0.7177030200058354,0.0,True,0.011302709579467773,-1.2050001621246338,-0.8299997448921204,-0.7177030444145203,0.0,0.0,0.0
1759838808.682048,0,-1.2050001621246338,-0.8299997448921204,-0.7177030204928805,0.0,True,0.011407136917114258,-1.2050001621246338,-0.8299997448921204,-0.7177030444145203,0.0,0.0,0.0
1759838808.6922913,0,-1.2050001621246338,-0.8299997448921204,-0.7177030216426736,0.0,True,0.01024317741394043,-1.2050001621246338,-0.8299997448921204,-0.7177030444145203,0.0,0.0,0.0
1759838808.7028499,0,-1.2050001621246338,-0.8299997448921204,-0.7177030225375916,0.0,True,0.010558605194091797,-1.2050001621246338,-0.8299997448921204,-0.7177030444145203,0.0,0.0,0.0
1759838808.7142699,0,-1.2050001621246338,-0.8299997448921204,-0.7177030229611603,0.0,True,0.011420011520385742,-1.2050001621246338,-0.8299997448921204,-0.7177030444145203,0.0,0.0,0.0
1759838808.7245624,0,-1.2050001621246338,-0.8299997448921204,-0.7177030239416133,0.0,True,0.010292530059814453,-1.2050001621246338,-0.8299997448921204,-0.7177030444145203,0.0,0.0,0.0
1759838808.735592,0,-1.2050001621246338,-0.8299997448921204,-0.7177030245297473,0.0,True,0.011029481887817383,-1.2050001621246338,-0.8299997448921204,-0.7177030444145203,0.0,0.0,0.0
1759838808.746192,0,-1.2050001621246338,-0.8299997448921204,-0.7177030252873138,0.0,True,0.010600090026855469,-1.2050001621246338,-0.8299997448921204,-0.7177030444145203,0.0,0.0,0.0
1759838808.7566662,0,-1.2050001621246338,-0.8299997448921204,-0.7177030260526003,0.0,True,0.010474205017089844,-1.2050001621246338,-0.8299997448921204,-0.7177030444145203,0.0,0.0,0.0
1759838808.7679543,0,-1.2050001621246338,-0.8299997448921204,-0.717703026445303,0.0,True,0.011288166046142578,-1.2050001621246338,-0.8299997448921204,-0.7177030444145203,0.0,0.0,0.0
1759838808.7784088,0,-1.2050001621246338,-0.8299997448921204,-0.7177030271853138,0.0,True,0.010454416275024414,-1.2050001621246338,-0.8299997448921204,-0.7177030444145203,0.0,0.0,0.0
1759838808.789709,0,-1.2050001621246338,-0.8299997448921204,-0.7177030275785174,0.0,True,0.011300325393676758,-1.2050001621246338,-0.8299997448921204,-0.7177030444145203,0.0,0.0,0.0
1759838808.8009963,0,-1.2050001621246338,-0.8299997448921204,-0.7177030280083834,0.0,True,0.011287212371826172,-1.2050001621246338,-0.8299997448921204,-0.7177030444145203,0.0,0.0,0.0
1759838808.8113043,0,-1.2050001621246338,-0.8299997448921204,-0.7177030287988657,0.0,True,0.010308027267456055,-1.2050001621246338,-0.8299997448921204,-0.7177030444145203,0.0,0.0,0.0
1759838808.8216128,0,-1.2050001621246338,-0.8299997448921204,-0.7177030295103073,0.0,True,0.010308504104614258,-1.2050001621246338,-0.8299997448921204,-0.7177030444145203,0.0,0.0,0.0
1759838808.8329318,0,-1.2050001621246338,-0.8299997448921204,-0.7177030298234008,0.0,True,0.01131892204284668,-1.2050001621246338,-0.8299997448921204,-0.7177030444145203,0.0,0.0,0.0
1759838808.844289,0,-1.2050001621246338,-0.8299997448921204,-0.7177030301556453,0.0,True,0.011357307434082031,-1.2050001621246338,-0.8299997448921204,-0.7177030444145203,0.0,0.0,0.0
1759838808.8555892,0,-1.2050001621246338,-0.8299997448921204,-0.717703030550382,0.0,True,0.011300086975097656,-1.2050001621246338,-0.8299997448921204,-0.7177030444145203,0.0,0.0,0.0
1759838808.8675082,0,-1.2050001621246338,-0.8299997448921204,-0.7177030307998411,0.0,True,0.011919021606445312,-1.2050001621246338,-0.8299997448921204,-0.7177030444145203,0.0,0.0,0.0
1759838808.8781924,0,-1.2050001621246338,-0.8299997448921204,-0.7177030314416921,0.0,True,0.01068425178527832,-1.2050001621246338,-0.8299997448921204,-0.7177030444145203,0.0,0.0,0.0
1759838808.889531,0,-1.2050001621246338,-0.8299997448921204,-0.7177030318655007,0.0,True,0.011338472366333008,-1.2050001621246338,-0.8299997448921204,-0.7177030444145203,0.0,0.0,0.0
1759838808.9008634,0,-1.2050001621246338,-0.8299997448921204,-0.7177030322777753,0.0,True,0.011332511901855469,-1.2050001621246338,-0.8299997448921204,-0.7177030444145203,0.0,0.0,0.0
1759838808.9120123,0,-1.2050001621246338,-0.8299997448921204,-0.7177030327313361,0.0,True,0.011148929595947266,-1.2050001621246338,-0.8299997448921204,-0.7177030444145203,0.0,0.0,0.0
1759838808.9223025,0,-1.2050001621246338,-0.8299997448921204,-0.717703033362648,0.0,True,0.010290145874023438,-1.2050001621246338,-0.8299997448921204,-0.7177030444145203,0.0,0.0,0.0
1759838808.9327083,0,-1.2050001621246338,-0.8299997448921204,-0.717703033885309,0.0,True,0.010405778884887695,-1.2050001621246338,-0.8299997448921204,-0.7177030444145203,0.0,0.0,0.0
1759838808.943111,0,-1.2050001621246338,-0.8299997448921204,-0.7177030343389887,0.0,True,0.010402679443359375,-1.2050001621246338,-0.8299997448921204,-0.7177030444145203,0.0,0.0,0.0
1759838808.9535499,0,-1.2050001621246338,-0.8299997448921204,-0.7177030347342868,0.0,True,0.010438919067382812,-1.2050001621246338,-0.8299997448921204,-0.7177030444145203,0.0,0.0,0.0
1759838808.9650254,0,-1.2050001621246338,-0.8299997448921204,-0.7177030348846412,0.0,True,0.011475563049316406,-1.2050001621246338,-0.8299997448921204,-0.7177030444145203,0.0,0.0,0.0
1759838808.9763155,0,-1.2050001621246338,-0.8299997448921204,-0.717703035109043,0.0,True,0.01129007339477539,-1.2050001621246338,-0.8299997448921204,-0.7177030444145203,0.0,0.0,0.0
1759838808.9877021,0,-1.2050001621246338,-0.8299997448921204,-0.7177030353451261,0.0,True,0.011386632919311523,-1.2050001621246338,-0.8299997448921204,-0.7177030444145203,0.0,0.0,0.0
1759838809.0087733,0,-1.2050001621246338,-0.8299997448921204,-0.7177030339094426,0.0,True,0.021071195602416992,-1.2050001621246338,-0.8299997448921204,-0.7177030444145203,0.0,0,0
1759838809.0191116,0,-1.2050001621246338,-0.8299997448921204,-0.7177030348596087,0.0,True,0.010338306427001953,-1.2050001621246338,-0.8299997448921204,-0.7177030444145203,0.0,0,0
1759838809.0298097,0,-1.2050001621246338,-0.8299997448921204,-0.717703035673761,0.0,True,0.010698080062866211,-1.2050001621246338,-0.8299997448921204,-0.7177030444145203,0.0,0,0
1759838809.0404723,0,-1.2050001621246338,-0.8299997448921204,-0.7177030363165819,0.0,True,0.010662555694580078,-1.2050001621246338,-0.8299997448921204,-0.7177030444145203,0.0,0,0
1759838809.0511081,0,-1.2050001621246338,-0.8299997448921204,-0.7177030368320736,0.0,True,0.010635852813720703,-1.2050001621246338,-0.8299997448921204,-0.7177030444145203,0.0,0,0
1759838809.0625567,0,-1.2050001621246338,-0.8299997448921204,-0.7177030371357684,0.0,True,0.01144862174987793,-1.2050001621246338,-0.8299997448921204,-0.7177030444145203,0.0,0,0
1759838809.075297,0,-1.2050001621246338,-0.8299997448921204,-0.7177030372299775,0.0,True,0.012740373611450195,-1.2050001621246338,-0.8299997448921204,-0.7177030444145203,0.0,0,0
1759838809.0866075,0,-1.2050001621246338,-0.8299997448921204,-0.7177030375581737,0.0,True,0.011310338973999023,-1.2050001621246338,-0.8299997448921204,-0.7177030444145203,0.0,0,0
1759838809.096757,0,-1.2050001621246338,-0.8299997448921204,-0.717703038017067,0.0,True,0.010149478912353516,-1.2050001621246338,-0.8299997448921204,-0.7177030444145203,0.0,0,0
1759838809.10742,0,-1.2050001621246338,-0.8299997448921204,-0.717703038334907,0.0,True,0.010663032531738281,-1.2050001621246338,-0.8299997448921204,-0.7177030444145203,0.0,0,0
1759838809.1186807,0,-1.2050001621246338,-0.8299997448921204,-0.7177030385316119,0.0,True,0.011260747909545898,-1.2050001621246338,-0.8299997448921204,-0.7177030444145203,0.0,0,0
1759838809.1295953,0,-1.2050001621246338,-0.8299997448921204,-0.7177030387595895,0.0,True,0.01091456413269043,-1.2050001621246338,-0.8299997448921204,-0.7177030444145203,0.0,0,0
1759838809.1396563,0,-1.2050001621246338,-0.8299997448921204,-0.7177030390696935,0.0,True,0.010061025619506836,-1.2050001621246338,-0.8299997448921204,-0.7177030444145203,0.0,0,0
1759838809.1509368,0,-1.2050001621246338,-0.8299997448921204,-0.7177030392022417,0.0,True,0.011280536651611328,-1.2050001621246338,-0.8299997448921204,-0.7177030444145203,0.0,0,0
1759838809.1616673,0,-1.2050001621246338,-0.8299997448921204,-0.7177030393934949,0.0,True,0.010730504989624023,-1.2050001621246338,-0.8299997448921204,-0.7177030444145203,0.0,0,0
1759838809.172253,0,-1.2050001621246338,-0.8299997448921204,-0.7177030395910009,0.0,True,0.010585546493530273,-1.2050001621246338,-0.8299997448921204,-0.7177030444145203,0.0,0,0
1759838809.1830251,0,-1.2050001621246338,-0.8299997448921204,-0.7177030397540225,0.0,True,0.010772228240966797,-1.2050001621246338,-0.8299997448921204,-0.7177030444145203,0.0,0,0
1759838809.1943696,0,-1.2050001621246338,-0.8299997448921204,-0.7177030398538946,0.0,True,0.011344432830810547,-1.2050001621246338,-0.8299997448921204,-0.7177030444145203,0.0,0,0
1759838809.205368,0,-1.2050001621246338,-0.8299997448921204,-0.7177030399969393,0.0,True,0.01099848747253418,-1.2050001621246338,-0.8299997448921204,-0.7177030444145203,0.0,0,0
1759838809.216321,0,-1.2050001621246338,-0.8299997448921204,-0.71770304014521,0.0,True,0.010952949523925781,-1.2050001621246338,-0.8299997448921204,-0.7177030444145203,0.0,0,0
1759838809.228131,0,-1.2050001621246338,-0.8299997448921204,-0.7177030402156248,0.0,True,0.011810064315795898,-1.2050001621246338,-0.8299997448921204,-0.7177030444145203,0.0,0,0
1759838809.2395415,0,-1.2050001621246338,-0.8299997448921204,-0.7177030403376499,0.0,True,0.01141047477722168,-1.2050001621246338,-0.8299997448921204,-0.7177030444145203,0.0,0,0
1759838809.2496586,0,-1.2050001621246338,-0.8299997448921204,-0.7177030405701323,0.0,True,0.010117053985595703,-1.2050001621246338,-0.8299997448921204,-0.7177030444145203,0.0,0,0
1759838809.2608147,0,-1.2050001621246338,-0.8299997448921204,-0.7177030406908571,0.0,True,0.011156082153320312,-1.2050001621246338,-0.8299997448921204,-0.7177030444145203,0.0,0,0
1759838809.2711506,0,-1.2050001621246338,-0.8299997448921204,-0.7177030408663541,0.0,True,0.010335922241210938,-1.2050001621246338,-0.8299997448921204,-0.7177030444145203,0.0,0,0
1759838809.281859,0,-1.2050001621246338,-0.8299997448921204,-0.7177030409960281,0.0,True,0.010708332061767578,-1.2050001621246338,-0.8299997448921204,-0.7177030444145203,0.0,0,0
1759838809.29269,0,-1.2050001621246338,-0.8299997448921204,-0.7177030411066738,0.0,True,0.010831117630004883,-1.2050001621246338,-0.8299997448921204,-0.7177030444145203,0.0,0,0
1759838809.3027549,0,-1.2050001621246338,-0.8299997448921204,-0.7177030412657608,0.0,True,0.010064840316772461,-1.2050001621246338,-0.8299997448921204,-0.7177030444145203,0.0,0,0
1759838809.3128655,0,-1.2050001621246338,-0.8299997448921204,-0.7177030414033165,0.0,True,0.010110616683959961,-1.2050001621246338,-0.8299997448921204,-0.7177030444145203,0.0,0,0
1759838809.324269,0,-1.2050001621246338,-0.8299997448921204,-0.7177030414411227,0.0,True,0.011403560638427734,-1.2050001621246338,-0.8299997448921204,-0.7177030444145203,0.0,0,0
1759838809.335029,0,-1.2050001621246338,-0.8299997448921204,-0.7177030415311343,0.0,True,0.010759830474853516,-1.2050001621246338,-0.8299997448921204,-0.7177030444145203,0.0,0,0
1759838809.3453794,0,-1.2050001621246338,-0.8299997448921204,-0.7177030416480861,0.0,True,0.010350465774536133,-1.2050001621246338,-0.8299997448921204,-0.7177030444145203,0.0,0,0
1759838809.356794,0,-1.2050001621246338,-0.8299997448921204,-0.7177030416942713,0.0,True,0.011414766311645508,-1.2050001621246338,-0.8299997448921204,-0.7177030444145203,0.0,0,0
1759838809.3676023,0,-1.2050001621246338,-0.8299997448921204,-0.7177030417836061,0.0,True,0.010808229446411133,-1.2050001621246338,-0.8299997448921204,-0.7177030444145203,0.0,0,0
1759838809.3785005,0,-1.2050001621246338,-0.8299997448921204,-0.7177030418682477,0.0,True,0.010898113250732422,-1.2050001621246338,-0.8299997448921204,-0.7177030444145203,0.0,0,0
1759838809.388539,0,-1.2050001621246338,-0.8299997448921204,-0.7177030419959394,0.0,True,0.010038614273071289,-1.2050001621246338,-0.8299997448921204,-0.7177030444145203,0.0,0,0
1759838809.3991308,0,-1.2050001621246338,-0.8299997448921204,-0.7177030420802293,0.0,True,0.010591745376586914,-1.2050001621246338,-0.8299997448921204,-0.7177030444145203,0.0,0,0
1759838809.4105628,0,-1.2050001621246338,-0.8299997448921204,-0.7177030421169484,0.0,True,0.01143193244934082,-1.2050001621246338,-0.8299997448921204,-0.7177030444145203,0.0,0,0
1759838809.421194,0,-1.2050001621246338,-0.8299997448921204,-0.7177030422007391,0.0,True,0.010631322860717773,-1.2050001621246338,-0.8299997448921204,-0.7177030444145203,0.0,0,0
1759838809.4326086,0,-1.2050001621246338,-0.8299997448921204,-0.7177030422467183,0.0,True,0.011414527893066406,-1.2050001621246338,-0.8299997448921204,-0.7177030444145203,0.0,0,0
1759838809.4428277,0,-1.2050001621246338,-0.8299997448921204,-0.7177030423510189,0.0,True,0.010219097137451172,-1.2050001621246338,-0.8299997448921204,-0.7177030444145203,0.0,0,0
1759838809.4529305,0,-1.2050001621246338,-0.8299997448921204,-0.7177030424501503,0.0,True,0.01010274887084961,-1.2050001621246338,-0.8299997448921204,-0.7177030444145203,0.0,0,0
1759838809.4635255,0,-1.2050001621246338,-0.8299997448921204,-0.7177030425156872,0.0,True,0.010595083236694336,-1.2050001621246338,-0.8299997448921204,-0.7177030444145203,0.0,0,0
1759838809.4745414,0,-1.2050001621246338,-0.8299997448921204,-0.7177030425601156,0.0,True,0.011015892028808594,-1.2050001621246338,-0.8299997448921204,-0.7177030444145203,0.0,0,0
1759838809.4858115,0,-1.2050001621246338,-0.8299997448921204,-0.7177030425980497,0.0,True,0.01127004623413086,-1.2050001621246338,-0.8299997448921204,-0.7177030444145203,0.0,0,0
1759838809.4965503,0,-1.2050001621246338,-0.8299997448921204,-0.7177030426619666,0.0,True,0.010738849639892578,-1.2050001621246338,-0.8299997448921204,-0.7177030444145203,0.0,0,0
1759838809.5077846,0,-1.2050001621246338,-0.8299997448921204,-0.7177030427067344,0.0,True,0.011234283447265625,-1.2050001621246338,-0.8299997448921204,-0.7177030444145203,0.0,0,0
1759838809.518925,0,-1.2050001621246338,-0.8299997448921204,-0.7177030427571616,0.0,True,0.01114034652709961,-1.2050001621246338,-0.8299997448921204,-0.7177030444145203,0.0,0,0
1759838809.529178,0,-1.2050001621246338,-0.8299997448921204,-0.7177030428385809,0.0,True,0.010252952575683594,-1.2050001621246338,-0.8299997448921204,-0.7177030444145203,0.0,0,0
1759838809.5399625,0,-1.2050001621246338,-0.8299997448921204,-0.7177030428938771,0.0,True,0.010784626007080078,-1.2050001621246338,-0.8299997448921204,-0.7177030444145203,0.0,0,0
1759838809.5511403,0,-1.2050001621246338,-0.8299997448921204,-0.7177030429330422,0.0,True,0.011177778244018555,-1.2050001621246338,-0.8299997448921204,-0.7177030444145203,0.0,0,0
1759838809.5617206,0,-1.2050001621246338,-0.8299997448921204,-0.717703042992067,0.0,True,0.010580301284790039,-1.2050001621246338,-0.8299997448921204,-0.7177030444145203,0.0,0,0
1759838809.5718994,0,-1.2050001621246338,-0.8299997448921204,-0.7177030430591458,0.0,True,0.010178804397583008,-1.2050001621246338,-0.8299997448921204,-0.7177030444145203,0.0,0,0
1759838809.5826733,0,-1.2050001621246338,-0.8299997448921204,-0.7177030431014391,0.0,True,0.010773897171020508,-1.2050001621246338,-0.8299997448921204,-0.7177030444145203,0.0,0,0
1759838809.5941167,0,-1.2050001621246338,-0.8299997448921204,-0.7177030431236364,0.0,True,0.011443376541137695,-1.2050001621246338,-0.8299997448921204,-0.7177030444145203,0.0,0,0
1759838809.605314,0,-1.2050001621246338,-0.8299997448921204,-0.7177030431576306,0.0,True,0.011197328567504883,-1.2050001621246338,-0.8299997448921204,-0.7177030444145203,0.0,0,0
1759838809.6165724,0,-1.2050001621246338,-0.8299997448921204,-0.7177030431929747,0.0,True,0.011258363723754883,-1.2050001621246338,-0.8299997448921204,-0.7177030444145203,0.0,0,0
1759838809.6270118,0,-1.2050001621246338,-0.8299997448921204,-0.7177030432499372,0.0,True,0.010439395904541016,-1.2050001621246338,-0.8299997448921204,-0.7177030444145203,0.0,0,0
1759838809.6385942,0,-1.2050001621246338,-0.8299997448921204,-0.7177030432744669,0.0,True,0.011582374572753906,-1.2050001621246338,-0.8299997448921204,-0.7177030444145203,0.0,0,0
1759838809.6497529,0,-1.2050001621246338,-0.8299997448921204,-0.7177030433112463,0.0,True,0.01115870475769043,-1.2050001621246338,-0.8299997448921204,-0.7177030444145203,0.0,0,0
1759838809.659992,0,-1.2050001621246338,-0.8299997448921204,-0.7177030433686813,0.0,True,0.010239124298095703,-1.2050001621246338,-0.8299997448921204,-0.7177030444145203,0.0,0,0
1759838809.6788867,0,-1.2050001621246338,-0.8299997448921204,-0.7177030432391263,0.0,True,0.018894672393798828,-1.2050001621246338,-0.8299997448921204,-0.7177030444145203,0.0,0,0
1759838809.6865268,0,-1.2050001621246338,-0.8299997448921204,-0.7177030433856597,0.0,True,0.00764012336730957,-1.2050001621246338,-0.8299997448921204,-0.7177030444145203,0.0,0,0
1759838809.697788,0,-1.2050001621246338,-0.8299997448921204,-0.7177030434390872,0.0,True,0.011261224746704102,-1.2050001621246338,-0.8299997448921204,-0.7177030444145203,0.0,0,0
1759838809.7085474,0,-1.2050001621246338,-0.8299997448921204,-0.7177030434901095,0.0,True,0.010759353637695312,-1.2050001621246338,-0.8299997448921204,-0.7177030444145203,0.0,0,0
1759838809.7188313,0,-1.2050001621246338,-0.8299997448921204,-0.717703043542727,0.0,True,0.010283946990966797,-1.2050001621246338,-0.8299997448921204,-0.7177030444145203,0.0,0,0
1759838809.7298958,0,-1.2050001621246338,-0.8299997448921204,-0.7177030435735503,0.0,True,0.011064529418945312,-1.2050001621246338,-0.8299997448921204,-0.7177030444145203,0.0,0,0
1759838809.740781,0,-1.2050001621246338,-0.8299997448921204,-0.7177030436049456,0.0,True,0.010885238647460938,-1.2050001621246338,-0.8299997448921204,-0.7177030444145203,0.0,0,0
1759838809.7516823,0,-1.2050001621246338,-0.8299997448921204,-0.7177030436342555,0.0,True,0.010901212692260742,-1.2050001621246338,-0.8299997448921204,-0.7177030444145203,0.0,0,0
1759838809.7619324,0,-1.2050001621246338,-0.8299997448921204,-0.7177030436722092,0.0,True,0.010250091552734375,-1.2050001621246338,-0.8299997448921204,-0.7177030444145203,0.0,0,0
1759838809.7727785,0,-1.2050001621246338,-0.8299997448921204,-0.717703043696563,0.0,True,0.010846138000488281,-1.2050001621246338,-0.8299997448921204,-0.7177030444145203,0.0,0,0
1759838809.7831244,0,-1.2050001621246338,-0.8299997448921204,-0.7177030437268854,0.0,True,0.010345935821533203,-1.2050001621246338,-0.8299997448921204,-0.7177030444145203,0.0,0,0
1759838809.793654,0,-1.2050001621246338,-0.8299997448921204,-0.7177030437518219,0.0,True,0.010529518127441406,-1.2050001621246338,-0.8299997448921204,-0.7177030444145203,0.0,0,0
1759838809.8045595,0,-1.2050001621246338,-0.8299997448921204,-0.7177030437696796,0.0,True,0.01090550422668457,-1.2050001621246338,-0.8299997448921204,-0.7177030444145203,0.0,0,0
1759838809.8147883,0,-1.2050001621246338,-0.8299997448921204,-0.7177030437968739,0.0,True,0.010228872299194336,-1.2050001621246338,-0.8299997448921204,-0.7177030444145203,0.0,0,0
1759838809.826316,0,-1.2050001621246338,-0.8299997448921204,-0.7177030438049368,0.0,True,0.011527776718139648,-1.2050001621246338,-0.8299997448921204,-0.7177030444145203,0.0,0,0
1759838809.8369553,0,-1.2050001621246338,-0.8299997448921204,-0.7177030438267771,0.0,True,0.010639190673828125,-1.2050001621246338,-0.8299997448921204,-0.7177030444145203,0.0,0,0
1759838809.8481495,0,-1.2050001621246338,-0.8299997448921204,-0.7177030438415031,0.0,True,0.011194229125976562,-1.2050001621246338,-0.8299997448921204,-0.7177030444145203,0.0,0,0
1759838809.8591855,0,-1.2050001621246338,-0.8299997448921204,-0.7177030438588634,0.0,True,0.011035919189453125,-1.2050001621246338,-0.8299997448921204,-0.7177030444145203,0.0,0,0
1759838809.870288,0,-1.2050001621246338,-0.8299997448921204,-0.717703043875753,0.0,True,0.011102437973022461,-1.2050001621246338,-0.8299997448921204,-0.7177030444145203,0.0,0,0
1759838809.88591,0,-1.2050001621246338,-0.8299997448921204,-0.7177030438444554,0.0,True,0.015622138977050781,-1.2050001621246338,-0.8299997448921204,-0.7177030444145203,0.0,0,0
1759838809.8969948,0,-1.2050001621246338,-0.8299997448921204,-0.7177030438755132,0.0,True,0.011084794998168945,-1.2050001621246338,-0.8299997448921204,-0.7177030444145203,0.0,0,0
1759838809.90735,0,-1.2050001621246338,-0.8299997448921204,-0.7177030439130583,0.0,True,0.010355234146118164,-1.2050001621246338,-0.8299997448921204,-0.7177030444145203,0.0,0,0
1759838809.918093,0,-1.2050001621246338,-0.8299997448921204,-0.7177030439403183,0.0,True,0.010742902755737305,-1.2050001621246338,-0.8299997448921204,-0.7177030444145203,0.0,0,0
1759838809.928546,0,-1.2050001621246338,-0.8299997448921204,-0.7177030439658267,0.0,True,0.010452985763549805,-1.2050001621246338,-0.8299997448921204,-0.7177030444145203,0.0,0,0
