timestamp,vehicle_id,x,y,theta,velocity,gps_available,dt,gps_x,gps_y,gps_theta,gps_velocity,control_steering,control_acceleration
1759838806.9970484,2,-1.95,0.197,-0.8848819307611251,0.0,False,0.01,nan,nan,nan,nan,0.0,0.0
1759838807.0085685,2,-1.95,0.197,-0.8848819307611251,0.0,False,0.011520147323608398,nan,nan,nan,nan,0.0,0.0
1759838807.0200658,2,-1.95,0.197,-0.8848819307611251,0.0,False,0.011497259140014648,nan,nan,nan,nan,0.0,0.0
1759838807.0300722,2,-1.95,0.197,-0.8848819307611251,0.0,False,0.010006427764892578,nan,nan,nan,nan,0.0,0.0
1759838807.0410004,2,-1.95,0.197,-0.8848819307611251,0.0,False,0.010928153991699219,nan,nan,nan,nan,0.0,0.0
1759838807.0519054,2,-1.95,0.197,-0.8848819307611251,0.0,False,0.010905027389526367,nan,nan,nan,nan,0.0,0.0
1759838807.0623488,2,-1.95,0.197,-0.8848819307611251,0.0,False,0.010443449020385742,nan,nan,nan,nan,0.0,0.0
1759838807.073779,2,-1.95,0.197,-0.8848819307611251,0.0,False,0.01143026351928711,nan,nan,nan,nan,0.0,0.0
1759838807.0838997,2,-1.95,0.197,-0.8848819307611251,0.0,False,0.010120630264282227,nan,nan,nan,nan,0.0,0.0
1759838807.0942988,2,-1.95,0.197,-0.8848819307611251,0.0,False,0.010399103164672852,nan,nan,nan,nan,0.0,0.0
1759838807.1043456,2,-1.95,0.197,-0.8848819307611251,0.0,False,0.010046720504760742,nan,nan,nan,nan,0.0,0.0
1759838807.1157546,2,-1.95,0.197,-0.8848819307611251,0.0,False,0.01140904426574707,nan,nan,nan,nan,0.0,0.0
1759838807.1261704,2,-1.95,0.197,-0.8848819307611251,0.0,False,0.010415792465209961,nan,nan,nan,nan,0.0,0.0
1759838807.13643,2,-1.95,0.197,-0.8848819307611251,0.0,False,0.010259628295898438,nan,nan,nan,nan,0.0,0.0
1759838807.1473658,2,-1.95,0.197,-0.8848819307611251,0.0,False,0.010935783386230469,nan,nan,nan,nan,0.0,0.0
1759838807.1579795,2,-1.95,0.197,-0.8848819307611251,0.0,False,0.010613679885864258,nan,nan,nan,nan,0.0,0.0
1759838807.1683724,2,-1.95,0.197,-0.8848819307611251,0.0,False,0.010392904281616211,nan,nan,nan,nan,0.0,0.0
1759838807.1793537,2,-1.95,0.197,-0.8848819307611251,0.0,False,0.010981321334838867,nan,nan,nan,nan,0.0,0.0
1759838807.1948555,2,-1.9499999290704728,0.19700005603432655,-0.4727053897837017,0.0,True,0.015501737594604492,-1.9499999284744263,0.19700005650520325,-0.4345163106918335,0.0,0.0,0.0
1759838807.2062368,2,-1.9499999286736618,0.19700005634780712,-0.43747594636216114,0.0,True,0.011381387710571289,-1.9499999284744263,0.19700005650520325,-0.4345163106918335,0.0,0.0,0.0
1759838807.2169833,2,-1.9499999285491656,0.19700005644615914,-0.4341733584131333,0.0,True,0.010746479034423828,-1.9499999284744263,0.19700005650520325,-0.4345163106918335,0.0,0.0,0.0
1759838807.2281945,2,-1.9499999285028997,0.19700005648270913,-0.4337351605922102,0.0,True,0.011211156845092773,-1.9499999284744263,0.19700005650520325,-0.4345163106918335,0.0,0.0,0.0
1759838807.2384977,2,-1.949999928485298,0.19700005649661453,-0.4337060244761872,0.0,True,0.010303258895874023,-1.9499999284744263,0.19700005650520325,-0.4345163106918335,0.0,0.0,0.0
1759838807.2491856,2,-1.9499999284785787,0.19700005650192284,-0.4337565513116495,0.0,True,0.010687828063964844,-1.9499999284744263,0.19700005650520325,-0.4345163106918335,0.0,0.0,0.0
1759838807.2594414,2,-1.9499999284760123,0.19700005650395025,-0.4338412148840156,0.0,True,0.010255813598632812,-1.9499999284744263,0.19700005650520325,-0.4345163106918335,0.0,0.0,0.0
1759838807.2698789,2,-1.949999928475032,0.19700005650472466,-0.43392150987855693,0.0,True,0.010437488555908203,-1.9499999284744263,0.19700005650520325,-0.4345163106918335,0.0,0.0,0.0
1759838807.280785,2,-1.9499999284746576,0.19700005650502045,-0.433989393832956,0.0,True,0.010906219482421875,-1.9499999284744263,0.19700005650520325,-0.4345163106918335,0.0,0.0,0.0
1759838807.291126,2,-1.9499999284745146,0.19700005650513341,-0.4340554069777518,0.0,True,0.01034092903137207,-1.9499999284744263,0.19700005650520325,-0.4345163106918335,0.0,0.0,0.0
1759838807.30127,2,-1.94999992847446,0.19700005650517657,-0.4341116064483046,0.0,True,0.01014399528503418,-1.9499999284744263,0.19700005650520325,-0.4345163106918335,0.0,0.0,0.0
1759838807.312018,2,-1.9499999284744391,0.19700005650519306,-0.4341531609469591,0.0,True,0.010747909545898438,-1.9499999284744263,0.19700005650520325,-0.4345163106918335,0.0,0.0,0.0
1759838807.3233871,2,-1.9499999284744312,0.19700005650519936,-0.434185341808341,0.0,True,0.01136922836303711,-1.9499999284744263,0.19700005650520325,-0.4345163106918335,0.0,0.0,0.0
1759838807.3342903,2,-1.949999928474428,0.19700005650520178,-0.4342175978921219,0.0,True,0.010903120040893555,-1.9499999284744263,0.19700005650520325,-0.4345163106918335,0.0,0.0,0.0
1759838807.345503,2,-1.949999928474427,0.1970000565052027,-0.4342441027967432,0.0,True,0.011212825775146484,-1.9499999284744263,0.19700005650520325,-0.4345163106918335,0.0,0.0,0.0
1759838807.3560607,2,-1.9499999284744265,0.19700005650520303,-0.43427052901136065,0.0,True,0.01055765151977539,-1.9499999284744263,0.19700005650520325,-0.4345163106918335,0.0,0.0,0.0
1759838807.3673296,2,-1.9499999284744263,0.19700005650520316,-0.4342896871094801,0.0,True,0.011268854141235352,-1.9499999284744263,0.19700005650520325,-0.4345163106918335,0.0,0.0,0.0
1759838807.378102,2,-1.9499999284744263,0.19700005650520322,-0.43430874390212004,0.0,True,0.010772466659545898,-1.9499999284744263,0.19700005650520325,-0.4345163106918335,0.0,0.0,0.0
1759838807.393019,2,-1.9499999284744263,0.19700005650520325,-0.4343104840843104,0.0,True,0.01491689682006836,-1.9499999284744263,0.19700005650520325,-0.4345163106918335,0.0,0.0,0.0
1759838807.3998084,2,-1.9499999284744263,0.19700005650520325,-0.4343440093564208,0.0,True,0.006789445877075195,-1.9499999284744263,0.19700005650520325,-0.4345163106918335,0.0,0.0,0.0
1759838807.410987,2,-1.9499999284744263,0.19700005650520325,-0.43435493855728957,0.0,True,0.01117849349975586,-1.9499999284744263,0.19700005650520325,-0.4345163106918335,0.0,0.0,0.0
1759838807.4212754,2,-1.9499999284744263,0.19700005650520325,-0.4343665984512626,0.0,True,0.010288476943969727,-1.9499999284744263,0.19700005650520325,-0.4345163106918335,0.0,0.0,0.0
1759838807.4315126,2,-1.9499999284744263,0.19700005650520325,-0.4343768452601573,0.0,True,0.01023721694946289,-1.9499999284744263,0.19700005650520325,-0.4345163106918335,0.0,0.0,0.0
1759838807.4422405,2,-1.9499999284744263,0.19700005650520325,-0.43438434600131615,0.0,True,0.010727882385253906,-1.9499999284744263,0.19700005650520325,-0.4345163106918335,0.0,0.0,0.0
1759838807.4529378,2,-1.9499999284744263,0.19700005650520325,-0.434391330971188,0.0,True,0.010697364807128906,-1.9499999284744263,0.19700005650520325,-0.4345163106918335,0.0,0.0,0.0
1759838807.4634655,2,-1.9499999284744263,0.19700005650520325,-0.4343982637695749,0.0,True,0.010527610778808594,-1.9499999284744263,0.19700005650520325,-0.4345163106918335,0.0,0.0,0.0
1759838807.4742665,2,-1.9499999284744263,0.19700005650520325,-0.4344039585370201,0.0,True,0.010801076889038086,-1.9499999284744263,0.19700005650520325,-0.4345163106918335,0.0,0.0,0.0
1759838807.4856274,2,-1.9499999284744263,0.19700005650520325,-0.4344081044031185,0.0,True,0.011360883712768555,-1.9499999284744263,0.19700005650520325,-0.4345163106918335,0.0,0.0,0.0
1759838807.4957628,2,-1.9499999284744263,0.19700005650520325,-0.4344149999241349,0.0,True,0.010135412216186523,-1.9499999284744263,0.19700005650520325,-0.4345163106918335,0.0,0.0,0.0
1759838807.5071528,2,-1.9499999284744263,0.19700005650520325,-0.4344185674951273,0.0,True,0.011389970779418945,-1.9499999284744263,0.19700005650520325,-0.4345163106918335,0.0,0.0,0.0
1759838807.5186613,2,-1.9499999284744263,0.19700005650520325,-0.4344219814856949,0.0,True,0.011508464813232422,-1.9499999284744263,0.19700005650520325,-0.4345163106918335,0.0,0.0,0.0
1759838807.5292048,2,-1.9499999284744263,0.19700005650520325,-0.4344273718607674,0.0,True,0.010543584823608398,-1.9499999284744263,0.19700005650520325,-0.4345163106918335,0.0,0.0,0.0
1759838807.5399263,2,-1.9499999284744263,0.19700005650520325,-0.4344319311236102,0.0,True,0.010721445083618164,-1.9499999284744263,0.19700005650520325,-0.4345163106918335,0.0,0.0,0.0
1759838807.550372,2,-1.9499999284744263,0.19700005650520325,-0.43443648916419875,0.0,True,0.010445594787597656,-1.9499999284744263,0.19700005650520325,-0.4345163106918335,0.0,0.0,0.0
1759838807.5615714,2,-1.9499999284744263,0.19700005650520325,-0.43443933692023506,0.0,True,0.011199474334716797,-1.9499999284744263,0.19700005650520325,-0.4345163106918335,0.0,0.0,0.0
1759838807.5718002,2,-1.9499999284744263,0.19700005650520325,-0.4344436356467192,0.0,True,0.010228872299194336,-1.9499999284744263,0.19700005650520325,-0.4345163106918335,0.0,0.0,0.0
1759838807.5832138,2,-1.9499999284744263,0.19700005650520325,-0.4344457304954865,0.0,True,0.01141357421875,-1.9499999284744263,0.19700005650520325,-0.4345163106918335,0.0,0.0,0.0
1759838807.5976965,2,-1.9499999284744263,0.19700005650520325,-0.43444371793999714,0.0,True,0.014482736587524414,-1.9499999284744263,0.19700005650520325,-0.4345163106918335,0.0,0.0,0.0
1759838807.6081805,2,-1.9499999284744263,0.19700005650520325,-0.4344486161761232,0.0,True,0.010483980178833008,-1.9499999284744263,0.19700005650520325,-0.4345163106918335,0.0,0.0,0.0
1759838807.6187768,2,-1.9499999284744263,0.19700005650520325,-0.43445294723367844,0.0,True,0.010596275329589844,-1.9499999284744263,0.19700005650520325,-0.4345163106918335,0.0,0.0,0.0
1759838807.6290479,2,-1.9499999284744263,0.19700005650520325,-0.43445697378043135,0.0,True,0.010271072387695312,-1.9499999284744263,0.19700005650520325,-0.4345163106918335,0.0,0.0,0.0
1759838807.6404655,2,-1.9499999284744263,0.19700005650520325,-0.4344590028863422,0.0,True,0.011417627334594727,-1.9499999284744263,0.19700005650520325,-0.4345163106918335,0.0,0.0,0.0
1759838807.6518884,2,-1.9499999284744263,0.19700005650520325,-0.4344609582201038,0.0,True,0.011422872543334961,-1.9499999284744263,0.19700005650520325,-0.4345163106918335,0.0,0.0,0.0
1759838807.6633205,2,-1.9499999284744263,0.19700005650520325,-0.43446293828272786,0.0,True,0.011432170867919922,-1.9499999284744263,0.19700005650520325,-0.4345163106918335,0.0,0.0,0.0
1759838807.6744425,2,-1.9499999284744263,0.19700005650520325,-0.4344652411988914,0.0,True,0.011121988296508789,-1.9499999284744263,0.19700005650520325,-0.4345163106918335,0.0,0.0,0.0
1759838807.6855435,2,-1.9499999284744263,0.19700005650520325,-0.4344674327550635,0.0,True,0.011101007461547852,-1.9499999284744263,0.19700005650520325,-0.4345163106918335,0.0,0.0,0.0
1759838807.6965227,2,-1.9499999284744263,0.19700005650520325,-0.4344695886494563,0.0,True,0.010979175567626953,-1.9499999284744263,0.19700005650520325,-0.4345163106918335,0.0,0.0,0.0
1759838807.7077045,2,-1.9499999284744263,0.19700005650520325,-0.43447138957688125,0.0,True,0.011181831359863281,-1.9499999284744263,0.19700005650520325,-0.4345163106918335,0.0,0.0,0.0
1759838807.7180908,2,-1.9499999284744263,0.19700005650520325,-0.4344738008093181,0.0,True,0.010386228561401367,-1.9499999284744263,0.19700005650520325,-0.4345163106918335,0.0,0.0,0.0
1759838807.7287912,2,-1.9499999284744263,0.19700005650520325,-0.4344756516074746,0.0,True,0.010700464248657227,-1.9499999284744263,0.19700005650520325,-0.4345163106918335,0.0,0.0,0.0
1759838807.7387943,2,-1.9499999284744263,0.19700005650520325,-0.43447788322098724,0.0,True,0.010003089904785156,-1.9499999284744263,0.19700005650520325,-0.4345163106918335,0.0,0.0,0.0
1759838807.749793,2,-1.9499999284744263,0.19700005650520325,-0.43447901401437505,0.0,True,0.010998725891113281,-1.9499999284744263,0.19700005650520325,-0.4345163106918335,0.0,0.0,0.0
1759838807.7599938,2,-1.9499999284744263,0.19700005650520325,-0.4344807298133766,0.0,True,0.010200738906860352,-1.9499999284744263,0.19700005650520325,-0.4345163106918335,0.0,0.0,0.0
1759838807.7701588,2,-1.9499999284744263,0.19700005650520325,-0.4344823109706084,0.0,True,0.010164976119995117,-1.9499999284744263,0.19700005650520325,-0.4345163106918335,0.0,0.0,0.0
1759838807.7803574,2,-1.9499999284744263,0.19700005650520325,-0.4344836901488591,0.0,True,0.010198593139648438,-1.9499999284744263,0.19700005650520325,-0.4345163106918335,0.0,0.0,0.0
1759838807.7938662,2,-1.9499999284744263,0.19700005650520325,-0.4344826566366162,0.0,True,0.013508796691894531,-1.9499999284744263,0.19700005650520325,-0.4345163106918335,0.0,0.0,0.0
1759838807.8050811,2,-1.9499999284744263,0.19700005650520325,-0.4344837701372377,0.0,True,0.011214971542358398,-1.9499999284744263,0.19700005650520325,-0.4345163106918335,0.0,0.0,0.0
1759838807.8163507,2,-1.9499999284744263,0.19700005650520325,-0.43448497071417336,0.0,True,0.011269569396972656,-1.9499999284744263,0.19700005650520325,-0.4345163106918335,0.0,0.0,0.0
1759838807.8267963,2,-1.9499999284744263,0.19700005650520325,-0.4344866410874353,0.0,True,0.010445594787597656,-1.9499999284744263,0.19700005650520325,-0.4345163106918335,0.0,0.0,0.0
1759838807.8376195,2,-1.9499999284744263,0.19700005650520325,-0.4344878849898386,0.0,True,0.010823249816894531,-1.9499999284744263,0.19700005650520325,-0.4345163106918335,0.0,0.0,0.0
1759838807.8484485,2,-1.9499999284744263,0.19700005650520325,-0.4344890018843621,0.0,True,0.010828971862792969,-1.9499999284744263,0.19700005650520325,-0.4345163106918335,0.0,0.0,0.0
1759838807.8592849,2,-1.9499999284744263,0.19700005650520325,-0.4344900350032894,0.0,True,0.010836362838745117,-1.9499999284744263,0.19700005650520325,-0.4345163106918335,0.0,0.0,0.0
1759838807.8700328,2,-1.9499999284744263,0.19700005650520325,-0.434491052786246,0.0,True,0.010747909545898438,-1.9499999284744263,0.19700005650520325,-0.4345163106918335,0.0,0.0,0.0
1759838807.8800912,2,-1.9499999284744263,0.19700005650520325,-0.4344923575786659,0.0,True,0.010058403015136719,-1.9499999284744263,0.19700005650520325,-0.4345163106918335,0.0,0.0,0.0
1759838807.8913722,2,-1.9499999284744263,0.19700005650520325,-0.43449288652185203,0.0,True,0.011281013488769531,-1.9499999284744263,0.19700005650520325,-0.4345163106918335,0.0,0.0,0.0
1759838807.902215,2,-1.9499999284744263,0.19700005650520325,-0.43449365986806754,0.0,True,0.01084280014038086,-1.9499999284744263,0.19700005650520325,-0.4345163106918335,0.0,0.0,0.0
1759838807.913147,2,-1.9499999284744263,0.19700005650520325,-0.43449439068529294,0.0,True,0.010931968688964844,-1.9499999284744263,0.19700005650520325,-0.4345163106918335,0.0,0.0,0.0
1759838807.9245641,2,-1.9499999284744263,0.19700005650520325,-0.43449489627822935,0.0,True,0.011417150497436523,-1.9499999284744263,0.19700005650520325,-0.4345163106918335,0.0,0.0,0.0
1759838807.935718,2,-1.9499999284744263,0.19700005650520325,-0.4344955712576528,0.0,True,0.011153936386108398,-1.9499999284744263,0.19700005650520325,-0.4345163106918335,0.0,0.0,0.0
1759838807.9464567,2,-1.9499999284744263,0.19700005650520325,-0.43449643129539695,0.0,True,0.010738611221313477,-1.9499999284744263,0.19700005650520325,-0.4345163106918335,0.0,0.0,0.0
1759838807.9574728,2,-1.9499999284744263,0.19700005650520325,-0.43449711968417226,0.0,True,0.011016130447387695,-1.9499999284744263,0.19700005650520325,-0.4345163106918335,0.0,0.0,0.0
1759838807.9688072,2,-1.9499999284744263,0.19700005650520325,-0.4344976563387313,0.0,True,0.011334419250488281,-1.9499999284744263,0.19700005650520325,-0.4345163106918335,0.0,0.0,0.0
1759838807.979275,2,-1.9499999284744263,0.19700005650520325,-0.4344985342368197,0.0,True,0.010467767715454102,-1.9499999284744263,0.19700005650520325,-0.4345163106918335,0.0,0.0,0.0
1759838807.9894364,2,-1.9499999284744263,0.19700005650520325,-0.43449943871210905,0.0,True,0.010161399841308594,-1.9499999284744263,0.19700005650520325,-0.4345163106918335,0.0,0.0,0.0
1759838808.000766,2,-1.9499999284744263,0.19700005650520325,-0.4344998127644075,0.0,True,0.01132965087890625,-1.9499999284744263,0.19700005650520325,-0.4345163106918335,0.0,0.0,0.0
1759838808.0116222,2,-1.9499999284744263,0.19700005650520325,-0.43450036965066374,0.0,True,0.010856151580810547,-1.9499999284744263,0.19700005650520325,-0.4345163106918335,0.0,0.0,0.0
1759838808.02174,2,-1.9499999284744263,0.19700005650520325,-0.43450116056051513,0.0,True,0.010117769241333008,-1.9499999284744263,0.19700005650520325,-0.4345163106918335,0.0,0.0,0.0
1759838808.0324512,2,-1.9499999284744263,0.19700005650520325,-0.4345016711379195,0.0,True,0.010711193084716797,-1.9499999284744263,0.19700005650520325,-0.4345163106918335,0.0,0.0,0.0
1759838808.0432582,2,-1.9499999284744263,0.19700005650520325,-0.4345021194638061,0.0,True,0.010807037353515625,-1.9499999284744263,0.19700005650520325,-0.4345163106918335,0.0,0.0,0.0
1759838808.0539196,2,-1.9499999284744263,0.19700005650520325,-0.43450260596604195,0.0,True,0.01066136360168457,-1.9499999284744263,0.19700005650520325,-0.4345163106918335,0.0,0.0,0.0
1759838808.0643444,2,-1.9499999284744263,0.19700005650520325,-0.43450314232981135,0.0,True,0.01042485237121582,-1.9499999284744263,0.19700005650520325,-0.4345163106918335,0.0,0.0,0.0
1759838808.0756166,2,-1.9499999284744263,0.19700005650520325,-0.43450340598933934,0.0,True,0.011272192001342773,-1.9499999284744263,0.19700005650520325,-0.4345163106918335,0.0,0.0,0.0
1759838808.086296,2,-1.9499999284744263,0.19700005650520325,-0.4345038608416729,0.0,True,0.010679483413696289,-1.9499999284744263,0.19700005650520325,-0.4345163106918335,0.0,0.0,0.0
1759838808.097008,2,-1.9499999284744263,0.19700005650520325,-0.4345042971020341,0.0,True,0.010711908340454102,-1.9499999284744263,0.19700005650520325,-0.4345163106918335,0.0,0.0,0.0
1759838808.1078403,2,-1.9499999284744263,0.19700005650520325,-0.43450468338780013,0.0,True,0.01083230972290039,-1.9499999284744263,0.19700005650520325,-0.4345163106918335,0.0,0.0,0.0
1759838808.1179419,2,-1.9499999284744263,0.19700005650520325,-0.43450523549648246,0.0,True,0.010101556777954102,-1.9499999284744263,0.19700005650520325,-0.4345163106918335,0.0,0.0,0.0
1759838808.1286492,2,-1.9499999284744263,0.19700005650520325,-0.43450558595428923,0.0,True,0.010707378387451172,-1.9499999284744263,0.19700005650520325,-0.4345163106918335,0.0,0.0,0.0
1759838808.1389463,2,-1.9499999284744263,0.19700005650520325,-0.4345060112341308,0.0,True,0.010297060012817383,-1.9499999284744263,0.19700005650520325,-0.4345163106918335,0.0,0.0,0.0
1759838808.1493416,2,-1.9499999284744263,0.19700005650520325,-0.4345063824513957,0.0,True,0.010395288467407227,-1.9499999284744263,0.19700005650520325,-0.4345163106918335,0.0,0.0,0.0
1759838808.1604686,2,-1.9499999284744263,0.19700005650520325,-0.4345065740985401,0.0,True,0.011126995086669922,-1.9499999284744263,0.19700005650520325,-0.4345163106918335,0.0,0.0,0.0
1759838808.1717036,2,-1.9499999284744263,0.19700005650520325,-0.4345067717742417,0.0,True,0.01123499870300293,-1.9499999284744263,0.19700005650520325,-0.4345163106918335,0.0,0.0,0.0
1759838808.1818414,2,-1.9499999284744263,0.19700005650520325,-0.4345072198357727,0.0,True,0.010137796401977539,-1.9499999284744263,0.19700005650520325,-0.4345163106918335,0.0,0.0,0.0
1759838808.1924758,2,-1.9499999284744263,0.19700005650520325,-0.43450753214245097,0.0,True,0.010634422302246094,-1.9499999284744263,0.19700005650520325,-0.4345163106918335,0.0,0.0,0.0
1759838808.2032804,2,-1.9499999284744263,0.19700005650520325,-0.43450779276342466,0.0,True,0.01080465316772461,-1.9499999284744263,0.19700005650520325,-0.4345163106918335,0.0,0.0,0.0
1759838808.213982,2,-1.9499999284744263,0.19700005650520325,-0.43450807069099895,0.0,True,0.010701656341552734,-1.9499999284744263,0.19700005650520325,-0.4345163106918335,0.0,0.0,0.0
1759838808.2242296,2,-1.9499999284744263,0.19700005650520325,-0.4345084204781706,0.0,True,0.010247468948364258,-1.9499999284744263,0.19700005650520325,-0.4345163106918335,0.0,0.0,0.0
1759838808.2351816,2,-1.9499999284744263,0.19700005650520325,-0.43450862192094775,0.0,True,0.010951995849609375,-1.9499999284744263,0.19700005650520325,-0.4345163106918335,0.0,0.0,0.0
1759838808.2454352,2,-1.9499999284744263,0.19700005650520325,-0.4345089399141262,0.0,True,0.010253667831420898,-1.9499999284744263,0.19700005650520325,-0.4345163106918335,0.0,0.0,0.0
1759838808.2559953,2,-1.9499999284744263,0.19700005650520325,-0.4345091862991506,0.0,True,0.010560035705566406,-1.9499999284744263,0.19700005650520325,-0.4345163106918335,0.0,0.0,0.0
1759838808.2667553,2,-1.9499999284744263,0.19700005650520325,-0.43450938974228137,0.0,True,0.010760068893432617,-1.9499999284744263,0.19700005650520325,-0.4345163106918335,0.0,0.0,0.0
1759838808.2768896,2,-1.9499999284744263,0.19700005650520325,-0.43450968515596244,0.0,True,0.010134220123291016,-1.9499999284744263,0.19700005650520325,-0.4345163106918335,0.0,0.0,0.0
1759838808.287587,2,-1.9499999284744263,0.19700005650520325,-0.4345098753709742,0.0,True,0.010697364807128906,-1.9499999284744263,0.19700005650520325,-0.4345163106918335,0.0,0.0,0.0
1759838808.2979507,2,-1.9499999284744263,0.19700005650520325,-0.4345101075414277,0.0,True,0.01036381721496582,-1.9499999284744263,0.19700005650520325,-0.4345163106918335,0.0,0.0,0.0
1759838808.3088572,2,-1.9499999284744263,0.19700005650520325,-0.43451025646587915,0.0,True,0.010906457901000977,-1.9499999284744263,0.19700005650520325,-0.4345163106918335,0.0,0.0,0.0
1759838808.3198147,2,-1.9499999284744263,0.19700005650520325,-0.43451040742593783,0.0,True,0.010957479476928711,-1.9499999284744263,0.19700005650520325,-0.4345163106918335,0.0,0.0,0.0
1759838808.330168,2,-1.9499999284744263,0.19700005650520325,-0.4345106439998929,0.0,True,0.010353326797485352,-1.9499999284744263,0.19700005650520325,-0.4345163106918335,0.0,0.0,0.0
1759838808.3404698,2,-1.9499999284744263,0.19700005650520325,-0.43451087105039754,0.0,True,0.010301828384399414,-1.9499999284744263,0.19700005650520325,-0.4345163106918335,0.0,0.0,0.0
1759838808.3511295,2,-1.9499999284744263,0.19700005650520325,-0.43451103650011547,0.0,True,0.01065969467163086,-1.9499999284744263,0.19700005650520325,-0.4345163106918335,0.0,0.0,0.0
1759838808.362016,2,-1.9499999284744263,0.19700005650520325,-0.4345111725620612,0.0,True,0.010886430740356445,-1.9499999284744263,0.19700005650520325,-0.4345163106918335,0.0,0.0,0.0
1759838808.3721974,2,-1.9499999284744263,0.19700005650520325,-0.4345113906721707,0.0,True,0.010181427001953125,-1.9499999284744263,0.19700005650520325,-0.4345163106918335,0.0,0.0,0.0
1759838808.3836005,2,-1.9499999284744263,0.19700005650520325,-0.4345114643602308,0.0,True,0.011403083801269531,-1.9499999284744263,0.19700005650520325,-0.4345163106918335,0.0,0.0,0.0
1759838808.3949258,2,-1.9499999284744263,0.19700005650520325,-0.43451156512355027,0.0,True,0.011325359344482422,-1.9499999284744263,0.19700005650520325,-0.4345163106918335,0.0,0.0,0.0
1759838808.4060335,2,-1.9499999284744263,0.19700005650520325,-0.43451170629936975,0.0,True,0.011107683181762695,-1.9499999284744263,0.19700005650520325,-0.4345163106918335,0.0,0.0,0.0
1759838808.4167478,2,-1.9499999284744263,0.19700005650520325,-0.4345118892543507,0.0,True,0.010714292526245117,-1.9499999284744263,0.19700005650520325,-0.4345163106918335,0.0,0.0,0.0
1759838808.4274917,2,-1.9499999284744263,0.19700005650520325,-0.43451205836120543,0.0,True,0.010743856430053711,-1.9499999284744263,0.19700005650520325,-0.4345163106918335,0.0,0.0,0.0
1759838808.4385455,2,-1.9499999284744263,0.19700005650520325,-0.43451218902796995,0.0,True,0.011053800582885742,-1.9499999284744263,0.19700005650520325,-0.4345163106918335,0.0,0.0,0.0
1759838808.449364,2,-1.9499999284744263,0.19700005650520325,-0.43451233816790946,0.0,True,0.0108184814453125,-1.9499999284744263,0.19700005650520325,-0.4345163106918335,0.0,0.0,0.0
1759838808.4605258,2,-1.9499999284744263,0.19700005650520325,-0.4345124535487237,0.0,True,0.01116180419921875,-1.9499999284744263,0.19700005650520325,-0.4345163106918335,0.0,0.0,0.0
1759838808.470865,2,-1.9499999284744263,0.19700005650520325,-0.43451263445946786,0.0,True,0.01033926010131836,-1.9499999284744263,0.19700005650520325,-0.4345163106918335,0.0,0.0,0.0
1759838808.4811244,2,-1.9499999284744263,0.19700005650520325,-0.4345128034006116,0.0,True,0.010259389877319336,-1.9499999284744263,0.19700005650520325,-0.4345163106918335,0.0,0.0,0.0
1759838808.4915004,2,-1.9499999284744263,0.19700005650520325,-0.43451294319737954,0.0,True,0.0103759765625,-1.9499999284744263,0.19700005650520325,-0.4345163106918335,0.0,0.0,0.0
1759838808.5027187,2,-1.9499999284744263,0.19700005650520325,-0.4345130098951202,0.0,True,0.01121830940246582,-1.9499999284744263,0.19700005650520325,-0.4345163106918335,0.0,0.0,0.0
1759838808.5134873,2,-1.9499999284744263,0.19700005650520325,-0.43451311576061613,0.0,True,0.010768651962280273,-1.9499999284744263,0.19700005650520325,-0.4345163106918335,0.0,0.0,0.0
1759838808.5237482,2,-1.9499999284744263,0.19700005650520325,-0.43451325545488295,0.0,True,0.010260820388793945,-1.9499999284744263,0.19700005650520325,-0.4345163106918335,0.0,0.0,0.0
1759838808.5340602,2,-1.9499999284744263,0.19700005650520325,-0.4345133786756392,0.0,True,0.010312080383300781,-1.9499999284744263,0.19700005650520325,-0.4345163106918335,0.0,0.0,0.0
1759838808.5443122,2,-1.9499999284744263,0.19700005650520325,-0.4345134935644168,0.0,True,0.010251998901367188,-1.9499999284744263,0.19700005650520325,-0.4345163106918335,0.0,0.0,0.0
1759838808.5545802,2,-1.9499999284744263,0.19700005650520325,-0.4345135971906551,0.0,True,0.010267972946166992,-1.9499999284744263,0.19700005650520325,-0.4345163106918335,0.0,0.0,0.0
1759838808.5658014,2,-1.9499999284744263,0.19700005650520325,-0.4345136376575578,0.0,True,0.011221170425415039,-1.9499999284744263,0.19700005650520325,-0.4345163106918335,0.0,0.0,0.0
1759838808.5771286,2,-1.9499999284744263,0.19700005650520325,-0.4345136830394214,0.0,True,0.011327266693115234,-1.9499999284744263,0.19700005650520325,-0.4345163106918335,0.0,0.0,0.0
1759838808.5883405,2,-1.9499999284744263,0.19700005650520325,-0.434513747873277,0.0,True,0.011211872100830078,-1.9499999284744263,0.19700005650520325,-0.4345163106918335,0.0,0.0,0.0
1759838808.59864,2,-1.9499999284744263,0.19700005650520325,-0.43451386721927676,0.0,True,0.010299444198608398,-1.9499999284744263,0.19700005650520325,-0.4345163106918335,0.0,0.0,0.0
1759838808.609522,2,-1.9499999284744263,0.19700005650520325,-0.43451394615644645,0.0,True,0.010882139205932617,-1.9499999284744263,0.19700005650520325,-0.4345163106918335,0.0,0.0,0.0
1759838808.6202059,2,-1.9499999284744263,0.19700005650520325,-0.4345140312617026,0.0,True,0.010683774948120117,-1.9499999284744263,0.19700005650520325,-0.4345163106918335,0.0,0.0,0.0
1759838808.6316602,2,-1.9499999284744263,0.19700005650520325,-0.43451407630384686,0.0,True,0.011454343795776367,-1.9499999284744263,0.19700005650520325,-0.4345163106918335,0.0,0.0,0.0
1759838808.642875,2,-1.9499999284744263,0.19700005650520325,-0.4345141393277956,0.0,True,0.011214733123779297,-1.9499999284744263,0.19700005650520325,-0.4345163106918335,0.0,0.0,0.0
1759838808.6541653,2,-1.9499999284744263,0.19700005650520325,-0.4345142028356399,0.0,True,0.011290311813354492,-1.9499999284744263,0.19700005650520325,-0.4345163106918335,0.0,0.0,0.0
1759838808.664473,2,-1.9499999284744263,0.19700005650520325,-0.43451430965566473,0.0,True,0.010307788848876953,-1.9499999284744263,0.19700005650520325,-0.4345163106918335,0.0,0.0,0.0
1759838808.6747258,2,-1.9499999284744263,0.19700005650520325,-0.4345144067395452,0.0,True,0.010252714157104492,-1.9499999284744263,0.19700005650520325,-0.4345163106918335,0.0,0.0,0.0
1759838808.6862226,2,-1.9499999284744263,0.19700005650520325,-0.43451444192964317,0.0,True,0.011496782302856445,-1.9499999284744263,0.19700005650520325,-0.4345163106918335,0.0,0.0,0.0
1759838808.6964555,2,-1.9499999284744263,0.19700005650520325,-0.4345145300812927,0.0,True,0.010232925415039062,-1.9499999284744263,0.19700005650520325,-0.4345163106918335,0.0,0.0,0.0
1759838808.7075973,2,-1.9499999284744263,0.19700005650520325,-0.4345145769817087,0.0,True,0.011141777038574219,-1.9499999284744263,0.19700005650520325,-0.4345163106918335,0.0,0.0,0.0
1759838808.7178195,2,-1.9499999284744263,0.19700005650520325,-0.43451465702051806,0.0,True,0.010222196578979492,-1.9499999284744263,0.19700005650520325,-0.4345163106918335,0.0,0.0,0.0
1759838808.7291965,2,-1.9499999284744263,0.19700005650520325,-0.43451468975496965,0.0,True,0.011377096176147461,-1.9499999284744263,0.19700005650520325,-0.4345163106918335,0.0,0.0,0.0
1759838808.7402713,2,-1.9499999284744263,0.19700005650520325,-0.43451473635615656,0.0,True,0.01107478141784668,-1.9499999284744263,0.19700005650520325,-0.4345163106918335,0.0,0.0,0.0
1759838808.7508066,2,-1.9499999284744263,0.19700005650520325,-0.43451480227650485,0.0,True,0.010535240173339844,-1.9499999284744263,0.19700005650520325,-0.4345163106918335,0.0,0.0,0.0
1759838808.7613246,2,-1.9499999284744263,0.19700005650520325,-0.4345148637184302,0.0,True,0.010518074035644531,-1.9499999284744263,0.19700005650520325,-0.4345163106918335,0.0,0.0,0.0
1759838808.772569,2,-1.9499999284744263,0.19700005650520325,-0.434514897915383,0.0,True,0.01124429702758789,-1.9499999284744263,0.19700005650520325,-0.4345163106918335,0.0,0.0,0.0
1759838808.784049,2,-1.9499999284744263,0.19700005650520325,-0.43451492760848964,0.0,True,0.011480093002319336,-1.9499999284744263,0.19700005650520325,-0.4345163106918335,0.0,0.0,0.0
1759838808.7943277,2,-1.9499999284744263,0.19700005650520325,-0.434514995574542,0.0,True,0.010278701782226562,-1.9499999284744263,0.19700005650520325,-0.4345163106918335,0.0,0.0,0.0
1759838808.810294,2,-1.9499999284744263,0.19700005650520325,-0.43451490638399903,0.0,True,0.015966176986694336,-1.9499999284744263,0.19700005650520325,-0.4345163106918335,0.0,0.0,0.0
1759838808.8216128,2,-1.9499999284744263,0.19700005650520325,-0.43451497615112444,0.0,True,0.01131892204284668,-1.9499999284744263,0.19700005650520325,-0.4345163106918335,0.0,0.0,0.0
1759838808.8329318,2,-1.9499999284744263,0.19700005650520325,-0.43451504710063915,0.0,True,0.01131892204284668,-1.9499999284744263,0.19700005650520325,-0.4345163106918335,0.0,0.0,0.0
1759838808.843282,2,-1.9499999284744263,0.19700005650520325,-0.43451513191172353,0.0,True,0.010350227355957031,-1.9499999284744263,0.19700005650520325,-0.4345163106918335,0.0,0.0,0.0
1759838808.8545802,2,-1.9499999284744263,0.19700005650520325,-0.4345151808077681,0.0,True,0.011298179626464844,-1.9499999284744263,0.19700005650520325,-0.4345163106918335,0.0,0.0,0.0
1759838808.8659399,2,-1.9499999284744263,0.19700005650520325,-0.4345152228279012,0.0,True,0.011359691619873047,-1.9499999284744263,0.19700005650520325,-0.4345163106918335,0.0,0.0,0.0
1759838808.8766549,2,-1.9499999284744263,0.19700005650520325,-0.4345152762262465,0.0,True,0.010715007781982422,-1.9499999284744263,0.19700005650520325,-0.4345163106918335,0.0,0.0,0.0
1759838808.8869467,2,-1.9499999284744263,0.19700005650520325,-0.4345153323176696,0.0,True,0.010291814804077148,-1.9499999284744263,0.19700005650520325,-0.4345163106918335,0.0,0.0,0.0
1759838808.8982868,2,-1.9499999284744263,0.19700005650520325,-0.4345153595254452,0.0,True,0.011340141296386719,-1.9499999284744263,0.19700005650520325,-0.4345163106918335,0.0,0.0,0.0
1759838808.9084346,2,-1.9499999284744263,0.19700005650520325,-0.4345154090362815,0.0,True,0.010147809982299805,-1.9499999284744263,0.19700005650520325,-0.4345163106918335,0.0,0.0,0.0
1759838808.9187455,2,-1.9499999284744263,0.19700005650520325,-0.4345154496083605,0.0,True,0.010310888290405273,-1.9499999284744263,0.19700005650520325,-0.4345163106918335,0.0,0.0,0.0
1759838808.9294918,2,-1.9499999284744263,0.19700005650520325,-0.43451547717463157,0.0,True,0.010746240615844727,-1.9499999284744263,0.19700005650520325,-0.4345163106918335,0.0,0.0,0.0
1759838808.9405055,2,-1.9499999284744263,0.19700005650520325,-0.43451549874152917,0.0,True,0.01101374626159668,-1.9499999284744263,0.19700005650520325,-0.4345163106918335,0.0,0.0,0.0
1759838808.9520147,2,-1.9499999284744263,0.19700005650520325,-0.43451551295448,0.0,True,0.011509180068969727,-1.9499999284744263,0.19700005650520325,-0.4345163106918335,0.0,0.0,0.0
1759838808.9634562,2,-1.9499999284744263,0.19700005650520325,-0.43451553168308266,0.0,True,0.011441469192504883,-1.9499999284744263,0.19700005650520325,-0.4345163106918335,0.0,0.0,0.0
1759838808.9737544,2,-1.9499999284744263,0.19700005650520325,-0.43451557062817514,0.0,True,0.01029825210571289,-1.9499999284744263,0.19700005650520325,-0.4345163106918335,0.0,0.0,0.0
1759838808.9846675,2,-1.9499999284744263,0.19700005650520325,-0.4345155962243048,0.0,True,0.01091313362121582,-1.9499999284744263,0.19700005650520325,-0.4345163106918335,0.0,0.0,0.0
1759838808.9947681,2,-1.9499999284744263,0.19700005650520325,-0.43451563191452536,0.0,True,0.010100603103637695,-1.9499999284744263,0.19700005650520325,-0.4345163106918335,0.0,0.6,0.0
1759838809.0097823,2,-1.9499999284744263,0.19700005650520325,-0.4345155947016597,0.0,True,0.015014171600341797,-1.9499999284744263,0.19700005650520325,-0.4345163106918335,0.0,0.6,0.0
1759838809.018603,2,-1.9499999284744263,0.19700005650520325,-0.4345156579767995,0.0,True,0.008820772171020508,-1.9499999284744263,0.19700005650520325,-0.4345163106918335,0.0,0.6,0.0
1759838809.0313253,2,-1.9499999284744263,0.19700005650520325,-0.43451566188548796,0.0,True,0.012722253799438477,-1.9499999284744263,0.19700005650520325,-0.4345163106918335,0.0,0.6,0.0
1759838809.0419815,2,-1.9499999284744263,0.19700005650520325,-0.43451569459843853,0.0,True,0.010656118392944336,-1.9499999284744263,0.19700005650520325,-0.4345163106918335,0.0,0.6,0.0
1759838809.0521178,2,-1.9499999284744263,0.19700005650520325,-0.43451573097354057,0.0,True,0.01013636589050293,-1.9499999284744263,0.19700005650520325,-0.4345163106918335,0.0,0.6,0.0
1759838809.0630615,2,-1.9499999284744263,0.19700005650520325,-0.4345157521277425,0.0,True,0.01094365119934082,-1.9499999284744263,0.19700005650520325,-0.4345163106918335,0.0,0.6,0.0
1759838809.0732536,2,-1.9499999284744263,0.19700005650520325,-0.43451577981437595,0.0,True,0.010192155838012695,-1.9499999284744263,0.19700005650520325,-0.4345163106918335,0.0,0.6,0.0
1759838809.0834963,2,-1.9499999284744263,0.19700005650520325,-0.43451580355309893,0.0,True,0.010242700576782227,-1.9499999284744263,0.19700005650520325,-0.4345163106918335,0.0,0.6,0.0
1759838809.094535,2,-1.9499999284744263,0.19700005650520325,-0.43451581586251464,0.0,True,0.011038780212402344,-1.9499999284744263,0.19700005650520325,-0.4345163106918335,0.0,0.6,0.0
1759838809.1053004,2,-1.9499999284744263,0.19700005650520325,-0.43451583133822425,0.0,True,0.010765314102172852,-1.9499999284744263,0.19700005650520325,-0.4345163106918335,0.0,0.6,0.0
1759838809.1160998,2,-1.9499999284744263,0.19700005650520325,-0.434515846431065,0.0,True,0.010799407958984375,-1.9499999284744263,0.19700005650520325,-0.4345163106918335,0.0,0.6,0.0
1759838809.126893,2,-1.9499999284744263,0.19700005650520325,-0.43451586133661735,0.0,True,0.010793209075927734,-1.9499999284744263,0.19700005650520325,-0.4345163106918335,0.0,0.6,0.0
1759838809.1391373,2,-1.9499999284744263,0.19700005650520325,-0.43451586255542907,0.0,True,0.012244224548339844,-1.9499999284744263,0.19700005650520325,-0.4345163106918335,0.0,0.6,0.0
1759838809.14932,2,-1.9499999284744263,0.19700005650520325,-0.43451588593110557,0.0,True,0.010182619094848633,-1.9499999284744263,0.19700005650520325,-0.4345163106918335,0.0,0.6,0.0
1759838809.1601412,2,-1.9499999284744263,0.19700005650520325,-0.4345159016902578,0.0,True,0.010821342468261719,-1.9499999284744263,0.19700005650520325,-0.4345163106918335,0.0,0.6,0.0
1759838809.171243,2,-1.9499999284744263,0.19700005650520325,-0.4345159137729855,0.0,True,0.011101722717285156,-1.9499999284744263,0.19700005650520325,-0.4345163106918335,0.0,0.6,0.0
1759838809.1814413,2,-1.9499999284744263,0.19700005650520325,-0.4345159331156623,0.0,True,0.010198354721069336,-1.9499999284744263,0.19700005650520325,-0.4345163106918335,0.0,0.6,0.0
1759838809.1923401,2,-1.9499999284744263,0.19700005650520325,-0.4345159448588962,0.0,True,0.010898828506469727,-1.9499999284744263,0.19700005650520325,-0.4345163106918335,0.0,0.6,0.0
1759838809.2038403,2,-1.9499999284744263,0.19700005650520325,-0.43451595158053635,0.0,True,0.011500120162963867,-1.9499999284744263,0.19700005650520325,-0.4345163106918335,0.0,0.6,0.0
1759838809.2178366,2,-1.9499999284744263,0.19700005650520325,-0.4345159417926734,0.0,True,0.013996362686157227,-1.9499999284744263,0.19700005650520325,-0.4345163106918335,0.0,0.6,0.0
1759838809.2291424,2,-1.9499999284744263,0.19700005650520325,-0.4345159575976254,0.0,True,0.011305809020996094,-1.9499999284744263,0.19700005650520325,-0.4345163106918335,0.0,0.6,0.0
1759838809.240049,2,-1.9499999284744263,0.19700005650520325,-0.434515976242567,0.0,True,0.010906457901000977,-1.9499999284744263,0.19700005650520325,-0.4345163106918335,0.0,0.6,0.0
1759838809.2501647,2,-1.9499999284744263,0.19700005650520325,-0.43451599765090343,0.0,True,0.010115861892700195,-1.9499999284744263,0.19700005650520325,-0.4345163106918335,0.0,0.6,0.0
1759838809.2608147,2,-1.9499999284744263,0.19700005650520325,-0.43451601211265256,0.0,True,0.010649919509887695,-1.9499999284744263,0.19700005650520325,-0.4345163106918335,0.0,0.6,0.0
1759838809.2716782,2,-1.9499999284744263,0.19700005650520325,-0.43451602326663163,0.0,True,0.010863542556762695,-1.9499999284744263,0.19700005650520325,-0.4345163106918335,0.0,0.6,0.0
1759838809.284053,2,-1.9499999284744263,0.19700005650520325,-0.4345160248299642,0.0,True,0.0123748779296875,-1.9499999284744263,0.19700005650520325,-0.4345163106918335,0.0,0.6,0.0
1759838809.2961035,2,-1.9499999284744263,0.19700005650520325,-0.43451603043759945,0.0,True,0.012050390243530273,-1.9499999284744263,0.19700005650520325,-0.4345163106918335,0.0,0.6,0.0
1759838809.3067954,2,-1.9499999284744263,0.19700005650520325,-0.43451604489980866,0.0,True,0.01069188117980957,-1.9499999284744263,0.19700005650520325,-0.4345163106918335,0.0,0.6,0.0
1759838809.3174233,2,-1.9499999284744263,0.19700005650520325,-0.43451605827121575,0.0,True,0.010627985000610352,-1.9499999284744263,0.19700005650520325,-0.4345163106918335,0.0,0.6,0.0
1759838809.3283286,2,-1.9499999284744263,0.19700005650520325,-0.4345160684598124,0.0,True,0.010905265808105469,-1.9499999284744263,0.19700005650520325,-0.4345163106918335,0.0,0.6,0.0
1759838809.3388786,2,-1.9499999284744263,0.19700005650520325,-0.4345160793964844,0.0,True,0.01055002212524414,-1.9499999284744263,0.19700005650520325,-0.4345163106918335,0.0,0.6,0.0
1759838809.3495295,2,-1.9499999284744263,0.19700005650520325,-0.4345160886890902,0.0,True,0.010650873184204102,-1.9499999284744263,0.19700005650520325,-0.4345163106918335,0.0,0.6,0.0
1759838809.359828,2,-1.9499999284744263,0.19700005650520325,-0.4345160987091923,0.0,True,0.010298490524291992,-1.9499999284744263,0.19700005650520325,-0.4345163106918335,0.0,0.6,0.0
1759838809.3701293,2,-1.9499999284744263,0.19700005650520325,-0.43451610758746995,0.0,True,0.010301351547241211,-1.9499999284744263,0.19700005650520325,-0.4345163106918335,0.0,0.6,0.0
1759838809.3811996,2,-1.9499999284744263,0.19700005650520325,-0.43451611222078057,0.0,True,0.01107025146484375,-1.9499999284744263,0.19700005650520325,-0.4345163106918335,0.0,0.6,0.0
1759838809.3920846,2,-1.9499999284744263,0.19700005650520325,-0.43451611787851085,0.0,True,0.010885000228881836,-1.9499999284744263,0.19700005650520325,-0.4345163106918335,0.0,0.6,0.0
1759838809.4027057,2,-1.9499999284744263,0.19700005650520325,-0.4345161247490168,0.0,True,0.010621070861816406,-1.9499999284744263,0.19700005650520325,-0.4345163106918335,0.0,0.6,0.0
1759838809.4196246,2,-1.9499999284744263,0.19700005650520325,-0.43451610750291536,0.0,True,0.01691889762878418,-1.9499999284744263,0.19700005650520325,-0.4345163106918335,0.0,0.6,0.0
1759838809.4305754,2,-1.9499999284744263,0.19700005650520325,-0.43451611927838485,0.0,True,0.010950803756713867,-1.9499999284744263,0.19700005650520325,-0.4345163106918335,0.0,0.6,0.0
1759838809.4412851,2,-1.9499999284744263,0.19700005650520325,-0.434516131757956,0.0,True,0.010709762573242188,-1.9499999284744263,0.19700005650520325,-0.4345163106918335,0.0,0.6,0.0
1759838809.4519236,2,-1.9499999284744263,0.19700005650520325,-0.43451614238106195,0.0,True,0.01063847541809082,-1.9499999284744263,0.19700005650520325,-0.4345163106918335,0.0,0.6,0.0
1759838809.462516,2,-1.9499999284744263,0.19700005650520325,-0.4345161513707154,0.0,True,0.010592460632324219,-1.9499999284744263,0.19700005650520325,-0.4345163106918335,0.0,0.6,0.0
1759838809.4740188,2,-1.9499999284744263,0.19700005650520325,-0.43451615613864547,0.0,True,0.011502742767333984,-1.9499999284744263,0.19700005650520325,-0.4345163106918335,0.0,0.6,0.0
1759838809.4842968,2,-1.9499999284744263,0.19700005650520325,-0.4345161645018578,0.0,True,0.010277986526489258,-1.9499999284744263,0.19700005650520325,-0.4345163106918335,0.0,0.6,0.0
1759838809.49554,2,-1.9499999284744263,0.19700005650520325,-0.4345161689830377,0.0,True,0.011243104934692383,-1.9499999284744263,0.19700005650520325,-0.4345163106918335,0.0,0.6,0.0
1759838809.5057483,2,-1.9499999284744263,0.19700005650520325,-0.4345161762120924,0.0,True,0.010208368301391602,-1.9499999284744263,0.19700005650520325,-0.4345163106918335,0.0,0.6,0.0
1759838809.5164013,2,-1.9499999284744263,0.19700005650520325,-0.4345161813523042,0.0,True,0.010653018951416016,-1.9499999284744263,0.19700005650520325,-0.4345163106918335,0.0,0.6,0.0
1759838809.5270753,2,-1.9499999284744263,0.19700005650520325,-0.4345161859431421,0.0,True,0.010673999786376953,-1.9499999284744263,0.19700005650520325,-0.4345163106918335,0.0,0.6,0.0
1759838809.5378287,2,-1.9499999284744263,0.19700005650520325,-0.4345161900503669,0.0,True,0.010753393173217773,-1.9499999284744263,0.19700005650520325,-0.4345163106918335,0.0,0.6,0.0
1759838809.5491161,2,-1.9499999284744263,0.19700005650520325,-0.43451619267461794,0.0,True,0.011287450790405273,-1.9499999284744263,0.19700005650520325,-0.4345163106918335,0.0,0.6,0.0
1759838809.5596945,2,-1.9499999284744263,0.19700005650520325,-0.43451619728749336,0.0,True,0.010578393936157227,-1.9499999284744263,0.19700005650520325,-0.4345163106918335,0.0,0.6,0.0
1759838809.570343,2,-1.9499999284744263,0.19700005650520325,-0.43451620148488956,0.0,True,0.010648488998413086,-1.9499999284744263,0.19700005650520325,-0.4345163106918335,0.0,0.6,0.0
1759838809.5821364,2,-1.9499999284744263,0.19700005650520325,-0.4345162028215839,0.0,True,0.011793375015258789,-1.9499999284744263,0.19700005650520325,-0.4345163106918335,0.0,0.6,0.0
1759838809.5935996,2,-1.9499999284744263,0.19700005650520325,-0.4345162054431668,0.0,True,0.011463165283203125,-1.9499999284744263,0.19700005650520325,-0.4345163106918335,0.0,0.6,0.0
1759838809.6037202,2,-1.9499999284744263,0.19700005650520325,-0.43451621121197803,0.0,True,0.010120630264282227,-1.9499999284744263,0.19700005650520325,-0.4345163106918335,0.0,0.6,0.0
1759838809.6196532,2,-1.9499999284744263,0.19700005650520325,-0.43451620467371477,0.0,True,0.01593303680419922,-1.9499999284744263,0.19700005650520325,-0.4345163106918335,0.0,0.6,0.0
1759838809.6300504,2,-1.9499999284744263,0.19700005650520325,-0.434516211694703,0.0,True,0.010397195816040039,-1.9499999284744263,0.19700005650520325,-0.4345163106918335,0.0,0.6,0.0
1759838809.6413946,2,-1.9499999284744263,0.19700005650520325,-0.43451621648149263,0.0,True,0.011344194412231445,-1.9499999284744263,0.19700005650520325,-0.4345163106918335,0.0,0.6,0.0
1759838809.6543002,2,-1.9499999284744263,0.19700005650520325,-0.43451621788715933,0.0,True,0.012905597686767578,-1.9499999284744263,0.19700005650520325,-0.4345163106918335,0.0,0.6,0.0
1759838809.6653347,2,-1.9499999284744263,0.19700005650520325,-0.43451622296217707,0.0,True,0.011034488677978516,-1.9499999284744263,0.19700005650520325,-0.4345163106918335,0.0,0.6,0.0
1759838809.6753397,2,-1.9499999284744263,0.19700005650520325,-0.4345162292324183,0.0,True,0.010004997253417969,-1.9499999284744263,0.19700005650520325,-0.4345163106918335,0.0,0.6,0.0
1759838809.6855147,2,-1.9499999284744263,0.19700005650520325,-0.434516234087825,0.0,True,0.010174989700317383,-1.9499999284744263,0.19700005650520325,-0.4345163106918335,0.0,0.6,0.0
1759838809.6988027,2,-1.9499999284744263,0.19700005650520325,-0.4345162332751702,0.0,True,0.013288021087646484,-1.9499999284744263,0.19700005650520325,-0.4345163106918335,0.0,0.6,0.0
1759838809.7095568,2,-1.9499999284744263,0.19700005650520325,-0.43451623707574427,0.0,True,0.010754108428955078,-1.9499999284744263,0.19700005650520325,-0.4345163106918335,0.0,0.6,0.0
1759838809.720444,2,-1.9499999284744263,0.19700005650520325,-0.43451624047705373,0.0,True,0.01088714599609375,-1.9499999284744263,0.19700005650520325,-0.4345163106918335,0.0,0.6,0.0
1759838809.7319543,2,-1.9499999284744263,0.19700005650520325,-0.4345162426291793,0.0,True,0.011510372161865234,-1.9499999284744263,0.19700005650520325,-0.4345163106918335,0.0,0.6,0.0
1759838809.7433977,2,-1.9499999284744263,0.19700005650520325,-0.43451624483762075,0.0,True,0.011443376541137695,-1.9499999284744263,0.19700005650520325,-0.4345163106918335,0.0,0.6,0.0
1759838809.7543864,2,-1.9499999284744263,0.19700005650520325,-0.4345162476232698,0.0,True,0.010988712310791016,-1.9499999284744263,0.19700005650520325,-0.4345163106918335,0.0,0.6,0.0
1759838809.765467,2,-1.9499999284744263,0.19700005650520325,-0.4345162500843962,0.0,True,0.011080503463745117,-1.9499999284744263,0.19700005650520325,-0.4345163106918335,0.0,0.6,0.0
1759838809.7758436,2,-1.9499999284744263,0.19700005650520325,-0.4345162532047766,0.0,True,0.010376691818237305,-1.9499999284744263,0.19700005650520325,-0.4345163106918335,0.0,0.6,0.0
1759838809.7861638,2,-1.9499999284744263,0.19700005650520325,-0.4345162559907756,0.0,True,0.010320186614990234,-1.9499999284744263,0.19700005650520325,-0.4345163106918335,0.0,0.6,0.0
1759838809.7988791,2,-1.9499999284744263,0.19700005650520325,-0.4345162557159501,0.0,True,0.012715339660644531,-1.9499999284744263,0.19700005650520325,-0.4345163106918335,0.0,0.6,0.0
1759838809.8101633,2,-1.9499999284744263,0.19700005650520325,-0.4345162575247734,0.0,True,0.011284112930297852,-1.9499999284744263,0.19700005650520325,-0.4345163106918335,0.0,0.6,0.0
1759838809.8298326,2,-1.9499999284744263,0.19700005650520325,-0.4345162509682474,0.0,True,0.019669294357299805,-1.9499999284744263,0.19700005650520325,-0.4345163106918335,0.0,0.6,0.0
1759838809.8394752,2,-1.9499999284744263,0.19700005650520325,-0.4345162568734331,0.0,True,0.009642601013183594,-1.9499999284744263,0.19700005650520325,-0.4345163106918335,0.0,0.6,0.0
1759838809.8507466,2,-1.9499999284744263,0.19700005650520325,-0.43451626056766024,0.0,True,0.011271476745605469,-1.9499999284744263,0.19700005650520325,-0.4345163106918335,0.0,0.6,0.0
1759838809.8627691,2,-1.9499999284744263,0.19700005650520325,-0.43451626283175493,0.0,True,0.01202249526977539,-1.9499999284744263,0.19700005650520325,-0.4345163106918335,0.0,0.6,0.0
1759838809.8738773,2,-1.9499999284744263,0.19700005650520325,-0.43451626562385925,0.0,True,0.011108160018920898,-1.9499999284744263,0.19700005650520325,-0.4345163106918335,0.0,0.6,0.0
1759838809.88591,2,-1.9499999284744263,0.19700005650520325,-0.43451626726174375,0.0,True,0.012032747268676758,-1.9499999284744263,0.19700005650520325,-0.4345163106918335,0.0,0.6,0.0
1759838809.8969948,2,-1.9499999284744263,0.19700005650520325,-0.43451626955713785,0.0,True,0.011084794998168945,-1.9499999284744263,0.19700005650520325,-0.4345163106918335,0.0,0.6,0.0
1759838809.9093297,2,-1.9499999284744263,0.19700005650520325,-0.4345162706227157,0.0,True,0.012334823608398438,-1.9499999284744263,0.19700005650520325,-0.4345163106918335,0.0,0.6,0.0
1759838809.919613,2,-1.9499999284744263,0.19700005650520325,-0.43451627325809206,0.0,True,0.010283231735229492,-1.9499999284744263,0.19700005650520325,-0.4345163106918335,0.0,0.6,0.0
1759838809.9311879,2,-1.9499999284744263,0.19700005650520325,-0.43451627457671904,0.0,True,0.011574983596801758,-1.9499999284744263,0.19700005650520325,-0.4345163106918335,0.0,0.6,0.0
1759838809.9421847,2,-1.9499999284744263,0.19700005650520325,-0.43451627618494193,0.0,True,0.010996818542480469,-1.9499999284744263,0.19700005650520325,-0.4345163106918335,0.0,0.6,0.0
1759838809.9536858,2,-1.9499999284744263,0.19700005650520325,-0.4345162773083526,0.0,True,0.011501073837280273,-1.9499999284744263,0.19700005650520325,-0.4345163106918335,0.0,0.6,0.0
1759838809.9642794,2,-1.9499999284744263,0.19700005650520325,-0.4345162789834198,0.0,True,0.010593652725219727,-1.9499999284744263,0.19700005650520325,-0.4345163106918335,0.0,0.6,0.0
1759838809.9745605,2,-1.9499999284744263,0.19700005650520325,-0.4345162806626668,0.0,True,0.010281085968017578,-1.9499999284744263,0.19700005650520325,-0.4345163106918335,0.0,0.6,0.0
1759838809.9894297,2,-1.9499999284744263,0.19700005650520325,-0.4345162793259263,0.0,True,0.014869213104248047,-1.9499999284744263,0.19700005650520325,-0.4345163106918335,0.0,0.6,0.0
1759838810.0004904,2,-1.9499999284744263,0.19700005650520325,-0.434516280868781,0.0,True,0.011060714721679688,-1.9499999284744263,0.19700005650520325,-0.4345163106918335,0.0,0.6,0.0
1759838810.014973,2,-1.9499999284744263,0.19700005650520325,-0.4345162805035869,0.0,True,0.014482498168945312,-1.9499999284744263,0.19700005650520325,-0.4345163106918335,0.0,0.6,0.0
1759838810.02945,2,-1.9499999284744263,0.19700005650520325,-0.43451628058618397,0.0,True,0.014477014541625977,-1.9499999284744263,0.19700005650520325,-0.4345163106918335,0.0,0.6,0.0
1759838810.0396008,2,-1.9499999284744263,0.19700005650520325,-0.43451628325554736,0.0,True,0.010150909423828125,-1.9499999284744263,0.19700005650520325,-0.4345163106918335,0.0,0.6,0.0
1759838810.0510306,2,-1.9499999284744263,0.19700005650520325,-0.43451628486241134,0.0,True,0.011429786682128906,-1.9499999284744263,0.19700005650520325,-0.4345163106918335,0.0,0.6,0.0
1759838810.0635643,2,-1.9499999284744263,0.19700005650520325,-0.4345162856603242,0.0,True,0.01253366470336914,-1.9499999284744263,0.19700005650520325,-0.4345163106918335,0.0,0.6,0.0
1759838810.0750127,2,-1.9499999284744263,0.19700005650520325,-0.43451628693855504,0.0,True,0.011448383331298828,-1.9499999284744263,0.19700005650520325,-0.4345163106918335,0.0,0.6,0.0
1759838810.0888724,2,-1.9499999284744263,0.19700005650520325,-0.4345162870519417,0.0,True,0.013859748840332031,-1.9499999284744263,0.19700005650520325,-0.4345163106918335,0.0,0.6,0.0
1759838810.0994322,2,-1.9499999284744263,0.19700005650520325,-0.43451628873526715,0.0,True,0.010559797286987305,-1.9499999284744263,0.19700005650520325,-0.4345163106918335,0.0,0.6,0.0
1759838810.1132026,2,-1.9499999284744263,0.19700005650520325,-0.4345162889095313,0.0,True,0.013770341873168945,-1.9499999284744263,0.19700005650520325,-0.4345163106918335,0.0,0.6,0.0
1759838810.1239417,2,-1.9499999284744263,0.19700005650520325,-0.4345162903818167,0.0,True,0.01073908805847168,-1.9499999284744263,0.19700005650520325,-0.4345163106918335,0.0,0.6,0.0
1759838810.1377788,2,-1.9499999284744263,0.19700005650520325,-0.43451629052329466,0.0,True,0.013837099075317383,-1.9499999284744263,0.19700005650520325,-0.4345163106918335,0.0,0.6,0.0
1759838810.1488554,2,-1.9499999284744263,0.19700005650520325,-0.43451629177868867,0.0,True,0.011076688766479492,-1.9499999284744263,0.19700005650520325,-0.4345163106918335,0.0,0.6,0.0
1759838810.1595433,2,-1.9499999284744263,0.19700005650520325,-0.43451629302480477,0.0,True,0.010687828063964844,-1.9499999284744263,0.19700005650520325,-0.4345163106918335,0.0,0.6,0.0
1759838810.1697237,2,-1.9499999284744263,0.19700005650520325,-0.4345162942186054,0.0,True,0.010180473327636719,-1.9499999284744263,0.19700005650520325,-0.4345163106918335,0.0,0.6,0.0
1759838810.1827424,2,-1.9499999284744263,0.19700005650520325,-0.4345162942778167,0.0,True,0.013018608093261719,-1.9499999284744263,0.19700005650520325,-0.4345163106918335,0.0,0.6,0.0
1759838810.1935916,2,-1.9499999284744263,0.19700005650520325,-0.4345162951124575,0.0,True,0.010849237442016602,-1.9499999284744263,0.19700005650520325,-0.4345163106918335,0.0,0.6,0.0
1759838810.206309,2,-1.9499999284744263,0.19700005650520325,-0.4345162953258743,0.0,True,0.012717485427856445,-1.9499999284744263,0.19700005650520325,-0.4345163106918335,0.0,0.6,0.0
1759838810.2175198,2,-1.9499999284744263,0.19700005650520325,-0.43451629604330577,0.0,True,0.01121068000793457,-1.9499999284744263,0.19700005650520325,-0.4345163106918335,0.0,0.6,0.0
1759838810.2401316,2,-1.9499999284744263,0.19700005650520325,-0.4345162936686293,0.0,True,0.02261185646057129,-1.9499999284744263,0.19700005650520325,-0.4345163106918335,0.0,0.6,0.0
1759838810.249425,2,-1.9499999284744263,0.19700005650520325,-0.4345162956495816,0.0,True,0.009293317794799805,-1.9499999284744263,0.19700005650520325,-0.4345163106918335,0.0,0.6,0.0
1759838810.2595909,2,-1.9499999284744263,0.19700005650520325,-0.434516297153948,0.0,True,0.010165929794311523,-1.9499999284744263,0.19700005650520325,-0.4345163106918335,0.0,0.0,0.0
1759838810.2739997,2,-1.9499999284744263,0.19700005650520325,-0.43451629728358654,0.0,True,0.01440882682800293,-1.9499999284744263,0.19700005650520325,-0.4345163106918335,0.0,0.0,0.0
1759838810.2848413,2,-1.9499999284744263,0.19700005650520325,-0.4345162982811175,0.0,True,0.010841608047485352,-1.9499999284744263,0.19700005650520325,-0.4345163106918335,0.0,0.0,0.0
1759838810.2959552,2,-1.9499999284744263,0.19700005650520325,-0.43451629907544387,0.0,True,0.011113882064819336,-1.9499999284744263,0.19700005650520325,-0.4345163106918335,0.0,0.6,0.0
1759838810.308577,2,-1.9499999284744263,0.19700005650520325,-0.434516299407413,0.0,True,0.012621879577636719,-1.9499999284744263,0.19700005650520325,-0.4345163106918335,0.0,0.6,0.0
1759838810.3194926,2,-1.9499999284744263,0.19700005650520325,-0.4345163000834624,0.0,True,0.010915517807006836,-1.9499999284744263,0.19700005650520325,-0.4345163106918335,0.0,0.0,0.0
1759838810.3319936,2,-1.9499999284744263,0.19700005650520325,-0.43451630035951005,0.0,True,0.012501001358032227,-1.9499999284744263,0.19700005650520325,-0.4345163106918335,0.0,0.0,0.0
1759838810.3421328,2,-1.9499999284744263,0.19700005650520325,-0.43451630108821426,0.0,True,0.010139226913452148,-1.9499999284744263,0.19700005650520325,-0.4345163106918335,0.0,0.0,0.0
1759838810.3562946,2,-1.9499999284744263,0.19700005650520325,-0.43451630096710403,0.0,True,0.014161825180053711,-1.9499999284744263,0.19700005650520325,-0.4345163106918335,0.0,0.0,0.0
1759838810.3667035,2,-1.9499999284744263,0.19700005650520325,-0.4345163016173519,0.0,True,0.010408878326416016,-1.9499999284744263,0.19700005650520325,-0.4345163106918335,0.0,0.6,0.0
1759838810.37905,2,-1.9499999284744263,0.19700005650520325,-0.4345163018634892,0.0,True,0.012346506118774414,-1.9499999284744263,0.19700005650520325,-0.4345163106918335,0.0,0.0,0.0
1759838810.3903024,2,-1.9499999284744263,0.19700005650520325,-0.4345163022854166,0.0,True,0.011252403259277344,-1.9499999284744263,0.19700005650520325,-0.4345163106918335,0.0,0.0,0.0
1759838810.4023254,2,-1.9499999284744263,0.19700005650520325,-0.4345163025479799,0.0,True,0.012022972106933594,-1.9499999284744263,0.19700005650520325,-0.4345163106918335,0.0,0.0,0.0
1759838810.412756,2,-1.9499999284744263,0.19700005650520325,-0.43451630304825173,0.0,True,0.010430574417114258,-1.9499999284744263,0.19700005650520325,-0.4345163106918335,0.0,0.0,0.0
1759838810.4241636,2,-1.9499999284744263,0.19700005650520325,-0.434516303332412,0.0,True,0.011407613754272461,-1.9499999284744263,0.19700005650520325,-0.4345163106918335,0.0,0.0,0.0
1759838810.438059,2,-1.9499999284744263,0.19700005650520325,-0.4345163032382189,0.0,True,0.013895511627197266,-1.9499999284744263,0.19700005650520325,-0.4345163106918335,0.0,0.0,0.0
1759838810.4481187,2,-1.9499999284744263,0.19700005650520325,-0.4345163037667028,0.0,True,0.010059595108032227,-1.9499999284744263,0.19700005650520325,-0.4345163106918335,0.0,0.0,0.0
1759838810.4584084,2,-1.9499999284744263,0.19700005650520325,-0.43451630419717446,0.0,True,0.010289669036865234,-1.9499999284744263,0.19700005650520325,-0.4345163106918335,0.0,0.0,0.0
1759838810.4706109,2,-1.9499999284744263,0.19700005650520325,-0.434516304302516,0.0,True,0.01220250129699707,-1.9499999284744263,0.19700005650520325,-0.4345163106918335,0.0,0.0,0.0
1759838810.4813547,2,-1.9499999284744263,0.19700005650520325,-0.43451630460472224,0.0,True,0.010743856430053711,-1.9499999284744263,0.19700005650520325,-0.4345163106918335,0.0,0.0,0.0
1759838810.4930546,2,-1.9499999284744263,0.19700005650520325,-0.43451630476738146,0.0,True,0.011699914932250977,-1.9499999284744263,0.19700005650520325,-0.4345163106918335,0.0,0.0,0.0
1759838810.516498,2,-1.9499999284744263,0.19700005650520325,-0.43451630363127336,0.0,True,0.02344346046447754,-1.9499999284744263,0.19700005650520325,-0.4345163106918335,0.0,0.0,0.0
1759838810.5272052,2,-1.9499999284744263,0.19700005650520325,-0.43451630429809285,0.0,True,0.01070713996887207,-1.9499999284744263,0.19700005650520325,-0.4345163106918335,0.0,0.0,0.0
1759838810.538274,2,-1.9499999284744263,0.19700005650520325,-0.43451630487685655,0.0,True,0.01106882095336914,-1.9499999284744263,0.19700005650520325,-0.4345163106918335,0.0,0.0,0.0
1759838810.5494835,2,-1.9499999284744263,0.19700005650520325,-0.4345163053128598,0.0,True,0.011209487915039062,-1.9499999284744263,0.19700005650520325,-0.4345163106918335,0.0,0.0,0.0
1759838810.560363,2,-1.9499999284744263,0.19700005650520325,-0.434516305689435,0.0,True,0.0108795166015625,-1.9499999284744263,0.19700005650520325,-0.4345163106918335,0.0,0.0,0.0
1759838810.5722392,2,-1.9499999284744263,0.19700005650520325,-0.43451630590292645,0.0,True,0.011876106262207031,-1.9499999284744263,0.19700005650520325,-0.4345163106918335,0.0,0.0,0.0
1759838810.5822487,2,-1.9499999284744263,0.19700005650520325,-0.4345163062550519,0.0,True,0.010009527206420898,-1.9499999284744263,0.19700005650520325,-0.4345163106918335,0.0,0.0,0.0
1759838810.594017,2,-1.9499999284744263,0.19700005650520325,-0.4345163063946025,0.0,True,0.011768341064453125,-1.9499999284744263,0.19700005650520325,-0.4345163106918335,0.0,0.0,0.0
1759838810.6055112,2,-1.9499999284744263,0.19700005650520325,-0.43451630654537965,0.0,True,0.011494159698486328,-1.9499999284744263,0.19700005650520325,-0.4345163106918335,0.0,0.0,0.0
1759838810.6169825,2,-1.9499999284744263,0.19700005650520325,-0.43451630669327557,0.0,True,0.011471271514892578,-1.9499999284744263,0.19700005650520325,-0.4345163106918335,0.0,0.0,0.0
1759838810.6281269,2,-1.9499999284744263,0.19700005650520325,-0.43451630686012876,0.0,True,0.011144399642944336,-1.9499999284744263,0.19700005650520325,-0.4345163106918335,0.0,0.0,0.0
1759838810.6420798,2,-1.9499999284744263,0.19700005650520325,-0.43451630680671194,0.0,True,0.013952970504760742,-1.9499999284744263,0.19700005650520325,-0.4345163106918335,0.0,0.0,0.0
1759838810.6558073,2,-1.9499999284744263,0.19700005650520325,-0.4345163068241362,0.0,True,0.013727426528930664,-1.9499999284744263,0.19700005650520325,-0.4345163106918335,0.0,0.0,0.0
1759838810.6664178,2,-1.9499999284744263,0.19700005650520325,-0.43451630709916245,0.0,True,0.010610580444335938,-1.9499999284744263,0.19700005650520325,-0.4345163106918335,0.0,0.0,0.0
1759838810.677522,2,-1.9499999284744263,0.19700005650520325,-0.4345163073045022,0.0,True,0.011104106903076172,-1.9499999284744263,0.19700005650520325,-0.4345163106918335,0.0,0.0,0.0
1759838810.688836,2,-1.9499999284744263,0.19700005650520325,-0.43451630746207925,0.0,True,0.011314153671264648,-1.9499999284744263,0.19700005650520325,-0.4345163106918335,0.0,0.0,0.0
1759838810.6995115,2,-1.9499999284744263,0.19700005650520325,-0.43451630763916427,0.0,True,0.010675430297851562,-1.9499999284744263,0.19700005650520325,-0.4345163106918335,0.0,0.0,0.0
1759838810.7099378,2,-1.9499999284744263,0.19700005650520325,-0.43451630780566575,0.0,True,0.01042628288269043,-1.9499999284744263,0.19700005650520325,-0.4345163106918335,0.0,0.0,0.0
1759838810.7211812,2,-1.9499999284744263,0.19700005650520325,-0.43451630789917317,0.0,True,0.011243343353271484,-1.9499999284744263,0.19700005650520325,-0.4345163106918335,0.0,0.0,0.0
