timestamp,observer_vehicle_id,vehicle_0_x,vehicle_0_y,vehicle_0_theta,vehicle_0_velocity,vehicle_1_x,vehicle_1_y,vehicle_1_theta,vehicle_1_velocity
1759837375.1528192,0,-1.205,-0.83,-0.7801621756414646,0.0,0.0,0.0,0.0,0.0
1759837375.1636434,0,-1.205,-0.83,-0.7801621756414646,0.0,0.0,0.0,0.0,0.0
1759837375.1752303,0,-1.205,-0.83,-0.7801621756414646,0.0,0.0,0.0,0.0,0.0
1759837375.1866608,0,-1.205,-0.83,-0.7801621756414646,0.0,0.0,0.0,0.0,0.0
1759837375.1981823,0,-1.205,-0.83,-0.7801621756414646,0.0,0.0,0.0,0.0,0.0
1759837375.208314,0,-1.205,-0.83,-0.7801621756414646,0.0,0.0,0.0,0.0,0.0
1759837375.2186208,0,-1.205,-0.83,-0.7801621756414646,0.0,0.0,0.0,0.0,0.0
1759837375.2299867,0,-1.205,-0.83,-0.7801621756414646,0.0,0.0,0.0,0.0,0.0
1759837375.2407572,0,-1.205,-0.83,-0.7801621756414646,0.0,0.0,0.0,0.0,0.0
1759837375.2516656,0,-1.205,-0.83,-0.7801621756414646,0.0,0.0,0.0,0.0,0.0
1759837375.2629974,0,-1.205,-0.83,-0.7801621756414646,0.0,0.0,0.0,0.0,0.0
1759837375.2741075,0,-1.205,-0.83,-0.7801621756414646,0.0,0.0,0.0,0.0,0.0
1759837375.2841997,0,-1.205,-0.83,-0.7801621756414646,0.0,0.0,0.0,0.0,0.0
1759837375.295519,0,-1.205,-0.83,-0.7801621756414646,0.0,0.0,0.0,0.0,0.0
1759837375.3069098,0,-1.205,-0.83,-0.7801621756414646,0.0,0.0,0.0,0.0,0.0
1759837375.3184578,0,-1.205,-0.83,-0.7801621756414646,0.0,0.0,0.0,0.0,0.0
1759837375.329909,0,-1.205,-0.83,-0.7801621756414646,0.0,0.0,0.0,0.0,0.0
1759837375.341197,0,-1.205,-0.83,-0.7801621756414646,0.0,0.0,0.0,0.0,0.0
1759837375.35125,0,-1.2050000425577163,-0.8299997470180194,-0.7229997346257591,0.0,0.0,0.0,0.0,0.0
1759837375.3615124,0,-1.205000042795803,-0.8299997456027273,-0.7181192747417846,0.0,0.0,0.0,0.0,0.0
1759837375.3716748,0,-1.2050000428705006,-0.8299997451586908,-0.7176608016436319,0.0,0.0,0.0,0.0,0.0
1759837375.381678,0,-1.2050000428982601,-0.829999744993676,-0.7176001565255934,0.0,0.0,0.0,0.0,0.0
1759837375.393042,0,-1.2050000429088212,-0.8299997449308965,-0.7175874968286973,0.0,0.0,0.0,0.0,0.0
1759837375.404229,0,-1.205000042912853,-0.8299997449069307,-0.717593610760785,0.0,0.0,0.0,0.0,0.0
1759837375.4152856,0,-1.2050000429143926,-0.8299997448977774,-0.7176057446659456,0.0,0.0,0.0,0.0,0.0
1759837375.4264162,0,-1.2050000429149808,-0.8299997448942812,-0.7176181410187485,0.0,0.0,0.0,0.0,0.0
1759837375.436514,0,-1.2050000429152055,-0.8299997448929457,-0.7176305673519803,0.0,0.0,0.0,0.0,0.0
1759837375.4474363,0,-1.2050000429152912,-0.8299997448924357,-0.7176393889593147,0.0,0.0,0.0,0.0,0.0
1759837375.458258,0,-1.205000042915324,-0.8299997448922408,-0.7176469209099672,0.0,0.0,0.0,0.0,0.0
1759837375.4690676,0,-1.2050000429153365,-0.8299997448921663,-0.7176532570974086,0.0,0.0,0.0,0.0,0.0
1759837375.4803693,0,-1.2050000429153414,-0.8299997448921379,-0.7176581740719641,0.0,-0.34307829070091256,-0.0692088770866394,1.7430372826893408,0.0
1759837375.4916165,0,-1.2050000429153431,-0.829999744892127,-0.7176625338170233,0.0,-0.6151853679895221,-0.12410079469529262,-3.1362430553201133,0.0
1759837375.5029233,0,-1.2050000429153438,-0.8299997448921229,-0.7176663014889115,0.0,-0.8315658779735364,-0.16775104166613125,-0.7839556850842884,0.0
1759837375.513263,0,-1.205000042915344,-0.8299997448921214,-0.7176701863055861,0.0,-1.004267173444068,-0.20258991971494164,1.1136648598459866,0.0
1759837375.5246239,0,-1.2050000429153442,-0.8299997448921207,-0.7176727665812148,0.0,-1.1499678742090218,-0.2319819919153646,2.6334643389194743,0.0
1759837375.5361187,0,-1.2050000429153442,-0.8299997448921205,-0.7176749881836049,0.0,-1.2652723614551167,-0.25524226311774684,-2.4252498133364537,0.0
1759837375.5526977,0,-1.2050000429153442,-0.8299997448921204,-0.7176746413856314,0.0,-1.3562938729601424,-0.27360395131760795,-0.20941416891745734,0.0
1759837375.5633285,0,-1.2050000429153442,-0.8299997448921204,-0.7176778848221872,0.0,-1.4288724903378365,-0.2882451709615232,1.5781284503558395,0.0
1759837375.5733707,0,-1.2050000429153442,-0.8299997448921204,-0.717680827932778,0.0,-1.4869266564724037,-0.29995638603189695,3.027701505801532,0.0
1759837375.5846,0,-1.2050000429153442,-0.8299997448921204,-0.7176826134447261,0.0,-1.5361624285950082,-0.30988867435634165,-2.113888510392858,0.0
1759837375.5956836,0,-1.2050000429153442,-0.8299997448921204,-0.7176841378151178,0.0,-1.5751854795624678,-0.31776075956591565,0.045076786318350125,0.0
1759837375.6068685,0,-1.2050000429153442,-0.8299997448921204,-0.7176854108499615,0.0,-1.6061925228002352,-0.32401578269745374,1.7820386849612257,0.0
1759837375.616899,0,-1.2050000429153442,-0.8299997448921204,-0.7176869078878454,0.0,-1.6309252116084614,-0.32900508591525157,-3.0961734877827674,0.0
1759837375.6276891,0,-1.2050000429153442,-0.8299997448921204,-0.7176879013688549,0.0,-1.6506843110572187,-0.3329910713948279,-0.7596537983167371,0.0
1759837375.6390638,0,-1.2050000429153442,-0.8299997448921204,-0.7176885876482544,0.0,-1.6674168232767295,-0.336366506136516,1.133626991299595,0.0
1759837375.6503456,0,-1.2050000429153442,-0.8299997448921204,-0.7176892799216149,0.0,-1.6806762647817808,-0.3390413214257194,2.655362016974735,0.0
1759837375.6617875,0,-1.2050000429153442,-0.8299997448921204,-0.7176899073048428,0.0,-1.6912099641302225,-0.341166275184771,-2.3969252853296625,0.0
1759837375.6723115,0,-1.2050000429153442,-0.8299997448921204,-0.7176907552970171,0.0,-1.6996089461807018,-0.34286059433040084,-0.18989279108790288,0.0
1759837375.6825895,0,-1.2050000429153442,-0.8299997448921204,-0.7176915601779434,0.0,-1.7063242435208401,-0.34421526526356994,1.5949131558736769,0.0
1759837375.6937282,0,-1.2050000429153442,-0.8299997448921204,-0.7176920426472009,0.0,-1.7120223739547493,-0.3453647281366495,1.1353718541868767,0.0
1759837375.7045422,0,-1.2050000429153442,-0.8299997448921204,-0.7176925730767287,0.0,-1.7165385305285046,-0.3462757557747067,0.7711540647563987,0.0
1759837375.7158012,0,-1.2050000429153442,-0.8299997448921204,-0.7176929740343088,0.0,-1.7201254753802229,-0.3469993369532452,0.4818750941613736,0.0
1759837375.726779,0,-1.2050000429153442,-0.8299997448921204,-0.7176934309846033,0.0,-1.722982834187255,-0.34757574142517605,0.25143558407999694,0.0
1759837375.7368095,0,-1.2050000429153442,-0.8299997448921204,-0.7176940543386916,0.0,-1.7252671860703008,-0.34803655532002564,0.06720778339670472,0.0
1759837375.7502122,0,-1.2050000429153442,-0.8299997448921204,-0.7176939521475045,0.0,-1.7271966433022883,-0.34842577762356686,-0.08839856823400438,0.0
1759837375.7607982,0,-1.2050000429153442,-0.8299997448921204,-0.7176944950314841,0.0,-1.7287270704988245,-0.3487345050672036,-0.21182405211691174,0.0
1759837375.772096,0,-1.2050000429153442,-0.8299997448921204,-0.7176948789504163,0.0,-1.7299431618118821,-0.34897982269038674,-0.30989905960478215,0.0
1759837375.7835212,0,-1.2050000429153442,-0.8299997448921204,-0.717695214760738,0.0,-1.7309119345071384,-0.3491752496393775,-0.38802838124463446,0.0
1759837375.7948694,0,-1.2050000429153442,-0.8299997448921204,-0.7176955535742611,0.0,-1.7316858266716917,-0.3493313640564199,-0.45044102988245405,0.0
1759837375.8054435,0,-1.2050000429153442,-0.8299997448921204,-0.7176959970886472,0.0,-1.7323422773276727,-0.34946378743033363,-0.503382287096816,0.0
1759837375.8167186,0,-1.2050000429153442,-0.8299997448921204,-0.7176962841523817,0.0,-1.7328627008763184,-0.3495687705567087,-0.5453532664815675,0.0
1759837375.8267248,0,-1.2050000429153442,-0.8299997448921204,-0.7176967337666387,0.0,-1.733276931988185,-0.3496523318737912,-0.5787600665810432,0.0
1759837375.83761,0,-1.2050000429153442,-0.8299997448921204,-0.7176969980566152,0.0,-1.733607121609205,-0.34971893981034874,-0.6053891109679524,0.0
1759837375.848974,0,-1.2050000429153442,-0.8299997448921204,-0.7176971761009128,0.0,-1.7338708639068106,-0.3497721435729994,-0.6266593293592817,0.0
1759837375.8592403,0,-1.2050000429153442,-0.8299997448921204,-0.7176975031173463,0.0,-1.7340945558406515,-0.34981726812322517,-0.6446995767082148,0.0
1759837375.8698778,0,-1.2050000429153442,-0.8299997448921204,-0.7176977504063888,0.0,-1.734271997749549,-0.3498530628262022,-0.6590098643954369,0.0
1759837375.8813658,0,-1.2050000429153442,-0.8299997448921204,-0.7176978749158156,0.0,-1.7344129852257077,-0.3498815037106806,-0.6703801847254124,0.0
1759837375.892121,0,-1.2050000429153442,-0.8299997448921204,-0.7176980992878601,0.0,-1.7345253979413209,-0.34990418031392057,-0.6794460153970944,0.0
1759837375.9026344,0,-1.2050000429153442,-0.8299997448921204,-0.7176983413398865,0.0,-1.734615278061548,-0.34992231149965375,-0.6866946433328839,0.0
1759837375.9136195,0,-1.2050000429153442,-0.8299997448921204,-0.7176985107888392,0.0,-1.7346918154510793,-0.34993775110544884,-0.6928672102863476,0.0
1759837375.9249425,0,-1.2050000429153442,-0.8299997448921204,-0.7176986413125448,0.0,-1.7347524200509765,-0.34994997664825234,-0.6977548338758611,0.0
1759837375.9358134,0,-1.2050000429153442,-0.8299997448921204,-0.7176988256966599,0.0,-1.7348005602641472,-0.3499596877962128,-0.7016372329329765,0.0
1759837375.9471278,0,-1.2050000429153442,-0.8299997448921204,-0.7176989621666738,0.0,-1.7348388806632413,-0.34996741802923415,-0.7047276862465834,0.0
1759837375.9578462,0,-1.2050000429153442,-0.8299997448921204,-0.7176991563383179,0.0,-1.7348694849823598,-0.3499735917258511,-0.7071958552027237,0.0
1759837375.9685004,0,-1.2050000429153442,-0.8299997448921204,-0.7176993427542335,0.0,-1.7348953846634037,-0.3499788163731507,-0.7092846057636536,0.0
1759837375.9786565,0,-1.2050000429153442,-0.8299997448921204,-0.717699554378413,0.0,-1.7349159238726999,-0.3499829596722209,-0.7109410464304816,0.0
1759837375.9889832,0,-1.2050000429153442,-0.8299997448921204,-0.7176997248628324,0.0,-1.7349322487644627,-0.3499862528325313,-0.7122576119422063,0.0
1759837376.000506,0,-1.2050000429153442,-0.8299997448921204,-0.7176997813375614,0.0,-1.7349452397931477,-0.34998887346491764,-0.7133053089546518,0.0
1759837376.0120564,0,-1.2050000429153442,-0.8299997448921204,-0.7176998518381765,0.0,-1.7349556055937447,-0.34999096451970724,-0.7141412872732592,0.0
1759837376.023127,0,-1.2050000429153442,-0.8299997448921204,-0.7176999759878946,0.0,-1.7349643832860797,-0.34999273521126434,-0.7148491882608313,0.0
1759837376.0344803,0,-1.2050000429153442,-0.8299997448921204,-0.7177000812013983,0.0,-1.734971336277024,-0.34999413781252803,-0.7154099312178821,0.0
1759837376.045987,0,-1.2050000429153442,-0.8299997448921204,-0.7177001788056501,0.0,-1.7349768578819866,-0.3499952516655677,-0.7158552361404913,0.0
1759837376.0573359,0,-1.2050000429153442,-0.8299997448921204,-0.7177002920117417,0.0,-1.7349812554375947,-0.3499961387682696,-0.7162098890309123,0.0
1759837376.0681725,0,-1.2050000429153442,-0.8299997448921204,-0.7177004373436002,0.0,-1.7349847690411067,-0.3499968475545697,-0.7164932531887128,0.0
1759837376.079681,0,-1.2050000429153442,-0.8299997448921204,-0.7177005294607071,0.0,-1.7349877419593616,-0.34999744727042365,-0.7167330123062996,0.0
1759837376.0900114,0,-1.2050000429153442,-0.8299997448921204,-0.717700690873734,0.0,-1.7349901010670439,-0.34999792316453066,-0.7169232689927194,0.0
1759837376.1003587,0,-1.2050000429153442,-0.8299997448921204,-0.717700831847095,0.0,-1.7349919776780633,-0.34999830172636226,-0.7170746134171117,0.0
1759837376.1104305,0,-1.2050000429153442,-0.8299997448921204,-0.7177009683756168,0.0,-1.7349934745771758,-0.34999860369030894,-0.7171953349370307,0.0
1759837376.1213841,0,-1.2050000429153442,-0.8299997448921204,-0.7177010385680552,0.0,-1.734994670335684,-0.34999884490627026,-0.7172917701498897,0.0
1759837376.131905,0,-1.2050000429153442,-0.8299997448921204,-0.7177011299440945,0.0,-1.7349956837897873,-0.34999904934663517,-0.7173735029257966,0.0
1759837376.1424773,0,-1.2050000429153442,-0.8299997448921204,-0.7177012142287449,0.0,-1.7349964874203136,-0.34999921146006246,-0.7174383139058964,0.0
1759837376.1532266,0,-1.2050000429153442,-0.8299997448921204,-0.7177012853500528,0.0,-1.7349971261592843,-0.3499993403105233,-0.7174898267558427,0.0
1759837376.1638854,0,-1.2050000429153442,-0.8299997448921204,-0.7177013594688333,0.0,-1.7349976351835144,-0.3499994429941072,-0.717530878406031,0.0
1759837376.174953,0,-1.2050000429153442,-0.8299997448921204,-0.7177014131274486,0.0,-1.7349980416834554,-0.34999952499584364,-0.7175636617047247,0.0
1759837376.1857665,0,-1.2050000429153442,-0.8299997448921204,-0.717701481074851,0.0,-1.7349983853083792,-0.3499995943140344,-0.7175913742758223,0.0
1759837376.1961458,0,-1.2050000429153442,-0.8299997448921204,-0.7177015668698878,0.0,-1.7349986579588443,-0.3499996493148088,-0.7176133629177293,0.0
1759837376.2067828,0,-1.2050000429153442,-0.8299997448921204,-0.7177016348865592,0.0,-1.7349988747724814,-0.34999969305182554,-0.7176308484460366,0.0
1759837376.2176218,0,-1.2050000429153442,-0.8299997448921204,-0.7177016909371475,0.0,-1.7349990475833177,-0.3499997279123193,-0.7176447852482221,0.0
1759837376.228422,0,-1.2050000429153442,-0.8299997448921204,-0.7177017482633143,0.0,-1.7349991856802627,-0.3499997557701076,-0.7176559224537702,0.0
1759837376.2402933,0,-1.2050000429153442,-0.8299997448921204,-0.7177017661171146,0.0,-1.7349993025954786,-0.34999977935498366,-0.7176653514008832,0.0
1759837376.2504067,0,-1.2050000429153442,-0.8299997448921204,-0.7177018571076257,0.0,-1.734999395393387,-0.34999979807476406,-0.7176728353418216,0.0
1759837376.2614794,0,-1.2050000429153442,-0.8299997448921204,-0.717701906572838,0.0,-1.73499946915385,-0.34999981295419064,-0.7176787839559363,0.0
1759837376.2721431,0,-1.2050000429153442,-0.8299997448921204,-0.7177019680104468,0.0,-1.7349995279613013,-0.34999982481720127,-0.7176835266435754,0.0
1759837376.2828143,0,-1.2050000429153442,-0.8299997448921204,-0.7177020258033479,0.0,-1.7349995749649325,-0.3499998342990707,-0.7176873173798741,0.0
1759837376.2933326,0,-1.2050000429153442,-0.8299997448921204,-0.717702084561715,0.0,-1.7349996148946272,-0.349999842353941,-0.7176905376192284,0.0
1759837376.3042605,0,-1.2050000429153442,-0.8299997448921204,-0.717702126583939,0.0,-1.7349996465371242,-0.3499998487370654,-0.7176930895148815,0.0
1759837376.3148673,0,-1.2050000429153442,-0.8299997448921204,-0.7177021775772019,0.0,-1.7349996716859837,-0.3499998538102522,-0.7176951177133785,0.0
1759837376.3251681,0,-1.2050000429153442,-0.8299997448921204,-0.7177022345825108,0.0,-1.7349996917305852,-0.3499998578537759,-0.7176967342650545,0.0
1759837376.335835,0,-1.2050000429153442,-0.8299997448921204,-0.717702276301317,0.0,-1.7349997077397594,-0.34999986108324765,-0.7176980253686498,0.0
1759837376.3473427,0,-1.2050000429153442,-0.8299997448921204,-0.7177022943113407,0.0,-1.7349997212402464,-0.3499998638066512,-0.7176991141523165,0.0
1759837376.3577373,0,-1.2050000429153442,-0.8299997448921204,-0.7177023460411558,0.0,-1.734999731952561,-0.349999865967607,-0.7176999780762008,0.0
1759837376.3685126,0,-1.2050000429153442,-0.8299997448921204,-0.7177023854194502,0.0,-1.7349997404702593,-0.34999986768585095,-0.7177006650092722,0.0
1759837376.3791373,0,-1.2050000429153442,-0.8299997448921204,-0.7177024264496303,0.0,-1.734999747261332,-0.34999986905578906,-0.7177012126938952,0.0
1759837376.3893366,0,-1.2050000429153442,-0.8299997448921204,-0.7177024749544572,0.0,-1.7349997526918248,-0.3499998701512624,-0.7177016506508261,0.0
1759837376.3996205,0,-1.2050000429153442,-0.8299997448921204,-0.7177025165609106,0.0,-1.73499975729514,-0.3499998710798723,-0.7177020218977763,0.0
1759837376.409783,0,-1.2050000429153442,-0.8299997448921204,-0.7177025566976347,0.0,-1.7349997609470766,-0.349999871816564,-0.7177023164181745,0.0
1759837376.4204323,0,-1.2050000429153442,-0.8299997448921204,-0.7177025829931054,0.0,-1.7349997638498382,-0.3499998724021274,-0.7177025505193159,0.0
1759837376.431323,0,-1.2050000429153442,-0.8299997448921204,-0.7177026044328656,0.0,-1.7349997661623708,-0.34999987286862605,-0.7177027370198232,0.0
1759837376.4421973,0,-1.2050000429153442,-0.8299997448921204,-0.7177026281984205,0.0,-1.7349997680094629,-0.3499998732412331,-0.7177028859836085,0.0
1759837376.4527962,0,-1.2050000429153442,-0.8299997448921204,-0.7177026585717652,0.0,-1.734999769572949,-0.3499998735566294,-0.7177030120752413,0.0
1759837376.464218,0,-1.2050000429153442,-0.8299997448921204,-0.7177026733833376,0.0,-1.7349997708116836,-0.34999987380651476,-0.717703111976357,0.0
1759837376.4750257,0,-1.2050000429153442,-0.8299997448921204,-0.7177027021494986,0.0,-1.734999771796407,-0.34999987400515936,-0.7177031913920674,0.0
1759837376.4856918,0,-1.2050000429153442,-0.8299997448921204,-0.7177027331807472,0.0,-1.7349997725813295,-0.3499998741634989,-0.7177032546943023,0.0
1759837376.497128,0,-1.2050000429153442,-0.8299997448921204,-0.7177027499314867,0.0,-1.7349997732080606,-0.34999987428992707,-0.7177033052387388,0.0
1759837376.5078442,0,-1.2050000429153442,-0.8299997448921204,-0.7177027799344255,0.0,-1.734999773738553,-0.34999987439694136,-0.7177033480217441,0.0
1759837376.518459,0,-1.2050000429153442,-0.8299997448921204,-0.7177028101179381,0.0,-1.734999774159417,-0.3499998744818407,-0.7177033819634872,0.0
1759837376.5294182,0,-1.2050000429153442,-0.8299997448921204,-0.7177028327949486,0.0,-1.7349997744940338,-0.3499998745493417,-0.7177034089495713,0.0
1759837376.5395355,0,-1.2050000429153442,-0.8299997448921204,-0.7177028666670964,0.0,-1.7349997747610033,-0.3499998746031965,-0.7177034304800574,0.0
1759837376.553967,0,-1.2050000429153442,-0.8299997448921204,-0.7177028385288331,0.0,-1.734999774973541,-0.3499998746460709,-0.7177034476207391,0.0
1759837376.5610693,0,-1.2050000429153442,-0.8299997448921204,-0.7177029200334317,0.0,-1.7349997751541526,-0.34999987468250504,-0.717703462186657,0.0
1759837376.5717435,0,-1.2050000429153442,-0.8299997448921204,-0.717702941203024,0.0,-1.7349997752974715,-0.3499998747114162,-0.7177034737450017,0.0
1759837376.5826955,0,-1.2050000429153442,-0.8299997448921204,-0.7177029545192521,0.0,-1.7349997754114543,-0.3499998747344095,-0.7177034829374527,0.0
1759837376.5932093,0,-1.2050000429153442,-0.8299997448921204,-0.7177029739871337,0.0,-1.7349997755023827,-0.3499998747527522,-0.7177034902706166,0.0
1759837376.6034317,0,-1.2050000429153442,-0.8299997448921204,-0.7177029962501181,0.0,-1.7349997755790971,-0.34999987476822747,-0.7177034964574541,0.0
1759837376.6142328,0,-1.2050000429153442,-0.8299997448921204,-0.7177030101317108,0.0,-1.7349997756398277,-0.34999987478047845,-0.7177035013552354,0.0
1759837376.6249268,0,-1.2050000429153442,-0.8299997448921204,-0.7177030253124403,0.0,-1.734999775688034,-0.34999987479020295,-0.7177035052429681,0.0
1759837376.6354513,0,-1.2050000429153442,-0.8299997448921204,-0.7177030423643291,0.0,-1.734999775726403,-0.349999874797943,-0.7177035083373473,0.0
1759837376.6457555,0,-1.2050000429153442,-0.8299997448921204,-0.7177030609616253,0.0,-1.7349997757570257,-0.34999987480412037,-0.7177035108069888,0.0
1759837376.6560347,0,-1.2050000429153442,-0.8299997448921204,-0.7177030783669842,0.0,-1.7349997757815259,-0.34999987480906275,-0.7177035127828817,0.0
1759837376.6661365,0,-1.2050000429153442,-0.8299997448921204,-0.7177030960451205,0.0,-1.7349997758023472,-0.34999987481326295,-0.7177035144620856,0.0
1759837376.676411,0,-1.2050000429153442,-0.8299997448921204,-0.7177031105043277,0.0,-1.734999775818867,-0.34999987481659545,-0.717703515794383,0.0
1759837376.687052,0,-1.2050000429153442,-0.8299997448921204,-0.7177031207970401,0.0,-1.7349997758320015,-0.349999874819245,-0.7177035168536341,0.0
1759837376.6970935,0,-1.2050000429153442,-0.8299997448921204,-0.7177031365835589,0.0,-1.7349997758424769,-0.3499998748213582,-0.717703517698454,0.0
1759837376.7075636,0,-1.2050000429153442,-0.8299997448921204,-0.717703147667617,0.0,-1.7349997758508477,-0.34999987482304684,-0.7177035183735521,0.0
1759837376.718248,0,-1.2050000429153442,-0.8299997448921204,-0.7177031568072803,0.0,-1.734999775857942,-0.349999874824478,-0.7177035189456883,0.0
1759837376.7295918,0,-1.2050000429153442,-0.8299997448921204,-0.7177031613734286,0.0,-1.7349997758635611,-0.3499998748256115,-0.717703519398859,0.0
1759837376.7401917,0,-1.2050000429153442,-0.8299997448921204,-0.7177031735186468,0.0,-1.7349997758680273,-0.34999987482651246,-0.7177035197590452,0.0
1759837376.7534597,0,-1.2050000429153442,-0.8299997448921204,-0.7177031665368041,0.0,-1.734999775871576,-0.3499998748272284,-0.7177035200452508,0.0
1759837376.7612422,0,-1.2050000429153442,-0.8299997448921204,-0.7177032030269217,0.0,-1.7349997758744211,-0.3499998748278023,-0.7177035202747,0.0
1759837376.7719295,0,-1.2050000429153442,-0.8299997448921204,-0.7177032133482264,0.0,-1.7349997758768267,-0.34999987482828754,-0.7177035204686982,0.0
1759837376.7830515,0,-1.2050000429153442,-0.8299997448921204,-0.7177032191120762,0.0,-1.7349997758787332,-0.34999987482867206,-0.7177035206224327,0.0
1759837376.794387,0,-1.2050000429153442,-0.8299997448921204,-0.717703224523925,0.0,-1.7349997758802476,-0.3499998748289775,-0.7177035207445556,0.0
1759837376.804537,0,-1.2050000429153442,-0.8299997448921204,-0.717703238490552,0.0,-1.7349997758814553,-0.34999987482922107,-0.7177035208419477,0.0
1759837376.8156528,0,-1.2050000429153442,-0.8299997448921204,-0.7177032455360575,0.0,-1.7349997758824196,-0.3499998748294156,-0.7177035209197249,0.0
1759837376.8257234,0,-1.2050000429153442,-0.8299997448921204,-0.7177032587149093,0.0,-1.7349997758832358,-0.3499998748295802,-0.7177035209855435,0.0
1759837376.8360143,0,-1.2050000429153442,-0.8299997448921204,-0.7177032693306789,0.0,-1.7349997758838833,-0.34999987482971084,-0.717703521037764,0.0
1759837376.8469348,0,-1.2050000429153442,-0.8299997448921204,-0.7177032754911767,0.0,-1.734999775884398,-0.34999987482981465,-0.7177035210792708,0.0
1759837376.85801,0,-1.2050000429153442,-0.8299997448921204,-0.7177032811136161,0.0,-1.7349997758848081,-0.34999987482989736,-0.7177035211123419,0.0
1759837376.8693285,0,-1.2050000429153442,-0.8299997448921204,-0.717703286173693,0.0,-1.7349997758851357,-0.3499998748299634,-0.7177035211387539,0.0
1759837376.880079,0,-1.2050000429153442,-0.8299997448921204,-0.7177032947724289,0.0,-1.7349997758854137,-0.3499998748300195,-0.717703521161163,0.0
1759837376.8909223,0,-1.2050000429153442,-0.8299997448921204,-0.7177033026936961,0.0,-1.7349997758856337,-0.34999987483006395,-0.7177035211789289,0.0
1759837376.9013283,0,-1.2050000429153442,-0.8299997448921204,-0.7177033122232395,0.0,-1.734999775885809,-0.3499998748300993,-0.7177035211930564,0.0
1759837376.9121523,0,-1.2050000429153442,-0.8299997448921204,-0.7177033190580957,0.0,-1.7349997758859483,-0.34999987483012746,-0.7177035212043135,0.0
1759837376.9223158,0,-1.2050000429153442,-0.8299997448921204,-0.7177033283518882,0.0,-1.73499977588606,-0.34999987483015,-0.7177035212133126,0.0
1759837376.9332676,0,-1.2050000429153442,-0.8299997448921204,-0.7177033334913219,0.0,-1.7349997758861544,-0.34999987483016903,-0.7177035212209268,0.0
1759837376.9439406,0,-1.2050000429153442,-0.8299997448921204,-0.7177033397411101,0.0,-1.7349997758862292,-0.3499998748301842,-0.7177035212269643,0.0
1759837376.9587438,0,-1.2050000429153442,-0.8299997448921204,-0.717703330505131,0.0,-1.7349997758862885,-0.3499998748301961,-0.7177035212317433,0.0
1759837376.969059,0,-1.2050000429153442,-0.8299997448921204,-0.7177033420263292,0.0,-1.7349997758863358,-0.34999987483020567,-0.717703521235557,0.0
1759837376.9795043,0,-1.2050000429153442,-0.8299997448921204,-0.717703352375203,0.0,-1.7349997758863736,-0.34999987483021333,-0.7177035212386075,0.0
1759837376.990651,0,-1.2050000429153442,-0.8299997448921204,-0.717703358725764,0.0,-1.7349997758864055,-0.34999987483021977,-0.7177035212411925,0.0
1759837377.0007985,0,-1.2050000429153442,-0.8299997448921204,-0.7177033677498912,0.0,-1.734999775886431,-0.3499998748302249,-0.7177035212432451,0.0
1759837377.011009,0,-1.2050000429153442,-0.8299997448921204,-0.7177033753400117,0.0,-1.7349997758864513,-0.349999874830229,-0.7177035212448786,0.0
1759837377.021594,0,-1.2050000429153442,-0.8299997448921204,-0.7177033807033304,0.0,-1.7349997758864675,-0.34999987483023226,-0.7177035212461813,0.0
1759837377.0317652,0,-1.2050000429153442,-0.8299997448921204,-0.7177033868189486,0.0,-1.7349997758864804,-0.34999987483023487,-0.7177035212472233,0.0
1759837377.0420485,0,-1.2050000429153442,-0.8299997448921204,-0.7177033919828729,0.0,-1.7349997758864912,-0.3499998748302371,-0.7177035212481051,0.0
1759837377.0522194,0,-1.2050000429153442,-0.8299997448921204,-0.7177033969813653,0.0,-1.7349997758865,-0.3499998748302388,-0.7177035212488052,0.0
1759837377.062324,0,-1.2050000429153442,-0.8299997448921204,-0.7177034017176158,0.0,-1.7349997758865068,-0.3499998748302402,-0.7177035212493623,0.0
1759837377.0726163,0,-1.2050000429153442,-0.8299997448921204,-0.7177034055529957,0.0,-1.7349997758865123,-0.3499998748302413,-0.7177035212498066,0.0
1759837377.083133,0,-1.2050000429153442,-0.8299997448921204,-0.7177034086357246,0.0,-1.7349997758865168,-0.3499998748302422,-0.7177035212501618,0.0
1759837377.0944035,0,-1.2050000429153442,-0.8299997448921204,-0.7177034099432439,0.0,-1.7349997758865205,-0.349999874830243,-0.7177035212504628,0.0
1759837377.104984,0,-1.2050000429153442,-0.8299997448921204,-0.717703413474851,0.0,-1.7349997758865237,-0.34999987483024353,-0.7177035212507015,0.0
1759837377.1151192,0,-1.2050000429153442,-0.8299997448921204,-0.717703418064989,0.0,-1.7349997758865259,-0.349999874830244,-0.7177035212508912,0.0
1759837377.1258419,0,-1.2050000429153442,-0.8299997448921204,-0.71770342094376,0.0,-1.7349997758865277,-0.34999987483024436,-0.7177035212510425,0.0
1759837377.1366732,0,-1.2050000429153442,-0.8299997448921204,-0.7177034235662915,0.0,-1.7349997758865292,-0.3499998748302447,-0.7177035212511634,0.0
1759837377.1481097,0,-1.2050000429153442,-0.8299997448921204,-0.7177034250806287,0.0,-1.7349997758865305,-0.3499998748302449,-0.7177035212512657,0.0
1759837377.158297,0,-1.2050000429153442,-0.8299997448921204,-0.7177034295177798,0.0,-1.7349997758865314,-0.34999987483024514,-0.7177035212513467,0.0
1759837377.1689641,0,-1.2050000429153442,-0.8299997448921204,-0.7177034326746892,0.0,-1.7349997758865323,-0.3499998748302453,-0.7177035212514111,0.0
1759837377.1797369,0,-1.2050000429153442,-0.8299997448921204,-0.7177034354387821,0.0,-1.734999775886533,-0.3499998748302454,-0.7177035212514625,0.0
1759837377.1906376,0,-1.2050000429153442,-0.8299997448921204,-0.7177034379307301,0.0,-1.7349997758865334,-0.3499998748302455,-0.7177035212515036,0.0
1759837377.201301,0,-1.2050000429153442,-0.8299997448921204,-0.7177034408634402,0.0,-1.7349997758865339,-0.34999987483024564,-0.7177035212515385,0.0
1759837377.2121663,0,-1.2050000429153442,-0.8299997448921204,-0.717703443352212,0.0,-1.7349997758865343,-0.34999987483024575,-0.7177035212515659,0.0
1759837377.2224858,0,-1.2050000429153442,-0.8299997448921204,-0.7177034466849825,0.0,-1.7349997758865348,-0.34999987483024575,-0.7177035212515877,0.0
1759837377.2328029,0,-1.2050000429153442,-0.8299997448921204,-0.7177034497297718,0.0,-1.7349997758865348,-0.34999987483024575,-0.7177035212516051,0.0
1759837377.2433705,0,-1.2050000429153442,-0.8299997448921204,-0.7177034521005989,0.0,-1.7349997758865348,-0.34999987483024575,-0.717703521251619,0.0
1759837377.253976,0,-1.2050000429153442,-0.8299997448921204,-0.7177034542983272,0.0,-1.7349997758865348,-0.34999987483024575,-0.7177035212516308,0.0
1759837377.2645786,0,-1.2050000429153442,-0.8299997448921204,-0.7177034564460419,0.0,-1.7349997758865348,-0.34999987483024575,-0.71770352125164,0.0
1759837377.2752018,0,-1.2050000429153442,-0.8299997448921204,-0.7177034585135917,0.0,-1.7349997758865348,-0.34999987483024575,-0.7177035212516475,0.0
1759837377.2860188,0,-1.2050000429153442,-0.8299997448921204,-0.7177034602798606,0.0,-1.7349997758865348,-0.34999987483024575,-0.7177035212516535,0.0
1759837377.2970812,0,-1.2050000429153442,-0.8299997448921204,-0.7177034617650868,0.0,-1.7349997758865348,-0.34999987483024575,-0.7177035212516583,0.0
1759837377.3080168,0,-1.2050000429153442,-0.8299997448921204,-0.71770346352573,0.0,-1.7349997758865348,-0.34999987483024575,-0.7177035212516623,0.0
1759837377.318668,0,-1.2050000429153442,-0.8299997448921204,-0.7177034656650854,0.0,-1.7349997758865348,-0.34999987483024575,-0.7177035212516655,0.0
1759837377.329422,0,-1.2050000429153442,-0.8299997448921204,-0.717703467581412,0.0,-1.7349997758865348,-0.34999987483024575,-0.717703521251668,0.0
1759837377.3395414,0,-1.2050000429153442,-0.8299997448921204,-0.7177034701146301,0.0,-1.7349997758865348,-0.34999987483024575,-0.71770352125167,0.0
1759837377.3501499,0,-1.2050000429153442,-0.8299997448921204,-0.7177034718404443,0.0,-1.7349997758865348,-0.34999987483024575,-0.7177035212516717,0.0
1759837377.3612413,0,-1.2050000429153442,-0.8299997448921204,-0.7177034729575809,0.0,-1.7349997758865348,-0.34999987483024575,-0.717703521251673,0.0
1759837377.3717473,0,-1.2050000429153442,-0.8299997448921204,-0.7177034747618336,0.0,-1.7349997758865348,-0.34999987483024575,-0.7177035212516741,0.0
1759837377.38241,0,-1.2050000429153442,-0.8299997448921204,-0.7177034763343499,0.0,-1.7349997758865348,-0.34999987483024575,-0.717703521251675,0.0
1759837377.3925474,0,-1.2050000429153442,-0.8299997448921204,-0.7177034783287599,0.0,-1.7349997758865348,-0.34999987483024575,-0.7177035212516757,0.0
1759837377.4025543,0,-1.2050000429153442,-0.8299997448921204,-0.7177034802382298,0.0,-1.7349997758865348,-0.34999987483024575,-0.7177035212516762,0.0
1759837377.4135253,0,-1.2050000429153442,-0.8299997448921204,-0.717703481072137,0.0,-1.7349997758865348,-0.34999987483024575,-0.7177035212516767,0.0
1759837377.4243698,0,-1.2050000429153442,-0.8299997448921204,-0.717703482088222,0.0,-1.7349997758865348,-0.34999987483024575,-0.7177035212516771,0.0
1759837377.4353478,0,-1.2050000429153442,-0.8299997448921204,-0.717703483072512,0.0,-1.7349997758865348,-0.34999987483024575,-0.7177035212516774,0.0
1759837377.4457877,0,-1.2050000429153442,-0.8299997448921204,-0.7177034845534784,0.0,-1.7349997758865348,-0.34999987483024575,-0.7177035212516776,0.0
1759837377.4566493,0,-1.2050000429153442,-0.8299997448921204,-0.7177034856271067,0.0,-1.7349997758865348,-0.34999987483024575,-0.7177035212516778,0.0
1759837377.4738264,0,-1.2050000429153442,-0.8299997448921204,-0.7177034821276251,0.0,-1.734998863292102,-0.35000067153706677,-0.717703511274197,0.00012114331831312342
1759837377.4848902,0,-1.2050000429153442,-0.8299997448921204,-0.7177034843834669,0.0,-1.7349979378050382,-0.35000263365972856,-0.7177035045461033,0.00021991703401760108
1759837377.4957063,0,-1.2050000429153442,-0.8299997448921204,-0.7177034867990493,0.0,-1.7349970518800593,-0.3500052801188982,-0.717703499388685,0.0002999397761579243
1759837377.5066628,0,-1.2050000429153442,-0.8299997448921204,-0.7177034887260767,0.0,-1.7349961714367244,-0.35000836055105067,-0.7177034954737153,0.00036700409951357873
1759837377.5167897,0,-1.2050000429153442,-0.8299997448921204,-0.7177034908674678,0.0,-1.734994516057611,-0.350012266368783,-0.7177034925458867,0.001750062583221215
1759837377.5278637,0,-1.2050000429153442,-0.8299997448921204,-0.7177034920683774,0.0,-1.7349913414976748,-0.35003022418878954,-0.7177034903675191,0.0028587986801120744
1759837377.5392635,0,-1.2050000429153442,-0.8299997448921204,-0.7177034929493242,0.0,-1.734986852938498,-0.3500571222411312,-0.7177034892188935,0.00377725832361767
1759837377.5505311,0,-1.2050000429153442,-0.8299997448921204,-0.7177034939061855,0.0,-1.7349819346385085,-0.35008876388862853,-0.7177034885472192,0.0045222191668198184
1759837377.5618577,0,-1.2050000429153442,-0.8299997448921204,-0.7177034948192152,0.0,-1.734976510789014,-0.3501233370407216,-0.7177034880560682,0.005147578516948956
1759837377.5731995,0,-1.2050000429153442,-0.8299997448921204,-0.7177034957113015,0.0,-1.7349717098578084,-0.3501567583032795,-0.7177034879406512,0.005620247545728613
1759837377.5838852,0,-1.2050000429153442,-0.8299997448921204,-0.7177034969161351,0.0,-1.7349668460310448,-0.3501897893823505,-0.7177034881612306,0.006019174690120747
1759837377.5950856,0,-1.2050000429153442,-0.8299997448921204,-0.717703497751252,0.0,-1.7349621468246927,-0.3502214545442592,-0.7177034884618113,0.0063542566401212815
1759837377.6063755,0,-1.2050000429153442,-0.8299997448921204,-0.7177034985029528,0.0,-1.73495773965553,-0.3502511141173631,-0.7177034887974479,0.006635677304938775
1759837377.617098,0,-1.2050000429153442,-0.8299997448921204,-0.717703499503493,0.0,-1.734953435826539,-0.35027938859092567,-0.7177034892467742,0.0068807104258162
1759837377.627121,0,-1.2050000429153442,-0.8299997448921204,-0.717703500721651,0.0,-1.734950416616519,-0.3503020521968467,-0.7177034898991779,0.00702796326127555
1759837377.6379206,0,-1.2050000429153442,-0.8299997448921204,-0.7177035014308917,0.0,-1.7349474728554635,-0.3503230640674363,-0.7177034908420147,0.007162337872482048
1759837377.6491892,0,-1.2050000429153442,-0.8299997448921204,-0.7177035018908279,0.0,-1.734944662830953,-0.35034241153484946,-0.7177034916599385,0.0072849618906717355
1759837377.6604457,0,-1.2050000429153442,-0.8299997448921204,-0.7177035023938245,0.0,-1.7349420088566927,-0.35036015946426957,-0.7177034922517469,0.007397347381203484
1759837377.671736,0,-1.2050000429153442,-0.8299997448921204,-0.7177035029212071,0.0,-1.7349394777967317,-0.3503765961620641,-0.7177034927800268,0.007502038777831704
1759837377.6823378,0,-1.2050000429153442,-0.8299997448921204,-0.7177035037244721,0.0,-1.7349369662219913,-0.35039231355049016,-0.7177034929023703,0.00760247572674764
1759837377.6930735,0,-1.2050000429153442,-0.8299997448921204,-0.7177035044134072,0.0,-1.7349358212340344,-0.35040211970211194,-0.7177034935464797,0.007623143563165248
1759837377.704421,0,-1.2050000429153442,-0.8299997448921204,-0.7177035048351463,0.0,-1.7349345807006655,-0.3504113834100063,-0.7177034943361766,0.00765527379358639
1759837377.7156513,0,-1.2050000429153442,-0.8299997448921204,-0.717703505317349,0.0,-1.7349332700246314,-0.35042029728840723,-0.7177034951832146,0.0076957931929745715
1759837377.7265143,0,-1.2050000429153442,-0.8299997448921204,-0.717703505931329,0.0,-1.7349319074877312,-0.35042892601070025,-0.717703496003225,0.007742558446505751
1759837377.7374709,0,-1.2050000429153442,-0.8299997448921204,-0.7177035064832396,0.0,-1.7349304485655737,-0.3504376306456937,-0.7177034967310029,0.007795412509202761
1759837377.748466,0,-1.2050000429153442,-0.8299997448921204,-0.7177035069944573,0.0,-1.7349301972428952,-0.3504411998745866,-0.7177034976835943,0.007781953779131804
1759837377.7591412,0,-1.2050000429153442,-0.8299997448921204,-0.7177035075772871,0.0,-1.734929736655989,-0.3504450478386963,-0.7177034985935569,0.007785714053173668
1759837377.76936,0,-1.2050000429153442,-0.8299997448921204,-0.7177035082407492,0.0,-1.7349291163067413,-0.3504492152275101,-0.7177034993697147,0.007802040311868794
1759837377.7808104,0,-1.2050000429153442,-0.8299997448921204,-0.7177035084910218,0.0,-1.734928313271666,-0.3504539178173955,-0.7177035000519161,0.007830335921308015
1759837377.7909045,0,-1.2050000429153442,-0.8299997448921204,-0.7177035091224866,0.0,-1.7349273714704616,-0.35045907245439367,-0.7177035006556123,0.007866743395241144
1759837377.80171,0,-1.2050000429153442,-0.8299997448921204,-0.7177035095101267,0.0,-1.734927614554367,-0.3504593036623341,-0.7177035015096276,0.007838461928960186
1759837377.8128014,0,-1.2050000429153442,-0.8299997448921204,-0.7177035098071993,0.0,-1.7349275611445607,-0.35046035917863627,-0.7177035022376151,0.007830846099647917
1759837377.8236294,0,-1.2050000429153442,-0.8299997448921204,-0.7177035101820497,0.0,-1.7349272706986036,-0.3504622166421712,-0.7177035029429615,0.007838773825479923
1759837377.8349323,0,-1.2050000429153442,-0.8299997448921204,-0.7177035104448422,0.0,-1.7349267489984874,-0.35046494299215475,-0.7177035035617793,0.00786014799571124
1759837377.8456569,0,-1.2050000429153442,-0.8299997448921204,-0.7177035108559799,0.0,-1.7349260302868859,-0.3504684972439448,-0.7177035040979038,0.007891695251046188
1759837377.8567822,0,-1.2050000429153442,-0.8299997448921204,-0.7177035111635632,0.0,-1.734926477919345,-0.35046727551584245,-0.7177035047581417,0.0078591988745034
1759837377.8674135,0,-1.2050000429153442,-0.8299997448921204,-0.7177035115715622,0.0,-1.734926605612317,-0.35046707503039737,-0.7177035053897924,0.00784758637928316
1759837377.8784044,0,-1.2050000429153442,-0.8299997448921204,-0.7177035118802504,0.0,-1.7349264624737628,-0.3504678960424165,-0.7177035058105874,0.007852510627096531
1759837377.8892834,0,-1.2050000429153442,-0.8299997448921204,-0.7177035122014139,0.0,-1.7349260750434758,-0.3504697206224192,-0.7177035063493807,0.007870814871172227
1759837377.9003947,0,-1.2050000429153442,-0.8299997448921204,-0.7177035124695017,0.0,-1.7349254592691132,-0.35047254243160914,-0.71770350681106,0.007900462363747114
1759837377.9115021,0,-1.2050000429153442,-0.8299997448921204,-0.7177035127400799,0.0,-1.734926000532303,-0.35047066053279646,-0.7177035074022792,0.00786630922941624
1759837377.922563,0,-1.2050000429153442,-0.8299997448921204,-0.7177035130201812,0.0,-1.7349261950456525,-0.35046995682317494,-0.7177035079095935,0.007853936064360995
1759837377.9337413,0,-1.2050000429153442,-0.8299997448921204,-0.7177035132768754,0.0,-1.7349261022269349,-0.3504703838301492,-0.7177035083343054,0.007858493954564606
1759837377.9442909,0,-1.2050000429153442,-0.8299997448921204,-0.7177035136334027,0.0,-1.7349257600993682,-0.3504718619797616,-0.7177035087132726,0.00787619443984817
1759837377.9543998,0,-1.2050000429153442,-0.8299997448921204,-0.7177035140253114,0.0,-1.7349252102352946,-0.35047428608428416,-0.7177035090735138,0.007903903249102798
1759837377.9661884,0,-1.2050000429153442,-0.8299997448921204,-0.7177035141123742,0.0,-1.7349258159217367,-0.35047202798897925,-0.7177035094717171,0.007868006503304511
1759837377.977652,0,-1.2050000429153442,-0.8299997448921204,-0.7177035142781829,0.0,-1.734926048716714,-0.35047106176784565,-0.7177035099296162,0.007854937443064036
1759837377.9889805,0,-1.2050000429153442,-0.8299997448921204,-0.7177035144883845,0.0,-1.7349259844415543,-0.3504712842354934,-0.7177035103516468,0.007859120831885818
1759837378.000128,0,-1.2050000429153442,-0.8299997448921204,-0.7177035147297524,0.0,-1.7349256550686696,-0.35047264554410157,-0.7177035107093519,0.007877184803464408
1759837378.0115297,0,-1.2050000429153442,-0.8299997448921204,-0.7177035149314648,0.0,-1.7349250791369049,-0.35047512093647504,-0.7177035110242642,0.00790703450216916
1759837378.022915,0,-1.2050000429153442,-0.8299997448921204,-0.717703515136172,0.0,-1.7349256496393957,-0.3504729623427136,-0.7177035114275359,0.007873365424779339
1759837378.034171,0,-1.2050000429153442,-0.8299997448921204,-0.7177035153564617,0.0,-1.734925861794704,-0.3504720632201709,-0.7177035117745507,0.007861649626267076
1759837378.0453131,0,-1.2050000429153442,-0.8299997448921204,-0.71770351558283,0.0,-1.7349257826166982,-0.35047233819158596,-0.7177035121553913,0.007866706607100132
1759837378.05615,0,-1.2050000429153442,-0.8299997448921204,-0.7177035158305181,0.0,-1.734925445175489,-0.3504737259461712,-0.7177035125142088,0.007885144198246239
1759837378.067091,0,-1.2050000429153442,-0.8299997448921204,-0.7177035160444092,0.0,-1.7349248742213044,-0.35047617922991453,-0.7177035127853456,0.007914662261852603
1759837378.077134,0,-1.2050000429153442,-0.8299997448921204,-0.7177035163346712,0.0,-1.734925423603508,-0.3504741049241136,-0.7177035131348343,0.007882143409326432
1759837378.0877247,0,-1.2050000429153442,-0.8299997448921204,-0.7177035165282247,0.0,-1.734925644015754,-0.3504731932968725,-0.7177035134852107,0.007870141382775125
1759837378.0986567,0,-1.2050000429153442,-0.8299997448921204,-0.7177035166675036,0.0,-1.7349255657585148,-0.35047346183042316,-0.7177035137502061,0.007875040950824341
1759837378.109322,0,-1.2050000429153442,-0.8299997448921204,-0.7177035168301593,0.0,-1.7349252330674783,-0.35047482733515106,-0.7177035140319541,0.007893137743299932
1759837378.1207566,0,-1.2050000429153442,-0.8299997448921204,-0.7177035169156625,0.0,-1.7349259953396647,-0.35047173696885797,-0.7177035143209878,0.007851259336080042
1759837378.1315544,0,-1.2050000429153442,-0.8299997448921204,-0.7177035170706283,0.0,-1.7349264010904282,-0.3504699087019254,-0.717703514580003,0.007831830997546422
1759837378.142279,0,-1.2050000429153442,-0.8299997448921204,-0.7177035172280881,0.0,-1.7349264952505794,-0.35046931408310733,-0.7177035148029951,0.00783023979537685
1759837378.1534283,0,-1.2050000429153442,-0.8299997448921204,-0.7177035173406505,0.0,-1.7349262985920721,-0.35046996227965194,-0.7177035149979574,0.007843718118391123
1759837378.1651254,0,-1.2050000429153442,-0.8299997448921204,-0.7177035174117634,0.0,-1.7349258299245112,-0.3504718337746726,-0.7177035151985015,0.00787023199022944
1759837378.1756954,0,-1.2050000429153442,-0.8299997448921204,-0.7177035175850541,0.0,-1.7349265246547216,-0.35046901773065287,-0.7177035154150158,0.007832104525892168
1759837378.1864135,0,-1.2050000429153442,-0.8299997448921204,-0.7177035177343072,0.0,-1.7349268708829708,-0.35046744445285544,-0.7177035156548307,0.00781565709120093
1759837378.1973212,0,-1.2050000429153442,-0.8299997448921204,-0.7177035178562612,0.0,-1.7349269089908792,-0.35046710268932885,-0.717703515856072,0.007816697432513571
1759837378.2079215,0,-1.2050000429153442,-0.8299997448921204,-0.7177035179932254,0.0,-1.734926678291829,-0.3504679213882012,-0.71770351600661,0.007831538387047641
1759837378.2187815,0,-1.2050000429153442,-0.8299997448921204,-0.7177035181021605,0.0,-1.7349262005372228,-0.35046985910715744,-0.7177035161813367,0.007858052825158338
1759837378.2295518,0,-1.2050000429153442,-0.8299997448921204,-0.7177035182120814,0.0,-1.7349268348614664,-0.35046731850659035,-0.7177035163660829,0.007822667351357795
1759837378.240722,0,-1.2050000429153442,-0.8299997448921204,-0.7177035182923852,0.0,-1.7349271178076984,-0.35046604101258877,-0.7177035165491298,0.007809017649658254
1759837378.2515905,0,-1.2050000429153442,-0.8299997448921204,-0.7177035183938898,0.0,-1.7349271020166257,-0.3504659625439297,-0.7177035167110257,0.007812263527429138
1759837378.2617068,0,-1.2050000429153442,-0.8299997448921204,-0.7177035185366556,0.0,-1.7349268372940543,-0.35046696495961305,-0.7177035168455375,0.007828231829894495
1759837378.2725477,0,-1.2050000429153442,-0.8299997448921204,-0.717703518621267,0.0,-1.7349263357164428,-0.35046905214432106,-0.7177035169445434,0.007855465631166812
1759837378.2833014,0,-1.2050000429153442,-0.8299997448921204,-0.7177035187065144,0.0,-1.7349256210549202,-0.35047214814934585,-0.7177035170083336,0.007891985665563015
1759837378.2945216,0,-1.2050000429153442,-0.8299997448921204,-0.7177035187652798,0.0,-1.734926177558707,-0.35047012926769316,-0.7177035171005618,0.007857902765836408
1759837378.3055232,0,-1.2050000429153442,-0.8299997448921204,-0.7177035188404517,0.0,-1.7349263749153196,-0.3504693375420291,-0.7177035172273115,0.007845835513015835
1759837378.316262,0,-1.2050000429153442,-0.8299997448921204,-0.7177035189299463,0.0,-1.734926295442398,-0.350469649244602,-0.7177035173518019,0.007850041260137497
1759837378.326908,0,-1.2050000429153442,-0.8299997448921204,-0.7177035190192793,0.0,-1.7349259665345922,-0.3504710292831297,-0.7177035174813081,0.007867446286831253
1759837378.3376963,0,-1.2050000429153442,-0.8299997448921204,-0.7177035190957106,0.0,-1.734925407972255,-0.35047344612274234,-0.7177035175991746,0.00789591846357656
1759837378.3483703,0,-1.2050000429153442,-0.8299997448921204,-0.7177035191736056,0.0,-1.7349259755736253,-0.35047130480385424,-0.7177035177497898,0.00786205496117413
1759837378.3618865,0,-1.2050000429153442,-0.8299997448921204,-0.7177035191266726,0.0,-1.7349261306807662,-0.3504706464623624,-0.717703517878999,0.007853161608976702
1759837378.3705049,0,-1.2050000429153442,-0.8299997448921204,-0.717703519314334,0.0,-1.7349260650126237,-0.3504708824700184,-0.717703517998798,0.007857115208526805
1759837378.3813915,0,-1.2050000429153442,-0.8299997448921204,-0.717703519381903,0.0,-1.7349257372082323,-0.3504722358219518,-0.717703518112485,0.007874773103845045
1759837378.3918672,0,-1.2050000429153442,-0.8299997448921204,-0.7177035194558048,0.0,-1.7349251893107223,-0.35047459601715625,-0.7177035182109146,0.00790296132906047
1759837378.4026203,0,-1.2050000429153442,-0.8299997448921204,-0.717703519513595,0.0,-1.7349258056890964,-0.3504722485817294,-0.7177035183174552,0.007866944815838845
1759837378.4135983,0,-1.2050000429153442,-0.8299997448921204,-0.7177035195611392,0.0,-1.7349260593237499,-0.35047115808057255,-0.7177035184389595,0.00785313676414795
1759837378.423826,0,-1.2050000429153442,-0.8299997448921204,-0.7177035196360624,0.0,-1.734926040169527,-0.3504711587785334,-0.7177035185391551,0.00785526033500258
1759837378.4350538,0,-1.2050000429153442,-0.8299997448921204,-0.7177035196703834,0.0,-1.7349257485072942,-0.3504723257763732,-0.7177035186341555,0.007871753189932721
1759837378.44652,0,-1.2050000429153442,-0.8299997448921204,-0.7177035196999952,0.0,-1.7349252053440762,-0.3504746298315943,-0.717703518722475,0.007900358535331036
1759837378.4577262,0,-1.2050000429153442,-0.8299997448921204,-0.7177035197444237,0.0,-1.7349257281093824,-0.35047263165549297,-0.7177035188260239,0.007869741588447164
1759837378.469003,0,-1.2050000429153442,-0.8299997448921204,-0.7177035197891364,0.0,-1.7349259082118373,-0.3504718686844927,-0.7177035189284707,0.00786016680034556
1759837378.4796124,0,-1.2050000429153442,-0.8299997448921204,-0.7174142808052597,0.005235987755982988,-1.7349258029992838,-0.35047224649537984,-0.7177035190059904,0.007866568815436771
1759837378.491301,0,-1.2050000429153442,-0.8299997448921204,-0.7173908428018348,0.005235987755982988,-1.7349254225158222,-0.35047381765817487,-0.7177035190571697,0.007887196979242768
1759837378.5029175,0,-1.2049945376554314,-0.8300045510556876,-0.7173360945492899,0.0058631879338130605,-1.7349247946169801,-0.35047651817951125,-0.7177035191037527,0.007919464288151856
1759837378.513281,0,-1.2049945376554316,-0.8300045510556879,-0.7173655463887981,0.0058631879338130605,-1.7349254972205241,-0.3504738405509769,-0.7177035191630725,0.007878463186415144
1759837378.5237567,0,-1.204984195754771,-0.830029150362513,-0.7173231327735409,0.0067791672628018974,-1.7349258355543207,-0.35047239099476923,-0.7177035192299249,0.007860095318309323
1759837378.5352316,0,-1.2049794747926175,-0.8300449721725374,-0.7172653127594805,0.007114496981230107,-1.7349258605324807,-0.3504721822440537,-0.7177035192904949,0.0078601822388853
1759837378.5466833,0,-1.2049748864882635,-0.8300618372794556,-0.7172405503776227,0.007397768072932815,-1.7349256026907385,-0.35047317991323473,-0.7177035193555942,0.007875296538483066
1759837378.557413,0,-1.2049709694147779,-0.8300781233025312,-0.7172348254784934,0.007615919163012653,-1.73492510694178,-0.350475255996727,-0.7177035194150329,0.007901813860384129
1759837378.570661,0,-1.2040251104927997,-0.8310073894633353,-0.7167890998937098,0.016510824771136353,-1.7349257334614978,-0.3504727922749844,-0.7177035194925576,0.007866224412836976
1759837378.5818367,0,-1.2036746440804276,-0.8313249187495947,-0.7164572704865009,0.0166637752759804,-1.7349259963227792,-0.3504716157758364,-0.7177035195607165,0.007852826895557297
1759837378.592188,0,-1.2035302830386219,-0.8314631042285988,-0.7162072017109113,0.01688051111777452,-1.7349259809083994,-0.35047156422203224,-0.7177035196270929,0.007855447663949135
1759837378.6022818,0,-1.203465898350849,-0.8315315781166909,-0.7159990663208554,0.01706252900030196,-1.7349257195663763,-0.35047257764900064,-0.7177035196864142,0.00787083924517927
1759837378.6136873,0,-1.2034130762671917,-0.8315894554130533,-0.7158461816914213,0.01728436356073458,-1.734925203390758,-0.35047473969542314,-0.7177035197383552,0.007898495083072018
1759837378.6240005,0,-1.2033818989564682,-0.8316285746673792,-0.7157567097422975,0.01746825952422949,-1.7349257170805794,-0.3504724329370977,-0.7177035197995694,0.007941581227517248
1759837378.6354089,0,-1.203355732732661,-0.8316630661350591,-0.7156709234713153,0.01762252997824093,-1.734925779224158,-0.3504722468911942,-0.7177035198567538,0.007991614496255822
1759837378.6464531,0,-1.2033371067195233,-0.831690556323746,-0.7156002656305981,0.017753266572843967,-1.7349254857249103,-0.35047375594268376,-0.7177035199097354,0.008047112067844307
1759837378.6580136,0,-1.20332068036673,-0.8317156022483079,-0.7155435095002683,0.017865317922061984,-1.7349248772876038,-0.35047677045444786,-0.717703519957885,0.00810801733523004
1759837378.668223,0,-1.2033112656395073,-0.8317323813327996,-0.7155298701327159,0.017936719604789427,-1.7349240324064323,-0.35048094926408757,-0.7177035199975121,0.008171773340591477
1759837378.6795545,0,-1.2032993889333652,-0.8317507006032432,-0.7154927203764471,0.01800022883804853,-1.7349243214062668,-0.3504806169497211,-0.71770352004926,0.008165874831735039
1759837378.6906822,0,-1.2032907815528737,-0.8317657520346914,-0.7154730643651283,0.018059084559682657,-1.73492425958279,-0.35048150825505686,-0.7177035200830628,0.008177112904847931
1759837378.7021363,0,-1.2032827616144668,-0.8317798306724272,-0.7154754246987981,0.018112757999242775,-1.7349239064818445,-0.3504835487213479,-0.7177035201176284,0.008201903024767745
1759837378.7135406,0,-1.2032764713831372,-0.8317920221108415,-0.7154530899242402,0.018162605532799067,-1.7349232935984895,-0.35048667796138677,-0.7177035201512808,0.008237811582949292
1759837378.7249062,0,-1.2032719736559256,-0.831800247894581,-0.7154299494786315,0.01817946237834304,-1.734922448044182,-0.3504908292229066,-0.7177035201819659,0.00828293585459808
1759837378.7359493,0,-1.2032689298307144,-0.831806981053579,-0.7154261664865226,0.018199151807270105,-1.7349228753066508,-0.35048981599046397,-0.7177035202258191,0.008255950459463481
1759837378.746484,0,-1.2032671743193843,-0.8318124578011684,-0.7154617480591309,0.018221250591646383,-1.7349229657073504,-0.35048989134090924,-0.7177035202647003,0.008249459246957991
1759837378.7579362,0,-1.203262550789004,-0.8318203354347271,-0.7154532520814709,0.018245124249000738,-1.7349227592050218,-0.3504910962223495,-0.7177035203008697,0.008259939649013465
1759837378.769424,0,-1.1963991713956392,-0.8383149636062933,-0.7084856006883379,0.08308427668728756,-1.7349222824885158,-0.35049341436830667,-0.7177035203332418,0.008284373152897971
1759837378.780051,0,-1.1938470456364418,-0.8404650457945433,-0.7029897160814197,0.08307991815661113,-1.7349229795466072,-0.35049092660781556,-0.7177035203721994,0.008244004997827892
1759837378.790719,0,-1.1927878310789848,-0.8413589900617796,-0.6988971630262792,0.08373084475808135,-1.7349233059531748,-0.3504896767849769,-0.7177035204070382,0.008226808391828388
1759837378.8020055,0,-1.1923062362084877,-0.8417705585726327,-0.6958228564745378,0.08426178047685248,-1.7349233129082053,-0.35048966877067234,-0.7177035204370613,0.008228294462079289
1759837378.8129354,0,-1.192076925431033,-0.8419735762169307,-0.6935828767518994,0.08470530389470601,-1.7349230407425957,-0.35049083407330184,-0.7177035204630602,0.008244514804340936
1759837378.8233185,0,-1.1919566085606268,-0.8420878442885359,-0.6919377157388911,0.08507887470171634,-1.7349225305928255,-0.3504930629259297,-0.7177035204870162,0.008272087660533188
1759837378.8341842,0,-1.1917415724701463,-0.8422866475497157,-0.6904684332131608,0.08604721599169589,-1.7349217976278553,-0.3504963334952644,-0.7177035205103959,0.008309595505257186
1759837378.8449435,0,-1.1915786621414701,-0.8424474061120854,-0.6893171370075045,0.08682845688815817,-1.7349207068203891,-0.350495912677267,-0.7177035205392133,0.009577466063863551
1759837378.8557723,0,-1.191446747075464,-0.8425849049126124,-0.6884625669155368,0.08746479693804358,-1.7349178539146655,-0.3505103323975094,-0.7177035205640723,0.010610363550659248
1759837378.8663273,0,-1.191346021725132,-0.8426974657719948,-0.6878538205646586,0.08798564222278071,-1.7349136712196396,-0.35053433104407233,-0.7177035205859772,0.011471126849707858
1759837378.8775082,0,-1.1912471113191903,-0.8428080156148978,-0.6873876992731892,0.08841415268619697,-1.7349086028288456,-0.35056450926458677,-0.7177035206082448,0.012195881574263085
1759837378.8876743,0,-1.191190602409439,-0.8428795054560416,-0.6870562400283058,0.08875896043254722,-1.7349030035455726,-0.35059831538777475,-0.7177035206229524,0.012810493249005392
1759837378.899054,0,-1.1911705815560183,-0.8428953996319214,-0.6868822250173583,0.08875896043254722,-1.734899201895992,-0.35062627607198843,-0.7177035206405683,0.013214075571702484
1759837378.9098852,0,-1.1910631576561894,-0.8430308350174648,-0.6865573336689214,0.08928083791946125,-1.7348948205052914,-0.3506556573612698,-0.7177035206636868,0.013578499848473157
1759837378.9213088,0,-1.191010631310879,-0.8430948176395718,-0.6863932666075331,0.08947380442717656,-1.7348903800115716,-0.35068483461520267,-0.7177035206859165,0.01389701576434856
1759837378.9325788,0,-1.1909745201329327,-0.8431443622540594,-0.6862747136271454,0.08963972367379615,-1.7348858293322105,-0.3507138183002564,-0.717703520705002,0.014183380288526132
1759837378.9439828,0,-1.1909430109882388,-0.8431838691709068,-0.6862329487426015,0.08975562113412276,-1.734881296341815,-0.35074212033619456,-0.7177035207218384,0.01444179453805686
1759837378.9554434,0,-1.1909163779974374,-0.8432189967941219,-0.6861502877855825,0.08985723000831046,-1.734878871240052,-0.35076148143113123,-0.7177035207436094,0.014554180477810711
1759837378.970215,0,-1.1810558189565017,-0.8511263878766201,-0.6730408516492369,0.11304765969812143,-1.7348760238377487,-0.3507812215486939,-0.7177035207670678,0.014684039558971514
1759837378.981693,0,-1.1772920594243106,-0.8540344893006907,-0.6626892027945577,0.11334775038412019,-1.7348730121347944,-0.3508006949369419,-0.717703520786604,0.01481815291884916
1759837378.992376,0,-1.17564277540302,-0.8552964964171355,-0.6546402974149911,0.11381528280321843,-1.7348699271052062,-0.3508197377835895,-0.7177035208046502,0.014953027698386785
1759837379.0032349,0,-1.1751036929304397,-0.8556933137198861,-0.6492754097144408,0.11381528280321843,-1.7348667564258433,-0.35083855812588277,-0.7177035208182855,0.015089535947743935
1759837379.013361,0,-1.174644634538819,-0.8560433591667977,-0.6448096741961951,0.11419910002227454,-1.7348634424528342,-0.3508496902992406,-0.717703520835134,0.017089854214351847
1759837379.0245302,0,-1.1741314468498572,-0.8564484319806765,-0.6408848157641099,0.11476716661485932,-1.7348572178182946,-0.3508826705322606,-0.7177035208518039,0.018745969943853604
1759837379.0346274,0,-1.174120063008335,-0.8564494226847242,-0.6389826646276934,0.11476716661485932,-1.7348494710818103,-0.3509289148698388,-0.7177035208644139,0.020108683708850196
1759837379.0448308,0,-1.1738268080356764,-0.8566845146396999,-0.6367713849048505,0.11514413804260087,-1.7348405030969494,-0.35098348858350126,-0.717703520877999,0.021257645536365888
1759837379.0548801,0,-1.1738267005492802,-0.8566805608188847,-0.6358378879053939,0.11514413804260087,-1.7348310888138336,-0.3510421655586696,-0.7177035208882377,0.022221725168392114
1759837379.0651398,0,-1.1737118641506379,-0.8567706923104073,-0.6348020003845921,0.11528052129704709,-1.7348242944767618,-0.3510910858737422,-0.7177035209018818,0.022866538471312092
1759837379.0753796,0,-1.1736218228648538,-0.8568430444068394,-0.6340479999343501,0.11539498923601993,-1.7348171032988668,-0.3511404119808136,-0.7177035209141068,0.023431924082669284
1759837379.0853803,0,-1.1735552259417146,-0.8568987049699056,-0.6335514435389364,0.11549387643442342,-1.7348097419631012,-0.35118923221668774,-0.7177035209248481,0.02393179987954848
1759837379.096771,0,-1.173455662659511,-0.856972881878256,-0.6329881465430968,0.11555674750821136,-1.7348022004027448,-0.35123751414048326,-0.7177035209308302,0.024385736475895894
1759837379.106805,0,-1.1734314759184803,-0.8569933484232573,-0.6327990471955939,0.11561358833821829,-1.7347946291271474,-0.35128471801452293,-0.7177035209379554,0.024798532454199985
1759837379.1169982,0,-1.1734363627738837,-0.8569895355555327,-0.6327455265885692,0.11561358833821829,-1.7347913420794365,-0.35131395787245123,-0.7177035209466971,0.024936629893227112
1759837379.1278443,0,-1.1733424828034682,-0.857066115012715,-0.6324107979217962,0.11571355740779111,-1.7347873988823377,-0.3513433790586231,-0.7177035209585388,0.025102629352141272
1759837379.13861,0,-1.1733085348766803,-0.8570958615117722,-0.6323397991607623,0.11575929865390341,-1.73478314790556,-0.3513722884144589,-0.7177035209690591,0.025282968550595156
1759837379.14863,0,-1.1733043847808424,-0.8571045974419138,-0.6323633288485562,0.11580254185895848,-1.7347787271392836,-0.3514005280644452,-0.7177035209784539,0.02547077194855221
1759837379.159435,0,-1.173288934689319,-0.8571160229685952,-0.6323703435709878,0.11580254185895848,-1.7347740761460253,-0.35142866852696925,-0.7177035209854474,0.02566870485376764
1759837379.1704128,0,-1.162183590467586,-0.8648349111461807,-0.6175307122214437,0.12557881480362507,-1.7347734543411872,-0.35143979555752053,-0.7177035209955986,0.0256367229327334
1759837379.1806374,0,-1.1579554779626549,-0.8677138311345136,-0.6056493863843928,0.12559503006335473,-1.7347720540658231,-0.3514522104796529,-0.717703521005485,0.025659158847381687
1759837379.19103,0,-1.156315701562016,-0.868813107189086,-0.5968871335157873,0.1256141428095815,-1.7347700886686717,-0.3514657274168059,-0.7177035210143713,0.025722114764700356
1759837379.2024655,0,-1.1551526237295777,-0.8695845616612246,-0.5892261347706363,0.1259129730837165,-1.7347675051570801,-0.35148118919429266,-0.7177035210236479,0.025822277632930067
1759837379.212939,0,-1.154631799671414,-0.8699183461306613,-0.5839046379016538,0.12606428849633045,-1.7347632732861396,-0.3514994218080949,-0.7177035210322718,0.026097832203182226
1759837379.2237332,0,-1.1545297615361132,-0.8699732313011216,-0.5806042547732826,0.12606428849633045,-1.7347586018924335,-0.35152067746128324,-0.7177035210387743,0.02636837756658039
1759837379.2348945,0,-1.1542335323433337,-0.8701609046865854,-0.5774479384491705,0.12619183962414193,-1.7347568608453678,-0.35152735545099667,-0.7177035210475108,0.02801323172847957
1759837379.245154,0,-1.1540453063797274,-0.8702801055318188,-0.5753203796225979,0.12629977715589777,-1.734752352177179,-0.3515539717992773,-0.7177035210548264,0.02938184193587155
1759837379.2555816,0,-1.1538789714329771,-0.8703863063570129,-0.5736749491661239,0.12639349595556268,-1.7347457357756353,-0.3515938729926952,-0.7177035210613322,0.030548974977357892
1759837379.2660382,0,-1.1537382700968615,-0.8704707292504664,-0.5724636484455773,0.12644961064291407,-1.7347376409517292,-0.35164267685542744,-0.7177035210656566,0.031556292517628065
1759837379.2770433,0,-1.1536048703162616,-0.8705521172853735,-0.5714908987476123,0.12650140671780602,-1.7347284638045113,-0.35169748602262757,-0.717703521069843,0.03243977968574252
1759837379.287718,0,-1.1536078357996962,-0.8705485543173701,-0.5711721006004142,0.12650140671780602,-1.7347242873008408,-0.3517336599286364,-0.717703521074959,0.03290107079745287
1759837379.2980585,0,-1.1535274814791157,-0.8705985762026571,-0.5707169668452678,0.12654997717724503,-1.7347191042622934,-0.3517721496265371,-0.7177035210794516,0.03333742788555289
1759837379.3089833,0,-1.153372799394145,-0.8706923151299567,-0.5700885909127648,0.12661233043819092,-1.7347129517400166,-0.3518130945271563,-0.7177035210845811,0.03376223745071231
1759837379.3196955,0,-1.1533211568827857,-0.8707216438406256,-0.5698766159859203,0.12663158053708076,-1.7347061091741274,-0.3518558154225899,-0.7177035210899456,0.03417358861856844
1759837379.330129,0,-1.1532872620062118,-0.8707413823450914,-0.5697708089132075,0.12665295889807282,-1.7346988274004502,-0.35189947728734833,-0.7177035210955384,0.03456976487841368
1759837379.340521,0,-1.1532927202400565,-0.8707381666793947,-0.5698763681927452,0.12665295889807282,-1.7346971519536594,-0.35191991085311664,-0.7177035211014992,0.03462404023924326
1759837379.3519452,0,-1.15319173447658,-0.8708024718990031,-0.5696363950548947,0.1267013817881414,-1.7346943893854887,-0.35194237398625755,-0.7177035211079129,0.034738524225447126
