timestamp,observer_vehicle_id,vehicle_0_x,vehicle_0_y,vehicle_0_theta,vehicle_0_velocity,vehicle_1_x,vehicle_1_y,vehicle_1_theta,vehicle_1_velocity
1759837375.4665473,1,0.0,0.0,0.0,0.0,-1.735,-0.35,-0.7801621756414646,0.0
1759837375.477161,1,0.0,0.0,0.0,0.0,-1.735,-0.35,-0.7801621756414646,0.0
1759837375.4882753,1,-0.23909467213520658,-0.16468756000801932,-0.14240587717224573,0.0,-1.735,-0.35,-0.7801621756414646,0.0
1759837375.4997928,1,-0.428523496633283,-0.2951654607624704,-0.2552305489788233,0.0,-1.735,-0.35,-0.7801621756414646,0.0
1759837375.50981,1,-0.5792468123782785,-0.398983144714561,-0.3450020432463231,0.0,-1.735,-0.35,-0.7801621756414646,0.0
1759837375.520061,1,-0.699430018258823,-0.4817649095847363,-0.4165837087930704,0.0,-1.735,-0.35,-0.7801621756414646,0.0
1759837375.5314214,1,-0.7953819415556224,-0.5478562531713911,-0.47373311192037126,0.0,-1.735,-0.35,-0.7801621756414646,0.0
1759837375.542356,1,-0.8769310921544449,-0.6040270181362077,-0.5223041579414627,0.0,-1.735,-0.35,-0.7801621756414646,0.0
1759837375.5537302,1,-0.9414986575523896,-0.6485009275967772,-0.5607608943683248,0.0,-1.735,-0.35,-0.7801621756414646,0.0
1759837375.5649242,1,-0.9927686919579795,-0.683815544992388,-0.5912975606895655,0.0,-1.735,-0.35,-0.7801621756414646,0.0
1759837375.5759535,1,-1.03359485464295,-0.7119364606825382,-0.615613809382227,0.0,-1.735,-0.35,-0.7801621756414646,0.0
1759837375.5871136,1,-1.0661848578827384,-0.7343843390324961,-0.6350245639463602,0.0,-1.735,-0.35,-0.7801621756414646,0.0
1759837375.5978184,1,-1.0922811875661451,-0.7523593981266392,-0.650567656924359,0.0,-1.735,-0.35,-0.7801621756414646,0.0
1759837375.6083794,1,-1.1145501369829593,-0.767698171302326,-0.6638311447598908,0.0,-1.735,-0.35,-0.7801621756414646,0.0
1759837375.6184862,1,-1.1322367589421316,-0.7798806536187582,-0.6743653774628492,0.0,-1.735,-0.35,-0.7801621756414646,0.0
1759837375.6297646,1,-1.14630079903221,-0.7895679144247214,-0.6827419838829233,0.0,-1.735,-0.35,-0.7801621756414646,0.0
1759837375.640683,1,-1.1575182931921015,-0.7972944845155515,-0.6894231745646234,0.0,-1.735,-0.35,-0.7801621756414646,0.0
1759837375.6519742,1,-1.1664848852898229,-0.8034706412695833,-0.6947637177123169,0.0,-1.735,-0.35,-0.7801621756414646,0.0
1759837375.6633883,1,-1.1740999940198142,-0.8087159010854477,-0.699299311202427,0.0,-1.734999777754148,-0.34999987587332726,-0.7229997692643089,0.0
1759837375.674336,1,-1.180141807932049,-0.81287748102507,-0.7028978431236934,0.0,-1.7349997765108072,-0.34999987517890824,-0.7181163275164728,0.0
1759837375.685713,1,-1.1849457172687425,-0.8161863966947275,-0.7057590734340071,0.0,-1.734999776120719,-0.34999987496103985,-0.7176543648158535,0.0
1759837375.696412,1,-1.1887783480335548,-0.8188262991376882,-0.7080418057971599,0.0,-1.7349997759757527,-0.34999987488007467,-0.7175967311123799,0.0
1759837375.70717,1,-1.1918436130973544,-0.820937642814345,-0.7098674916490345,0.0,-1.7349997759206006,-0.3499998748492716,-0.7175908801635984,0.0
1759837375.7185361,1,-1.1944407870427796,-0.8227265669930761,-0.7114143802959635,0.0,-1.7349997758995466,-0.3499998748375127,-0.7175970941271359,0.0
1759837375.7294843,1,-1.1965021392278181,-0.8241464190484964,-0.7126421310586629,0.0,-1.7349997758915052,-0.3499998748330216,-0.7176091198970589,0.0
1759837375.7404413,1,-1.1981424569548162,-0.8252762640663079,-0.7136191117779249,0.0,-1.734999775888434,-0.3499998748313062,-0.7176210823427311,0.0
1759837375.751221,1,-1.1994513660147534,-0.8261778359726512,-0.7143987039836167,0.0,-1.7349997758872606,-0.3499998748306509,-0.7176318680616552,0.0
1759837375.761806,1,-1.2004986966654516,-0.8268992336008155,-0.7150224988957747,0.0,-1.7349997758868125,-0.3499998748304006,-0.7176410794125552,0.0
1759837375.772096,1,-1.201390158340108,-0.8275132692325121,-0.7155534575349246,0.0,-1.7349997758866413,-0.34999987483030504,-0.7176488697715868,0.0
1759837375.7835212,1,-1.2020968231899167,-0.8280000174683433,-0.715974350342385,0.0,-1.734999775886576,-0.3499998748302685,-0.7176541117730331,0.0
1759837375.7948694,1,-1.202658563242334,-0.8283869420190463,-0.7163089252795549,0.0,-1.7349997758865512,-0.3499998748302546,-0.7176588833602437,0.0
1759837375.805949,1,-1.2031064244647325,-0.8286954272365558,-0.7165756734661938,0.0,-1.7349997758865416,-0.34999987483024925,-0.7176633202198701,0.0
1759837375.8167186,1,-1.2034645433411677,-0.8289420982452663,-0.7167889707022854,0.0,-1.7349997758865379,-0.34999987483024725,-0.7176673284260353,0.0
1759837375.827731,1,-1.203769004247903,-0.8291518098352414,-0.7169703090069038,0.0,-1.7349997758865365,-0.34999987483024647,-0.7176705316423249,0.0
1759837375.8386145,1,-1.2040104166203103,-0.8293180938189556,-0.7171140953169284,0.0,-1.734999775886536,-0.34999987483024614,-0.717673355740061,0.0
1759837375.848974,1,-1.2042024364989041,-0.829450356428558,-0.7172284632323715,0.0,-1.7349997758865359,-0.349999874830246,-0.717676062367282,0.0
1759837375.8632874,1,-1.204354914937373,-0.8295553830348015,-0.717319280085738,0.0,-1.7349997758865356,-0.34999987483024597,-0.7176764056812637,0.0
1759837375.873419,1,-1.2044836791166484,-0.8296440753436345,-0.7173959726181743,0.0,-1.7349997758865356,-0.34999987483024597,-0.7176791525194268,0.0
1759837375.8844113,1,-1.2045856074334238,-0.8297142832057989,-0.7174566815885144,0.0,-1.7349997758865356,-0.34999987483024597,-0.7176810926779478,0.0
1759837375.8958056,1,-1.2046664710376274,-0.8297699817688442,-0.7175048443199757,0.0,-1.7349997758865356,-0.34999987483024597,-0.717682556726313,0.0
1759837375.9073405,1,-1.2047307871940687,-0.8298142825087094,-0.7175431513160815,0.0,-1.7349997758865356,-0.34999987483024597,-0.717683816920001,0.0
1759837375.918301,1,-1.2047821122813,-0.8298496350462956,-0.7175737207721169,0.0,-1.7349997758865356,-0.34999987483024597,-0.717685183262402,0.0
1759837375.9285738,1,-1.204825562161974,-0.8298795631696073,-0.7175995997192098,0.0,-1.7349997758865356,-0.34999987483024597,-0.7176866106865808,0.0
1759837375.939488,1,-1.2048599683709267,-0.8299032620439944,-0.7176200922141799,0.0,-1.7349997758865356,-0.34999987483024597,-0.7176875962762033,0.0
1759837375.9502196,1,-1.2048872893031615,-0.8299220806049717,-0.7176363646860227,0.0,-1.7349997758865356,-0.34999987483024597,-0.7176885193348213,0.0
1759837375.96138,1,-1.204909029731595,-0.8299370553347734,-0.7176493133843501,0.0,-1.7349997758865356,-0.34999987483024597,-0.7176892205925043,0.0
1759837375.9720428,1,-1.2049263842190672,-0.8299490090440361,-0.7176596497962379,0.0,-1.7349997758865356,-0.34999987483024597,-0.7176900201625731,0.0
1759837375.9827158,1,-1.2049410784467414,-0.8299591303758092,-0.7176684017452571,0.0,-1.7349997758865356,-0.34999987483024597,-0.7176907389195737,0.0
1759837375.9936056,1,-1.20495271289021,-0.8299671441391012,-0.7176753312728488,0.0,-1.7349997758865356,-0.34999987483024597,-0.7176913301060797,0.0
1759837376.0051157,1,-1.2049619427542615,-0.8299735016366409,-0.7176808286219728,0.0,-1.7349997758865356,-0.34999987483024597,-0.7176917329417201,0.0
1759837376.0151904,1,-1.2049692959266387,-0.8299785664756282,-0.7176852082049764,0.0,-1.7349997758865356,-0.34999987483024597,-0.7176924831508007,0.0
1759837376.0262158,1,-1.204975162167631,-0.8299826071215649,-0.7176887021648658,0.0,-1.7349997758865356,-0.34999987483024597,-0.7176929282474678,0.0
1759837376.037613,1,-1.2049798524703228,-0.8299858377853816,-0.7176914957305404,0.0,-1.7349997758865356,-0.34999987483024597,-0.7176932680532939,0.0
1759837376.0480804,1,-1.2049838419902406,-0.8299885857525152,-0.7176938719067985,0.0,-1.7349997758865356,-0.34999987483024597,-0.7176938107148132,0.0
1759837376.0606174,1,-1.2049870025809488,-0.8299907627561569,-0.717695754369039,0.0,-1.7349997758865356,-0.34999987483024597,-0.7176939054030385,0.0
1759837376.069196,1,-1.204989524207932,-0.8299924996438567,-0.7176972562615707,0.0,-1.7349997758865356,-0.34999987483024597,-0.7176948070898845,0.0
1759837376.079681,1,-1.204991536166927,-0.8299938854740585,-0.7176984545935241,0.0,-1.7349997758865356,-0.34999987483024597,-0.7176952052419487,0.0
1759837376.0900114,1,-1.2049931457140708,-0.829994994124408,-0.7176994132471437,0.0,-1.7349997758865356,-0.34999987483024597,-0.7176955663832825,0.0
1759837376.101364,1,-1.2049945108823963,-0.8299959344474964,-0.7177002263476244,0.0,-1.7349997758865356,-0.34999987483024597,-0.7176957265504562,0.0
1759837376.112485,1,-1.2049955935375245,-0.8299966801764991,-0.7177008711819566,0.0,-1.7349997758865356,-0.34999987483024597,-0.7176959530651548,0.0
1759837376.123401,1,-1.204996454596067,-0.8299972732705614,-0.7177013840323515,0.0,-1.7349997758865356,-0.34999987483024597,-0.7176962293458864,0.0
1759837376.1344185,1,-1.2049971411127625,-0.8299977461408201,-0.7177017929248264,0.0,-1.7349997758865356,-0.34999987483024597,-0.7176964873911835,0.0
1759837376.1451263,1,-1.2049976900707724,-0.8299981242611454,-0.7177021198867207,0.0,-1.7349997758865356,-0.34999987483024597,-0.7176967850491422,0.0
1759837376.1557443,1,-1.204998154869521,-0.8299984444128706,-0.7177023967229751,0.0,-1.7349997758865356,-0.34999987483024597,-0.7176970754870062,0.0
1759837376.1664612,1,-1.2049985238015968,-0.8299986985319726,-0.7177026164606021,0.0,-1.7349997758865356,-0.34999987483024597,-0.7176973290406962,0.0
1759837376.176495,1,-1.2049988175942863,-0.8299989008953325,-0.717702791444868,0.0,-1.7349997758865356,-0.34999987483024597,-0.7176976522744916,0.0
1759837376.1867712,1,-1.2049990520499265,-0.8299990623875437,-0.7177029310877165,0.0,-1.7349997758865356,-0.34999987483024597,-0.7176979056519102,0.0
1759837376.197653,1,-1.2049992394878064,-0.8299991914940889,-0.7177030427265726,0.0,-1.7349997758865356,-0.34999987483024597,-0.7176980598637943,0.0
1759837376.20834,1,-1.204999398456088,-0.8299993009908762,-0.7177031374088063,0.0,-1.7349997758865356,-0.34999987483024597,-0.7176982394326323,0.0
1759837376.2186267,1,-1.2049995246446026,-0.8299993879090763,-0.717703212567261,0.0,-1.7349997758865356,-0.34999987483024597,-0.7176984620796141,0.0
1759837376.229427,1,-1.2049996250052395,-0.8299994570371262,-0.7177032723425141,0.0,-1.7349997758865356,-0.34999987483024597,-0.7176986126727734,0.0
1759837376.2402933,1,-1.2049997050233054,-0.8299995121532856,-0.7177033200016392,0.0,-1.7349997758865356,-0.34999987483024597,-0.7176987558251717,0.0
1759837376.251413,1,-1.2049997689686944,-0.8299995561986422,-0.7177033580878045,0.0,-1.7349997758865356,-0.34999987483024597,-0.7176988781556553,0.0
1759837376.2650504,1,-1.2049998230108456,-0.8299995934226838,-0.7177033902755562,0.0,-1.7349997758865356,-0.34999987483024597,-0.7176987745836012,0.0
1759837376.2751818,1,-1.204999865946378,-0.829999622996526,-0.7177034158481551,0.0,-1.7349997758865356,-0.34999987483024597,-0.7176990712110012,0.0
1759837376.2853959,1,-1.2049999001373928,-0.8299996465471753,-0.7177034362124793,0.0,-1.7349997758865356,-0.34999987483024597,-0.7176993331415282,0.0
1759837376.296016,1,-1.2049999274193217,-0.8299996653388709,-0.7177034524617206,0.0,-1.7349997758865356,-0.34999987483024597,-0.7176995176243324,0.0
1759837376.3063047,1,-1.204999949250574,-0.82999968037616,-0.7177034654645142,0.0,-1.7349997758865356,-0.34999987483024597,-0.7176997070947451,0.0
1759837376.317084,1,-1.2049999677527417,-0.8299996931203872,-0.7177034764844896,0.0,-1.7349997758865356,-0.34999987483024597,-0.7176998357065543,0.0
1759837376.3276858,1,-1.2049999824406934,-0.8299997032373961,-0.7177034852327006,0.0,-1.7349997758865356,-0.34999987483024597,-0.7176999711723919,0.0
1759837376.3378875,1,-1.2049999941350003,-0.8299997112923929,-0.717703492197883,0.0,-1.7349997758865356,-0.34999987483024597,-0.71770012902115,0.0
1759837376.3488858,1,-1.2050000034606168,-0.8299997177158444,-0.7177034977522627,0.0,-1.7349997758865356,-0.34999987483024597,-0.7177002142365652,0.0
1759837376.3592446,1,-1.2050000109216612,-0.8299997228549851,-0.7177035021960948,0.0,-1.7349997758865356,-0.34999987483024597,-0.7177003461481702,0.0
1759837376.3705673,1,-1.2050000172479467,-0.829999727212508,-0.7177035059640593,0.0,-1.7349997758865356,-0.34999987483024597,-0.7177004059759966,0.0
1759837376.381183,1,-1.2050000222688062,-0.8299997306708583,-0.7177035089545062,0.0,-1.7349997758865356,-0.34999987483024597,-0.7177005208625076,0.0
1759837376.3914268,1,-1.2050000262652236,-0.8299997334235764,-0.7177035113347906,0.0,-1.7349997758865356,-0.34999987483024597,-0.717700655368759,0.0
1759837376.401667,1,-1.2050000294539798,-0.8299997356199802,-0.7177035132340284,0.0,-1.7349997758865356,-0.34999987483024597,-0.7177007762725971,0.0
1759837376.411834,1,-1.2050000320046677,-0.8299997373768849,-0.7177035147532297,0.0,-1.7349997758865356,-0.34999987483024597,-0.7177008886970544,0.0
1759837376.4226491,1,-1.2050000341598284,-0.829999738861352,-0.7177035160368532,0.0,-1.7349997758865356,-0.34999987483024597,-0.7177009536125515,0.0
1759837376.4333794,1,-1.2050000358704955,-0.8299997400396534,-0.7177035170557343,0.0,-1.7349997758865356,-0.34999987483024597,-0.717701025423505,0.0
1759837376.444218,1,-1.2050000372316585,-0.8299997409772176,-0.7177035178664493,0.0,-1.7349997758865356,-0.34999987483024597,-0.7177010939907973,0.0
1759837376.4549363,1,-1.205000038317642,-0.8299997417252392,-0.7177035185132659,0.0,-1.7349997758865356,-0.34999987483024597,-0.7177011711239841,0.0
1759837376.4662645,1,-1.2050000392357636,-0.8299997423576381,-0.7177035190601033,0.0,-1.7349997758865356,-0.34999987483024597,-0.7177012181052067,0.0
1759837376.4765728,1,-1.2050000399629581,-0.8299997428585272,-0.7177035194932238,0.0,-1.7349997758865356,-0.34999987483024597,-0.7177013206867251,0.0
1759837376.4866972,1,-1.2050000405404593,-0.8299997432563079,-0.7177035198371859,0.0,-1.7349997758865356,-0.34999987483024597,-0.7177014236343381,0.0
1759837376.497128,1,-1.2050000410000439,-0.8299997435728682,-0.7177035201109168,0.0,-1.7349997758865356,-0.34999987483024597,-0.7177015004425157,0.0
1759837376.50734,1,-1.2050000413667785,-0.8299997438254738,-0.7177035203293456,0.0,-1.7349997758865356,-0.34999987483024597,-0.7177015803277377,0.0
1759837376.518459,1,-1.2050000416598483,-0.8299997440273393,-0.7177035205038994,0.0,-1.7349997758865356,-0.34999987483024597,-0.7177016160262628,0.0
1759837376.5289152,1,-1.2050000419085745,-0.8299997441986611,-0.7177035206520419,0.0,-1.7349997758865356,-0.34999987483024597,-0.7177016837236057,0.0
1759837376.5390317,1,-1.2050000421059885,-0.8299997443346392,-0.7177035207696226,0.0,-1.7349997758865356,-0.34999987483024597,-0.717701762698729,0.0
1759837376.5496817,1,-1.2050000422629683,-0.8299997444427663,-0.7177035208631205,0.0,-1.7349997758865356,-0.34999987483024597,-0.7177018139571345,0.0
1759837376.5600636,1,-1.2050000423881464,-0.8299997445289884,-0.7177035209376771,0.0,-1.7349997758865356,-0.34999987483024597,-0.7177018738008414,0.0
1759837376.570119,1,-1.205000042488245,-0.8299997445979359,-0.7177035209972963,0.0,-1.7349997758865356,-0.34999987483024597,-0.7177019423931288,0.0
1759837376.5809321,1,-1.2050000425730096,-0.8299997446563215,-0.7177035210477825,0.0,-1.7349997758865356,-0.34999987483024597,-0.7177019788151782,0.0
1759837376.591089,1,-1.205000042640256,-0.8299997447026406,-0.7177035210878346,0.0,-1.7349997758865356,-0.34999987483024597,-0.7177020385854185,0.0
1759837376.6014156,1,-1.2050000426937248,-0.8299997447394696,-0.7177035211196808,0.0,-1.7349997758865356,-0.34999987483024597,-0.7177020892971377,0.0
1759837376.612212,1,-1.2050000427363223,-0.8299997447688107,-0.7177035211450521,0.0,-1.7349997758865356,-0.34999987483024597,-0.7177021226386806,0.0
1759837376.6228347,1,-1.2050000427703518,-0.8299997447922501,-0.7177035211653202,0.0,-1.7349997758865356,-0.34999987483024597,-0.7177021633909355,0.0
1759837376.6338613,1,-1.2050000427991203,-0.8299997448120657,-0.717703521182455,0.0,-1.7349997758865356,-0.34999987483024597,-0.7177021934048646,0.0
1759837376.644699,1,-1.205000042821929,-0.8299997448277762,-0.7177035211960399,0.0,-1.7349997758865356,-0.34999987483024597,-0.717702232035446,0.0
1759837376.6560347,1,-1.2050000428400498,-0.8299997448402576,-0.7177035212068326,0.0,-1.7349997758865356,-0.34999987483024597,-0.7177022586836888,0.0
1759837376.6678212,1,-1.205000042854478,-0.8299997448501957,-0.717703521215426,0.0,-1.7349997758865356,-0.34999987483024597,-0.7177022780974589,0.0
1759837376.6784437,1,-1.2050000428666328,-0.8299997448585678,-0.7177035212226653,0.0,-1.7349997758865356,-0.34999987483024597,-0.7177023334091128,0.0
1759837376.689139,1,-1.205000042876256,-0.8299997448651963,-0.7177035212283972,0.0,-1.7349997758865356,-0.34999987483024597,-0.7177023834353218,0.0
1759837376.7002993,1,-1.2050000428838907,-0.8299997448704552,-0.7177035212329446,0.0,-1.7349997758865356,-0.34999987483024597,-0.7177024181113989,0.0
1759837376.7111776,1,-1.2050000428899659,-0.8299997448746398,-0.7177035212365631,0.0,-1.7349997758865356,-0.34999987483024597,-0.7177024587291836,0.0
1759837376.7214506,1,-1.2050000428948153,-0.8299997448779802,-0.7177035212394516,0.0,-1.7349997758865356,-0.34999987483024597,-0.7177025106184605,0.0
1759837376.7321064,1,-1.205000042898917,-0.8299997448808054,-0.7177035212418944,0.0,-1.7349997758865356,-0.34999987483024597,-0.7177025485381598,0.0
1759837376.7422423,1,-1.2050000429021657,-0.8299997448830432,-0.7177035212438294,0.0,-1.7349997758865356,-0.34999987483024597,-0.717702593730932,0.0
1759837376.7529416,1,-1.2050000429047438,-0.829999744884819,-0.7177035212453649,0.0,-1.7349997758865356,-0.34999987483024597,-0.7177026228402035,0.0
1759837376.7642684,1,-1.2050000429067935,-0.8299997448862309,-0.7177035212465858,0.0,-1.7349997758865356,-0.34999987483024597,-0.7177026388930815,0.0
1759837376.7748115,1,-1.2050000429084289,-0.8299997448873573,-0.7177035212475598,0.0,-1.7349997758865356,-0.34999987483024597,-0.717702672470363,0.0
1759837376.7850645,1,-1.2050000429097372,-0.8299997448882585,-0.7177035212483389,0.0,-1.7349997758865356,-0.34999987483024597,-0.7177027097958,0.0
1759837376.795406,1,-1.205000042910847,-0.829999744889023,-0.7177035212489999,0.0,-1.7349997758865356,-0.34999987483024597,-0.7177027417534009,0.0
1759837376.8055427,1,-1.2050000429117278,-0.8299997448896298,-0.7177035212495249,0.0,-1.7349997758865356,-0.34999987483024597,-0.7177027741059804,0.0
1759837376.8161564,1,-1.2050000429124286,-0.8299997448901124,-0.7177035212499422,0.0,-1.7349997758865356,-0.34999987483024597,-0.7177027956246835,0.0
1759837376.8272827,1,-1.205000042912987,-0.8299997448904971,-0.7177035212502748,0.0,-1.7349997758865356,-0.34999987483024597,-0.7177028088525557,0.0
1759837376.8375578,1,-1.2050000429134338,-0.8299997448908047,-0.7177035212505408,0.0,-1.7349997758865356,-0.34999987483024597,-0.7177028372767129,0.0
1759837376.8484817,1,-1.2050000429138112,-0.8299997448910648,-0.7177035212507656,0.0,-1.7349997758865356,-0.34999987483024597,-0.7177028547392688,0.0
1759837376.8595703,1,-1.2050000429141108,-0.829999744891271,-0.7177035212509439,0.0,-1.7349997758865356,-0.34999987483024597,-0.7177028704553283,0.0
1759837376.8709865,1,-1.205000042914349,-0.829999744891435,-0.7177035212510858,0.0,-1.7349997758865356,-0.34999987483024597,-0.717702883383801,0.0
1759837376.8816588,1,-1.205000042914539,-0.8299997448915659,-0.7177035212511992,0.0,-1.7349997758865356,-0.34999987483024597,-0.7177029083939566,0.0
1759837376.8925998,1,-1.2050000429146999,-0.8299997448916766,-0.7177035212512949,0.0,-1.7349997758865356,-0.34999987483024597,-0.7177029289396089,0.0
1759837376.9033484,1,-1.205000042914827,-0.8299997448917643,-0.7177035212513707,0.0,-1.7349997758865356,-0.34999987483024597,-0.717702951079044,0.0
1759837376.9146998,1,-1.2050000429149281,-0.8299997448918338,-0.7177035212514308,0.0,-1.7349997758865356,-0.34999987483024597,-0.7177029650301918,0.0
1759837376.925025,1,-1.2050000429150085,-0.8299997448918891,-0.7177035212514785,0.0,-1.7349997758865356,-0.34999987483024597,-0.7177029914435789,0.0
1759837376.9363346,1,-1.2050000429150725,-0.8299997448919332,-0.7177035212515167,0.0,-1.7349997758865356,-0.34999987483024597,-0.7177030046781141,0.0
1759837376.9465275,1,-1.2050000429151266,-0.8299997448919706,-0.717703521251549,0.0,-1.7349997758865356,-0.34999987483024597,-0.7177030300462484,0.0
1759837376.9569201,1,-1.2050000429151697,-0.8299997448920002,-0.7177035212515747,0.0,-1.7349997758865356,-0.34999987483024597,-0.7177030507357571,0.0
1759837376.967041,1,-1.205000042915204,-0.8299997448920237,-0.717703521251595,0.0,-1.7349997758865356,-0.34999987483024597,-0.7177030718117141,0.0
1759837376.977932,1,-1.205000042915231,-0.8299997448920423,-0.7177035212516111,0.0,-1.7349997758865356,-0.34999987483024597,-0.717703083137307,0.0
1759837376.989057,1,-1.2050000429152528,-0.8299997448920572,-0.717703521251624,0.0,-1.7349997758865356,-0.34999987483024597,-0.7177030925286907,0.0
1759837376.9997942,1,-1.20500004291527,-0.8299997448920692,-0.7177035212516344,0.0,-1.7349997758865356,-0.34999987483024597,-0.7177031066258177,0.0
1759837377.0105042,1,-1.2050000429152847,-0.8299997448920793,-0.7177035212516432,0.0,-1.7349997758865356,-0.34999987483024597,-0.7177031208648543,0.0
1759837377.0210893,1,-1.2050000429152965,-0.8299997448920874,-0.71770352125165,0.0,-1.7349997758865356,-0.34999987483024597,-0.7177031355966133,0.0
1759837377.0312567,1,-1.2050000429153058,-0.8299997448920938,-0.7177035212516556,0.0,-1.7349997758865356,-0.34999987483024597,-0.7177031528049422,0.0
1759837377.0420485,1,-1.2050000429153132,-0.8299997448920989,-0.71770352125166,0.0,-1.7349997758865356,-0.34999987483024597,-0.7177031633454583,0.0
1759837377.0527253,1,-1.2050000429153191,-0.8299997448921029,-0.7177035212516636,0.0,-1.7349997758865356,-0.34999987483024597,-0.7177031745631091,0.0
1759837377.06649,1,-1.205000042915324,-0.8299997448921064,-0.7177035212516665,0.0,-1.7349997758865356,-0.34999987483024597,-0.7177031635326614,0.0
1759837377.073644,1,-1.205000042915328,-0.8299997448921091,-0.7177035212516688,0.0,-1.7349997758865356,-0.34999987483024597,-0.7177032050450548,0.0
1759837377.0847633,1,-1.2050000429153311,-0.8299997448921113,-0.7177035212516707,0.0,-1.7349997758865356,-0.34999987483024597,-0.7177032119759943,0.0
1759837377.0962255,1,-1.2050000429153336,-0.8299997448921129,-0.7177035212516722,0.0,-1.7349997758865356,-0.34999987483024597,-0.7177032156460844,0.0
1759837377.106543,1,-1.2050000429153356,-0.8299997448921144,-0.7177035212516734,0.0,-1.7349997758865356,-0.34999987483024597,-0.717703228349027,0.0
1759837377.1172252,1,-1.2050000429153374,-0.8299997448921155,-0.7177035212516744,0.0,-1.7349997758865356,-0.34999987483024597,-0.7177032381212882,0.0
1759837377.127889,1,-1.2050000429153387,-0.8299997448921164,-0.7177035212516752,0.0,-1.7349997758865356,-0.34999987483024597,-0.717703247526309,0.0
1759837377.138361,1,-1.2050000429153398,-0.8299997448921171,-0.7177035212516759,0.0,-1.7349997758865356,-0.34999987483024597,-0.717703257709605,0.0
1759837377.1496851,1,-1.2050000429153407,-0.8299997448921178,-0.7177035212516764,0.0,-1.7349997758865356,-0.34999987483024597,-0.7177032625731172,0.0
1759837377.1603692,1,-1.2050000429153414,-0.8299997448921183,-0.7177035212516768,0.0,-1.7349997758865356,-0.34999987483024597,-0.7177032716756244,0.0
1759837377.1711018,1,-1.2050000429153418,-0.8299997448921187,-0.7177035212516771,0.0,-1.7349997758865356,-0.34999987483024597,-0.7177032803549164,0.0
1759837377.1817741,1,-1.2050000429153422,-0.829999744892119,-0.7177035212516774,0.0,-1.7349997758865356,-0.34999987483024597,-0.7177032889544535,0.0
1759837377.192205,1,-1.2050000429153427,-0.8299997448921193,-0.7177035212516776,0.0,-1.7349997758865356,-0.34999987483024597,-0.7177032982775735,0.0
1759837377.2023056,1,-1.2050000429153431,-0.8299997448921195,-0.7177035212516778,0.0,-1.7349997758865356,-0.34999987483024597,-0.7177033083776543,0.0
1759837377.2126708,1,-1.2050000429153434,-0.8299997448921197,-0.7177035212516779,0.0,-1.7349997758865356,-0.34999987483024597,-0.7177033161279738,0.0
1759837377.2229905,1,-1.2050000429153434,-0.8299997448921199,-0.7177035212516779,0.0,-1.7349997758865356,-0.34999987483024597,-0.7177033234383323,0.0
1759837377.2333171,1,-1.2050000429153434,-0.8299997448921199,-0.7177035212516779,0.0,-1.7349997758865356,-0.34999987483024597,-0.7177033302465041,0.0
1759837377.2433705,1,-1.2050000429153434,-0.8299997448921199,-0.7177035212516779,0.0,-1.7349997758865356,-0.34999987483024597,-0.7177033377886595,0.0
1759837377.2534723,1,-1.2050000429153434,-0.8299997448921199,-0.7177035212516779,0.0,-1.7349997758865356,-0.34999987483024597,-0.7177033444833468,0.0
1759837377.267088,1,-1.2050000429153434,-0.8299997448921199,-0.7177035212516779,0.0,-1.7349997758865356,-0.34999987483024597,-0.7177033372373067,0.0
1759837377.2777903,1,-1.2050000429153434,-0.8299997448921199,-0.7177035212516779,0.0,-1.7349997758865356,-0.34999987483024597,-0.7177033444608014,0.0
1759837377.288051,1,-1.2050000429153434,-0.8299997448921199,-0.7177035212516779,0.0,-1.7349997758865356,-0.34999987483024597,-0.7177033535476518,0.0
1759837377.2987223,1,-1.2050000429153434,-0.8299997448921199,-0.7177035212516779,0.0,-1.7349997758865356,-0.34999987483024597,-0.7177033600832736,0.0
1759837377.3090227,1,-1.2050000429153434,-0.8299997448921199,-0.7177035212516779,0.0,-1.7349997758865356,-0.34999987483024597,-0.7177033672356448,0.0
1759837377.3191733,1,-1.2050000429153434,-0.8299997448921199,-0.7177035212516779,0.0,-1.7349997758865356,-0.34999987483024597,-0.7177033741173221,0.0
1759837377.329422,1,-1.2050000429153434,-0.8299997448921199,-0.7177035212516779,0.0,-1.7349997758865356,-0.34999987483024597,-0.7177033798879187,0.0
1759837377.3400471,1,-1.2050000429153434,-0.8299997448921199,-0.7177035212516779,0.0,-1.7349997758865356,-0.34999987483024597,-0.7177033839693685,0.0
1759837377.3506544,1,-1.2050000429153434,-0.8299997448921199,-0.7177035212516779,0.0,-1.7349997758865356,-0.34999987483024597,-0.7177033880440131,0.0
1759837377.3617454,1,-1.2050000429153434,-0.8299997448921199,-0.7177035212516779,0.0,-1.7349997758865356,-0.34999987483024597,-0.7177033907614624,0.0
1759837377.3717473,1,-1.2050000429153434,-0.8299997448921199,-0.7177035212516779,0.0,-1.7349997758865356,-0.34999987483024597,-0.717703396818866,0.0
1759837377.3819046,1,-1.2050000429153434,-0.8299997448921199,-0.7177035212516779,0.0,-1.7349997758865356,-0.34999987483024597,-0.7177034018979,0.0
1759837377.3920438,1,-1.2050000429153434,-0.8299997448921199,-0.7177035212516779,0.0,-1.7349997758865356,-0.34999987483024597,-0.7177034064788687,0.0
1759837377.4025543,1,-1.2050000429153434,-0.8299997448921199,-0.7177035212516779,0.0,-1.7349997758865356,-0.34999987483024597,-0.7177034097310191,0.0
1759837377.4135253,1,-1.2050000429153434,-0.8299997448921199,-0.7177035212516779,0.0,-1.7349997758865356,-0.34999987483024597,-0.7177034118429262,0.0
1759837377.4243698,1,-1.2050000429153434,-0.8299997448921199,-0.7177035212516779,0.0,-1.7349997758865356,-0.34999987483024597,-0.7177034146041699,0.0
1759837377.4348428,1,-1.2050000429153434,-0.8299997448921199,-0.7177035212516779,0.0,-1.7349997758865356,-0.34999987483024597,-0.7177034184162121,0.0
1759837377.4457877,1,-1.2050000429153434,-0.8299997448921199,-0.7177035212516779,0.0,-1.7349997758865356,-0.34999987483024597,-0.7177034210615645,0.0
1759837377.4566493,1,-1.2050000429153434,-0.8299997448921199,-0.7177035212516779,0.0,-1.7349997758865356,-0.34999987483024597,-0.7177034239874676,0.0
1759837377.4702792,1,-1.2050000429153434,-0.8299997448921199,-0.7177035212516779,0.0,-1.7349997758865356,-0.34999987483024597,-0.7177034214768696,0.0012114331831312342
1759837377.4811482,1,-1.2050000429153434,-0.8299997448921199,-0.7177035212516779,0.0,-1.7349995933676414,-0.3500000341716014,-0.7177034345491718,0.0012235475149625465
1759837377.4926634,1,-1.2050000429153434,-0.8299997448921199,-0.7177035212516779,0.0,-1.7349995933676416,-0.35000003417160175,-0.7177034375207981,0.0012235475149625465
1759837377.5033686,1,-1.2050000429153434,-0.8299997448921199,-0.7177035212516779,0.0,-1.734999277535836,-0.3500006126164135,-0.7177034404968115,0.0012414271607470266
1759837377.5147474,1,-1.2050000429153434,-0.8299997448921199,-0.7177035212516779,0.0,-1.7349991389707369,-0.3500009647649086,-0.7177034427805553,0.001248133593082592
1759837377.525849,1,-1.2050000429153434,-0.8299997448921199,-0.7177035212516779,0.0,-1.7349979315498905,-0.35000226492390163,-0.7177034454570533,0.0013864394414533558
1759837377.5359492,1,-1.2050000429153434,-0.8299997448921199,-0.7177035212516779,0.0,-1.7349967788629783,-0.35000478987326683,-0.7177034494803344,0.0014973130511424415
1759837377.546321,1,-1.2050000429153434,-0.8299997448921199,-0.7177035212516779,0.0,-1.7349967788629852,-0.3500047898732746,-0.717703452729628,0.0014973130511424415
1759837377.5577092,1,-1.2050000429153434,-0.8299997448921199,-0.7177035212516779,0.0,-1.7349945850923858,-0.35001173780234984,-0.7177034539797644,0.001663655099813216
1759837377.5685556,1,-1.2050000429153434,-0.8299997448921199,-0.7177035212516779,0.0,-1.7349935716129554,-0.35001560638913226,-0.7177034561775112,0.0017261910348261298
1759837377.5798385,1,-1.2050000429153434,-0.8299997448921199,-0.7177035212516779,0.0,-1.734992735449729,-0.3500192593691969,-0.7177034578217474,0.0017734579377040956
1759837377.5909317,1,-1.2050000429153434,-0.8299997448921199,-0.7177035212516779,0.0,-1.7349919485480418,-0.35002282483409497,-0.7177034597976408,0.001813350652143309
1759837377.602261,1,-1.2050000429153434,-0.8299997448921199,-0.7177035212516779,0.0,-1.7349919485480492,-0.3500228248341034,-0.7177034614741142,0.001813350652143309
1759837377.6129732,1,-1.2050000429153434,-0.8299997448921199,-0.7177035212516779,0.0,-1.7349905734879623,-0.35002936275449703,-0.7177034639532374,0.0018750009136251117
1759837377.6231825,1,-1.2050000429153434,-0.8299997448921199,-0.7177035212516779,0.0,-1.7349899585172048,-0.3500323513494654,-0.7177034667756218,0.0018995042257128542
1759837377.6337845,1,-1.2050000429153434,-0.8299997448921199,-0.7177035212516779,0.0,-1.734989545667995,-0.3500347145518368,-0.7177034688357496,0.0019142295092587891
1759837377.6449757,1,-1.2050000429153434,-0.8299997448921199,-0.7177035212516779,0.0,-1.7349891500650763,-0.35003690411122435,-0.7177034701317601,0.0019276669703794389
1759837377.6562774,1,-1.2050000429153434,-0.8299997448921199,-0.7177035212516779,0.0,-1.7349891500650823,-0.35003690411123134,-0.7177034712920224,0.0019276669703794389
1759837377.671736,1,-1.2050000429153434,-0.8299997448921199,-0.7177035212516779,0.0,-1.734988426628288,-0.3500407682064036,-0.7177034688426868,0.0019511679212515826
1759837377.6828423,1,-1.2050000429153434,-0.8299997448921199,-0.7177035212516779,0.0,-1.7349880946563885,-0.3500424807271655,-0.7177034715452033,0.0019616370609144046
1759837377.6930735,1,-1.2050000429153434,-0.8299997448921199,-0.7177035212516779,0.0,-1.734987767837967,-0.35004411851903056,-0.7177034749055498,0.0019716807558059985
1759837377.7034159,1,-1.2050000429153434,-0.8299997448921199,-0.7177035212516779,0.0,-1.7349876377697324,-0.3500451127265444,-0.7177034776296155,0.001973747539447759
1759837377.7140586,1,-1.2050000429153434,-0.8299997448921199,-0.7177035212516779,0.0,-1.734987637769743,-0.3500451127265568,-0.7177034795650706,0.001973747539447759
1759837377.7255101,1,-1.2050000429153434,-0.8299997448921199,-0.7177035212516779,0.0,-1.7349873279205321,-0.35004697826368675,-0.7177034807652526,0.0019810125024286914
1759837377.7364657,1,-1.2050000429153434,-0.8299997448921199,-0.7177035212516779,0.0,-1.7349871564377413,-0.35004787189139347,-0.7177034822754584,0.0019856890277818095
1759837377.7467027,1,-1.2050000429153434,-0.8299997448921199,-0.7177035212516779,0.0,-1.7349869707296177,-0.35004877711471766,-0.7177034842365928,0.0019909744340515104
1759837377.7581265,1,-1.2050000429153434,-0.8299997448921199,-0.7177035212516779,0.0,-1.7349869557360584,-0.35004912518639225,-0.7177034851421127,0.0019896285610444147
1759837377.76936,1,-1.2050000429153434,-0.8299997448921199,-0.7177035212516779,0.0,-1.734986906844691,-0.3500495124557778,-0.7177034862064711,0.001990004588448601
1759837377.7808104,1,-1.2050000429153434,-0.8299997448921199,-0.7177035212516779,0.0,-1.7349868325109064,-0.3500499399317334,-0.7177034871546768,0.0019916372143181137
1759837377.7909045,1,-1.2050000429153434,-0.8299997448921199,-0.7177035212516779,0.0,-1.734986730891816,-0.35005042879952236,-0.7177034890033704,0.001994466775262036
1759837377.8022146,1,-1.2050000429153434,-0.8299997448921199,-0.7177035212516779,0.0,-1.7349866092852937,-0.35005096820683584,-0.717703489872322,0.0019981075226553485
1759837377.8122964,1,-1.2050000429153434,-0.8299997448921199,-0.7177035212516779,0.0,-1.7349866548986317,-0.3500509727281525,-0.7177034914832361,0.0019952793760272527
1759837377.823126,1,-1.2050000429153434,-0.8299997448921199,-0.7177035212516779,0.0,-1.7349866548986368,-0.3500509727281585,-0.7177034923977829,0.0019952793760272527
1759837377.834429,1,-1.2050000429153434,-0.8299997448921199,-0.7177035212516779,0.0,-1.7349866202781066,-0.35005126423126687,-0.7177034931346735,0.0019953105656792267
1759837377.8456569,1,-1.2050000429153434,-0.8299997448921199,-0.7177035212516779,0.0,-1.7349865520065513,-0.3500515509231298,-0.7177034938937144,0.001997447982702358
1759837377.8557708,1,-1.2050000429153434,-0.8299997448921199,-0.7177035212516779,0.0,-1.7349864563702826,-0.35005192709557215,-0.7177034952656499,0.002000602708235853
1759837377.8694184,1,-1.2050000429153434,-0.8299997448921199,-0.7177035212516779,0.0,-1.7349865256136312,-0.3500517835513077,-0.7177034947428503,0.0019973530705815743
1759837377.8778987,1,-1.2050000429153434,-0.8299997448921199,-0.7177035212516779,0.0,-1.7349865471308432,-0.3500517558657462,-0.7177034970736781,0.0019961918210595502
1759837377.8892834,1,-1.2050000429153434,-0.8299997448921199,-0.7177035212516779,0.0,-1.7349865291074666,-0.3500518412054148,-0.7177034976653613,0.0019966842458408874
1759837377.8998914,1,-1.2050000429153434,-0.8299997448921199,-0.7177035212516779,0.0,-1.7349864765755256,-0.3500520357013242,-0.7177034985743246,0.001998514670248457
1759837377.9109974,1,-1.2050000429153434,-0.8299997448921199,-0.7177035212516779,0.0,-1.7349863926641025,-0.3500523373801107,-0.7177034992121457,0.0020014794195059456
1759837377.922563,1,-1.2050000429153434,-0.8299997448921199,-0.7177035212516779,0.0,-1.7349864725185953,-0.3500521267292043,-0.7177034996775634,0.0019980641060728583
1759837377.9337413,1,-1.2050000429153434,-0.8299997448921199,-0.7177035212516779,0.0,-1.734986472518599,-0.3500521267292085,-0.7177035003146154,0.0019980641060728583
1759837377.944795,1,-1.2050000429153434,-0.8299997448921199,-0.7177035212516779,0.0,-1.7349864885754536,-0.3500520939191828,-0.7177035011062833,0.0019972825785876946
1759837377.9559069,1,-1.2050000429153434,-0.8299997448921199,-0.7177035212516779,0.0,-1.734986441028606,-0.35005225337498597,-0.7177035017958572,0.0019990526271160512
1759837377.9661884,1,-1.2050000429153434,-0.8299997448921199,-0.7177035212516779,0.0,-1.7349863651686588,-0.3500525140083205,-0.7177035027622443,0.002001823508041514
1759837377.976647,1,-1.2050000429153434,-0.8299997448921199,-0.7177035212516779,0.0,-1.7349864527789727,-0.3500522645910698,-0.717703503556776,0.0019982338334616854
1759837377.9879713,1,-1.2050000429153434,-0.8299997448921199,-0.7177035212516779,0.0,-1.734986485903631,-0.3500521593740076,-0.7177035039734277,0.001996926927437638
1759837377.9991229,1,-1.2050000429153434,-0.8299997448921199,-0.7177035212516779,0.0,-1.7349864763246956,-0.35005218437200786,-0.7177035044703055,0.0019973452663198162
1759837378.0100188,1,-1.2050000429153434,-0.8299997448921199,-0.7177035212516779,0.0,-1.7349864297794952,-0.3500523323827592,-0.7177035050624485,0.001999151663477675
1759837378.0212862,1,-1.2050000429153434,-0.8299997448921199,-0.7177035212516779,0.0,-1.7349863497000053,-0.3500525995528452,-0.7177035055184067,0.0020021366333481502
1759837378.0325983,1,-1.2050000429153434,-0.8299997448921199,-0.7177035212516779,0.0,-1.7349864321137793,-0.35005236155078706,-0.7177035059807578,0.0019987697256091683
1759837378.0427547,1,-1.2050000429153434,-0.8299997448921199,-0.7177035212516779,0.0,-1.7349864321137838,-0.3500523615507921,-0.717703506746168,0.0019987697256091683
1759837378.0530224,1,-1.2050000429153434,-0.8299997448921199,-0.7177035212516779,0.0,-1.734986450427725,-0.3500522947564694,-0.7177035074590367,0.0019981038438412475
1759837378.063321,1,-1.2050000429153434,-0.8299997448921199,-0.7177035212516779,0.0,-1.7349864027942377,-0.35005244565753163,-0.7177035080392526,0.001999947602955858
1759837378.0745773,1,-1.2050000429153434,-0.8299997448921199,-0.7177035212516779,0.0,-1.7349863234623315,-0.35005271039865155,-0.7177035083016933,0.0020028994093164946
1759837378.0846038,1,-1.2050000429153434,-0.8299997448921199,-0.7177035212516779,0.0,-1.7349864028975925,-0.3500524815818431,-0.7177035089097326,0.0019996475240638776
1759837378.0953975,1,-1.2050000429153434,-0.8299997448921199,-0.7177035212516779,0.0,-1.734986433980162,-0.3500523825259114,-0.7177035092762553,0.001998447321408747
1759837378.1056623,1,-1.2050000429153434,-0.8299997448921199,-0.7177035212516779,0.0,-1.7349864224635076,-0.3500524126015018,-0.7177035097488014,0.0019989372782136684
1759837378.1170502,1,-1.2050000429153434,-0.8299997448921199,-0.7177035212516779,0.0,-1.7349863755617652,-0.35005256105344734,-0.7177035099346212,0.0020007469574612274
1759837378.1283898,1,-1.2050000429153434,-0.8299997448921199,-0.7177035212516779,0.0,-1.7349864833367434,-0.35005222447521606,-0.7177035101745031,0.0019965591167392382
1759837378.1396685,1,-1.2050000429153434,-0.8299997448921199,-0.7177035212516779,0.0,-1.734986538547539,-0.350052028871353,-0.717703510468152,0.0019946162828858765
1759837378.1509128,1,-1.2050000429153434,-0.8299997448921199,-0.7177035212516779,0.0,-1.7349865385475407,-0.35005202887135495,-0.7177035107666109,0.0019946162828858765
1759837378.1609907,1,-1.2050000429153434,-0.8299997448921199,-0.7177035212516779,0.0,-1.7349865193429257,-0.3500520420467724,-0.7177035113446653,0.0019958049949703465
1759837378.1713617,1,-1.2050000429153434,-0.8299997448921199,-0.7177035212516779,0.0,-1.7349864525027947,-0.3500522466332953,-0.7177035117767198,0.001998456382154178
1759837378.1818597,1,-1.2050000429153434,-0.8299997448921199,-0.7177035212516779,0.0,-1.7349865506979236,-0.35005193995412376,-0.7177035121345934,0.001994643635720451
1759837378.1930442,1,-1.2050000429153434,-0.8299997448921199,-0.7177035212516779,0.0,-1.7349865977108982,-0.35005177180958424,-0.7177035123440874,0.0019929988922513272
1759837378.203532,1,-1.2050000429153434,-0.8299997448921199,-0.7177035212516779,0.0,-1.7349865977109002,-0.35005177180958635,-0.7177035126667333,0.0019929988922513272
1759837378.2141228,1,-1.2050000429153434,-0.8299997448921199,-0.7177035212516779,0.0,-1.7349865664881214,-0.350051829947559,-0.7177035129904196,0.001994587021835998
1759837378.2253685,1,-1.2050000429153434,-0.8299997448921199,-0.7177035212516779,0.0,-1.734986498738858,-0.3500520411568462,-0.717703513173136,0.001997238465647068
1759837378.2361257,1,-1.2050000429153434,-0.8299997448921199,-0.7177035212516779,0.0,-1.7349865888277987,-0.35005176382530706,-0.7177035134509009,0.001993699918267014
1759837378.2470276,1,-1.2050000429153434,-0.8299997448921199,-0.7177035212516779,0.0,-1.7349866274049892,-0.3500516270990945,-0.7177035137024605,0.0019923349480970597
1759837378.2585907,1,-1.2050000429153434,-0.8299997448921199,-0.7177035212516779,0.0,-1.7349866274049899,-0.3500516270990954,-0.7177035138361233,0.0019923349480970597
1759837378.2720435,1,-1.2050000429153434,-0.8299997448921199,-0.7177035212516779,0.0,-1.734986584879237,-0.35005173213012614,-0.7177035137654747,0.001994256366120684
1759837378.2833014,1,-1.2050000429153434,-0.8299997448921199,-0.7177035212516779,0.0,-1.7349865142057646,-0.3500519587590833,-0.7177035140747245,0.0019969797462479153
1759837378.2945216,1,-1.2050000429153434,-0.8299997448921199,-0.7177035212516779,0.0,-1.7349864152284142,-0.3500522923772229,-0.717703514384784,0.0020006317496875357
1759837378.3055232,1,-1.2050000429153434,-0.8299997448921199,-0.7177035212516779,0.0,-1.734986496554057,-0.35005206807422173,-0.7177035146969996,0.001997223459714875
1759837378.3157575,1,-1.2050000429153434,-0.8299997448921199,-0.7177035212516779,0.0,-1.734986525380199,-0.35005198096555135,-0.7177035150714667,0.0019960167344328177
1759837378.326908,1,-1.2050000429153434,-0.8299997448921199,-0.7177035212516779,0.0,-1.734986514264643,-0.3500520149017466,-0.7177035152846591,0.001996437309144984
1759837378.3376963,1,-1.2050000429153434,-0.8299997448921199,-0.7177035212516779,0.0,-1.7349864682623437,-0.35005216435212844,-0.7177035155234516,0.0019981778118143595
1759837378.3488755,1,-1.2050000429153434,-0.8299997448921199,-0.7177035212516779,0.0,-1.7349863909575074,-0.3500524247610008,-0.7177035157023749,0.0020010250294888905
1759837378.359696,1,-1.2050000429153434,-0.8299997448921199,-0.7177035212516779,0.0,-1.7349864732276319,-0.3500521883585634,-0.7177035159188321,0.0019976386792486473
1759837378.369994,1,-1.2050000429153434,-0.8299997448921199,-0.7177035212516779,0.0,-1.7349864732276332,-0.35005218835856494,-0.7177035161605172,0.0019976386792486473
1759837378.3813915,1,-1.2050000429153434,-0.8299997448921199,-0.7177035212516779,0.0,-1.7349864858927384,-0.35005214287652203,-0.7177035162913812,0.0019971447039839147
1759837378.3918672,1,-1.2050000429153434,-0.8299997448921199,-0.7177035212516779,0.0,-1.7349864398102897,-0.35005228982454495,-0.717703516501909,0.0019989104935157387
1759837378.4021156,1,-1.2050000429153434,-0.8299997448921199,-0.7177035212516779,0.0,-1.7349863637858423,-0.3500525443822342,-0.717703516716569,0.0020017293160372812
1759837378.4135983,1,-1.2050000429153434,-0.8299997448921199,-0.7177035212516779,0.0,-1.7349864525555683,-0.35005228595220067,-0.7177035167991255,0.0019981276647151186
1759837378.423826,1,-1.2050000429153434,-0.8299997448921199,-0.7177035212516779,0.0,-1.7349864883208888,-0.35005216782113235,-0.7177035170023871,0.001996746859546029
1759837378.4340475,1,-1.2050000429153434,-0.8299997448921199,-0.7177035212516779,0.0,-1.7349864883208896,-0.35005216782113346,-0.7177035171776996,0.001996746859546029
1759837378.4450057,1,-1.2050000429153434,-0.8299997448921199,-0.7177035212516779,0.0,-1.7349864432151556,-0.3500522968339262,-0.7177035172931073,0.0019986085021245063
1759837378.4552097,1,-1.2050000429153434,-0.8299997448921199,-0.7177035212516779,0.0,-1.734986367349913,-0.3500525460519386,-0.7177035174575364,0.002001469036664338
1759837378.466346,1,-1.2050000429153434,-0.8299997448921199,-0.7177035212516779,0.0,-1.7349864426907413,-0.3500523260988971,-0.7177035175412566,0.001998407341975951
1759837378.4796124,1,-1.2050000429153434,-0.8299997448921199,-0.7177035212516779,0.0,-1.734986467913847,-0.3500522435048756,-0.7177035174800257,0.0019974498631657902
1759837378.491301,1,-1.2049922384351452,-0.8300065583049417,-0.7173570520377037,0.006272001778300718,-1.7349864525698389,-0.35005228549629136,-0.7177035175826665,0.0019980900646749114
1759837378.5034437,1,-1.2049776053584202,-0.8300790319564396,-0.7170766538584707,0.011305515541573354,-1.7349863989819259,-0.35005245617881586,-0.7177035176701954,0.002000152881055511
1759837378.51479,1,-1.2049578218009775,-0.8301923114038301,-0.7168448144632279,0.015431795068189095,-1.7349863118844975,-0.3500527474517535,-0.7177035178194627,0.0020033796119464198
1759837378.5265968,1,-1.2049358731710262,-0.8303284763295882,-0.7166593591009871,0.018785092252471193,-1.734986413031721,-0.3500524527242628,-0.7177035179342932,0.001999279501772749
1759837378.5367973,1,-1.2049113294489642,-0.8304784978933334,-0.7165035080611942,0.02161780316949827,-1.7349864607019476,-0.3500522956888968,-0.7177035181420354,0.0019974427149621666
1759837378.5481927,1,-1.2048885924285848,-0.8306270112774138,-0.7163307198212436,0.023799314070296652,-1.7349864631342853,-0.35005227487098983,-0.7177035182509491,0.001997451407019764
1759837378.5589392,1,-1.2048661477876272,-0.8307728616230652,-0.7161874208612657,0.02561728034586016,-1.7349864259642378,-0.35005238457792504,-0.7177035183874032,0.0019989628369795408
1759837378.570134,1,-1.2048443627281502,-0.8309133562774845,-0.7160689563689993,0.027146785394300616,-1.7349863564133663,-0.35005260962556206,-0.7177035184866868,0.0020016145691696473
1759837378.58026,1,-1.2047226761003258,-0.8311438960139955,-0.7159262118849404,0.029314143812241802,-1.7349864458755107,-0.3500523398477598,-0.7177035186374097,0.001998055624414932
1759837378.5911815,1,-1.2045850239775147,-0.8313881548659949,-0.7157744682307312,0.031134322637516202,-1.7349864822542305,-0.35005221338688225,-0.717703518728331,0.001996715872686964
1759837378.6022818,1,-1.2042947519132685,-0.8317601596480829,-0.7155019050178206,0.03335266824184241,-1.7349864787385207,-0.3500522099550674,-0.7177035188040336,0.001996977949526148
1759837378.6136873,1,-1.2040540566665394,-0.8320898301275638,-0.7152620573905549,0.03519162787679152,-1.7349864410095635,-0.350052321420137,-0.7177035188653453,0.002063541467365991
1759837378.6240005,1,-1.2038534794246503,-0.8323818826550587,-0.7150529716645226,0.036734332416905935,-1.7349863685583613,-0.35005255581281947,-0.7177035189794698,0.0020663070511552657
1759837378.6343846,1,-1.2036868980485285,-0.8326398887366713,-0.7148740908257699,0.03804169836293627,-1.7349863874697755,-0.35005235347286734,-0.71770351908025,0.002070615665599789
1759837378.6448553,1,-1.2035478537083657,-0.8328685847678984,-0.7147191709377322,0.039162211855116445,-1.7349863559931715,-0.3500523677729783,-0.7177035191655575,0.0020756189924736462
1759837378.6564157,1,-1.2034315972638308,-0.833055722981744,-0.7146049766663072,0.03987622868239088,-1.7349862848359268,-0.3500525551764621,-0.7177035191988781,0.0020811687496324945
1759837378.6667116,1,-1.2033353311489294,-0.8332194375478306,-0.7145054346009315,0.040511321014981914,-1.7349861781111617,-0.35005289668237966,-0.717703519289247,0.002087259276371068
1759837378.680562,1,-1.203255359878002,-0.833364708228124,-0.7144206751949499,0.04109987823132319,-1.7349860455944972,-0.35005335649289,-0.7177035192388804,0.002093634876907212
1759837378.6911876,1,-1.2031880556132766,-0.8334943269925261,-0.714345819521079,0.04163661262692438,-1.734986078937934,-0.3500533193822617,-0.7177035193393662,0.0020930450260215677
1759837378.7021363,1,-1.2031310495733456,-0.8336111454750319,-0.7142802945012945,0.04213508796248727,-1.7349860642897441,-0.35005341590358685,-0.7177035194228871,0.002094168833332857
1759837378.7135406,1,-1.203087191906425,-0.8336924454089388,-0.7142640708822132,0.04230365641792703,-1.734986010304806,-0.35005363625359803,-0.7177035194824828,0.0020966478453248384
1759837378.7238932,1,-1.2030500797762391,-0.8337655876692895,-0.7142457546550334,0.04250055070719768,-1.7349859219659076,-0.3500539727930966,-0.7177035195744108,0.0021002387011429934
1759837378.734945,1,-1.2030183071836624,-0.8338327186277513,-0.7142253936373057,0.04272153855096045,-1.7349858034175507,-0.3500544175955163,-0.7177035196330428,0.002104751128307872
1759837378.745478,1,-1.2029908478939535,-0.8338951680433305,-0.7142053919733603,0.04296027512450401,-1.734985866472382,-0.3500542985251539,-0.717703519704616,0.002102052588794412
1759837378.7563744,1,-1.2029668031676486,-0.833954365779179,-0.7141894201738332,0.043216609563783974,-1.7349858804023996,-0.35005430179121116,-0.7177035197584386,0.002101403467543863
1759837378.7673373,1,-1.2029520241464506,-0.8339823081770856,-0.7141869043865968,0.04317302425701962,-1.7349858518570913,-0.3500544291718593,-0.7177035198072098,0.0021024515077494106
1759837378.7780063,1,-1.2022033477549101,-0.8347016212911375,-0.7134847990100356,0.049682290271721864,-1.7349857857792426,-0.35005467705530624,-0.7177035198625813,0.002104894858137861
1759837378.7891614,1,-1.201333259599528,-0.8355713082251913,-0.712365808038339,0.05499164745943323,-1.7349858858951104,-0.3500544017308807,-0.7177035199023172,0.0021008580426308534
1759837378.8004613,1,-1.2005114230758571,-0.8364278043754042,-0.711046961463257,0.05942688163796854,-1.73498593149028,-0.35005426543913865,-0.7177035199385173,0.002099138382030903
1759837378.811425,1,-1.1997835835624913,-0.8372195135686957,-0.7096632018865785,0.06316258970807177,-1.7349859310662998,-0.3500542656150321,-0.7177035199846739,0.002099286989055993
1759837378.821776,1,-1.1979961722202903,-0.8389453698359258,-0.7058461816304339,0.07284600260786726,-1.7349859310663003,-0.3500542656150325,-0.7177035200412926,0.002099286989055993
1759837378.833172,1,-1.1965235007724087,-0.8404531556242932,-0.7024387721765392,0.0806584115724901,-1.7349858198445574,-0.35005463383143687,-0.7177035200724879,0.0031896031203834186
1759837378.844438,1,-1.1953118616331124,-0.8417616498443654,-0.6995854043199577,0.08702181207134421,-1.7349857182927255,-0.35005498555564574,-0.7177035201053775,0.0031933539048558186
1759837378.8557723,1,-1.1943122132342607,-0.8428968586916178,-0.6971965527776048,0.09223026491871553,-1.7349846541022544,-0.35005577729706894,-0.7177035201390218,0.0033201409607164552
1759837378.8658216,1,-1.1934833999329297,-0.8438830284984352,-0.6951986268938877,0.09651536955287805,-1.7349835907114042,-0.35005789856076536,-0.7177035201999601,0.0034234307093960244
1759837378.8795292,1,-1.192774826347487,-0.8447233070128486,-0.6934517328626569,0.09996344701638057,-1.7349825240134067,-0.35006086451193813,-0.7177035201800707,0.0035095070393008857
1759837378.8907907,1,-1.1921839276217086,-0.8454565298498093,-0.6919828702330536,0.10283700149201254,-1.7349804482771711,-0.35006814378923073,-0.7177035202236867,0.0036434436792306393
1759837378.901132,1,-1.1917000639698527,-0.8460837129569454,-0.6907920858529124,0.10518222188552087,-1.7349797640863818,-0.35007120527616153,-0.7177035202832964,0.0036838019115003483
1759837378.9114432,1,-1.1913035769348321,-0.846621299558793,-0.6898375264606895,0.107111886962674,-1.7349797640863822,-0.3500712052761621,-0.7177035203332213,0.0036838019115003483
1759837378.9229026,1,-1.190965740519727,-0.8470996010241929,-0.6890375797494943,0.1087710794288699,-1.7349790514199421,-0.35007438307105865,-0.7177035203576594,0.0037202443391774155
1759837378.9341059,1,-1.190692931789154,-0.8474612085832394,-0.6883947621080203,0.10993005403213596,-1.7349790514199424,-0.350074383071059,-0.7177035203842349,0.0037202443391774155
1759837378.9449883,1,-1.1904594733855354,-0.8477861217816318,-0.6878518069921855,0.11094614277401292,-1.7349776966353059,-0.3500805969684677,-0.7177035204202513,0.003780732383182713
1759837378.9554434,1,-1.1902629855645224,-0.8480736029912539,-0.6874107185835441,0.11182562930736914,-1.7349770486681586,-0.3500835971198543,-0.717703520458445,0.003806573808135786
1759837378.9657485,1,-1.1900963606586823,-0.8483302269679015,-0.6870456846006641,0.1125966897111715,-1.7349767214956304,-0.35008560714068415,-0.7177035204952456,0.003817812402111171
1759837378.9770799,1,-1.1889509542536056,-0.849363996359061,-0.6854376680346104,0.1155975965711591,-1.734976338930216,-0.3500876665551001,-0.7177035205129056,0.0038307983102272513
1759837378.9872546,1,-1.1862957673222772,-0.8515186404763454,-0.6790082993241707,0.12027292076214134,-1.7349763389302162,-0.3500876665551005,-0.7177035205455995,0.0038307983102272513
1759837378.9984522,1,-1.1836317484590486,-0.8536912423727347,-0.6721159490166544,0.12411109295270253,-1.7349755266233526,-0.35009169508036925,-0.7177035205649165,0.005528018925610927
1759837379.0093071,1,-1.1814368285956833,-0.8555017778867273,-0.6661230577306699,0.12721850137584853,-1.734975106721294,-0.35009366689012655,-0.7177035205869482,0.005541669750546642
1759837379.0204387,1,-1.1796198965374238,-0.8570182244410915,-0.6609180373201182,0.1297917588785503,-1.7349732684482198,-0.35009609562962934,-0.7177035206056835,0.005741701577207434
1759837379.0314107,1,-1.1780958321398614,-0.8583054695207157,-0.6563775410699242,0.13196423959331438,-1.7349713984029627,-0.3501004828080873,-0.7177035206268884,0.005907313150157609
1759837379.042262,1,-1.176815116952529,-0.8593420184369693,-0.6525360162900069,0.13356147315596592,-1.7349713984029629,-0.35010048280808764,-0.7177035206476846,0.005907313150157609
1759837379.0532458,1,-1.175751395887194,-0.8602149386222419,-0.6490827556036538,0.13492530570042804,-1.734967834840373,-0.3501122164328115,-0.7177035206686958,0.006158480709408838
1759837379.0641363,1,-1.1748890611527827,-0.8609346576202532,-0.6462431978667603,0.13606998509015647,-1.734966167153513,-0.3501187181634962,-0.7177035206886773,0.00625488867261146
1759837379.0753796,1,-1.1741749525819702,-0.8615428279850554,-0.6438748804503795,0.1370588570741913,-1.7349650019703327,-0.35012403426061756,-0.7177035207045389,0.006319370002903458
1759837379.0901155,1,-1.1735820729438444,-0.8620045894899172,-0.6418316366721704,0.13768756781207084,-1.73496385693738,-0.3501293387008061,-0.7177035206852194,0.006375908564039178
1759837379.1010818,1,-1.1730930536742714,-0.8623970422107379,-0.6401591212925103,0.13825597611214008,-1.7349627442383642,-0.35013454947092537,-0.7177035207145541,0.006425896143727097
1759837379.1113603,1,-1.1726803535571726,-0.8627385927391285,-0.6387498945310728,0.13877714436597238,-1.7349605800295123,-0.3501446680629591,-0.7177035207495963,0.006512569401192247
1759837379.1226106,1,-1.1723405727312066,-0.8630321098255083,-0.6376166533426805,0.13925566680786827,-1.7349601472934537,-0.35014768286942083,-0.7177035207695736,0.00652637914509496
1759837379.1340592,1,-1.1720485653746575,-0.863296615091143,-0.6366723686243732,0.13971307926899132,-1.7349596279233623,-0.3501507341586496,-0.7177035207859872,0.006542979090986376
1759837379.1455002,1,-1.1718037117821147,-0.8635312860766072,-0.6359097277455802,0.14014551131954203,-1.7349596279233626,-0.3501507341586499,-0.7177035208008841,0.006542979090986376
1759837379.1562846,1,-1.1716197931700298,-0.8636623080986684,-0.6352653514342391,0.14027030346924227,-1.7349590669729194,-0.3501537436954671,-0.7177035208219185,0.006561013010831764
1759837379.1666589,1,-1.1714626892902402,-0.8637864602033012,-0.6347493653622581,0.14043245606653895,-1.7349578692148626,-0.35015963538867806,-0.7177035208447627,0.006599586641149013
1759837379.1775017,1,-1.171328367050166,-0.8639048797201903,-0.6343312028130628,0.14062358352880655,-1.7349578692148628,-0.3501596353886784,-0.7177035208594071,0.006599586641149013
1759837379.1880689,1,-1.1696686401431473,-0.8650817307830428,-0.6313180022261006,0.14181657418618998,-1.7349576741980215,-0.3501619833059546,-0.7177035208767137,0.006598632040510418
1759837379.1992645,1,-1.1663791510515527,-0.8673105348197093,-0.6228756600938569,0.1436118862701564,-1.7349576741980217,-0.35016198330595477,-0.717703520886103,0.006598632040510418
1759837379.2097635,1,-1.163462436311905,-0.8692824178623897,-0.6145682329345626,0.14512504039629606,-1.734957096426829,-0.35016498845353705,-0.7177035209022695,0.00808958063991056
1759837379.2199867,1,-1.161061807682738,-0.8709011427148787,-0.6074420256856874,0.14640055167441077,-1.734956465659515,-0.35016699293515213,-0.7177035209182078,0.008117136096935776
1759837379.231238,1,-1.1591127132948615,-0.8722144946105339,-0.6014446666038744,0.1474799269919691,-1.7349557947134502,-0.35016929642636857,-0.7177035209254575,0.008144190633275592
1759837379.242117,1,-1.157501678384188,-0.8733005829003287,-0.596342127652003,0.14841711498861818,-1.7349543815104822,-0.35017104597425386,-0.7177035209357748,0.00830867604946551
1759837379.2555816,1,-1.1561374241470332,-0.874159298576672,-0.5918272141184218,0.14897826186213228,-1.7349528996449475,-0.35017460768438297,-0.717703520930532,0.008445537070204708
1759837379.2670457,1,-1.1550190155332283,-0.8748668779338699,-0.5880821918460755,0.14949622261105172,-1.734951358782455,-0.3501793653762728,-0.7177035209415263,0.008562250374353342
1759837379.2792275,1,-1.1540970703160376,-0.8754559829218104,-0.5849825239033598,0.14998192720544176,-1.734949790469621,-0.35018490823140225,-0.7177035209491114,0.00866298212838036
1759837379.2933884,1,-1.153330955045951,-0.8759551850747486,-0.5823826075643804,0.15045416921311808,-1.7349474420588367,-0.3501948909408039,-0.7177035209476436,0.00879745995636284
1759837379.303851,1,-1.1527130177283618,-0.8763026545307352,-0.5802003284213639,0.1506054598149008,-1.734947442058837,-0.35019489094080447,-0.71770352096808,0.00879745995636284
1759837379.3149128,1,-1.1521854037341308,-0.8766081689757048,-0.578356561149746,0.1507979608037991,-1.734945659770407,-0.3502034007524425,-0.7177035209839823,0.008883576621688784
1759837379.325355,1,-1.1517471291131665,-0.8768701025488357,-0.5768624000762598,0.15101174441371962,-1.734944665635576,-0.3502079433697263,-0.717703520999956,0.008924711738474396
1759837379.3358788,1,-1.1513811688972666,-0.8770981073422519,-0.5756533591767514,0.1512441731937176,-1.7349436390114974,-0.3502125701040667,-0.7177035210130285,0.008964329364458921
1759837379.3473928,1,-1.15107578596431,-0.8772996752285767,-0.5746900653182767,0.1514959733144053,-1.7349434305802116,-0.35021464915518363,-0.717703521019802,0.00896975690054188
1759837379.3576567,1,-1.1508545902222767,-0.8773951108131349,-0.5739081920175115,0.1514580891692155,-1.734943430580212,-0.35021464915518397,-0.7177035210312824,0.00896975690054188
1759837379.3676972,1,-1.1506618622568174,-0.8774903241040392,-0.5732747447906105,0.15148900696681816,-1.7349426114324928,-0.3502194263525133,-0.7177035210434346,0.008996291731080087
1759837379.378922,1,-1.150497119984427,-0.8775841980576042,-0.572762799660964,0.1515769669416468,-1.734942611432493,-0.35021942635251346,-0.717703521047975,0.008996291731080087
1759837379.3892775,1,-1.1485719065428892,-0.8787362243000838,-0.5693299102196648,0.1527453004433194,-1.7349413994192904,-0.3502250377365909,-0.7177035210570893,0.009036810312114521
1759837379.3995852,1,-1.1468067805996263,-0.8797958794714102,-0.5655684332952645,0.1537698182848534,-1.7349406918952133,-0.35022810540971944,-0.717703521065032,0.009060333333714199
1759837379.409671,1,-1.1453507713704414,-0.8806768717064162,-0.562505972411284,0.15466021417953466,-1.7349406918952135,-0.35022810540971966,-0.7177035210726196,0.009060333333714199
1759837379.4199584,1,-1.1418955284956618,-0.8826702935219882,-0.5526689940997349,0.1560529431691061,-1.7349407238627235,-0.35022883841970176,-0.7177035210791142,0.009547037825731202
1759837379.4312973,1,-1.1390124313798884,-0.8843202390645858,-0.5438329746825981,0.15725514099604535,-1.7349402125589137,-0.35023145148749074,-0.7177035210819893,0.009562142265114404
1759837379.442091,1,-1.1366478348715654,-0.885663416180966,-0.5364498165993117,0.1581870926454241,-1.7349397218843268,-0.3502333863691565,-0.7177035210868139,0.009579464446150128
1759837379.4525464,1,-1.1347260831520527,-0.8867478595644323,-0.5303523846415074,0.15909353872317972,-1.734939507573809,-0.350233459897873,-0.7177035210929761,0.009622565909402563
1759837379.4628544,1,-1.133125405898588,-0.8875870634236758,-0.5251927659742626,0.15924244714291413,-1.7349395075738092,-0.3502334598978732,-0.7177035210988578,0.009622565909402563
1759837379.473535,1,-1.1317951632818117,-0.8882814893350872,-0.520858212756954,0.15938579569756986,-1.734939098588632,-0.3502345295837845,-0.7177035211035078,0.00966403104009048
1759837379.4845173,1,-1.130690722493658,-0.8888561513364244,-0.5171922994567215,0.15957117333294507,-1.7349378817705667,-0.35023877772639445,-0.7177035211074564,0.00974239066110889
1759837379.4998121,1,-1.1297785932527358,-0.8893367376838156,-0.5142065976612382,0.15974105460174556,-1.734937090253469,-0.35024175511878597,-0.7177035210992996,0.009781198221141416
1759837379.5109792,1,-1.1290314565002368,-0.8897339910047121,-0.511794357264762,0.15998219128263025,-1.7349362259062273,-0.35024511795812296,-0.7177035211061427,0.009819202828764534
1759837379.5219104,1,-1.1284294418396452,-0.890001955440493,-0.509731987661441,0.15969114161847023,-1.7349362366184446,-0.3502458354907808,-0.7177035211137313,0.009820325361736333
