timestamp,vehicle_id,x,y,theta,velocity,gps_available,dt,gps_x,gps_y,gps_theta,gps_velocity,control_steering,control_acceleration
1759837375.4665473,1,-1.735,-0.35,-0.7801621756414647,0.0,False,0.01,nan,nan,nan,nan,0.0,0.0
1759837375.477161,1,-1.735,-0.35,-0.7801621756414647,0.0,False,0.010613679885864258,nan,nan,nan,nan,0.0,0.0
1759837375.4882753,1,-1.735,-0.35,-0.7801621756414647,0.0,False,0.011114358901977539,nan,nan,nan,nan,0.0,0.0
1759837375.4997928,1,-1.735,-0.35,-0.7801621756414647,0.0,False,0.011517524719238281,nan,nan,nan,nan,0.0,0.0
1759837375.50981,1,-1.735,-0.35,-0.7801621756414647,0.0,False,0.010017156600952148,nan,nan,nan,nan,0.0,0.0
1759837375.520061,1,-1.735,-0.35,-0.7801621756414647,0.0,False,0.010251045227050781,nan,nan,nan,nan,0.0,0.0
1759837375.5314214,1,-1.735,-0.35,-0.7801621756414647,0.0,False,0.011360406875610352,nan,nan,nan,nan,0.0,0.0
1759837375.542356,1,-1.735,-0.35,-0.7801621756414647,0.0,False,0.010934591293334961,nan,nan,nan,nan,0.0,0.0
1759837375.5537302,1,-1.735,-0.35,-0.7801621756414647,0.0,False,0.011374235153198242,nan,nan,nan,nan,0.0,0.0
1759837375.5649242,1,-1.735,-0.35,-0.7801621756414647,0.0,False,0.011193990707397461,nan,nan,nan,nan,0.0,0.0
1759837375.5759535,1,-1.735,-0.35,-0.7801621756414647,0.0,False,0.011029243469238281,nan,nan,nan,nan,0.0,0.0
1759837375.5871136,1,-1.735,-0.35,-0.7801621756414647,0.0,False,0.011160135269165039,nan,nan,nan,nan,0.0,0.0
1759837375.5978184,1,-1.735,-0.35,-0.7801621756414647,0.0,False,0.010704755783081055,nan,nan,nan,nan,0.0,0.0
1759837375.6083794,1,-1.735,-0.35,-0.7801621756414647,0.0,False,0.010560989379882812,nan,nan,nan,nan,0.0,0.0
1759837375.6184862,1,-1.735,-0.35,-0.7801621756414647,0.0,False,0.010106801986694336,nan,nan,nan,nan,0.0,0.0
1759837375.6297646,1,-1.735,-0.35,-0.7801621756414647,0.0,False,0.011278390884399414,nan,nan,nan,nan,0.0,0.0
1759837375.640683,1,-1.735,-0.35,-0.7801621756414647,0.0,False,0.010918378829956055,nan,nan,nan,nan,0.0,0.0
1759837375.6519742,1,-1.735,-0.35,-0.7801621756414647,0.0,False,0.011291265487670898,nan,nan,nan,nan,0.0,0.0
1759837375.6633883,1,-1.734999777754148,-0.34999987587332726,-0.7229997692643089,0.0,True,0.011414051055908203,-1.7349997758865356,-0.34999987483024597,-0.7177035212516785,0.0,0.0,0.0
1759837375.674336,1,-1.7349997765108072,-0.34999987517890824,-0.7181163275164728,0.0,True,0.010947704315185547,-1.7349997758865356,-0.34999987483024597,-0.7177035212516785,0.0,0.0,0.0
1759837375.685713,1,-1.734999776120719,-0.34999987496103985,-0.7176543648158535,0.0,True,0.011377096176147461,-1.7349997758865356,-0.34999987483024597,-0.7177035212516785,0.0,0.0,0.0
1759837375.696412,1,-1.7349997759757527,-0.34999987488007467,-0.7175967311123799,0.0,True,0.010699033737182617,-1.7349997758865356,-0.34999987483024597,-0.7177035212516785,0.0,0.0,0.0
1759837375.70717,1,-1.7349997759206006,-0.3499998748492716,-0.7175908801635984,0.0,True,0.010757923126220703,-1.7349997758865356,-0.34999987483024597,-0.7177035212516785,0.0,0.0,0.0
1759837375.7185361,1,-1.7349997758995466,-0.3499998748375127,-0.7175970941271359,0.0,True,0.011366128921508789,-1.7349997758865356,-0.34999987483024597,-0.7177035212516785,0.0,0.0,0.0
1759837375.7294843,1,-1.7349997758915052,-0.3499998748330216,-0.7176091198970589,0.0,True,0.01094818115234375,-1.7349997758865356,-0.34999987483024597,-0.7177035212516785,0.0,0.0,0.0
1759837375.7404413,1,-1.734999775888434,-0.3499998748313062,-0.7176210823427311,0.0,True,0.010957002639770508,-1.7349997758865356,-0.34999987483024597,-0.7177035212516785,0.0,0.0,0.0
1759837375.751221,1,-1.7349997758872606,-0.3499998748306509,-0.7176318680616554,0.0,True,0.010779619216918945,-1.7349997758865356,-0.34999987483024597,-0.7177035212516785,0.0,0.0,0.0
1759837375.761806,1,-1.7349997758868125,-0.3499998748304006,-0.7176410794125552,0.0,True,0.01058506965637207,-1.7349997758865356,-0.34999987483024597,-0.7177035212516785,0.0,0.0,0.0
1759837375.772096,1,-1.7349997758866413,-0.34999987483030504,-0.7176488697715868,0.0,True,0.010289907455444336,-1.7349997758865356,-0.34999987483024597,-0.7177035212516785,0.0,0.0,0.0
1759837375.7835212,1,-1.734999775886576,-0.3499998748302685,-0.7176541117730331,0.0,True,0.011425256729125977,-1.7349997758865356,-0.34999987483024597,-0.7177035212516785,0.0,0.0,0.0
1759837375.7948694,1,-1.7349997758865512,-0.3499998748302546,-0.7176588833602437,0.0,True,0.011348247528076172,-1.7349997758865356,-0.34999987483024597,-0.7177035212516785,0.0,0.0,0.0
1759837375.805949,1,-1.7349997758865416,-0.34999987483024925,-0.7176633202198701,0.0,True,0.011079549789428711,-1.7349997758865356,-0.34999987483024597,-0.7177035212516785,0.0,0.0,0.0
1759837375.8167186,1,-1.7349997758865379,-0.34999987483024725,-0.7176673284260353,0.0,True,0.01076960563659668,-1.7349997758865356,-0.34999987483024597,-0.7177035212516785,0.0,0.0,0.0
1759837375.827731,1,-1.7349997758865365,-0.34999987483024647,-0.7176705316423249,0.0,True,0.01101231575012207,-1.7349997758865356,-0.34999987483024597,-0.7177035212516785,0.0,0.0,0.0
1759837375.8386145,1,-1.734999775886536,-0.34999987483024614,-0.717673355740061,0.0,True,0.010883569717407227,-1.7349997758865356,-0.34999987483024597,-0.7177035212516785,0.0,0.0,0.0
1759837375.848974,1,-1.7349997758865359,-0.349999874830246,-0.717676062367282,0.0,True,0.010359525680541992,-1.7349997758865356,-0.34999987483024597,-0.7177035212516785,0.0,0.0,0.0
1759837375.8632874,1,-1.7349997758865356,-0.34999987483024597,-0.7176764056812637,0.0,True,0.014313459396362305,-1.7349997758865356,-0.34999987483024597,-0.7177035212516785,0.0,0.0,0.0
1759837375.873419,1,-1.7349997758865356,-0.34999987483024597,-0.7176791525194268,0.0,True,0.010131597518920898,-1.7349997758865356,-0.34999987483024597,-0.7177035212516785,0.0,0.0,0.0
1759837375.8844113,1,-1.7349997758865356,-0.34999987483024597,-0.7176810926779478,0.0,True,0.010992288589477539,-1.7349997758865356,-0.34999987483024597,-0.7177035212516785,0.0,0.0,0.0
1759837375.8958056,1,-1.7349997758865356,-0.34999987483024597,-0.717682556726313,0.0,True,0.011394262313842773,-1.7349997758865356,-0.34999987483024597,-0.7177035212516785,0.0,0.0,0.0
1759837375.9073405,1,-1.7349997758865356,-0.34999987483024597,-0.717683816920001,0.0,True,0.011534929275512695,-1.7349997758865356,-0.34999987483024597,-0.7177035212516785,0.0,0.0,0.0
1759837375.918301,1,-1.7349997758865356,-0.34999987483024597,-0.717685183262402,0.0,True,0.010960578918457031,-1.7349997758865356,-0.34999987483024597,-0.7177035212516785,0.0,0.0,0.0
1759837375.9285738,1,-1.7349997758865356,-0.34999987483024597,-0.7176866106865809,0.0,True,0.010272741317749023,-1.7349997758865356,-0.34999987483024597,-0.7177035212516785,0.0,0.0,0.0
1759837375.939488,1,-1.7349997758865356,-0.34999987483024597,-0.7176875962762033,0.0,True,0.010914087295532227,-1.7349997758865356,-0.34999987483024597,-0.7177035212516785,0.0,0.0,0.0
1759837375.9502196,1,-1.7349997758865356,-0.34999987483024597,-0.7176885193348213,0.0,True,0.010731697082519531,-1.7349997758865356,-0.34999987483024597,-0.7177035212516785,0.0,0.0,0.0
1759837375.96138,1,-1.7349997758865356,-0.34999987483024597,-0.7176892205925043,0.0,True,0.01116037368774414,-1.7349997758865356,-0.34999987483024597,-0.7177035212516785,0.0,0.0,0.0
1759837375.9720428,1,-1.7349997758865356,-0.34999987483024597,-0.7176900201625731,0.0,True,0.01066279411315918,-1.7349997758865356,-0.34999987483024597,-0.7177035212516785,0.0,0.0,0.0
1759837375.9827158,1,-1.7349997758865356,-0.34999987483024597,-0.7176907389195737,0.0,True,0.010673046112060547,-1.7349997758865356,-0.34999987483024597,-0.7177035212516785,0.0,0.0,0.0
1759837375.9936056,1,-1.7349997758865356,-0.34999987483024597,-0.7176913301060797,0.0,True,0.010889768600463867,-1.7349997758865356,-0.34999987483024597,-0.7177035212516785,0.0,0.0,0.0
1759837376.0051157,1,-1.7349997758865356,-0.34999987483024597,-0.7176917329417201,0.0,True,0.011510133743286133,-1.7349997758865356,-0.34999987483024597,-0.7177035212516785,0.0,0.0,0.0
1759837376.0151904,1,-1.7349997758865356,-0.34999987483024597,-0.7176924831508007,0.0,True,0.010074615478515625,-1.7349997758865356,-0.34999987483024597,-0.7177035212516785,0.0,0.0,0.0
1759837376.0262158,1,-1.7349997758865356,-0.34999987483024597,-0.7176929282474678,0.0,True,0.011025428771972656,-1.7349997758865356,-0.34999987483024597,-0.7177035212516785,0.0,0.0,0.0
1759837376.037613,1,-1.7349997758865356,-0.34999987483024597,-0.7176932680532939,0.0,True,0.011397123336791992,-1.7349997758865356,-0.34999987483024597,-0.7177035212516785,0.0,0.0,0.0
1759837376.0480804,1,-1.7349997758865356,-0.34999987483024597,-0.7176938107148132,0.0,True,0.010467529296875,-1.7349997758865356,-0.34999987483024597,-0.7177035212516785,0.0,0.0,0.0
1759837376.0606174,1,-1.7349997758865356,-0.34999987483024597,-0.7176939054030385,0.0,True,0.012537002563476562,-1.7349997758865356,-0.34999987483024597,-0.7177035212516785,0.0,0.0,0.0
1759837376.069196,1,-1.7349997758865356,-0.34999987483024597,-0.7176948070898845,0.0,True,0.00857853889465332,-1.7349997758865356,-0.34999987483024597,-0.7177035212516785,0.0,0.0,0.0
1759837376.079681,1,-1.7349997758865356,-0.34999987483024597,-0.7176952052419487,0.0,True,0.010484933853149414,-1.7349997758865356,-0.34999987483024597,-0.7177035212516785,0.0,0.0,0.0
1759837376.0900114,1,-1.7349997758865356,-0.34999987483024597,-0.7176955663832825,0.0,True,0.010330438613891602,-1.7349997758865356,-0.34999987483024597,-0.7177035212516785,0.0,0.0,0.0
1759837376.101364,1,-1.7349997758865356,-0.34999987483024597,-0.7176957265504562,0.0,True,0.0113525390625,-1.7349997758865356,-0.34999987483024597,-0.7177035212516785,0.0,0.0,0.0
1759837376.112485,1,-1.7349997758865356,-0.34999987483024597,-0.7176959530651548,0.0,True,0.011121034622192383,-1.7349997758865356,-0.34999987483024597,-0.7177035212516785,0.0,0.0,0.0
1759837376.123401,1,-1.7349997758865356,-0.34999987483024597,-0.7176962293458864,0.0,True,0.010915994644165039,-1.7349997758865356,-0.34999987483024597,-0.7177035212516785,0.0,0.0,0.0
1759837376.1344185,1,-1.7349997758865356,-0.34999987483024597,-0.7176964873911835,0.0,True,0.011017560958862305,-1.7349997758865356,-0.34999987483024597,-0.7177035212516785,0.0,0.0,0.0
1759837376.1451263,1,-1.7349997758865356,-0.34999987483024597,-0.7176967850491422,0.0,True,0.010707855224609375,-1.7349997758865356,-0.34999987483024597,-0.7177035212516785,0.0,0.0,0.0
1759837376.1557443,1,-1.7349997758865356,-0.34999987483024597,-0.7176970754870062,0.0,True,0.010617971420288086,-1.7349997758865356,-0.34999987483024597,-0.7177035212516785,0.0,0.0,0.0
1759837376.1664612,1,-1.7349997758865356,-0.34999987483024597,-0.7176973290406963,0.0,True,0.010716915130615234,-1.7349997758865356,-0.34999987483024597,-0.7177035212516785,0.0,0.0,0.0
1759837376.176495,1,-1.7349997758865356,-0.34999987483024597,-0.7176976522744916,0.0,True,0.010033845901489258,-1.7349997758865356,-0.34999987483024597,-0.7177035212516785,0.0,0.0,0.0
1759837376.1867712,1,-1.7349997758865356,-0.34999987483024597,-0.7176979056519102,0.0,True,0.010276079177856445,-1.7349997758865356,-0.34999987483024597,-0.7177035212516785,0.0,0.0,0.0
1759837376.197653,1,-1.7349997758865356,-0.34999987483024597,-0.7176980598637943,0.0,True,0.010881900787353516,-1.7349997758865356,-0.34999987483024597,-0.7177035212516785,0.0,0.0,0.0
1759837376.20834,1,-1.7349997758865356,-0.34999987483024597,-0.7176982394326323,0.0,True,0.010686874389648438,-1.7349997758865356,-0.34999987483024597,-0.7177035212516785,0.0,0.0,0.0
1759837376.2186267,1,-1.7349997758865356,-0.34999987483024597,-0.7176984620796141,0.0,True,0.010286808013916016,-1.7349997758865356,-0.34999987483024597,-0.7177035212516785,0.0,0.0,0.0
1759837376.229427,1,-1.7349997758865356,-0.34999987483024597,-0.7176986126727734,0.0,True,0.010800361633300781,-1.7349997758865356,-0.34999987483024597,-0.7177035212516785,0.0,0.0,0.0
1759837376.2402933,1,-1.7349997758865356,-0.34999987483024597,-0.7176987558251717,0.0,True,0.010866165161132812,-1.7349997758865356,-0.34999987483024597,-0.7177035212516785,0.0,0.0,0.0
1759837376.251413,1,-1.7349997758865356,-0.34999987483024597,-0.7176988781556553,0.0,True,0.011119842529296875,-1.7349997758865356,-0.34999987483024597,-0.7177035212516785,0.0,0.0,0.0
1759837376.2650504,1,-1.7349997758865356,-0.34999987483024597,-0.7176987745836012,0.0,True,0.013637304306030273,-1.7349997758865356,-0.34999987483024597,-0.7177035212516785,0.0,0.0,0.0
1759837376.2751818,1,-1.7349997758865356,-0.34999987483024597,-0.7176990712110012,0.0,True,0.010131359100341797,-1.7349997758865356,-0.34999987483024597,-0.7177035212516785,0.0,0.0,0.0
1759837376.2853959,1,-1.7349997758865356,-0.34999987483024597,-0.7176993331415282,0.0,True,0.010214090347290039,-1.7349997758865356,-0.34999987483024597,-0.7177035212516785,0.0,0.0,0.0
1759837376.296016,1,-1.7349997758865356,-0.34999987483024597,-0.7176995176243324,0.0,True,0.0106201171875,-1.7349997758865356,-0.34999987483024597,-0.7177035212516785,0.0,0.0,0.0
1759837376.3063047,1,-1.7349997758865356,-0.34999987483024597,-0.7176997070947451,0.0,True,0.010288715362548828,-1.7349997758865356,-0.34999987483024597,-0.7177035212516785,0.0,0.0,0.0
1759837376.317084,1,-1.7349997758865356,-0.34999987483024597,-0.7176998357065543,0.0,True,0.010779380798339844,-1.7349997758865356,-0.34999987483024597,-0.7177035212516785,0.0,0.0,0.0
1759837376.3276858,1,-1.7349997758865356,-0.34999987483024597,-0.7176999711723919,0.0,True,0.01060175895690918,-1.7349997758865356,-0.34999987483024597,-0.7177035212516785,0.0,0.0,0.0
1759837376.3378875,1,-1.7349997758865356,-0.34999987483024597,-0.71770012902115,0.0,True,0.010201692581176758,-1.7349997758865356,-0.34999987483024597,-0.7177035212516785,0.0,0.0,0.0
1759837376.3488858,1,-1.7349997758865356,-0.34999987483024597,-0.7177002142365652,0.0,True,0.010998249053955078,-1.7349997758865356,-0.34999987483024597,-0.7177035212516785,0.0,0.0,0.0
1759837376.3592446,1,-1.7349997758865356,-0.34999987483024597,-0.7177003461481704,0.0,True,0.010358810424804688,-1.7349997758865356,-0.34999987483024597,-0.7177035212516785,0.0,0.0,0.0
1759837376.3705673,1,-1.7349997758865356,-0.34999987483024597,-0.7177004059759966,0.0,True,0.011322736740112305,-1.7349997758865356,-0.34999987483024597,-0.7177035212516785,0.0,0.0,0.0
1759837376.381183,1,-1.7349997758865356,-0.34999987483024597,-0.7177005208625076,0.0,True,0.01061558723449707,-1.7349997758865356,-0.34999987483024597,-0.7177035212516785,0.0,0.0,0.0
1759837376.3914268,1,-1.7349997758865356,-0.34999987483024597,-0.717700655368759,0.0,True,0.010243892669677734,-1.7349997758865356,-0.34999987483024597,-0.7177035212516785,0.0,0.0,0.0
1759837376.401667,1,-1.7349997758865356,-0.34999987483024597,-0.7177007762725971,0.0,True,0.010240316390991211,-1.7349997758865356,-0.34999987483024597,-0.7177035212516785,0.0,0.0,0.0
1759837376.411834,1,-1.7349997758865356,-0.34999987483024597,-0.7177008886970544,0.0,True,0.01016688346862793,-1.7349997758865356,-0.34999987483024597,-0.7177035212516785,0.0,0.0,0.0
1759837376.4226491,1,-1.7349997758865356,-0.34999987483024597,-0.7177009536125514,0.0,True,0.010815143585205078,-1.7349997758865356,-0.34999987483024597,-0.7177035212516785,0.0,0.0,0.0
1759837376.4333794,1,-1.7349997758865356,-0.34999987483024597,-0.717701025423505,0.0,True,0.010730266571044922,-1.7349997758865356,-0.34999987483024597,-0.7177035212516785,0.0,0.0,0.0
1759837376.444218,1,-1.7349997758865356,-0.34999987483024597,-0.7177010939907973,0.0,True,0.010838508605957031,-1.7349997758865356,-0.34999987483024597,-0.7177035212516785,0.0,0.0,0.0
1759837376.4549363,1,-1.7349997758865356,-0.34999987483024597,-0.7177011711239842,0.0,True,0.010718345642089844,-1.7349997758865356,-0.34999987483024597,-0.7177035212516785,0.0,0.0,0.0
1759837376.4662645,1,-1.7349997758865356,-0.34999987483024597,-0.7177012181052067,0.0,True,0.01132822036743164,-1.7349997758865356,-0.34999987483024597,-0.7177035212516785,0.0,0.0,0.0
1759837376.4765728,1,-1.7349997758865356,-0.34999987483024597,-0.7177013206867251,0.0,True,0.010308265686035156,-1.7349997758865356,-0.34999987483024597,-0.7177035212516785,0.0,0.0,0.0
1759837376.4866972,1,-1.7349997758865356,-0.34999987483024597,-0.7177014236343382,0.0,True,0.010124444961547852,-1.7349997758865356,-0.34999987483024597,-0.7177035212516785,0.0,0.0,0.0
1759837376.497128,1,-1.7349997758865356,-0.34999987483024597,-0.7177015004425158,0.0,True,0.01043081283569336,-1.7349997758865356,-0.34999987483024597,-0.7177035212516785,0.0,0.0,0.0
1759837376.50734,1,-1.7349997758865356,-0.34999987483024597,-0.7177015803277378,0.0,True,0.010211944580078125,-1.7349997758865356,-0.34999987483024597,-0.7177035212516785,0.0,0.0,0.0
1759837376.518459,1,-1.7349997758865356,-0.34999987483024597,-0.7177016160262628,0.0,True,0.01111912727355957,-1.7349997758865356,-0.34999987483024597,-0.7177035212516785,0.0,0.0,0.0
1759837376.5289152,1,-1.7349997758865356,-0.34999987483024597,-0.7177016837236057,0.0,True,0.010456085205078125,-1.7349997758865356,-0.34999987483024597,-0.7177035212516785,0.0,0.0,0.0
1759837376.5390317,1,-1.7349997758865356,-0.34999987483024597,-0.717701762698729,0.0,True,0.0101165771484375,-1.7349997758865356,-0.34999987483024597,-0.7177035212516785,0.0,0.0,0.0
1759837376.5496817,1,-1.7349997758865356,-0.34999987483024597,-0.7177018139571345,0.0,True,0.010649919509887695,-1.7349997758865356,-0.34999987483024597,-0.7177035212516785,0.0,0.0,0.0
1759837376.5600636,1,-1.7349997758865356,-0.34999987483024597,-0.7177018738008414,0.0,True,0.010381937026977539,-1.7349997758865356,-0.34999987483024597,-0.7177035212516785,0.0,0.0,0.0
1759837376.570119,1,-1.7349997758865356,-0.34999987483024597,-0.7177019423931288,0.0,True,0.010055303573608398,-1.7349997758865356,-0.34999987483024597,-0.7177035212516785,0.0,0.0,0.0
1759837376.5809321,1,-1.7349997758865356,-0.34999987483024597,-0.7177019788151782,0.0,True,0.010813236236572266,-1.7349997758865356,-0.34999987483024597,-0.7177035212516785,0.0,0.0,0.0
1759837376.591089,1,-1.7349997758865356,-0.34999987483024597,-0.7177020385854185,0.0,True,0.010156869888305664,-1.7349997758865356,-0.34999987483024597,-0.7177035212516785,0.0,0.0,0.0
1759837376.6014156,1,-1.7349997758865356,-0.34999987483024597,-0.7177020892971377,0.0,True,0.010326623916625977,-1.7349997758865356,-0.34999987483024597,-0.7177035212516785,0.0,0.0,0.0
1759837376.612212,1,-1.7349997758865356,-0.34999987483024597,-0.7177021226386806,0.0,True,0.010796308517456055,-1.7349997758865356,-0.34999987483024597,-0.7177035212516785,0.0,0.0,0.0
1759837376.6228347,1,-1.7349997758865356,-0.34999987483024597,-0.7177021633909355,0.0,True,0.010622739791870117,-1.7349997758865356,-0.34999987483024597,-0.7177035212516785,0.0,0.0,0.0
1759837376.6338613,1,-1.7349997758865356,-0.34999987483024597,-0.7177021934048646,0.0,True,0.011026620864868164,-1.7349997758865356,-0.34999987483024597,-0.7177035212516785,0.0,0.0,0.0
1759837376.644699,1,-1.7349997758865356,-0.34999987483024597,-0.717702232035446,0.0,True,0.010837793350219727,-1.7349997758865356,-0.34999987483024597,-0.7177035212516785,0.0,0.0,0.0
1759837376.6560347,1,-1.7349997758865356,-0.34999987483024597,-0.7177022586836888,0.0,True,0.011335611343383789,-1.7349997758865356,-0.34999987483024597,-0.7177035212516785,0.0,0.0,0.0
1759837376.6678212,1,-1.7349997758865356,-0.34999987483024597,-0.7177022780974589,0.0,True,0.011786460876464844,-1.7349997758865356,-0.34999987483024597,-0.7177035212516785,0.0,0.0,0.0
1759837376.6784437,1,-1.7349997758865356,-0.34999987483024597,-0.7177023334091128,0.0,True,0.010622501373291016,-1.7349997758865356,-0.34999987483024597,-0.7177035212516785,0.0,0.0,0.0
1759837376.689139,1,-1.7349997758865356,-0.34999987483024597,-0.7177023834353218,0.0,True,0.010695219039916992,-1.7349997758865356,-0.34999987483024597,-0.7177035212516785,0.0,0.0,0.0
1759837376.7002993,1,-1.7349997758865356,-0.34999987483024597,-0.7177024181113989,0.0,True,0.01116037368774414,-1.7349997758865356,-0.34999987483024597,-0.7177035212516785,0.0,0.0,0.0
1759837376.7111776,1,-1.7349997758865356,-0.34999987483024597,-0.7177024587291836,0.0,True,0.010878324508666992,-1.7349997758865356,-0.34999987483024597,-0.7177035212516785,0.0,0.0,0.0
1759837376.7214506,1,-1.7349997758865356,-0.34999987483024597,-0.7177025106184605,0.0,True,0.010272979736328125,-1.7349997758865356,-0.34999987483024597,-0.7177035212516785,0.0,0.0,0.0
1759837376.7321064,1,-1.7349997758865356,-0.34999987483024597,-0.7177025485381598,0.0,True,0.010655879974365234,-1.7349997758865356,-0.34999987483024597,-0.7177035212516785,0.0,0.0,0.0
1759837376.7422423,1,-1.7349997758865356,-0.34999987483024597,-0.717702593730932,0.0,True,0.010135889053344727,-1.7349997758865356,-0.34999987483024597,-0.7177035212516785,0.0,0.0,0.0
1759837376.7529416,1,-1.7349997758865356,-0.34999987483024597,-0.7177026228402035,0.0,True,0.010699272155761719,-1.7349997758865356,-0.34999987483024597,-0.7177035212516785,0.0,0.0,0.0
1759837376.7642684,1,-1.7349997758865356,-0.34999987483024597,-0.7177026388930816,0.0,True,0.011326789855957031,-1.7349997758865356,-0.34999987483024597,-0.7177035212516785,0.0,0.0,0.0
1759837376.7748115,1,-1.7349997758865356,-0.34999987483024597,-0.717702672470363,0.0,True,0.010543107986450195,-1.7349997758865356,-0.34999987483024597,-0.7177035212516785,0.0,0.0,0.0
1759837376.7850645,1,-1.7349997758865356,-0.34999987483024597,-0.7177027097958,0.0,True,0.010252952575683594,-1.7349997758865356,-0.34999987483024597,-0.7177035212516785,0.0,0.0,0.0
1759837376.795406,1,-1.7349997758865356,-0.34999987483024597,-0.717702741753401,0.0,True,0.010341644287109375,-1.7349997758865356,-0.34999987483024597,-0.7177035212516785,0.0,0.0,0.0
1759837376.8055427,1,-1.7349997758865356,-0.34999987483024597,-0.7177027741059803,0.0,True,0.010136604309082031,-1.7349997758865356,-0.34999987483024597,-0.7177035212516785,0.0,0.0,0.0
1759837376.8161564,1,-1.7349997758865356,-0.34999987483024597,-0.7177027956246835,0.0,True,0.010613679885864258,-1.7349997758865356,-0.34999987483024597,-0.7177035212516785,0.0,0.0,0.0
1759837376.8272827,1,-1.7349997758865356,-0.34999987483024597,-0.7177028088525557,0.0,True,0.011126279830932617,-1.7349997758865356,-0.34999987483024597,-0.7177035212516785,0.0,0.0,0.0
1759837376.8375578,1,-1.7349997758865356,-0.34999987483024597,-0.7177028372767129,0.0,True,0.010275125503540039,-1.7349997758865356,-0.34999987483024597,-0.7177035212516785,0.0,0.0,0.0
1759837376.8484817,1,-1.7349997758865356,-0.34999987483024597,-0.7177028547392688,0.0,True,0.01092386245727539,-1.7349997758865356,-0.34999987483024597,-0.7177035212516785,0.0,0.0,0.0
1759837376.8595703,1,-1.7349997758865356,-0.34999987483024597,-0.7177028704553283,0.0,True,0.01108860969543457,-1.7349997758865356,-0.34999987483024597,-0.7177035212516785,0.0,0.0,0.0
1759837376.8709865,1,-1.7349997758865356,-0.34999987483024597,-0.7177028833838008,0.0,True,0.011416196823120117,-1.7349997758865356,-0.34999987483024597,-0.7177035212516785,0.0,0.0,0.0
1759837376.8816588,1,-1.7349997758865356,-0.34999987483024597,-0.7177029083939566,0.0,True,0.010672330856323242,-1.7349997758865356,-0.34999987483024597,-0.7177035212516785,0.0,0.0,0.0
1759837376.8925998,1,-1.7349997758865356,-0.34999987483024597,-0.7177029289396089,0.0,True,0.010941028594970703,-1.7349997758865356,-0.34999987483024597,-0.7177035212516785,0.0,0.0,0.0
1759837376.9033484,1,-1.7349997758865356,-0.34999987483024597,-0.717702951079044,0.0,True,0.010748624801635742,-1.7349997758865356,-0.34999987483024597,-0.7177035212516785,0.0,0.0,0.0
1759837376.9146998,1,-1.7349997758865356,-0.34999987483024597,-0.7177029650301918,0.0,True,0.011351346969604492,-1.7349997758865356,-0.34999987483024597,-0.7177035212516785,0.0,0.0,0.0
1759837376.925025,1,-1.7349997758865356,-0.34999987483024597,-0.7177029914435789,0.0,True,0.010325193405151367,-1.7349997758865356,-0.34999987483024597,-0.7177035212516785,0.0,0.0,0.0
1759837376.9363346,1,-1.7349997758865356,-0.34999987483024597,-0.7177030046781141,0.0,True,0.011309623718261719,-1.7349997758865356,-0.34999987483024597,-0.7177035212516785,0.0,0.0,0.0
1759837376.9465275,1,-1.7349997758865356,-0.34999987483024597,-0.7177030300462484,0.0,True,0.01019287109375,-1.7349997758865356,-0.34999987483024597,-0.7177035212516785,0.0,0.0,0.0
1759837376.9569201,1,-1.7349997758865356,-0.34999987483024597,-0.7177030507357571,0.0,True,0.01039266586303711,-1.7349997758865356,-0.34999987483024597,-0.7177035212516785,0.0,0.0,0.0
1759837376.967041,1,-1.7349997758865356,-0.34999987483024597,-0.7177030718117141,0.0,True,0.010120868682861328,-1.7349997758865356,-0.34999987483024597,-0.7177035212516785,0.0,0.0,0.0
1759837376.977932,1,-1.7349997758865356,-0.34999987483024597,-0.717703083137307,0.0,True,0.010890960693359375,-1.7349997758865356,-0.34999987483024597,-0.7177035212516785,0.0,0.0,0.0
1759837376.989057,1,-1.7349997758865356,-0.34999987483024597,-0.7177030925286907,0.0,True,0.01112508773803711,-1.7349997758865356,-0.34999987483024597,-0.7177035212516785,0.0,0.0,0.0
1759837376.9997942,1,-1.7349997758865356,-0.34999987483024597,-0.7177031066258177,0.0,True,0.010737180709838867,-1.7349997758865356,-0.34999987483024597,-0.7177035212516785,0.0,0.0,0.0
1759837377.0105042,1,-1.7349997758865356,-0.34999987483024597,-0.7177031208648543,0.0,True,0.010710000991821289,-1.7349997758865356,-0.34999987483024597,-0.7177035212516785,0.0,0.0,0.0
1759837377.0210893,1,-1.7349997758865356,-0.34999987483024597,-0.7177031355966133,0.0,True,0.01058506965637207,-1.7349997758865356,-0.34999987483024597,-0.7177035212516785,0.0,0.0,0.0
1759837377.0312567,1,-1.7349997758865356,-0.34999987483024597,-0.7177031528049422,0.0,True,0.010167360305786133,-1.7349997758865356,-0.34999987483024597,-0.7177035212516785,0.0,0.0,0.0
1759837377.0420485,1,-1.7349997758865356,-0.34999987483024597,-0.7177031633454583,0.0,True,0.010791778564453125,-1.7349997758865356,-0.34999987483024597,-0.7177035212516785,0.0,0.0,0.0
1759837377.0527253,1,-1.7349997758865356,-0.34999987483024597,-0.7177031745631091,0.0,True,0.010676860809326172,-1.7349997758865356,-0.34999987483024597,-0.7177035212516785,0.0,0.0,0.0
1759837377.06649,1,-1.7349997758865356,-0.34999987483024597,-0.7177031635326614,0.0,True,0.013764619827270508,-1.7349997758865356,-0.34999987483024597,-0.7177035212516785,0.0,0.0,0.0
1759837377.073644,1,-1.7349997758865356,-0.34999987483024597,-0.7177032050450549,0.0,True,0.007153987884521484,-1.7349997758865356,-0.34999987483024597,-0.7177035212516785,0.0,0.0,0.0
1759837377.0847633,1,-1.7349997758865356,-0.34999987483024597,-0.7177032119759943,0.0,True,0.011119365692138672,-1.7349997758865356,-0.34999987483024597,-0.7177035212516785,0.0,0.0,0.0
1759837377.0962255,1,-1.7349997758865356,-0.34999987483024597,-0.7177032156460843,0.0,True,0.011462211608886719,-1.7349997758865356,-0.34999987483024597,-0.7177035212516785,0.0,0.0,0.0
1759837377.106543,1,-1.7349997758865356,-0.34999987483024597,-0.717703228349027,0.0,True,0.010317564010620117,-1.7349997758865356,-0.34999987483024597,-0.7177035212516785,0.0,0.0,0.0
1759837377.1172252,1,-1.7349997758865356,-0.34999987483024597,-0.7177032381212882,0.0,True,0.010682106018066406,-1.7349997758865356,-0.34999987483024597,-0.7177035212516785,0.0,0.0,0.0
1759837377.127889,1,-1.7349997758865356,-0.34999987483024597,-0.717703247526309,0.0,True,0.010663747787475586,-1.7349997758865356,-0.34999987483024597,-0.7177035212516785,0.0,0.0,0.0
1759837377.138361,1,-1.7349997758865356,-0.34999987483024597,-0.717703257709605,0.0,True,0.01047205924987793,-1.7349997758865356,-0.34999987483024597,-0.7177035212516785,0.0,0.0,0.0
1759837377.1496851,1,-1.7349997758865356,-0.34999987483024597,-0.7177032625731172,0.0,True,0.011324167251586914,-1.7349997758865356,-0.34999987483024597,-0.7177035212516785,0.0,0.0,0.0
1759837377.1603692,1,-1.7349997758865356,-0.34999987483024597,-0.7177032716756244,0.0,True,0.010684013366699219,-1.7349997758865356,-0.34999987483024597,-0.7177035212516785,0.0,0.0,0.0
1759837377.1711018,1,-1.7349997758865356,-0.34999987483024597,-0.7177032803549164,0.0,True,0.010732650756835938,-1.7349997758865356,-0.34999987483024597,-0.7177035212516785,0.0,0.0,0.0
1759837377.1817741,1,-1.7349997758865356,-0.34999987483024597,-0.7177032889544535,0.0,True,0.010672330856323242,-1.7349997758865356,-0.34999987483024597,-0.7177035212516785,0.0,0.0,0.0
1759837377.192205,1,-1.7349997758865356,-0.34999987483024597,-0.7177032982775735,0.0,True,0.01043081283569336,-1.7349997758865356,-0.34999987483024597,-0.7177035212516785,0.0,0.0,0.0
1759837377.2023056,1,-1.7349997758865356,-0.34999987483024597,-0.7177033083776543,0.0,True,0.010100603103637695,-1.7349997758865356,-0.34999987483024597,-0.7177035212516785,0.0,0.0,0.0
1759837377.2126708,1,-1.7349997758865356,-0.34999987483024597,-0.7177033161279738,0.0,True,0.01036524772644043,-1.7349997758865356,-0.34999987483024597,-0.7177035212516785,0.0,0.0,0.0
1759837377.2229905,1,-1.7349997758865356,-0.34999987483024597,-0.7177033234383323,0.0,True,0.010319709777832031,-1.7349997758865356,-0.34999987483024597,-0.7177035212516785,0.0,0.0,0.0
1759837377.2333171,1,-1.7349997758865356,-0.34999987483024597,-0.7177033302465041,0.0,True,0.010326623916625977,-1.7349997758865356,-0.34999987483024597,-0.7177035212516785,0.0,0.0,0.0
1759837377.2433705,1,-1.7349997758865356,-0.34999987483024597,-0.7177033377886595,0.0,True,0.010053396224975586,-1.7349997758865356,-0.34999987483024597,-0.7177035212516785,0.0,0.0,0.0
1759837377.2534723,1,-1.7349997758865356,-0.34999987483024597,-0.7177033444833469,0.0,True,0.010101795196533203,-1.7349997758865356,-0.34999987483024597,-0.7177035212516785,0.0,0.0,0.0
1759837377.267088,1,-1.7349997758865356,-0.34999987483024597,-0.7177033372373067,0.0,True,0.013615608215332031,-1.7349997758865356,-0.34999987483024597,-0.7177035212516785,0.0,0.0,0.0
1759837377.2777903,1,-1.7349997758865356,-0.34999987483024597,-0.7177033444608014,0.0,True,0.010702371597290039,-1.7349997758865356,-0.34999987483024597,-0.7177035212516785,0.0,0.0,0.0
1759837377.288051,1,-1.7349997758865356,-0.34999987483024597,-0.7177033535476518,0.0,True,0.010260581970214844,-1.7349997758865356,-0.34999987483024597,-0.7177035212516785,0.0,0.0,0.0
1759837377.2987223,1,-1.7349997758865356,-0.34999987483024597,-0.7177033600832736,0.0,True,0.010671377182006836,-1.7349997758865356,-0.34999987483024597,-0.7177035212516785,0.0,0.0,0.0
1759837377.3090227,1,-1.7349997758865356,-0.34999987483024597,-0.7177033672356448,0.0,True,0.010300397872924805,-1.7349997758865356,-0.34999987483024597,-0.7177035212516785,0.0,0.0,0.0
1759837377.3191733,1,-1.7349997758865356,-0.34999987483024597,-0.7177033741173222,0.0,True,0.010150671005249023,-1.7349997758865356,-0.34999987483024597,-0.7177035212516785,0.0,0.0,0.0
1759837377.329422,1,-1.7349997758865356,-0.34999987483024597,-0.7177033798879187,0.0,True,0.010248661041259766,-1.7349997758865356,-0.34999987483024597,-0.7177035212516785,0.0,0.0,0.0
1759837377.3400471,1,-1.7349997758865356,-0.34999987483024597,-0.7177033839693685,0.0,True,0.010625123977661133,-1.7349997758865356,-0.34999987483024597,-0.7177035212516785,0.0,0.0,0.0
1759837377.3506544,1,-1.7349997758865356,-0.34999987483024597,-0.7177033880440131,0.0,True,0.010607242584228516,-1.7349997758865356,-0.34999987483024597,-0.7177035212516785,0.0,0.0,0.0
1759837377.3617454,1,-1.7349997758865356,-0.34999987483024597,-0.7177033907614625,0.0,True,0.011090993881225586,-1.7349997758865356,-0.34999987483024597,-0.7177035212516785,0.0,0.0,0.0
1759837377.3717473,1,-1.7349997758865356,-0.34999987483024597,-0.717703396818866,0.0,True,0.010001897811889648,-1.7349997758865356,-0.34999987483024597,-0.7177035212516785,0.0,0.0,0.0
1759837377.3819046,1,-1.7349997758865356,-0.34999987483024597,-0.7177034018979,0.0,True,0.010157346725463867,-1.7349997758865356,-0.34999987483024597,-0.7177035212516785,0.0,0.0,0.0
1759837377.3920438,1,-1.7349997758865356,-0.34999987483024597,-0.7177034064788685,0.0,True,0.010139226913452148,-1.7349997758865356,-0.34999987483024597,-0.7177035212516785,0.0,0.0,0.0
1759837377.4025543,1,-1.7349997758865356,-0.34999987483024597,-0.7177034097310191,0.0,True,0.010510444641113281,-1.7349997758865356,-0.34999987483024597,-0.7177035212516785,0.0,0.0,0.0
1759837377.4135253,1,-1.7349997758865356,-0.34999987483024597,-0.7177034118429262,0.0,True,0.0109710693359375,-1.7349997758865356,-0.34999987483024597,-0.7177035212516785,0.0,0.0,0.0
1759837377.4243698,1,-1.7349997758865356,-0.34999987483024597,-0.7177034146041699,0.0,True,0.01084446907043457,-1.7349997758865356,-0.34999987483024597,-0.7177035212516785,0.0,0.0,0.0
1759837377.4348428,1,-1.7349997758865356,-0.34999987483024597,-0.7177034184162121,0.0,True,0.010473012924194336,-1.7349997758865356,-0.34999987483024597,-0.7177035212516785,0.0,0.0,0.0
1759837377.4457877,1,-1.7349997758865356,-0.34999987483024597,-0.7177034210615645,0.0,True,0.010944843292236328,-1.7349997758865356,-0.34999987483024597,-0.7177035212516785,0.0,0.0,0.0
1759837377.4566493,1,-1.7349997758865356,-0.34999987483024597,-0.7177034239874676,0.0,True,0.010861635208129883,-1.7349997758865356,-0.34999987483024597,-0.7177035212516785,0.0,0.0,0.0
1759837377.4702792,1,-1.7349997758865356,-0.34999987483024597,-0.7177034214768696,0.0,True,0.013629913330078125,-1.7349997758865356,-0.34999987483024597,-0.7177035212516785,0.0,0.12114331831312342,0.0
1759837377.4811482,1,-1.7349997758865356,-0.34999987483024597,-0.717703426024169,0.0,True,0.010869026184082031,-1.7349997758865356,-0.34999987483024597,-0.7177035212516785,0.0,0.12114331831312342,0.0
1759837377.4926634,1,-1.7349997758865356,-0.34999987483024597,-0.7177034293259759,0.0,True,0.011515140533447266,-1.7349997758865356,-0.34999987483024597,-0.7177035212516785,0.0,0.12114331831312342,0.0
1759837377.5033686,1,-1.7349997758865356,-0.34999987483024597,-0.71770343395327,0.0,True,0.010705232620239258,-1.7349997758865356,-0.34999987483024597,-0.7177035212516785,0.0,0.12114331831312342,0.0
1759837377.5147474,1,-1.7349997758865356,-0.34999987483024597,-0.7177034369257598,0.0,True,0.011378765106201172,-1.7349997758865356,-0.34999987483024597,-0.7177035212516785,0.0,0.12114331831312342,0.0
1759837377.525849,1,-1.7349997758865356,-0.34999987483024597,-0.7177034402249607,0.0,True,0.011101722717285156,-1.7349997758865356,-0.34999987483024597,-0.7177035212516785,0.0,0.12114331831312342,0.0
1759837377.5359492,1,-1.7349997758865356,-0.34999987483024597,-0.7177034449373139,0.0,True,0.010100126266479492,-1.7349997758865356,-0.34999987483024597,-0.7177035212516785,0.0,0.12114331831312342,0.0
1759837377.546321,1,-1.7349997758865356,-0.34999987483024597,-0.7177034485476401,0.0,True,0.010371685028076172,-1.7349997758865356,-0.34999987483024597,-0.7177035212516785,0.0,0.12114331831312342,0.0
1759837377.5577092,1,-1.7349997758865356,-0.34999987483024597,-0.7177034501389361,0.0,True,0.011388301849365234,-1.7349997758865356,-0.34999987483024597,-0.7177035212516785,0.0,0.12114331831312342,0.0
1759837377.5685556,1,-1.7349997758865356,-0.34999987483024597,-0.7177034526354493,0.0,True,0.010846376419067383,-1.7349997758865356,-0.34999987483024597,-0.7177035212516785,0.0,0.12114331831312342,0.0
1759837377.5798385,1,-1.7349997758865356,-0.34999987483024597,-0.7177034544752026,0.0,True,0.011282920837402344,-1.7349997758865356,-0.34999987483024597,-0.7177035212516785,0.0,0.12114331831312342,0.0
1759837377.5909317,1,-1.7349997758865356,-0.34999987483024597,-0.7177034566461309,0.0,True,0.0110931396484375,-1.7349997758865356,-0.34999987483024597,-0.7177035212516785,0.0,0.12114331831312342,0.0
1759837377.602261,1,-1.7349997758865356,-0.34999987483024597,-0.7177034585088791,0.0,True,0.011329412460327148,-1.7349997758865356,-0.34999987483024597,-0.7177035212516785,0.0,0.12114331831312342,0.0
1759837377.6129732,1,-1.7349997758865356,-0.34999987483024597,-0.7177034611927695,0.0,True,0.010712146759033203,-1.7349997758865356,-0.34999987483024597,-0.7177035212516785,0.0,0.12114331831312342,0.0
1759837377.6231825,1,-1.7349997758865356,-0.34999987483024597,-0.7177034642788271,0.0,True,0.010209321975708008,-1.7349997758865356,-0.34999987483024597,-0.7177035212516785,0.0,0.12114331831312342,0.0
1759837377.6337845,1,-1.7349997758865356,-0.34999987483024597,-0.7177034664953688,0.0,True,0.010601997375488281,-1.7349997758865356,-0.34999987483024597,-0.7177035212516785,0.0,0.12114331831312342,0.0
1759837377.6449757,1,-1.7349997758865356,-0.34999987483024597,-0.7177034678306207,0.0,True,0.011191129684448242,-1.7349997758865356,-0.34999987483024597,-0.7177035212516785,0.0,0.12114331831312342,0.0
1759837377.6562774,1,-1.7349997758865356,-0.34999987483024597,-0.717703469119801,0.0,True,0.011301755905151367,-1.7349997758865356,-0.34999987483024597,-0.7177035212516785,0.0,0.12114331831312342,0.0
1759837377.671736,1,-1.7349997758865356,-0.34999987483024597,-0.7177034662416801,0.0,True,0.01545858383178711,-1.7349997758865356,-0.34999987483024597,-0.7177035212516785,0.0,0.12114331831312342,0.0
1759837377.6828423,1,-1.7349997758865356,-0.34999987483024597,-0.7177034691857784,0.0,True,0.011106252670288086,-1.7349997758865356,-0.34999987483024597,-0.7177035212516785,0.0,0.12114331831312342,0.0
1759837377.6930735,1,-1.7349997758865356,-0.34999987483024597,-0.7177034729059031,0.0,True,0.010231256484985352,-1.7349997758865356,-0.34999987483024597,-0.7177035212516785,0.0,0.12114331831312342,0.0
1759837377.7034159,1,-1.7349997758865356,-0.34999987483024597,-0.7177034758610752,0.0,True,0.01034235954284668,-1.7349997758865356,-0.34999987483024597,-0.7177035212516785,0.0,0.12114331831312342,0.0
1759837377.7140586,1,-1.7349997758865356,-0.34999987483024597,-0.7177034780115807,0.0,True,0.010642766952514648,-1.7349997758865356,-0.34999987483024597,-0.7177035212516785,0.0,0.12114331831312342,0.0
1759837377.7255101,1,-1.7349997758865356,-0.34999987483024597,-0.7177034791632568,0.0,True,0.011451482772827148,-1.7349997758865356,-0.34999987483024597,-0.7177035212516785,0.0,0.12114331831312342,0.0
1759837377.7364657,1,-1.7349997758865356,-0.34999987483024597,-0.717703480750151,0.0,True,0.010955572128295898,-1.7349997758865356,-0.34999987483024597,-0.7177035212516785,0.0,0.12114331831312342,0.0
1759837377.7467027,1,-1.7349997758865356,-0.34999987483024597,-0.7177034828483251,0.0,True,0.010236978530883789,-1.7349997758865356,-0.34999987483024597,-0.7177035212516785,0.0,0.12114331831312342,0.0
1759837377.7581265,1,-1.7349997758865356,-0.34999987483024597,-0.7177034837486147,0.0,True,0.011423826217651367,-1.7349997758865356,-0.34999987483024597,-0.7177035212516785,0.0,0.12114331831312342,0.0
1759837377.76936,1,-1.7349997758865356,-0.34999987483024597,-0.7177034848301282,0.0,True,0.01123356819152832,-1.7349997758865356,-0.34999987483024597,-0.7177035212516785,0.0,0.12114331831312342,0.0
1759837377.7808104,1,-1.7349997758865356,-0.34999987483024597,-0.7177034857974505,0.0,True,0.01145029067993164,-1.7349997758865356,-0.34999987483024597,-0.7177035212516785,0.0,0.12114331831312342,0.0
1759837377.7909045,1,-1.7349997758865356,-0.34999987483024597,-0.7177034877757542,0.0,True,0.010094165802001953,-1.7349997758865356,-0.34999987483024597,-0.7177035212516785,0.0,0.12114331831312342,0.0
1759837377.8022146,1,-1.7349997758865356,-0.34999987483024597,-0.7177034886741787,0.0,True,0.011310100555419922,-1.7349997758865356,-0.34999987483024597,-0.7177035212516785,0.0,0.12114331831312342,0.0
1759837377.8122964,1,-1.7349997758865356,-0.34999987483024597,-0.7177034903691926,0.0,True,0.010081768035888672,-1.7349997758865356,-0.34999987483024597,-0.7177035212516785,0.0,0.12114331831312342,0.0
1759837377.823126,1,-1.7349997758865356,-0.34999987483024597,-0.7177034913853557,0.0,True,0.010829687118530273,-1.7349997758865356,-0.34999987483024597,-0.7177035212516785,0.0,0.12114331831312342,0.0
1759837377.834429,1,-1.7349997758865356,-0.34999987483024597,-0.7177034920448637,0.0,True,0.011302947998046875,-1.7349997758865356,-0.34999987483024597,-0.7177035212516785,0.0,0.12114331831312342,0.0
1759837377.8456569,1,-1.7349997758865356,-0.34999987483024597,-0.717703492819485,0.0,True,0.011227846145629883,-1.7349997758865356,-0.34999987483024597,-0.7177035212516785,0.0,0.12114331831312342,0.0
1759837377.8557708,1,-1.7349997758865356,-0.34999987483024597,-0.7177034942842884,0.0,True,0.010113954544067383,-1.7349997758865356,-0.34999987483024597,-0.7177035212516785,0.0,0.12114331831312342,0.0
1759837377.8694184,1,-1.7349997758865356,-0.34999987483024597,-0.7177034936300402,0.0,True,0.01364755630493164,-1.7349997758865356,-0.34999987483024597,-0.7177035212516785,0.0,0.12114331831312342,0.0
1759837377.8778987,1,-1.7349997758865356,-0.34999987483024597,-0.7177034961496656,0.0,True,0.008480310440063477,-1.7349997758865356,-0.34999987483024597,-0.7177035212516785,0.0,0.12114331831312342,0.0
1759837377.8892834,1,-1.7349997758865356,-0.34999987483024597,-0.7177034967603362,0.0,True,0.011384725570678711,-1.7349997758865356,-0.34999987483024597,-0.7177035212516785,0.0,0.12114331831312342,0.0
1759837377.8998914,1,-1.7349997758865356,-0.34999987483024597,-0.7177034977104295,0.0,True,0.01060795783996582,-1.7349997758865356,-0.34999987483024597,-0.7177035212516785,0.0,0.12114331831312342,0.0
1759837377.9109974,1,-1.7349997758865356,-0.34999987483024597,-0.7177034983678219,0.0,True,0.011106014251708984,-1.7349997758865356,-0.34999987483024597,-0.7177035212516785,0.0,0.12114331831312342,0.0
1759837377.922563,1,-1.7349997758865356,-0.34999987483024597,-0.7177034988192617,0.0,True,0.011565685272216797,-1.7349997758865356,-0.34999987483024597,-0.7177035212516785,0.0,0.12114331831312342,0.0
1759837377.9337413,1,-1.7349997758865356,-0.34999987483024597,-0.7177034995270972,0.0,True,0.011178255081176758,-1.7349997758865356,-0.34999987483024597,-0.7177035212516785,0.0,0.12114331831312342,0.0
1759837377.944795,1,-1.7349997758865356,-0.34999987483024597,-0.7177035003031698,0.0,True,0.01105356216430664,-1.7349997758865356,-0.34999987483024597,-0.7177035212516785,0.0,0.12114331831312342,0.0
1759837377.9559069,1,-1.7349997758865356,-0.34999987483024597,-0.7177035010272554,0.0,True,0.011111974716186523,-1.7349997758865356,-0.34999987483024597,-0.7177035212516785,0.0,0.12114331831312342,0.0
1759837377.9661884,1,-1.7349997758865356,-0.34999987483024597,-0.7177035020609921,0.0,True,0.010281562805175781,-1.7349997758865356,-0.34999987483024597,-0.7177035212516785,0.0,0.12114331831312342,0.0
1759837377.976647,1,-1.7349997758865356,-0.34999987483024597,-0.7177035028995604,0.0,True,0.01045846939086914,-1.7349997758865356,-0.34999987483024597,-0.7177035212516785,0.0,0.12114331831312342,0.0
1759837377.9879713,1,-1.7349997758865356,-0.34999987483024597,-0.717703503311629,0.0,True,0.011324405670166016,-1.7349997758865356,-0.34999987483024597,-0.7177035212516785,0.0,0.12114331831312342,0.0
1759837377.9991229,1,-1.7349997758865356,-0.34999987483024597,-0.7177035038168231,0.0,True,0.011151552200317383,-1.7349997758865356,-0.34999987483024597,-0.7177035212516785,0.0,0.12114331831312342,0.0
1759837378.0100188,1,-1.7349997758865356,-0.34999987483024597,-0.7177035044350148,0.0,True,0.010895967483520508,-1.7349997758865356,-0.34999987483024597,-0.7177035212516785,0.0,0.12114331831312342,0.0
1759837378.0212862,1,-1.7349997758865356,-0.34999987483024597,-0.7177035049066447,0.0,True,0.011267423629760742,-1.7349997758865356,-0.34999987483024597,-0.7177035212516785,0.0,0.12114331831312342,0.0
1759837378.0325983,1,-1.7349997758865356,-0.34999987483024597,-0.7177035053755603,0.0,True,0.011312007904052734,-1.7349997758865356,-0.34999987483024597,-0.7177035212516785,0.0,0.12114331831312342,0.0
1759837378.0427547,1,-1.7349997758865356,-0.34999987483024597,-0.717703506226016,0.0,True,0.010156393051147461,-1.7349997758865356,-0.34999987483024597,-0.7177035212516785,0.0,0.12114331831312342,0.0
1759837378.0530224,1,-1.7349997758865356,-0.34999987483024597,-0.7177035069372195,0.0,True,0.01026773452758789,-1.7349997758865356,-0.34999987483024597,-0.7177035212516785,0.0,0.12114331831312342,0.0
1759837378.063321,1,-1.7349997758865356,-0.34999987483024597,-0.7177035075420353,0.0,True,0.010298728942871094,-1.7349997758865356,-0.34999987483024597,-0.7177035212516785,0.0,0.12114331831312342,0.0
1759837378.0745773,1,-1.7349997758865356,-0.34999987483024597,-0.7177035078035097,0.0,True,0.011256217956542969,-1.7349997758865356,-0.34999987483024597,-0.7177035212516785,0.0,0.12114331831312342,0.0
1759837378.0846038,1,-1.7349997758865356,-0.34999987483024597,-0.7177035084402767,0.0,True,0.01002645492553711,-1.7349997758865356,-0.34999987483024597,-0.7177035212516785,0.0,0.12114331831312342,0.0
1759837378.0953975,1,-1.7349997758865356,-0.34999987483024597,-0.7177035088085937,0.0,True,0.010793685913085938,-1.7349997758865356,-0.34999987483024597,-0.7177035212516785,0.0,0.12114331831312342,0.0
1759837378.1056623,1,-1.7349997758865356,-0.34999987483024597,-0.7177035093042008,0.0,True,0.010264873504638672,-1.7349997758865356,-0.34999987483024597,-0.7177035212516785,0.0,0.12114331831312342,0.0
1759837378.1170502,1,-1.7349997758865356,-0.34999987483024597,-0.717703509479362,0.0,True,0.011387825012207031,-1.7349997758865356,-0.34999987483024597,-0.7177035212516785,0.0,0.12114331831312342,0.0
1759837378.1283898,1,-1.7349997758865356,-0.34999987483024597,-0.7177035097137825,0.0,True,0.011339664459228516,-1.7349997758865356,-0.34999987483024597,-0.7177035212516785,0.0,0.12114331831312342,0.0
1759837378.1396685,1,-1.7349997758865356,-0.34999987483024597,-0.7177035100112796,0.0,True,0.011278629302978516,-1.7349997758865356,-0.34999987483024597,-0.7177035212516785,0.0,0.12114331831312342,0.0
1759837378.1509128,1,-1.7349997758865356,-0.34999987483024597,-0.7177035103429006,0.0,True,0.01124429702758789,-1.7349997758865356,-0.34999987483024597,-0.7177035212516785,0.0,0.12114331831312342,0.0
1759837378.1609907,1,-1.7349997758865356,-0.34999987483024597,-0.717703510938744,0.0,True,0.010077953338623047,-1.7349997758865356,-0.34999987483024597,-0.7177035212516785,0.0,0.12114331831312342,0.0
1759837378.1713617,1,-1.7349997758865356,-0.34999987483024597,-0.7177035113965218,0.0,True,0.010370969772338867,-1.7349997758865356,-0.34999987483024597,-0.7177035212516785,0.0,0.12114331831312342,0.0
1759837378.1818597,1,-1.7349997758865356,-0.34999987483024597,-0.717703511770102,0.0,True,0.010498046875,-1.7349997758865356,-0.34999987483024597,-0.7177035212516785,0.0,0.12114331831312342,0.0
1759837378.1930442,1,-1.7349997758865356,-0.34999987483024597,-0.717703511976227,0.0,True,0.011184453964233398,-1.7349997758865356,-0.34999987483024597,-0.7177035212516785,0.0,0.12114331831312342,0.0
1759837378.203532,1,-1.7349997758865356,-0.34999987483024597,-0.7177035123347224,0.0,True,0.010487794876098633,-1.7349997758865356,-0.34999987483024597,-0.7177035212516785,0.0,0.12114331831312342,0.0
1759837378.2141228,1,-1.7349997758865356,-0.34999987483024597,-0.7177035126552873,0.0,True,0.010590791702270508,-1.7349997758865356,-0.34999987483024597,-0.7177035212516785,0.0,0.12114331831312342,0.0
1759837378.2253685,1,-1.7349997758865356,-0.34999987483024597,-0.7177035128388916,0.0,True,0.0112457275390625,-1.7349997758865356,-0.34999987483024597,-0.7177035212516785,0.0,0.12114331831312342,0.0
1759837378.2361257,1,-1.7349997758865356,-0.34999987483024597,-0.7177035131269918,0.0,True,0.010757207870483398,-1.7349997758865356,-0.34999987483024597,-0.7177035212516785,0.0,0.12114331831312342,0.0
1759837378.2470276,1,-1.7349997758865356,-0.34999987483024597,-0.717703513386164,0.0,True,0.010901927947998047,-1.7349997758865356,-0.34999987483024597,-0.7177035212516785,0.0,0.12114331831312342,0.0
1759837378.2585907,1,-1.7349997758865356,-0.34999987483024597,-0.7177035135346781,0.0,True,0.01156306266784668,-1.7349997758865356,-0.34999987483024597,-0.7177035212516785,0.0,0.12114331831312342,0.0
1759837378.2720435,1,-1.7349997758865356,-0.34999987483024597,-0.7177035134232455,0.0,True,0.013452768325805664,-1.7349997758865356,-0.34999987483024597,-0.7177035212516785,0.0,0.12114331831312342,0.0
1759837378.2833014,1,-1.7349997758865356,-0.34999987483024597,-0.7177035137558558,0.0,True,0.01125788688659668,-1.7349997758865356,-0.34999987483024597,-0.7177035212516785,0.0,0.12114331831312342,0.0
1759837378.2945216,1,-1.7349997758865356,-0.34999987483024597,-0.7177035140932784,0.0,True,0.011220216751098633,-1.7349997758865356,-0.34999987483024597,-0.7177035212516785,0.0,0.12114331831312342,0.0
1759837378.3055232,1,-1.7349997758865356,-0.34999987483024597,-0.7177035144299371,0.0,True,0.0110015869140625,-1.7349997758865356,-0.34999987483024597,-0.7177035212516785,0.0,0.12114331831312342,0.0
1759837378.3157575,1,-1.7349997758865356,-0.34999987483024597,-0.7177035148319284,0.0,True,0.010234355926513672,-1.7349997758865356,-0.34999987483024597,-0.7177035212516785,0.0,0.12114331831312342,0.0
1759837378.326908,1,-1.7349997758865356,-0.34999987483024597,-0.7177035150549766,0.0,True,0.011150598526000977,-1.7349997758865356,-0.34999987483024597,-0.7177035212516785,0.0,0.12114331831312342,0.0
1759837378.3376963,1,-1.7349997758865356,-0.34999987483024597,-0.7177035153059119,0.0,True,0.010788202285766602,-1.7349997758865356,-0.34999987483024597,-0.7177035212516785,0.0,0.12114331831312342,0.0
1759837378.3488755,1,-1.7349997758865356,-0.34999987483024597,-0.7177035154916194,0.0,True,0.011179208755493164,-1.7349997758865356,-0.34999987483024597,-0.7177035212516785,0.0,0.12114331831312342,0.0
1759837378.359696,1,-1.7349997758865356,-0.34999987483024597,-0.7177035157153924,0.0,True,0.010820388793945312,-1.7349997758865356,-0.34999987483024597,-0.7177035212516785,0.0,0.12114331831312342,0.0
1759837378.369994,1,-1.7349997758865356,-0.34999987483024597,-0.7177035159839313,0.0,True,0.010298013687133789,-1.7349997758865356,-0.34999987483024597,-0.7177035212516785,0.0,0.12114331831312342,0.0
1759837378.3813915,1,-1.7349997758865356,-0.34999987483024597,-0.7177035161016683,0.0,True,0.011397600173950195,-1.7349997758865356,-0.34999987483024597,-0.7177035212516785,0.0,0.12114331831312342,0.0
1759837378.3918672,1,-1.7349997758865356,-0.34999987483024597,-0.7177035163229561,0.0,True,0.010475635528564453,-1.7349997758865356,-0.34999987483024597,-0.7177035212516785,0.0,0.12114331831312342,0.0
1759837378.4021156,1,-1.7349997758865356,-0.34999987483024597,-0.7177035165505306,0.0,True,0.010248422622680664,-1.7349997758865356,-0.34999987483024597,-0.7177035212516785,0.0,0.12114331831312342,0.0
1759837378.4135983,1,-1.7349997758865356,-0.34999987483024597,-0.7177035166304222,0.0,True,0.011482715606689453,-1.7349997758865356,-0.34999987483024597,-0.7177035212516785,0.0,0.12114331831312342,0.0
1759837378.423826,1,-1.7349997758865356,-0.34999987483024597,-0.7177035168427679,0.0,True,0.010227680206298828,-1.7349997758865356,-0.34999987483024597,-0.7177035212516785,0.0,0.12114331831312342,0.0
1759837378.4340475,1,-1.7349997758865356,-0.34999987483024597,-0.7177035170375596,0.0,True,0.010221481323242188,-1.7349997758865356,-0.34999987483024597,-0.7177035212516785,0.0,0.12114331831312342,0.0
1759837378.4450057,1,-1.7349997758865356,-0.34999987483024597,-0.717703517144102,0.0,True,0.010958194732666016,-1.7349997758865356,-0.34999987483024597,-0.7177035212516785,0.0,0.12114331831312342,0.0
1759837378.4552097,1,-1.7349997758865356,-0.34999987483024597,-0.7177035173169877,0.0,True,0.010204076766967773,-1.7349997758865356,-0.34999987483024597,-0.7177035212516785,0.0,0.12114331831312342,0.0
1759837378.466346,1,-1.7349997758865356,-0.34999987483024597,-0.7177035173985047,0.0,True,0.011136293411254883,-1.7349997758865356,-0.34999987483024597,-0.7177035212516785,0.0,0.12114331831312342,0.0
1759837378.4796124,1,-1.7349997758865356,-0.34999987483024597,-0.7177035173190873,0.0,True,0.013266324996948242,-1.7349997758865356,-0.34999987483024597,-0.7177035212516785,0.0,0.12114331831312342,0.0
1759837378.491301,1,-1.7349997758865356,-0.34999987483024597,-0.7177035174245194,0.0,True,0.011688709259033203,-1.7349997758865356,-0.34999987483024597,-0.7177035212516785,0.0,0.12114331831312342,0.0
1759837378.5034437,1,-1.7349997758865356,-0.34999987483024597,-0.7177035175160871,0.0,True,0.012142658233642578,-1.7349997758865356,-0.34999987483024597,-0.7177035212516785,0.0,0.12114331831312342,0.0
1759837378.51479,1,-1.7349997758865356,-0.34999987483024597,-0.7177035176767639,0.0,True,0.01134634017944336,-1.7349997758865356,-0.34999987483024597,-0.7177035212516785,0.0,0.12114331831312342,0.0
1759837378.5265968,1,-1.7349997758865356,-0.34999987483024597,-0.7177035177977622,0.0,True,0.011806726455688477,-1.7349997758865356,-0.34999987483024597,-0.7177035212516785,0.0,0.12114331831312342,0.0
1759837378.5367973,1,-1.7349997758865356,-0.34999987483024597,-0.7177035180211586,0.0,True,0.01020050048828125,-1.7349997758865356,-0.34999987483024597,-0.7177035212516785,0.0,0.12114331831312342,0.0
1759837378.5481927,1,-1.7349997758865356,-0.34999987483024597,-0.7177035181354441,0.0,True,0.011395454406738281,-1.7349997758865356,-0.34999987483024597,-0.7177035212516785,0.0,0.12114331831312342,0.0
1759837378.5589392,1,-1.7349997758865356,-0.34999987483024597,-0.7177035182798264,0.0,True,0.010746479034423828,-1.7349997758865356,-0.34999987483024597,-0.7177035212516785,0.0,0.12114331831312342,0.0
1759837378.570134,1,-1.7349997758865356,-0.34999987483024597,-0.7177035183835372,0.0,True,0.011194705963134766,-1.7349997758865356,-0.34999987483024597,-0.7177035212516785,0.0,0.12114331831312342,0.0
1759837378.58026,1,-1.7349997758865356,-0.34999987483024597,-0.7177035185423932,0.0,True,0.010126113891601562,-1.7349997758865356,-0.34999987483024597,-0.7177035212516785,0.0,0.12114331831312342,0.0
1759837378.5911815,1,-1.7349997758865356,-0.34999987483024597,-0.7177035186358438,0.0,True,0.010921478271484375,-1.7349997758865356,-0.34999987483024597,-0.7177035212516785,0.0,0.12114331831312342,0.0
1759837378.6022818,1,-1.7349997758865356,-0.34999987483024597,-0.7177035187125824,0.0,True,0.011100292205810547,-1.7349997758865356,-0.34999987483024597,-0.7177035212516785,0.0,0.12114331831312342,0.0
1759837378.6136873,1,-1.7349997758865356,-0.34999987483024597,-0.7177035187741154,0.0,True,0.011405467987060547,-1.7349997758865356,-0.34999987483024597,-0.7177035212516785,0.0,0.1276457542848064,0.0
1759837378.6240005,1,-1.7349997758865356,-0.34999987483024597,-0.7177035188951493,0.0,True,0.010313272476196289,-1.7349997758865356,-0.34999987483024597,-0.7177035212516785,0.0,0.1276457542848064,0.0
1759837378.6343846,1,-1.7349997758865356,-0.34999987483024597,-0.7177035190003256,0.0,True,0.010384082794189453,-1.7349997758865356,-0.34999987483024597,-0.7177035212516785,0.0,0.1276457542848064,0.0
1759837378.6448553,1,-1.7349997758865356,-0.34999987483024597,-0.717703519088758,0.0,True,0.01047062873840332,-1.7349997758865356,-0.34999987483024597,-0.7177035212516785,0.0,0.1276457542848064,0.0
1759837378.6564157,1,-1.7349997758865356,-0.34999987483024597,-0.7177035191198939,0.0,True,0.011560440063476562,-1.7349997758865356,-0.34999987483024597,-0.7177035212516785,0.0,0.1276457542848064,0.0
1759837378.6667116,1,-1.7349997758865356,-0.34999987483024597,-0.7177035192149539,0.0,True,0.010295867919921875,-1.7349997758865356,-0.34999987483024597,-0.7177035212516785,0.0,0.1276457542848064,0.0
1759837378.680562,1,-1.7349997758865356,-0.34999987483024597,-0.717703519154588,0.0,True,0.01385045051574707,-1.7349997758865356,-0.34999987483024597,-0.7177035212516785,0.0,0.1276457542848064,0.0
1759837378.6911876,1,-1.7349997758865356,-0.34999987483024597,-0.717703519260489,0.0,True,0.010625600814819336,-1.7349997758865356,-0.34999987483024597,-0.7177035212516785,0.0,0.1276457542848064,0.0
1759837378.7021363,1,-1.7349997758865356,-0.34999987483024597,-0.7177035193495342,0.0,True,0.010948657989501953,-1.7349997758865356,-0.34999987483024597,-0.7177035212516785,0.0,0.1276457542848064,0.0
1759837378.7135406,1,-1.7349997758865356,-0.34999987483024597,-0.717703519411911,0.0,True,0.011404275894165039,-1.7349997758865356,-0.34999987483024597,-0.7177035212516785,0.0,0.1276457542848064,0.0
1759837378.7238932,1,-1.7349997758865356,-0.34999987483024597,-0.7177035195103141,0.0,True,0.010352611541748047,-1.7349997758865356,-0.34999987483024597,-0.7177035212516785,0.0,0.1276457542848064,0.0
1759837378.734945,1,-1.7349997758865356,-0.34999987483024597,-0.7177035195720514,0.0,True,0.01105189323425293,-1.7349997758865356,-0.34999987483024597,-0.7177035212516785,0.0,0.1276457542848064,0.0
1759837378.745478,1,-1.7349997758865356,-0.34999987483024597,-0.7177035196467045,0.0,True,0.010532855987548828,-1.7349997758865356,-0.34999987483024597,-0.7177035212516785,0.0,0.1276457542848064,0.0
1759837378.7563744,1,-1.7349997758865356,-0.34999987483024597,-0.7177035197021873,0.0,True,0.010896444320678711,-1.7349997758865356,-0.34999987483024597,-0.7177035212516785,0.0,0.1276457542848064,0.0
1759837378.7673373,1,-1.7349997758865356,-0.34999987483024597,-0.7177035197523587,0.0,True,0.010962963104248047,-1.7349997758865356,-0.34999987483024597,-0.7177035212516785,0.0,0.1276457542848064,0.0
1759837378.7780063,1,-1.7349997758865356,-0.34999987483024597,-0.7177035198102857,0.0,True,0.01066899299621582,-1.7349997758865356,-0.34999987483024597,-0.7177035212516785,0.0,0.1276457542848064,0.0
1759837378.7891614,1,-1.7349997758865356,-0.34999987483024597,-0.717703519850108,0.0,True,0.011155128479003906,-1.7349997758865356,-0.34999987483024597,-0.7177035212516785,0.0,0.1276457542848064,0.0
1759837378.8004613,1,-1.7349997758865356,-0.34999987483024597,-0.7177035198864594,0.0,True,0.011299848556518555,-1.7349997758865356,-0.34999987483024597,-0.7177035212516785,0.0,0.1276457542848064,0.0
1759837378.811425,1,-1.7349997758865356,-0.34999987483024597,-0.7177035199344086,0.0,True,0.010963678359985352,-1.7349997758865356,-0.34999987483024597,-0.7177035212516785,0.0,0.1276457542848064,0.0
1759837378.821776,1,-1.7349997758865356,-0.34999987483024597,-0.7177035199973183,0.0,True,0.010350942611694336,-1.7349997758865356,-0.34999987483024597,-0.7177035212516785,0.0,0.1276457542848064,0.0
1759837378.833172,1,-1.7349997758865356,-0.34999987483024597,-0.7177035200264292,0.0,True,0.011396169662475586,-1.7349997758865356,-0.34999987483024597,-0.7177035212516785,0.0,0.23623943543300996,0.0
1759837378.844438,1,-1.7349997758865356,-0.34999987483024597,-0.7177035200603754,0.0,True,0.011265993118286133,-1.7349997758865356,-0.34999987483024597,-0.7177035212516785,0.0,0.23623943543300996,0.0
1759837378.8557723,1,-1.7349997758865356,-0.34999987483024597,-0.7177035200945561,0.0,True,0.01133418083190918,-1.7349997758865356,-0.34999987483024597,-0.7177035212516785,0.0,0.23623943543300996,0.0
1759837378.8658216,1,-1.7349997758865356,-0.34999987483024597,-0.7177035201595032,0.0,True,0.01004934310913086,-1.7349997758865356,-0.34999987483024597,-0.7177035212516785,0.0,0.23623943543300996,0.0
1759837378.8795292,1,-1.7349997758865356,-0.34999987483024597,-0.71770352013497,0.0,True,0.013707637786865234,-1.7349997758865356,-0.34999987483024597,-0.7177035212516785,0.0,0.23623943543300996,0.0
1759837378.8907907,1,-1.7349997758865356,-0.34999987483024597,-0.7177035201793238,0.0,True,0.011261463165283203,-1.7349997758865356,-0.34999987483024597,-0.7177035212516785,0.0,0.23623943543300996,0.0
1759837378.901132,1,-1.7349997758865356,-0.34999987483024597,-0.7177035202435995,0.0,True,0.010341405868530273,-1.7349997758865356,-0.34999987483024597,-0.7177035212516785,0.0,0.23623943543300996,0.0
1759837378.9114432,1,-1.7349997758865356,-0.34999987483024597,-0.7177035202990716,0.0,True,0.010311126708984375,-1.7349997758865356,-0.34999987483024597,-0.7177035212516785,0.0,0.23623943543300996,0.0
1759837378.9229026,1,-1.7349997758865356,-0.34999987483024597,-0.7177035203236564,0.0,True,0.0114593505859375,-1.7349997758865356,-0.34999987483024597,-0.7177035212516785,0.0,0.23623943543300996,0.0
1759837378.9341059,1,-1.7349997758865356,-0.34999987483024597,-0.7177035203531847,0.0,True,0.011203289031982422,-1.7349997758865356,-0.34999987483024597,-0.7177035212516785,0.0,0.23623943543300996,0.0
