timestamp,vehicle_id,x,y,theta,velocity,gps_available,dt,gps_x,gps_y,gps_theta,gps_velocity,control_steering,control_acceleration
1759837375.1528192,0,-1.205,-0.83,-0.7801621756414647,0.0,False,0.01,nan,nan,nan,nan,0.0,0.0
1759837375.1636434,0,-1.205,-0.83,-0.7801621756414647,0.0,False,0.010824203491210938,nan,nan,nan,nan,0.0,0.0
1759837375.1752303,0,-1.205,-0.83,-0.7801621756414647,0.0,False,0.011586904525756836,nan,nan,nan,nan,0.0,0.0
1759837375.1866608,0,-1.205,-0.83,-0.7801621756414647,0.0,False,0.011430501937866211,nan,nan,nan,nan,0.0,0.0
1759837375.1981823,0,-1.205,-0.83,-0.7801621756414647,0.0,False,0.011521577835083008,nan,nan,nan,nan,0.0,0.0
1759837375.208314,0,-1.205,-0.83,-0.7801621756414647,0.0,False,0.010131597518920898,nan,nan,nan,nan,0.0,0.0
1759837375.2186208,0,-1.205,-0.83,-0.7801621756414647,0.0,False,0.010306835174560547,nan,nan,nan,nan,0.0,0.0
1759837375.2299867,0,-1.205,-0.83,-0.7801621756414647,0.0,False,0.011365890502929688,nan,nan,nan,nan,0.0,0.0
1759837375.2407572,0,-1.205,-0.83,-0.7801621756414647,0.0,False,0.010770559310913086,nan,nan,nan,nan,0.0,0.0
1759837375.2516656,0,-1.205,-0.83,-0.7801621756414647,0.0,False,0.010908365249633789,nan,nan,nan,nan,0.0,0.0
1759837375.2629974,0,-1.205,-0.83,-0.7801621756414647,0.0,False,0.011331796646118164,nan,nan,nan,nan,0.0,0.0
1759837375.2741075,0,-1.205,-0.83,-0.7801621756414647,0.0,False,0.011110067367553711,nan,nan,nan,nan,0.0,0.0
1759837375.2841997,0,-1.205,-0.83,-0.7801621756414647,0.0,False,0.01009225845336914,nan,nan,nan,nan,0.0,0.0
1759837375.295519,0,-1.205,-0.83,-0.7801621756414647,0.0,False,0.011319398880004883,nan,nan,nan,nan,0.0,0.0
1759837375.3069098,0,-1.205,-0.83,-0.7801621756414647,0.0,False,0.01139068603515625,nan,nan,nan,nan,0.0,0.0
1759837375.3184578,0,-1.205,-0.83,-0.7801621756414647,0.0,False,0.011548042297363281,nan,nan,nan,nan,0.0,0.0
1759837375.329909,0,-1.205,-0.83,-0.7801621756414647,0.0,False,0.011451244354248047,nan,nan,nan,nan,0.0,0.0
1759837375.341197,0,-1.205,-0.83,-0.7801621756414647,0.0,False,0.011287927627563477,nan,nan,nan,nan,0.0,0.0
1759837375.35125,0,-1.2050000425577163,-0.8299997470180194,-0.7229997346257591,0.0,True,0.010052919387817383,-1.2050000429153442,-0.8299997448921204,-0.7177035212516785,0.0,0.0,0.0
1759837375.3615124,0,-1.205000042795803,-0.8299997456027273,-0.7181192747417846,0.0,True,0.010262489318847656,-1.2050000429153442,-0.8299997448921204,-0.7177035212516785,0.0,0.0,0.0
1759837375.3716748,0,-1.2050000428705006,-0.8299997451586908,-0.7176608016436319,0.0,True,0.010162353515625,-1.2050000429153442,-0.8299997448921204,-0.7177035212516785,0.0,0.0,0.0
1759837375.381678,0,-1.2050000428982601,-0.829999744993676,-0.7176001565255934,0.0,True,0.010003328323364258,-1.2050000429153442,-0.8299997448921204,-0.7177035212516785,0.0,0.0,0.0
1759837375.393042,0,-1.2050000429088212,-0.8299997449308965,-0.7175874968286973,0.0,True,0.011363983154296875,-1.2050000429153442,-0.8299997448921204,-0.7177035212516785,0.0,0.0,0.0
1759837375.404229,0,-1.205000042912853,-0.8299997449069307,-0.717593610760785,0.0,True,0.011186838150024414,-1.2050000429153442,-0.8299997448921204,-0.7177035212516785,0.0,0.0,0.0
1759837375.4152856,0,-1.2050000429143926,-0.8299997448977774,-0.7176057446659456,0.0,True,0.011056661605834961,-1.2050000429153442,-0.8299997448921204,-0.7177035212516785,0.0,0.0,0.0
1759837375.4264162,0,-1.2050000429149808,-0.8299997448942812,-0.7176181410187485,0.0,True,0.011130571365356445,-1.2050000429153442,-0.8299997448921204,-0.7177035212516785,0.0,0.0,0.0
1759837375.436514,0,-1.2050000429152055,-0.8299997448929457,-0.7176305673519803,0.0,True,0.010097742080688477,-1.2050000429153442,-0.8299997448921204,-0.7177035212516785,0.0,0.0,0.0
1759837375.4474363,0,-1.2050000429152912,-0.8299997448924357,-0.7176393889593147,0.0,True,0.010922431945800781,-1.2050000429153442,-0.8299997448921204,-0.7177035212516785,0.0,0.0,0.0
1759837375.458258,0,-1.205000042915324,-0.8299997448922408,-0.7176469209099672,0.0,True,0.01082158088684082,-1.2050000429153442,-0.8299997448921204,-0.7177035212516785,0.0,0.0,0.0
1759837375.4690676,0,-1.2050000429153365,-0.8299997448921663,-0.7176532570974086,0.0,True,0.010809659957885742,-1.2050000429153442,-0.8299997448921204,-0.7177035212516785,0.0,0.0,0.0
1759837375.4803693,0,-1.2050000429153414,-0.8299997448921379,-0.7176581740719641,0.0,True,0.011301755905151367,-1.2050000429153442,-0.8299997448921204,-0.7177035212516785,0.0,0.0,0.0
1759837375.4916165,0,-1.2050000429153431,-0.829999744892127,-0.7176625338170233,0.0,True,0.01124715805053711,-1.2050000429153442,-0.8299997448921204,-0.7177035212516785,0.0,0.0,0.0
1759837375.5029233,0,-1.2050000429153438,-0.8299997448921229,-0.7176663014889115,0.0,True,0.0113067626953125,-1.2050000429153442,-0.8299997448921204,-0.7177035212516785,0.0,0.0,0.0
1759837375.513263,0,-1.205000042915344,-0.8299997448921214,-0.7176701863055861,0.0,True,0.010339736938476562,-1.2050000429153442,-0.8299997448921204,-0.7177035212516785,0.0,0.0,0.0
1759837375.5246239,0,-1.2050000429153442,-0.8299997448921207,-0.7176727665812148,0.0,True,0.011360883712768555,-1.2050000429153442,-0.8299997448921204,-0.7177035212516785,0.0,0.0,0.0
1759837375.5361187,0,-1.2050000429153442,-0.8299997448921205,-0.7176749881836049,0.0,True,0.011494874954223633,-1.2050000429153442,-0.8299997448921204,-0.7177035212516785,0.0,0.0,0.0
1759837375.5526977,0,-1.2050000429153442,-0.8299997448921204,-0.7176746413856314,0.0,True,0.01657891273498535,-1.2050000429153442,-0.8299997448921204,-0.7177035212516785,0.0,0.0,0.0
1759837375.5633285,0,-1.2050000429153442,-0.8299997448921204,-0.7176778848221872,0.0,True,0.01063084602355957,-1.2050000429153442,-0.8299997448921204,-0.7177035212516785,0.0,0.0,0.0
1759837375.5733707,0,-1.2050000429153442,-0.8299997448921204,-0.717680827932778,0.0,True,0.010042190551757812,-1.2050000429153442,-0.8299997448921204,-0.7177035212516785,0.0,0.0,0.0
1759837375.5846,0,-1.2050000429153442,-0.8299997448921204,-0.7176826134447261,0.0,True,0.011229276657104492,-1.2050000429153442,-0.8299997448921204,-0.7177035212516785,0.0,0.0,0.0
1759837375.5956836,0,-1.2050000429153442,-0.8299997448921204,-0.7176841378151178,0.0,True,0.011083602905273438,-1.2050000429153442,-0.8299997448921204,-0.7177035212516785,0.0,0.0,0.0
1759837375.6068685,0,-1.2050000429153442,-0.8299997448921204,-0.7176854108499615,0.0,True,0.011184930801391602,-1.2050000429153442,-0.8299997448921204,-0.7177035212516785,0.0,0.0,0.0
1759837375.616899,0,-1.2050000429153442,-0.8299997448921204,-0.7176869078878454,0.0,True,0.010030508041381836,-1.2050000429153442,-0.8299997448921204,-0.7177035212516785,0.0,0.0,0.0
1759837375.6276891,0,-1.2050000429153442,-0.8299997448921204,-0.7176879013688549,0.0,True,0.010790109634399414,-1.2050000429153442,-0.8299997448921204,-0.7177035212516785,0.0,0.0,0.0
1759837375.6390638,0,-1.2050000429153442,-0.8299997448921204,-0.7176885876482544,0.0,True,0.011374711990356445,-1.2050000429153442,-0.8299997448921204,-0.7177035212516785,0.0,0.0,0.0
1759837375.6503456,0,-1.2050000429153442,-0.8299997448921204,-0.7176892799216148,0.0,True,0.011281728744506836,-1.2050000429153442,-0.8299997448921204,-0.7177035212516785,0.0,0.0,0.0
1759837375.6617875,0,-1.2050000429153442,-0.8299997448921204,-0.7176899073048428,0.0,True,0.011441946029663086,-1.2050000429153442,-0.8299997448921204,-0.7177035212516785,0.0,0.0,0.0
1759837375.6723115,0,-1.2050000429153442,-0.8299997448921204,-0.7176907552970171,0.0,True,0.01052403450012207,-1.2050000429153442,-0.8299997448921204,-0.7177035212516785,0.0,0.0,0.0
1759837375.6825895,0,-1.2050000429153442,-0.8299997448921204,-0.7176915601779434,0.0,True,0.010277986526489258,-1.2050000429153442,-0.8299997448921204,-0.7177035212516785,0.0,0.0,0.0
1759837375.6937282,0,-1.2050000429153442,-0.8299997448921204,-0.7176920426472009,0.0,True,0.011138677597045898,-1.2050000429153442,-0.8299997448921204,-0.7177035212516785,0.0,0.0,0.0
1759837375.7045422,0,-1.2050000429153442,-0.8299997448921204,-0.7176925730767287,0.0,True,0.01081395149230957,-1.2050000429153442,-0.8299997448921204,-0.7177035212516785,0.0,0.0,0.0
1759837375.7158012,0,-1.2050000429153442,-0.8299997448921204,-0.7176929740343088,0.0,True,0.011259078979492188,-1.2050000429153442,-0.8299997448921204,-0.7177035212516785,0.0,0.0,0.0
1759837375.726779,0,-1.2050000429153442,-0.8299997448921204,-0.7176934309846033,0.0,True,0.010977745056152344,-1.2050000429153442,-0.8299997448921204,-0.7177035212516785,0.0,0.0,0.0
1759837375.7368095,0,-1.2050000429153442,-0.8299997448921204,-0.7176940543386916,0.0,True,0.010030508041381836,-1.2050000429153442,-0.8299997448921204,-0.7177035212516785,0.0,0.0,0.0
1759837375.7502122,0,-1.2050000429153442,-0.8299997448921204,-0.7176939521475045,0.0,True,0.013402700424194336,-1.2050000429153442,-0.8299997448921204,-0.7177035212516785,0.0,0.0,0.0
1759837375.7607982,0,-1.2050000429153442,-0.8299997448921204,-0.7176944950314841,0.0,True,0.010586023330688477,-1.2050000429153442,-0.8299997448921204,-0.7177035212516785,0.0,0.0,0.0
1759837375.772096,0,-1.2050000429153442,-0.8299997448921204,-0.7176948789504163,0.0,True,0.01129770278930664,-1.2050000429153442,-0.8299997448921204,-0.7177035212516785,0.0,0.0,0.0
1759837375.7835212,0,-1.2050000429153442,-0.8299997448921204,-0.717695214760738,0.0,True,0.011425256729125977,-1.2050000429153442,-0.8299997448921204,-0.7177035212516785,0.0,0.0,0.0
1759837375.7948694,0,-1.2050000429153442,-0.8299997448921204,-0.7176955535742611,0.0,True,0.011348247528076172,-1.2050000429153442,-0.8299997448921204,-0.7177035212516785,0.0,0.0,0.0
1759837375.8054435,0,-1.2050000429153442,-0.8299997448921204,-0.7176959970886472,0.0,True,0.010574102401733398,-1.2050000429153442,-0.8299997448921204,-0.7177035212516785,0.0,0.0,0.0
1759837375.8167186,0,-1.2050000429153442,-0.8299997448921204,-0.7176962841523817,0.0,True,0.011275053024291992,-1.2050000429153442,-0.8299997448921204,-0.7177035212516785,0.0,0.0,0.0
1759837375.8267248,0,-1.2050000429153442,-0.8299997448921204,-0.7176967337666387,0.0,True,0.010006189346313477,-1.2050000429153442,-0.8299997448921204,-0.7177035212516785,0.0,0.0,0.0
1759837375.83761,0,-1.2050000429153442,-0.8299997448921204,-0.7176969980566152,0.0,True,0.010885238647460938,-1.2050000429153442,-0.8299997448921204,-0.7177035212516785,0.0,0.0,0.0
1759837375.848974,0,-1.2050000429153442,-0.8299997448921204,-0.7176971761009128,0.0,True,0.011363983154296875,-1.2050000429153442,-0.8299997448921204,-0.7177035212516785,0.0,0.0,0.0
1759837375.8592403,0,-1.2050000429153442,-0.8299997448921204,-0.7176975031173463,0.0,True,0.010266304016113281,-1.2050000429153442,-0.8299997448921204,-0.7177035212516785,0.0,0.0,0.0
1759837375.8698778,0,-1.2050000429153442,-0.8299997448921204,-0.7176977504063888,0.0,True,0.010637521743774414,-1.2050000429153442,-0.8299997448921204,-0.7177035212516785,0.0,0.0,0.0
1759837375.8813658,0,-1.2050000429153442,-0.8299997448921204,-0.7176978749158156,0.0,True,0.011487960815429688,-1.2050000429153442,-0.8299997448921204,-0.7177035212516785,0.0,0.0,0.0
1759837375.892121,0,-1.2050000429153442,-0.8299997448921204,-0.7176980992878601,0.0,True,0.010755300521850586,-1.2050000429153442,-0.8299997448921204,-0.7177035212516785,0.0,0.0,0.0
1759837375.9026344,0,-1.2050000429153442,-0.8299997448921204,-0.7176983413398865,0.0,True,0.0105133056640625,-1.2050000429153442,-0.8299997448921204,-0.7177035212516785,0.0,0.0,0.0
1759837375.9136195,0,-1.2050000429153442,-0.8299997448921204,-0.7176985107888392,0.0,True,0.010985136032104492,-1.2050000429153442,-0.8299997448921204,-0.7177035212516785,0.0,0.0,0.0
1759837375.9249425,0,-1.2050000429153442,-0.8299997448921204,-0.7176986413125448,0.0,True,0.011322975158691406,-1.2050000429153442,-0.8299997448921204,-0.7177035212516785,0.0,0.0,0.0
1759837375.9358134,0,-1.2050000429153442,-0.8299997448921204,-0.7176988256966599,0.0,True,0.010870933532714844,-1.2050000429153442,-0.8299997448921204,-0.7177035212516785,0.0,0.0,0.0
1759837375.9471278,0,-1.2050000429153442,-0.8299997448921204,-0.7176989621666738,0.0,True,0.01131439208984375,-1.2050000429153442,-0.8299997448921204,-0.7177035212516785,0.0,0.0,0.0
1759837375.9578462,0,-1.2050000429153442,-0.8299997448921204,-0.7176991563383179,0.0,True,0.010718345642089844,-1.2050000429153442,-0.8299997448921204,-0.7177035212516785,0.0,0.0,0.0
1759837375.9685004,0,-1.2050000429153442,-0.8299997448921204,-0.7176993427542335,0.0,True,0.010654211044311523,-1.2050000429153442,-0.8299997448921204,-0.7177035212516785,0.0,0.0,0.0
1759837375.9786565,0,-1.2050000429153442,-0.8299997448921204,-0.717699554378413,0.0,True,0.01015615463256836,-1.2050000429153442,-0.8299997448921204,-0.7177035212516785,0.0,0.0,0.0
1759837375.9889832,0,-1.2050000429153442,-0.8299997448921204,-0.7176997248628325,0.0,True,0.010326623916625977,-1.2050000429153442,-0.8299997448921204,-0.7177035212516785,0.0,0.0,0.0
1759837376.000506,0,-1.2050000429153442,-0.8299997448921204,-0.7176997813375614,0.0,True,0.011522769927978516,-1.2050000429153442,-0.8299997448921204,-0.7177035212516785,0.0,0.0,0.0
1759837376.0120564,0,-1.2050000429153442,-0.8299997448921204,-0.7176998518381765,0.0,True,0.011550426483154297,-1.2050000429153442,-0.8299997448921204,-0.7177035212516785,0.0,0.0,0.0
1759837376.023127,0,-1.2050000429153442,-0.8299997448921204,-0.7176999759878946,0.0,True,0.011070728302001953,-1.2050000429153442,-0.8299997448921204,-0.7177035212516785,0.0,0.0,0.0
1759837376.0344803,0,-1.2050000429153442,-0.8299997448921204,-0.7177000812013983,0.0,True,0.011353254318237305,-1.2050000429153442,-0.8299997448921204,-0.7177035212516785,0.0,0.0,0.0
1759837376.045987,0,-1.2050000429153442,-0.8299997448921204,-0.7177001788056501,0.0,True,0.01150655746459961,-1.2050000429153442,-0.8299997448921204,-0.7177035212516785,0.0,0.0,0.0
1759837376.0573359,0,-1.2050000429153442,-0.8299997448921204,-0.7177002920117417,0.0,True,0.011348962783813477,-1.2050000429153442,-0.8299997448921204,-0.7177035212516785,0.0,0.0,0.0
1759837376.0681725,0,-1.2050000429153442,-0.8299997448921204,-0.7177004373436002,0.0,True,0.010836601257324219,-1.2050000429153442,-0.8299997448921204,-0.7177035212516785,0.0,0.0,0.0
1759837376.079681,0,-1.2050000429153442,-0.8299997448921204,-0.7177005294607071,0.0,True,0.011508464813232422,-1.2050000429153442,-0.8299997448921204,-0.7177035212516785,0.0,0.0,0.0
1759837376.0900114,0,-1.2050000429153442,-0.8299997448921204,-0.717700690873734,0.0,True,0.010330438613891602,-1.2050000429153442,-0.8299997448921204,-0.7177035212516785,0.0,0.0,0.0
1759837376.1003587,0,-1.2050000429153442,-0.8299997448921204,-0.717700831847095,0.0,True,0.010347366333007812,-1.2050000429153442,-0.8299997448921204,-0.7177035212516785,0.0,0.0,0.0
1759837376.1104305,0,-1.2050000429153442,-0.8299997448921204,-0.7177009683756168,0.0,True,0.010071754455566406,-1.2050000429153442,-0.8299997448921204,-0.7177035212516785,0.0,0.0,0.0
1759837376.1213841,0,-1.2050000429153442,-0.8299997448921204,-0.7177010385680553,0.0,True,0.010953664779663086,-1.2050000429153442,-0.8299997448921204,-0.7177035212516785,0.0,0.0,0.0
1759837376.131905,0,-1.2050000429153442,-0.8299997448921204,-0.7177011299440945,0.0,True,0.01052093505859375,-1.2050000429153442,-0.8299997448921204,-0.7177035212516785,0.0,0.0,0.0
1759837376.1424773,0,-1.2050000429153442,-0.8299997448921204,-0.7177012142287449,0.0,True,0.010572195053100586,-1.2050000429153442,-0.8299997448921204,-0.7177035212516785,0.0,0.0,0.0
1759837376.1532266,0,-1.2050000429153442,-0.8299997448921204,-0.7177012853500528,0.0,True,0.010749340057373047,-1.2050000429153442,-0.8299997448921204,-0.7177035212516785,0.0,0.0,0.0
1759837376.1638854,0,-1.2050000429153442,-0.8299997448921204,-0.7177013594688333,0.0,True,0.010658740997314453,-1.2050000429153442,-0.8299997448921204,-0.7177035212516785,0.0,0.0,0.0
1759837376.174953,0,-1.2050000429153442,-0.8299997448921204,-0.7177014131274486,0.0,True,0.011067628860473633,-1.2050000429153442,-0.8299997448921204,-0.7177035212516785,0.0,0.0,0.0
1759837376.1857665,0,-1.2050000429153442,-0.8299997448921204,-0.717701481074851,0.0,True,0.010813474655151367,-1.2050000429153442,-0.8299997448921204,-0.7177035212516785,0.0,0.0,0.0
1759837376.1961458,0,-1.2050000429153442,-0.8299997448921204,-0.7177015668698878,0.0,True,0.010379314422607422,-1.2050000429153442,-0.8299997448921204,-0.7177035212516785,0.0,0.0,0.0
1759837376.2067828,0,-1.2050000429153442,-0.8299997448921204,-0.7177016348865592,0.0,True,0.010637044906616211,-1.2050000429153442,-0.8299997448921204,-0.7177035212516785,0.0,0.0,0.0
1759837376.2176218,0,-1.2050000429153442,-0.8299997448921204,-0.7177016909371474,0.0,True,0.010838985443115234,-1.2050000429153442,-0.8299997448921204,-0.7177035212516785,0.0,0.0,0.0
1759837376.228422,0,-1.2050000429153442,-0.8299997448921204,-0.7177017482633143,0.0,True,0.01080012321472168,-1.2050000429153442,-0.8299997448921204,-0.7177035212516785,0.0,0.0,0.0
1759837376.2402933,0,-1.2050000429153442,-0.8299997448921204,-0.7177017661171146,0.0,True,0.011871337890625,-1.2050000429153442,-0.8299997448921204,-0.7177035212516785,0.0,0.0,0.0
1759837376.2504067,0,-1.2050000429153442,-0.8299997448921204,-0.7177018571076257,0.0,True,0.01011347770690918,-1.2050000429153442,-0.8299997448921204,-0.7177035212516785,0.0,0.0,0.0
1759837376.2614794,0,-1.2050000429153442,-0.8299997448921204,-0.717701906572838,0.0,True,0.011072635650634766,-1.2050000429153442,-0.8299997448921204,-0.7177035212516785,0.0,0.0,0.0
1759837376.2721431,0,-1.2050000429153442,-0.8299997448921204,-0.7177019680104468,0.0,True,0.010663747787475586,-1.2050000429153442,-0.8299997448921204,-0.7177035212516785,0.0,0.0,0.0
1759837376.2828143,0,-1.2050000429153442,-0.8299997448921204,-0.717702025803348,0.0,True,0.010671138763427734,-1.2050000429153442,-0.8299997448921204,-0.7177035212516785,0.0,0.0,0.0
1759837376.2933326,0,-1.2050000429153442,-0.8299997448921204,-0.717702084561715,0.0,True,0.010518312454223633,-1.2050000429153442,-0.8299997448921204,-0.7177035212516785,0.0,0.0,0.0
1759837376.3042605,0,-1.2050000429153442,-0.8299997448921204,-0.717702126583939,0.0,True,0.010927915573120117,-1.2050000429153442,-0.8299997448921204,-0.7177035212516785,0.0,0.0,0.0
1759837376.3148673,0,-1.2050000429153442,-0.8299997448921204,-0.7177021775772019,0.0,True,0.010606765747070312,-1.2050000429153442,-0.8299997448921204,-0.7177035212516785,0.0,0.0,0.0
1759837376.3251681,0,-1.2050000429153442,-0.8299997448921204,-0.7177022345825108,0.0,True,0.010300874710083008,-1.2050000429153442,-0.8299997448921204,-0.7177035212516785,0.0,0.0,0.0
1759837376.335835,0,-1.2050000429153442,-0.8299997448921204,-0.717702276301317,0.0,True,0.010666847229003906,-1.2050000429153442,-0.8299997448921204,-0.7177035212516785,0.0,0.0,0.0
1759837376.3473427,0,-1.2050000429153442,-0.8299997448921204,-0.7177022943113407,0.0,True,0.011507749557495117,-1.2050000429153442,-0.8299997448921204,-0.7177035212516785,0.0,0.0,0.0
1759837376.3577373,0,-1.2050000429153442,-0.8299997448921204,-0.7177023460411558,0.0,True,0.010394573211669922,-1.2050000429153442,-0.8299997448921204,-0.7177035212516785,0.0,0.0,0.0
1759837376.3685126,0,-1.2050000429153442,-0.8299997448921204,-0.7177023854194502,0.0,True,0.010775327682495117,-1.2050000429153442,-0.8299997448921204,-0.7177035212516785,0.0,0.0,0.0
1759837376.3791373,0,-1.2050000429153442,-0.8299997448921204,-0.7177024264496303,0.0,True,0.01062464714050293,-1.2050000429153442,-0.8299997448921204,-0.7177035212516785,0.0,0.0,0.0
1759837376.3893366,0,-1.2050000429153442,-0.8299997448921204,-0.7177024749544572,0.0,True,0.010199308395385742,-1.2050000429153442,-0.8299997448921204,-0.7177035212516785,0.0,0.0,0.0
1759837376.3996205,0,-1.2050000429153442,-0.8299997448921204,-0.7177025165609106,0.0,True,0.010283946990966797,-1.2050000429153442,-0.8299997448921204,-0.7177035212516785,0.0,0.0,0.0
1759837376.409783,0,-1.2050000429153442,-0.8299997448921204,-0.7177025566976347,0.0,True,0.010162353515625,-1.2050000429153442,-0.8299997448921204,-0.7177035212516785,0.0,0.0,0.0
1759837376.4204323,0,-1.2050000429153442,-0.8299997448921204,-0.7177025829931054,0.0,True,0.010649442672729492,-1.2050000429153442,-0.8299997448921204,-0.7177035212516785,0.0,0.0,0.0
1759837376.431323,0,-1.2050000429153442,-0.8299997448921204,-0.7177026044328656,0.0,True,0.010890722274780273,-1.2050000429153442,-0.8299997448921204,-0.7177035212516785,0.0,0.0,0.0
1759837376.4421973,0,-1.2050000429153442,-0.8299997448921204,-0.7177026281984205,0.0,True,0.010874271392822266,-1.2050000429153442,-0.8299997448921204,-0.7177035212516785,0.0,0.0,0.0
1759837376.4527962,0,-1.2050000429153442,-0.8299997448921204,-0.7177026585717652,0.0,True,0.010598897933959961,-1.2050000429153442,-0.8299997448921204,-0.7177035212516785,0.0,0.0,0.0
1759837376.464218,0,-1.2050000429153442,-0.8299997448921204,-0.7177026733833376,0.0,True,0.011421680450439453,-1.2050000429153442,-0.8299997448921204,-0.7177035212516785,0.0,0.0,0.0
1759837376.4750257,0,-1.2050000429153442,-0.8299997448921204,-0.7177027021494986,0.0,True,0.01080775260925293,-1.2050000429153442,-0.8299997448921204,-0.7177035212516785,0.0,0.0,0.0
1759837376.4856918,0,-1.2050000429153442,-0.8299997448921204,-0.7177027331807473,0.0,True,0.010666131973266602,-1.2050000429153442,-0.8299997448921204,-0.7177035212516785,0.0,0.0,0.0
1759837376.497128,0,-1.2050000429153442,-0.8299997448921204,-0.7177027499314867,0.0,True,0.011436223983764648,-1.2050000429153442,-0.8299997448921204,-0.7177035212516785,0.0,0.0,0.0
1759837376.5078442,0,-1.2050000429153442,-0.8299997448921204,-0.7177027799344255,0.0,True,0.01071619987487793,-1.2050000429153442,-0.8299997448921204,-0.7177035212516785,0.0,0.0,0.0
1759837376.518459,0,-1.2050000429153442,-0.8299997448921204,-0.7177028101179381,0.0,True,0.010614871978759766,-1.2050000429153442,-0.8299997448921204,-0.7177035212516785,0.0,0.0,0.0
1759837376.5294182,0,-1.2050000429153442,-0.8299997448921204,-0.7177028327949486,0.0,True,0.010959148406982422,-1.2050000429153442,-0.8299997448921204,-0.7177035212516785,0.0,0.0,0.0
1759837376.5395355,0,-1.2050000429153442,-0.8299997448921204,-0.7177028666670964,0.0,True,0.010117292404174805,-1.2050000429153442,-0.8299997448921204,-0.7177035212516785,0.0,0.0,0.0
1759837376.553967,0,-1.2050000429153442,-0.8299997448921204,-0.7177028385288331,0.0,True,0.014431476593017578,-1.2050000429153442,-0.8299997448921204,-0.7177035212516785,0.0,0.0,0.0
1759837376.5610693,0,-1.2050000429153442,-0.8299997448921204,-0.7177029200334317,0.0,True,0.007102251052856445,-1.2050000429153442,-0.8299997448921204,-0.7177035212516785,0.0,0.0,0.0
1759837376.5717435,0,-1.2050000429153442,-0.8299997448921204,-0.717702941203024,0.0,True,0.010674238204956055,-1.2050000429153442,-0.8299997448921204,-0.7177035212516785,0.0,0.0,0.0
1759837376.5826955,0,-1.2050000429153442,-0.8299997448921204,-0.7177029545192521,0.0,True,0.010951995849609375,-1.2050000429153442,-0.8299997448921204,-0.7177035212516785,0.0,0.0,0.0
1759837376.5932093,0,-1.2050000429153442,-0.8299997448921204,-0.7177029739871337,0.0,True,0.010513782501220703,-1.2050000429153442,-0.8299997448921204,-0.7177035212516785,0.0,0.0,0.0
1759837376.6034317,0,-1.2050000429153442,-0.8299997448921204,-0.717702996250118,0.0,True,0.010222434997558594,-1.2050000429153442,-0.8299997448921204,-0.7177035212516785,0.0,0.0,0.0
1759837376.6142328,0,-1.2050000429153442,-0.8299997448921204,-0.7177030101317108,0.0,True,0.010801076889038086,-1.2050000429153442,-0.8299997448921204,-0.7177035212516785,0.0,0.0,0.0
1759837376.6249268,0,-1.2050000429153442,-0.8299997448921204,-0.7177030253124403,0.0,True,0.010694026947021484,-1.2050000429153442,-0.8299997448921204,-0.7177035212516785,0.0,0.0,0.0
1759837376.6354513,0,-1.2050000429153442,-0.8299997448921204,-0.7177030423643291,0.0,True,0.010524511337280273,-1.2050000429153442,-0.8299997448921204,-0.7177035212516785,0.0,0.0,0.0
1759837376.6457555,0,-1.2050000429153442,-0.8299997448921204,-0.7177030609616253,0.0,True,0.01030421257019043,-1.2050000429153442,-0.8299997448921204,-0.7177035212516785,0.0,0.0,0.0
1759837376.6560347,0,-1.2050000429153442,-0.8299997448921204,-0.7177030783669842,0.0,True,0.010279178619384766,-1.2050000429153442,-0.8299997448921204,-0.7177035212516785,0.0,0.0,0.0
1759837376.6661365,0,-1.2050000429153442,-0.8299997448921204,-0.7177030960451205,0.0,True,0.010101795196533203,-1.2050000429153442,-0.8299997448921204,-0.7177035212516785,0.0,0.0,0.0
1759837376.676411,0,-1.2050000429153442,-0.8299997448921204,-0.7177031105043277,0.0,True,0.010274410247802734,-1.2050000429153442,-0.8299997448921204,-0.7177035212516785,0.0,0.0,0.0
1759837376.687052,0,-1.2050000429153442,-0.8299997448921204,-0.7177031207970401,0.0,True,0.010641098022460938,-1.2050000429153442,-0.8299997448921204,-0.7177035212516785,0.0,0.0,0.0
1759837376.6970935,0,-1.2050000429153442,-0.8299997448921204,-0.7177031365835589,0.0,True,0.010041475296020508,-1.2050000429153442,-0.8299997448921204,-0.7177035212516785,0.0,0.0,0.0
1759837376.7075636,0,-1.2050000429153442,-0.8299997448921204,-0.717703147667617,0.0,True,0.010470151901245117,-1.2050000429153442,-0.8299997448921204,-0.7177035212516785,0.0,0.0,0.0
1759837376.718248,0,-1.2050000429153442,-0.8299997448921204,-0.7177031568072803,0.0,True,0.01068425178527832,-1.2050000429153442,-0.8299997448921204,-0.7177035212516785,0.0,0.0,0.0
1759837376.7295918,0,-1.2050000429153442,-0.8299997448921204,-0.7177031613734286,0.0,True,0.011343955993652344,-1.2050000429153442,-0.8299997448921204,-0.7177035212516785,0.0,0.0,0.0
1759837376.7401917,0,-1.2050000429153442,-0.8299997448921204,-0.7177031735186468,0.0,True,0.010599851608276367,-1.2050000429153442,-0.8299997448921204,-0.7177035212516785,0.0,0.0,0.0
1759837376.7534597,0,-1.2050000429153442,-0.8299997448921204,-0.7177031665368041,0.0,True,0.013267993927001953,-1.2050000429153442,-0.8299997448921204,-0.7177035212516785,0.0,0.0,0.0
1759837376.7612422,0,-1.2050000429153442,-0.8299997448921204,-0.7177032030269217,0.0,True,0.007782459259033203,-1.2050000429153442,-0.8299997448921204,-0.7177035212516785,0.0,0.0,0.0
1759837376.7719295,0,-1.2050000429153442,-0.8299997448921204,-0.7177032133482264,0.0,True,0.01068735122680664,-1.2050000429153442,-0.8299997448921204,-0.7177035212516785,0.0,0.0,0.0
1759837376.7830515,0,-1.2050000429153442,-0.8299997448921204,-0.7177032191120762,0.0,True,0.011121988296508789,-1.2050000429153442,-0.8299997448921204,-0.7177035212516785,0.0,0.0,0.0
1759837376.794387,0,-1.2050000429153442,-0.8299997448921204,-0.717703224523925,0.0,True,0.011335611343383789,-1.2050000429153442,-0.8299997448921204,-0.7177035212516785,0.0,0.0,0.0
1759837376.804537,0,-1.2050000429153442,-0.8299997448921204,-0.717703238490552,0.0,True,0.010149955749511719,-1.2050000429153442,-0.8299997448921204,-0.7177035212516785,0.0,0.0,0.0
1759837376.8156528,0,-1.2050000429153442,-0.8299997448921204,-0.7177032455360575,0.0,True,0.011115789413452148,-1.2050000429153442,-0.8299997448921204,-0.7177035212516785,0.0,0.0,0.0
1759837376.8257234,0,-1.2050000429153442,-0.8299997448921204,-0.7177032587149093,0.0,True,0.010070562362670898,-1.2050000429153442,-0.8299997448921204,-0.7177035212516785,0.0,0.0,0.0
1759837376.8360143,0,-1.2050000429153442,-0.8299997448921204,-0.7177032693306789,0.0,True,0.010290861129760742,-1.2050000429153442,-0.8299997448921204,-0.7177035212516785,0.0,0.0,0.0
1759837376.8469348,0,-1.2050000429153442,-0.8299997448921204,-0.7177032754911767,0.0,True,0.010920524597167969,-1.2050000429153442,-0.8299997448921204,-0.7177035212516785,0.0,0.0,0.0
1759837376.85801,0,-1.2050000429153442,-0.8299997448921204,-0.7177032811136161,0.0,True,0.011075258255004883,-1.2050000429153442,-0.8299997448921204,-0.7177035212516785,0.0,0.0,0.0
1759837376.8693285,0,-1.2050000429153442,-0.8299997448921204,-0.717703286173693,0.0,True,0.011318445205688477,-1.2050000429153442,-0.8299997448921204,-0.7177035212516785,0.0,0.0,0.0
1759837376.880079,0,-1.2050000429153442,-0.8299997448921204,-0.7177032947724289,0.0,True,0.010750532150268555,-1.2050000429153442,-0.8299997448921204,-0.7177035212516785,0.0,0.0,0.0
1759837376.8909223,0,-1.2050000429153442,-0.8299997448921204,-0.7177033026936961,0.0,True,0.010843276977539062,-1.2050000429153442,-0.8299997448921204,-0.7177035212516785,0.0,0.0,0.0
1759837376.9013283,0,-1.2050000429153442,-0.8299997448921204,-0.7177033122232395,0.0,True,0.010406017303466797,-1.2050000429153442,-0.8299997448921204,-0.7177035212516785,0.0,0.0,0.0
1759837376.9121523,0,-1.2050000429153442,-0.8299997448921204,-0.7177033190580957,0.0,True,0.010823965072631836,-1.2050000429153442,-0.8299997448921204,-0.7177035212516785,0.0,0.0,0.0
1759837376.9223158,0,-1.2050000429153442,-0.8299997448921204,-0.7177033283518881,0.0,True,0.010163545608520508,-1.2050000429153442,-0.8299997448921204,-0.7177035212516785,0.0,0.0,0.0
1759837376.9332676,0,-1.2050000429153442,-0.8299997448921204,-0.7177033334913219,0.0,True,0.010951757431030273,-1.2050000429153442,-0.8299997448921204,-0.7177035212516785,0.0,0.0,0.0
1759837376.9439406,0,-1.2050000429153442,-0.8299997448921204,-0.7177033397411101,0.0,True,0.010673046112060547,-1.2050000429153442,-0.8299997448921204,-0.7177035212516785,0.0,0.0,0.0
1759837376.9587438,0,-1.2050000429153442,-0.8299997448921204,-0.717703330505131,0.0,True,0.014803171157836914,-1.2050000429153442,-0.8299997448921204,-0.7177035212516785,0.0,0.0,0.0
1759837376.969059,0,-1.2050000429153442,-0.8299997448921204,-0.7177033420263292,0.0,True,0.010315179824829102,-1.2050000429153442,-0.8299997448921204,-0.7177035212516785,0.0,0.0,0.0
1759837376.9795043,0,-1.2050000429153442,-0.8299997448921204,-0.717703352375203,0.0,True,0.010445356369018555,-1.2050000429153442,-0.8299997448921204,-0.7177035212516785,0.0,0.0,0.0
1759837376.990651,0,-1.2050000429153442,-0.8299997448921204,-0.717703358725764,0.0,True,0.01114654541015625,-1.2050000429153442,-0.8299997448921204,-0.7177035212516785,0.0,0.0,0.0
1759837377.0007985,0,-1.2050000429153442,-0.8299997448921204,-0.7177033677498912,0.0,True,0.010147571563720703,-1.2050000429153442,-0.8299997448921204,-0.7177035212516785,0.0,0.0,0.0
1759837377.011009,0,-1.2050000429153442,-0.8299997448921204,-0.7177033753400117,0.0,True,0.010210514068603516,-1.2050000429153442,-0.8299997448921204,-0.7177035212516785,0.0,0.0,0.0
1759837377.021594,0,-1.2050000429153442,-0.8299997448921204,-0.7177033807033304,0.0,True,0.01058506965637207,-1.2050000429153442,-0.8299997448921204,-0.7177035212516785,0.0,0.0,0.0
1759837377.0317652,0,-1.2050000429153442,-0.8299997448921204,-0.7177033868189486,0.0,True,0.010171175003051758,-1.2050000429153442,-0.8299997448921204,-0.7177035212516785,0.0,0.0,0.0
1759837377.0420485,0,-1.2050000429153442,-0.8299997448921204,-0.717703391982873,0.0,True,0.010283231735229492,-1.2050000429153442,-0.8299997448921204,-0.7177035212516785,0.0,0.0,0.0
1759837377.0522194,0,-1.2050000429153442,-0.8299997448921204,-0.7177033969813653,0.0,True,0.010170936584472656,-1.2050000429153442,-0.8299997448921204,-0.7177035212516785,0.0,0.0,0.0
1759837377.062324,0,-1.2050000429153442,-0.8299997448921204,-0.7177034017176158,0.0,True,0.010104656219482422,-1.2050000429153442,-0.8299997448921204,-0.7177035212516785,0.0,0.0,0.0
1759837377.0726163,0,-1.2050000429153442,-0.8299997448921204,-0.7177034055529958,0.0,True,0.010292291641235352,-1.2050000429153442,-0.8299997448921204,-0.7177035212516785,0.0,0.0,0.0
1759837377.083133,0,-1.2050000429153442,-0.8299997448921204,-0.7177034086357246,0.0,True,0.010516643524169922,-1.2050000429153442,-0.8299997448921204,-0.7177035212516785,0.0,0.0,0.0
1759837377.0944035,0,-1.2050000429153442,-0.8299997448921204,-0.717703409943244,0.0,True,0.011270523071289062,-1.2050000429153442,-0.8299997448921204,-0.7177035212516785,0.0,0.0,0.0
1759837377.104984,0,-1.2050000429153442,-0.8299997448921204,-0.717703413474851,0.0,True,0.01058053970336914,-1.2050000429153442,-0.8299997448921204,-0.7177035212516785,0.0,0.0,0.0
1759837377.1151192,0,-1.2050000429153442,-0.8299997448921204,-0.717703418064989,0.0,True,0.010135173797607422,-1.2050000429153442,-0.8299997448921204,-0.7177035212516785,0.0,0.0,0.0
1759837377.1258419,0,-1.2050000429153442,-0.8299997448921204,-0.71770342094376,0.0,True,0.010722637176513672,-1.2050000429153442,-0.8299997448921204,-0.7177035212516785,0.0,0.0,0.0
1759837377.1366732,0,-1.2050000429153442,-0.8299997448921204,-0.7177034235662916,0.0,True,0.010831356048583984,-1.2050000429153442,-0.8299997448921204,-0.7177035212516785,0.0,0.0,0.0
1759837377.1481097,0,-1.2050000429153442,-0.8299997448921204,-0.7177034250806287,0.0,True,0.01143646240234375,-1.2050000429153442,-0.8299997448921204,-0.7177035212516785,0.0,0.0,0.0
1759837377.158297,0,-1.2050000429153442,-0.8299997448921204,-0.7177034295177798,0.0,True,0.010187387466430664,-1.2050000429153442,-0.8299997448921204,-0.7177035212516785,0.0,0.0,0.0
1759837377.1689641,0,-1.2050000429153442,-0.8299997448921204,-0.7177034326746892,0.0,True,0.010667085647583008,-1.2050000429153442,-0.8299997448921204,-0.7177035212516785,0.0,0.0,0.0
1759837377.1797369,0,-1.2050000429153442,-0.8299997448921204,-0.7177034354387821,0.0,True,0.010772705078125,-1.2050000429153442,-0.8299997448921204,-0.7177035212516785,0.0,0.0,0.0
1759837377.1906376,0,-1.2050000429153442,-0.8299997448921204,-0.7177034379307301,0.0,True,0.010900735855102539,-1.2050000429153442,-0.8299997448921204,-0.7177035212516785,0.0,0.0,0.0
1759837377.201301,0,-1.2050000429153442,-0.8299997448921204,-0.7177034408634402,0.0,True,0.010663509368896484,-1.2050000429153442,-0.8299997448921204,-0.7177035212516785,0.0,0.0,0.0
1759837377.2121663,0,-1.2050000429153442,-0.8299997448921204,-0.717703443352212,0.0,True,0.010865211486816406,-1.2050000429153442,-0.8299997448921204,-0.7177035212516785,0.0,0.0,0.0
1759837377.2224858,0,-1.2050000429153442,-0.8299997448921204,-0.7177034466849825,0.0,True,0.01031947135925293,-1.2050000429153442,-0.8299997448921204,-0.7177035212516785,0.0,0.0,0.0
1759837377.2328029,0,-1.2050000429153442,-0.8299997448921204,-0.7177034497297718,0.0,True,0.010317087173461914,-1.2050000429153442,-0.8299997448921204,-0.7177035212516785,0.0,0.0,0.0
1759837377.2433705,0,-1.2050000429153442,-0.8299997448921204,-0.7177034521005989,0.0,True,0.010567665100097656,-1.2050000429153442,-0.8299997448921204,-0.7177035212516785,0.0,0.0,0.0
1759837377.253976,0,-1.2050000429153442,-0.8299997448921204,-0.7177034542983272,0.0,True,0.010605573654174805,-1.2050000429153442,-0.8299997448921204,-0.7177035212516785,0.0,0.0,0.0
1759837377.2645786,0,-1.2050000429153442,-0.8299997448921204,-0.717703456446042,0.0,True,0.010602474212646484,-1.2050000429153442,-0.8299997448921204,-0.7177035212516785,0.0,0.0,0.0
1759837377.2752018,0,-1.2050000429153442,-0.8299997448921204,-0.7177034585135917,0.0,True,0.01062321662902832,-1.2050000429153442,-0.8299997448921204,-0.7177035212516785,0.0,0.0,0.0
1759837377.2860188,0,-1.2050000429153442,-0.8299997448921204,-0.7177034602798606,0.0,True,0.01081705093383789,-1.2050000429153442,-0.8299997448921204,-0.7177035212516785,0.0,0.0,0.0
1759837377.2970812,0,-1.2050000429153442,-0.8299997448921204,-0.7177034617650868,0.0,True,0.011062383651733398,-1.2050000429153442,-0.8299997448921204,-0.7177035212516785,0.0,0.0,0.0
1759837377.3080168,0,-1.2050000429153442,-0.8299997448921204,-0.71770346352573,0.0,True,0.010935544967651367,-1.2050000429153442,-0.8299997448921204,-0.7177035212516785,0.0,0.0,0.0
1759837377.318668,0,-1.2050000429153442,-0.8299997448921204,-0.7177034656650854,0.0,True,0.010651111602783203,-1.2050000429153442,-0.8299997448921204,-0.7177035212516785,0.0,0.0,0.0
1759837377.329422,0,-1.2050000429153442,-0.8299997448921204,-0.717703467581412,0.0,True,0.010754108428955078,-1.2050000429153442,-0.8299997448921204,-0.7177035212516785,0.0,0.0,0.0
1759837377.3395414,0,-1.2050000429153442,-0.8299997448921204,-0.7177034701146301,0.0,True,0.010119438171386719,-1.2050000429153442,-0.8299997448921204,-0.7177035212516785,0.0,0.0,0.0
1759837377.3501499,0,-1.2050000429153442,-0.8299997448921204,-0.7177034718404443,0.0,True,0.010608434677124023,-1.2050000429153442,-0.8299997448921204,-0.7177035212516785,0.0,0.0,0.0
1759837377.3612413,0,-1.2050000429153442,-0.8299997448921204,-0.7177034729575809,0.0,True,0.011091470718383789,-1.2050000429153442,-0.8299997448921204,-0.7177035212516785,0.0,0.0,0.0
1759837377.3717473,0,-1.2050000429153442,-0.8299997448921204,-0.7177034747618336,0.0,True,0.010505914688110352,-1.2050000429153442,-0.8299997448921204,-0.7177035212516785,0.0,0.0,0.0
1759837377.38241,0,-1.2050000429153442,-0.8299997448921204,-0.7177034763343499,0.0,True,0.01066279411315918,-1.2050000429153442,-0.8299997448921204,-0.7177035212516785,0.0,0.0,0.0
1759837377.3925474,0,-1.2050000429153442,-0.8299997448921204,-0.7177034783287599,0.0,True,0.010137319564819336,-1.2050000429153442,-0.8299997448921204,-0.7177035212516785,0.0,0.0,0.0
1759837377.4025543,0,-1.2050000429153442,-0.8299997448921204,-0.7177034802382298,0.0,True,0.010006904602050781,-1.2050000429153442,-0.8299997448921204,-0.7177035212516785,0.0,0.0,0.0
1759837377.4135253,0,-1.2050000429153442,-0.8299997448921204,-0.717703481072137,0.0,True,0.0109710693359375,-1.2050000429153442,-0.8299997448921204,-0.7177035212516785,0.0,0.0,0.0
1759837377.4243698,0,-1.2050000429153442,-0.8299997448921204,-0.717703482088222,0.0,True,0.01084446907043457,-1.2050000429153442,-0.8299997448921204,-0.7177035212516785,0.0,0.0,0.0
1759837377.4353478,0,-1.2050000429153442,-0.8299997448921204,-0.717703483072512,0.0,True,0.010977983474731445,-1.2050000429153442,-0.8299997448921204,-0.7177035212516785,0.0,0.0,0.0
1759837377.4457877,0,-1.2050000429153442,-0.8299997448921204,-0.7177034845534784,0.0,True,0.010439872741699219,-1.2050000429153442,-0.8299997448921204,-0.7177035212516785,0.0,0.0,0.0
1759837377.4566493,0,-1.2050000429153442,-0.8299997448921204,-0.7177034856271067,0.0,True,0.010861635208129883,-1.2050000429153442,-0.8299997448921204,-0.7177035212516785,0.0,0.0,0.0
1759837377.4738264,0,-1.2050000429153442,-0.8299997448921204,-0.7177034821276251,0.0,True,0.017177104949951172,-1.2050000429153442,-0.8299997448921204,-0.7177035212516785,0.0,0,0
1759837377.4848902,0,-1.2050000429153442,-0.8299997448921204,-0.7177034843834669,0.0,True,0.011063814163208008,-1.2050000429153442,-0.8299997448921204,-0.7177035212516785,0.0,0,0
1759837377.4957063,0,-1.2050000429153442,-0.8299997448921204,-0.7177034867990493,0.0,True,0.010816097259521484,-1.2050000429153442,-0.8299997448921204,-0.7177035212516785,0.0,0,0
1759837377.5066628,0,-1.2050000429153442,-0.8299997448921204,-0.7177034887260767,0.0,True,0.010956525802612305,-1.2050000429153442,-0.8299997448921204,-0.7177035212516785,0.0,0,0
1759837377.5167897,0,-1.2050000429153442,-0.8299997448921204,-0.7177034908674678,0.0,True,0.010126829147338867,-1.2050000429153442,-0.8299997448921204,-0.7177035212516785,0.0,0,0
1759837377.5278637,0,-1.2050000429153442,-0.8299997448921204,-0.7177034920683774,0.0,True,0.011074066162109375,-1.2050000429153442,-0.8299997448921204,-0.7177035212516785,0.0,0,0
1759837377.5392635,0,-1.2050000429153442,-0.8299997448921204,-0.7177034929493242,0.0,True,0.01139974594116211,-1.2050000429153442,-0.8299997448921204,-0.7177035212516785,0.0,0,0
1759837377.5505311,0,-1.2050000429153442,-0.8299997448921204,-0.7177034939061855,0.0,True,0.011267662048339844,-1.2050000429153442,-0.8299997448921204,-0.7177035212516785,0.0,0,0
1759837377.5618577,0,-1.2050000429153442,-0.8299997448921204,-0.7177034948192151,0.0,True,0.01132655143737793,-1.2050000429153442,-0.8299997448921204,-0.7177035212516785,0.0,0,0
1759837377.5731995,0,-1.2050000429153442,-0.8299997448921204,-0.7177034957113015,0.0,True,0.01134181022644043,-1.2050000429153442,-0.8299997448921204,-0.7177035212516785,0.0,0,0
1759837377.5838852,0,-1.2050000429153442,-0.8299997448921204,-0.7177034969161351,0.0,True,0.01068568229675293,-1.2050000429153442,-0.8299997448921204,-0.7177035212516785,0.0,0,0
1759837377.5950856,0,-1.2050000429153442,-0.8299997448921204,-0.717703497751252,0.0,True,0.011200428009033203,-1.2050000429153442,-0.8299997448921204,-0.7177035212516785,0.0,0,0
1759837377.6063755,0,-1.2050000429153442,-0.8299997448921204,-0.7177034985029529,0.0,True,0.011289834976196289,-1.2050000429153442,-0.8299997448921204,-0.7177035212516785,0.0,0,0
1759837377.617098,0,-1.2050000429153442,-0.8299997448921204,-0.717703499503493,0.0,True,0.010722637176513672,-1.2050000429153442,-0.8299997448921204,-0.7177035212516785,0.0,0,0
1759837377.627121,0,-1.2050000429153442,-0.8299997448921204,-0.717703500721651,0.0,True,0.010022878646850586,-1.2050000429153442,-0.8299997448921204,-0.7177035212516785,0.0,0,0
1759837377.6379206,0,-1.2050000429153442,-0.8299997448921204,-0.7177035014308917,0.0,True,0.010799646377563477,-1.2050000429153442,-0.8299997448921204,-0.7177035212516785,0.0,0,0
1759837377.6491892,0,-1.2050000429153442,-0.8299997448921204,-0.7177035018908278,0.0,True,0.01126861572265625,-1.2050000429153442,-0.8299997448921204,-0.7177035212516785,0.0,0,0
1759837377.6604457,0,-1.2050000429153442,-0.8299997448921204,-0.7177035023938245,0.0,True,0.01125645637512207,-1.2050000429153442,-0.8299997448921204,-0.7177035212516785,0.0,0,0
1759837377.671736,0,-1.2050000429153442,-0.8299997448921204,-0.7177035029212071,0.0,True,0.011290311813354492,-1.2050000429153442,-0.8299997448921204,-0.7177035212516785,0.0,0,0
1759837377.6823378,0,-1.2050000429153442,-0.8299997448921204,-0.7177035037244721,0.0,True,0.01060175895690918,-1.2050000429153442,-0.8299997448921204,-0.7177035212516785,0.0,0,0
1759837377.6930735,0,-1.2050000429153442,-0.8299997448921204,-0.7177035044134072,0.0,True,0.010735750198364258,-1.2050000429153442,-0.8299997448921204,-0.7177035212516785,0.0,0,0
1759837377.704421,0,-1.2050000429153442,-0.8299997448921204,-0.7177035048351463,0.0,True,0.011347532272338867,-1.2050000429153442,-0.8299997448921204,-0.7177035212516785,0.0,0,0
1759837377.7156513,0,-1.2050000429153442,-0.8299997448921204,-0.717703505317349,0.0,True,0.011230230331420898,-1.2050000429153442,-0.8299997448921204,-0.7177035212516785,0.0,0,0
1759837377.7265143,0,-1.2050000429153442,-0.8299997448921204,-0.717703505931329,0.0,True,0.010863065719604492,-1.2050000429153442,-0.8299997448921204,-0.7177035212516785,0.0,0,0
1759837377.7374709,0,-1.2050000429153442,-0.8299997448921204,-0.7177035064832396,0.0,True,0.010956525802612305,-1.2050000429153442,-0.8299997448921204,-0.7177035212516785,0.0,0,0
1759837377.748466,0,-1.2050000429153442,-0.8299997448921204,-0.7177035069944573,0.0,True,0.010995149612426758,-1.2050000429153442,-0.8299997448921204,-0.7177035212516785,0.0,0,0
1759837377.7591412,0,-1.2050000429153442,-0.8299997448921204,-0.7177035075772871,0.0,True,0.010675191879272461,-1.2050000429153442,-0.8299997448921204,-0.7177035212516785,0.0,0,0
1759837377.76936,0,-1.2050000429153442,-0.8299997448921204,-0.7177035082407492,0.0,True,0.01021885871887207,-1.2050000429153442,-0.8299997448921204,-0.7177035212516785,0.0,0,0
1759837377.7808104,0,-1.2050000429153442,-0.8299997448921204,-0.7177035084910219,0.0,True,0.01145029067993164,-1.2050000429153442,-0.8299997448921204,-0.7177035212516785,0.0,0,0
1759837377.7909045,0,-1.2050000429153442,-0.8299997448921204,-0.7177035091224866,0.0,True,0.010094165802001953,-1.2050000429153442,-0.8299997448921204,-0.7177035212516785,0.0,0,0
1759837377.80171,0,-1.2050000429153442,-0.8299997448921204,-0.7177035095101267,0.0,True,0.010805368423461914,-1.2050000429153442,-0.8299997448921204,-0.7177035212516785,0.0,0,0
1759837377.8128014,0,-1.2050000429153442,-0.8299997448921204,-0.7177035098071993,0.0,True,0.011091470718383789,-1.2050000429153442,-0.8299997448921204,-0.7177035212516785,0.0,0,0
1759837377.8236294,0,-1.2050000429153442,-0.8299997448921204,-0.7177035101820497,0.0,True,0.010828018188476562,-1.2050000429153442,-0.8299997448921204,-0.7177035212516785,0.0,0,0
1759837377.8349323,0,-1.2050000429153442,-0.8299997448921204,-0.7177035104448422,0.0,True,0.011302947998046875,-1.2050000429153442,-0.8299997448921204,-0.7177035212516785,0.0,0,0
1759837377.8456569,0,-1.2050000429153442,-0.8299997448921204,-0.7177035108559799,0.0,True,0.010724544525146484,-1.2050000429153442,-0.8299997448921204,-0.7177035212516785,0.0,0,0
1759837377.8567822,0,-1.2050000429153442,-0.8299997448921204,-0.7177035111635632,0.0,True,0.011125326156616211,-1.2050000429153442,-0.8299997448921204,-0.7177035212516785,0.0,0,0
1759837377.8674135,0,-1.2050000429153442,-0.8299997448921204,-0.7177035115715622,0.0,True,0.010631322860717773,-1.2050000429153442,-0.8299997448921204,-0.7177035212516785,0.0,0,0
1759837377.8784044,0,-1.2050000429153442,-0.8299997448921204,-0.7177035118802504,0.0,True,0.01099085807800293,-1.2050000429153442,-0.8299997448921204,-0.7177035212516785,0.0,0,0
1759837377.8892834,0,-1.2050000429153442,-0.8299997448921204,-0.7177035122014139,0.0,True,0.010879039764404297,-1.2050000429153442,-0.8299997448921204,-0.7177035212516785,0.0,0,0
1759837377.9003947,0,-1.2050000429153442,-0.8299997448921204,-0.7177035124695017,0.0,True,0.011111259460449219,-1.2050000429153442,-0.8299997448921204,-0.7177035212516785,0.0,0,0
1759837377.9115021,0,-1.2050000429153442,-0.8299997448921204,-0.7177035127400799,0.0,True,0.011107444763183594,-1.2050000429153442,-0.8299997448921204,-0.7177035212516785,0.0,0,0
1759837377.922563,0,-1.2050000429153442,-0.8299997448921204,-0.7177035130201812,0.0,True,0.011060953140258789,-1.2050000429153442,-0.8299997448921204,-0.7177035212516785,0.0,0,0
1759837377.9337413,0,-1.2050000429153442,-0.8299997448921204,-0.7177035132768754,0.0,True,0.011178255081176758,-1.2050000429153442,-0.8299997448921204,-0.7177035212516785,0.0,0,0
1759837377.9442909,0,-1.2050000429153442,-0.8299997448921204,-0.7177035136334027,0.0,True,0.010549545288085938,-1.2050000429153442,-0.8299997448921204,-0.7177035212516785,0.0,0,0
1759837377.9543998,0,-1.2050000429153442,-0.8299997448921204,-0.7177035140253114,0.0,True,0.01010894775390625,-1.2050000429153442,-0.8299997448921204,-0.7177035212516785,0.0,0,0
1759837377.9661884,0,-1.2050000429153442,-0.8299997448921204,-0.7177035141123742,0.0,True,0.011788606643676758,-1.2050000429153442,-0.8299997448921204,-0.7177035212516785,0.0,0,0
1759837377.977652,0,-1.2050000429153442,-0.8299997448921204,-0.7177035142781829,0.0,True,0.011463642120361328,-1.2050000429153442,-0.8299997448921204,-0.7177035212516785,0.0,0,0
1759837377.9889805,0,-1.2050000429153442,-0.8299997448921204,-0.7177035144883845,0.0,True,0.011328458786010742,-1.2050000429153442,-0.8299997448921204,-0.7177035212516785,0.0,0,0
1759837378.000128,0,-1.2050000429153442,-0.8299997448921204,-0.7177035147297524,0.0,True,0.011147499084472656,-1.2050000429153442,-0.8299997448921204,-0.7177035212516785,0.0,0,0
1759837378.0115297,0,-1.2050000429153442,-0.8299997448921204,-0.7177035149314648,0.0,True,0.011401653289794922,-1.2050000429153442,-0.8299997448921204,-0.7177035212516785,0.0,0,0
1759837378.022915,0,-1.2050000429153442,-0.8299997448921204,-0.7177035151361721,0.0,True,0.011385202407836914,-1.2050000429153442,-0.8299997448921204,-0.7177035212516785,0.0,0,0
1759837378.034171,0,-1.2050000429153442,-0.8299997448921204,-0.7177035153564617,0.0,True,0.011256217956542969,-1.2050000429153442,-0.8299997448921204,-0.7177035212516785,0.0,0,0
1759837378.0453131,0,-1.2050000429153442,-0.8299997448921204,-0.71770351558283,0.0,True,0.01114201545715332,-1.2050000429153442,-0.8299997448921204,-0.7177035212516785,0.0,0,0
1759837378.05615,0,-1.2050000429153442,-0.8299997448921204,-0.7177035158305181,0.0,True,0.01083683967590332,-1.2050000429153442,-0.8299997448921204,-0.7177035212516785,0.0,0,0
1759837378.067091,0,-1.2050000429153442,-0.8299997448921204,-0.7177035160444092,0.0,True,0.010941028594970703,-1.2050000429153442,-0.8299997448921204,-0.7177035212516785,0.0,0,0
1759837378.077134,0,-1.2050000429153442,-0.8299997448921204,-0.7177035163346712,0.0,True,0.010042905807495117,-1.2050000429153442,-0.8299997448921204,-0.7177035212516785,0.0,0,0
1759837378.0877247,0,-1.2050000429153442,-0.8299997448921204,-0.7177035165282248,0.0,True,0.010590791702270508,-1.2050000429153442,-0.8299997448921204,-0.7177035212516785,0.0,0,0
1759837378.0986567,0,-1.2050000429153442,-0.8299997448921204,-0.7177035166675036,0.0,True,0.010931968688964844,-1.2050000429153442,-0.8299997448921204,-0.7177035212516785,0.0,0,0
1759837378.109322,0,-1.2050000429153442,-0.8299997448921204,-0.7177035168301593,0.0,True,0.010665416717529297,-1.2050000429153442,-0.8299997448921204,-0.7177035212516785,0.0,0,0
1759837378.1207566,0,-1.2050000429153442,-0.8299997448921204,-0.7177035169156625,0.0,True,0.011434555053710938,-1.2050000429153442,-0.8299997448921204,-0.7177035212516785,0.0,0,0
1759837378.1315544,0,-1.2050000429153442,-0.8299997448921204,-0.7177035170706283,0.0,True,0.010797739028930664,-1.2050000429153442,-0.8299997448921204,-0.7177035212516785,0.0,0,0
1759837378.142279,0,-1.2050000429153442,-0.8299997448921204,-0.7177035172280881,0.0,True,0.010724544525146484,-1.2050000429153442,-0.8299997448921204,-0.7177035212516785,0.0,0,0
1759837378.1534283,0,-1.2050000429153442,-0.8299997448921204,-0.7177035173406505,0.0,True,0.011149406433105469,-1.2050000429153442,-0.8299997448921204,-0.7177035212516785,0.0,0,0
1759837378.1651254,0,-1.2050000429153442,-0.8299997448921204,-0.7177035174117634,0.0,True,0.011697053909301758,-1.2050000429153442,-0.8299997448921204,-0.7177035212516785,0.0,0,0
1759837378.1756954,0,-1.2050000429153442,-0.8299997448921204,-0.7177035175850541,0.0,True,0.010570049285888672,-1.2050000429153442,-0.8299997448921204,-0.7177035212516785,0.0,0,0
1759837378.1864135,0,-1.2050000429153442,-0.8299997448921204,-0.7177035177343072,0.0,True,0.010718107223510742,-1.2050000429153442,-0.8299997448921204,-0.7177035212516785,0.0,0,0
1759837378.1973212,0,-1.2050000429153442,-0.8299997448921204,-0.7177035178562612,0.0,True,0.010907649993896484,-1.2050000429153442,-0.8299997448921204,-0.7177035212516785,0.0,0,0
1759837378.2079215,0,-1.2050000429153442,-0.8299997448921204,-0.7177035179932254,0.0,True,0.01060032844543457,-1.2050000429153442,-0.8299997448921204,-0.7177035212516785,0.0,0,0
1759837378.2187815,0,-1.2050000429153442,-0.8299997448921204,-0.7177035181021605,0.0,True,0.010859966278076172,-1.2050000429153442,-0.8299997448921204,-0.7177035212516785,0.0,0,0
1759837378.2295518,0,-1.2050000429153442,-0.8299997448921204,-0.7177035182120814,0.0,True,0.010770320892333984,-1.2050000429153442,-0.8299997448921204,-0.7177035212516785,0.0,0,0
1759837378.240722,0,-1.2050000429153442,-0.8299997448921204,-0.7177035182923852,0.0,True,0.011170148849487305,-1.2050000429153442,-0.8299997448921204,-0.7177035212516785,0.0,0,0
1759837378.2515905,0,-1.2050000429153442,-0.8299997448921204,-0.7177035183938898,0.0,True,0.010868549346923828,-1.2050000429153442,-0.8299997448921204,-0.7177035212516785,0.0,0,0
1759837378.2617068,0,-1.2050000429153442,-0.8299997448921204,-0.7177035185366556,0.0,True,0.010116338729858398,-1.2050000429153442,-0.8299997448921204,-0.7177035212516785,0.0,0,0
1759837378.2725477,0,-1.2050000429153442,-0.8299997448921204,-0.717703518621267,0.0,True,0.010840892791748047,-1.2050000429153442,-0.8299997448921204,-0.7177035212516785,0.0,0,0
1759837378.2833014,0,-1.2050000429153442,-0.8299997448921204,-0.7177035187065144,0.0,True,0.010753631591796875,-1.2050000429153442,-0.8299997448921204,-0.7177035212516785,0.0,0,0
1759837378.2945216,0,-1.2050000429153442,-0.8299997448921204,-0.7177035187652798,0.0,True,0.011220216751098633,-1.2050000429153442,-0.8299997448921204,-0.7177035212516785,0.0,0,0
1759837378.3055232,0,-1.2050000429153442,-0.8299997448921204,-0.7177035188404517,0.0,True,0.0110015869140625,-1.2050000429153442,-0.8299997448921204,-0.7177035212516785,0.0,0,0
1759837378.316262,0,-1.2050000429153442,-0.8299997448921204,-0.7177035189299463,0.0,True,0.010738849639892578,-1.2050000429153442,-0.8299997448921204,-0.7177035212516785,0.0,0,0
1759837378.326908,0,-1.2050000429153442,-0.8299997448921204,-0.7177035190192793,0.0,True,0.01064610481262207,-1.2050000429153442,-0.8299997448921204,-0.7177035212516785,0.0,0,0
1759837378.3376963,0,-1.2050000429153442,-0.8299997448921204,-0.7177035190957106,0.0,True,0.010788202285766602,-1.2050000429153442,-0.8299997448921204,-0.7177035212516785,0.0,0,0
1759837378.3483703,0,-1.2050000429153442,-0.8299997448921204,-0.7177035191736056,0.0,True,0.010673999786376953,-1.2050000429153442,-0.8299997448921204,-0.7177035212516785,0.0,0,0
1759837378.3618865,0,-1.2050000429153442,-0.8299997448921204,-0.7177035191266725,0.0,True,0.01351618766784668,-1.2050000429153442,-0.8299997448921204,-0.7177035212516785,0.0,0,0
1759837378.3705049,0,-1.2050000429153442,-0.8299997448921204,-0.717703519314334,0.0,True,0.008618354797363281,-1.2050000429153442,-0.8299997448921204,-0.7177035212516785,0.0,0,0
1759837378.3813915,0,-1.2050000429153442,-0.8299997448921204,-0.717703519381903,0.0,True,0.010886669158935547,-1.2050000429153442,-0.8299997448921204,-0.7177035212516785,0.0,0,0
1759837378.3918672,0,-1.2050000429153442,-0.8299997448921204,-0.7177035194558048,0.0,True,0.010475635528564453,-1.2050000429153442,-0.8299997448921204,-0.7177035212516785,0.0,0,0
1759837378.4026203,0,-1.2050000429153442,-0.8299997448921204,-0.717703519513595,0.0,True,0.010753154754638672,-1.2050000429153442,-0.8299997448921204,-0.7177035212516785,0.0,0,0
1759837378.4135983,0,-1.2050000429153442,-0.8299997448921204,-0.7177035195611392,0.0,True,0.010977983474731445,-1.2050000429153442,-0.8299997448921204,-0.7177035212516785,0.0,0,0
1759837378.423826,0,-1.2050000429153442,-0.8299997448921204,-0.7177035196360624,0.0,True,0.010227680206298828,-1.2050000429153442,-0.8299997448921204,-0.7177035212516785,0.0,0,0
1759837378.4350538,0,-1.2050000429153442,-0.8299997448921204,-0.7177035196703834,0.0,True,0.011227846145629883,-1.2050000429153442,-0.8299997448921204,-0.7177035212516785,0.0,0,0
1759837378.44652,0,-1.2050000429153442,-0.8299997448921204,-0.7177035196999952,0.0,True,0.011466264724731445,-1.2050000429153442,-0.8299997448921204,-0.7177035212516785,0.0,0,0
1759837378.4577262,0,-1.2050000429153442,-0.8299997448921204,-0.7177035197444237,0.0,True,0.01120615005493164,-1.2050000429153442,-0.8299997448921204,-0.7177035212516785,0.0,0,0
1759837378.469003,0,-1.2050000429153442,-0.8299997448921204,-0.7177035197891364,0.0,True,0.011276721954345703,-1.2050000429153442,-0.8299997448921204,-0.7177035212516785,0.0,0,0
1759837378.4796124,0,-1.2050000429153442,-0.8299997448921204,-0.7177035198544033,0.0,True,0.01060938835144043,-1.2050000429153442,-0.8299997448921204,-0.7177035212516785,0.0,0.5235987755982988,0.028923904914359807
1759837378.491301,0,-1.2050000429153442,-0.8299997448921204,-0.7177035198837167,0.0,True,0.011688709259033203,-1.2050000429153442,-0.8299997448921204,-0.7177035212516785,0.0,0.5235987755982988,0.03126770818818804
1759837378.5029175,0,-1.2050000429153442,-0.8299997448921204,-0.7177035199185422,0.0,True,0.01161646842956543,-1.2050000429153442,-0.8299997448921204,-0.7177035212516785,0.0,0.5235987755982988,0.03327785811684795
1759837378.513281,0,-1.2050000429153442,-0.8299997448921204,-0.7177035199896658,0.0,True,0.010363578796386719,-1.2050000429153442,-0.8299997448921204,-0.7177035212516785,0.0,0.5235987755982988,0.0303326805671516
1759837378.5237567,0,-1.2050000429153442,-0.8299997448921204,-0.7177035200497741,0.0,True,0.010475635528564453,-1.2050000429153442,-0.8299997448921204,-0.7177035212516785,0.0,0.5235987755982988,0.029451671757863996
1759837378.5352316,0,-1.2050000429153442,-0.8299997448921204,-0.7177035200776132,0.0,True,0.011474847793579102,-1.2050000429153442,-0.8299997448921204,-0.7177035212516785,0.0,0.5235987755982988,0.033379122047007395
1759837378.5466833,0,-1.2050000429153442,-0.8299997448921204,-0.7177035201077686,0.0,True,0.01145172119140625,-1.2050000429153442,-0.8299997448921204,-0.7177035212516785,0.0,0.5235987755982988,0.0342968525488516
1759837378.557413,0,-1.2050000429153442,-0.8299997448921204,-0.7177035201569382,0.0,True,0.010729789733886719,-1.2050000429153442,-0.8299997448921204,-0.7177035212516785,0.0,0.5235987755982988,0.0331414644875241
1759837378.570661,0,-1.2039753718021715,-0.8308929703836218,-0.7172163192141614,0.009681232200630389,True,0.013247966766357422,-1.203401803970337,-0.8313928842544556,-0.7160261869430542,0.009681232200630389,0.5235987755982988,0.03243294851620358
1759837378.5818367,0,-1.2035897421070427,-0.83122909739468,-0.7168495452046884,0.009681232200630389,True,0.01117563247680664,-1.203401803970337,-0.8313928842544556,-0.7160261869430542,0.009681232200630389,0.5235987755982988,0.03142158346185077
1759837378.592188,0,-1.2034447332707796,-0.8313554722063601,-0.7165829828596273,0.009681232200630389,True,0.010351181030273438,-1.203401803970337,-0.8313928842544556,-0.7160261869430542,0.009681232200630389,0.5235987755982988,0.031010405124721724
1759837378.6022818,0,-1.2033900555926438,-0.8314031107329601,-0.7163902099533068,0.009681232200630389,True,0.010093927383422852,-1.203401803970337,-0.8313928842544556,-0.7160261869430542,0.009681232200630389,0.5235987755982988,0.032956946019381365
1759837378.6136873,0,-1.203365508336118,-0.8314244866591729,-0.7162439942447705,0.009681232200630389,True,0.011405467987060547,-1.203401803970337,-0.8313928842544556,-0.7160261869430542,0.009681232200630389,0.5235987755982988,0.032360363065415454
1759837378.6240005,0,-1.203359174467758,-0.8314299951658229,-0.7161454988308869,0.009681232200630389,True,0.010313272476196289,-1.203401803970337,-0.8313928842544556,-0.7160261869430542,0.009681232200630389,0.5235987755982988,0.030044494455614773
1759837378.6354089,0,-1.2033536982034614,-0.8314347549489629,-0.7160678968779557,0.009681232200630389,True,0.011408329010009766,-1.203401803970337,-0.8313928842544556,-0.7160261869430542,0.009681232200630389,0.5235987755982988,0.029548088529709787
1759837378.6464531,0,-1.2033526199479063,-0.8314356868484457,-0.7160155009474067,0.009681232200630389,True,0.01104426383972168,-1.203401803970337,-0.8313928842544556,-0.7160261869430542,0.009681232200630389,0.5235987755982988,0.030109430464494602
1759837378.6580136,0,-1.2033507667506786,-0.831437294178184,-0.7159754164933965,0.009681232200630389,True,0.011560440063476562,-1.203401803970337,-0.8313928842544556,-0.7160261869430542,0.009681232200630389,0.5235987755982988,0.030628243756165522
1759837378.668223,0,-1.203353827127614,-0.8314346273557177,-0.7159546526222087,0.009681232200630389,True,0.010209321975708008,-1.203401803970337,-0.8313928842544556,-0.7160261869430542,0.009681232200630389,0.5235987755982988,0.028981489390270645
1759837378.6795545,0,-1.203351864726955,-0.8314363320290542,-0.7159332015255302,0.009681232200630389,True,0.011331558227539062,-1.203401803970337,-0.8313928842544556,-0.7160261869430542,0.009681232200630389,0.5235987755982988,0.029770445662321645
1759837378.6906822,0,-1.2033516832995892,-0.8314364877343187,-0.7159209361970369,0.009681232200630389,True,0.011127710342407227,-1.203401803970337,-0.8313928842544556,-0.7160261869430542,0.009681232200630389,0.5235987755982988,0.029784573169984924
1759837378.7021363,0,-1.2033507030662678,-0.8314373390366325,-0.7159113163252222,0.009681232200630389,True,0.011454105377197266,-1.203401803970337,-0.8313928842544556,-0.7160261869430542,0.009681232200630389,0.5235987755982988,0.02793419460097665
1759837378.7135406,0,-1.2033504674143363,-0.8314375429692251,-0.7159060313572674,0.009681232200630389,True,0.011404275894165039,-1.203401803970337,-0.8313928842544556,-0.7160261869430542,0.009681232200630389,0.5235987755982988,0.02903677474300072
1759837378.7249062,0,-1.203350485021014,-0.8314375269601111,-0.715903363178489,0.009681232200630389,True,0.011365652084350586,-1.203401803970337,-0.8313928842544556,-0.7160261869430542,0.009681232200630389,0.5235987755982988,0.03094844702299908
1759837378.7359493,0,-1.203351391659551,-0.8314367378409471,-0.7159038071699904,0.009681232200630389,True,0.011043071746826172,-1.203401803970337,-0.8313928842544556,-0.7160261869430542,0.009681232200630389,0.5235987755982988,0.031183543197209486
