timestamp,observer_vehicle_id,vehicle_0_x,vehicle_0_y,vehicle_0_theta,vehicle_0_velocity,vehicle_1_x,vehicle_1_y,vehicle_1_theta,vehicle_1_velocity
1759838025.9786909,1,0.0,0.0,0.0,0.0,-1.735,-0.35,-0.7801621756414646,0.0
1759838025.9899497,1,0.0,0.0,0.0,0.0,-1.735,-0.35,-0.7801621756414646,0.0
1759838026.0016718,1,0.0,0.0,0.0,0.0,-1.735,-0.35,-0.7801621756414646,0.0
1759838026.012391,1,0.0,0.0,0.0,0.0,-1.735,-0.35,-0.7801621756414646,0.0
1759838026.0234282,1,0.0,0.0,0.0,0.0,-1.735,-0.35,-0.7801621756414646,0.0
1759838026.0346856,1,0.0,0.0,0.0,0.0,-1.735,-0.35,-0.7801621756414646,0.0
1759838026.045104,1,0.0,0.0,0.0,0.0,-1.735,-0.35,-0.7801621756414646,0.0
1759838026.05518,1,0.0,0.0,0.0,0.0,-1.735,-0.35,-0.7801621756414646,0.0
1759838026.0668585,1,0.0,0.0,0.0,0.0,-1.735,-0.35,-0.7801621756414646,0.0
1759838026.07807,1,0.0,0.0,0.0,0.0,-1.735,-0.35,-0.7801621756414646,0.0
1759838026.0882018,1,0.0,0.0,0.0,0.0,-1.735,-0.35,-0.7801621756414646,0.0
1759838026.098382,1,0.0,0.0,0.0,0.0,-1.735,-0.35,-0.7801621756414646,0.0
1759838026.1090763,1,0.0,0.0,0.0,0.0,-1.735,-0.35,-0.7801621756414646,0.0
1759838026.1195464,1,0.0,0.0,0.0,0.0,-1.735,-0.35,-0.7801621756414646,0.0
1759838026.1295576,1,0.0,0.0,0.0,0.0,-1.735,-0.35,-0.7801621756414646,0.0
1759838026.1398096,1,0.0,0.0,0.0,0.0,-1.735,-0.35,-0.7801621756414646,0.0
1759838026.1498952,1,0.0,0.0,0.0,0.0,-1.735,-0.35,-0.7801621756414646,0.0
1759838026.1601827,1,0.0,0.0,0.0,0.0,-1.735,-0.35,-0.7801621756414646,0.0
1759838026.1726837,1,0.0,0.0,0.0,0.0,-1.7350001324017843,-0.34999987587332726,-0.7229997220961266,0.0
1759838026.1841667,1,0.0,0.0,0.0,0.0,-1.7350001331424978,-0.34999987517890824,-0.7181144249326685,0.0
1759838026.195415,1,0.0,0.0,0.0,0.0,-1.7350001333748908,-0.34999987496103985,-0.7176551181364168,0.0
1759838026.2059608,1,0.0,0.0,0.0,0.0,-1.7350001334612537,-0.34999987488007467,-0.7175987938750943,0.0
1759838026.2175238,1,0.0,0.0,0.0,0.0,-1.7350001334941103,-0.3499998748492716,-0.7175906306922624,0.0
1759838026.2280574,1,-0.2392682468891144,-0.16480717420578003,1.7424464613278963,0.0,-1.7350001335066532,-0.3499998748375127,-0.7175999145624363,0.0
1759838026.238881,1,-0.42893614294840166,-0.2954497914084426,-3.1389519413995703,0.0,-1.7350001335114436,-0.3499998748330216,-0.7176112956032217,0.0
1759838026.2489715,1,-0.5797874703561767,-0.3993556849756238,-0.7833538420054766,0.0,-1.7350001335132734,-0.3499998748313062,-0.7176236406083554,0.0
1759838026.259476,1,-0.7000028029386667,-0.4821596070033969,1.1142250670126848,0.0,-1.7350001335139724,-0.3499998748306509,-0.7176333932455066,0.0
1759838026.270732,1,-0.7959663861600497,-0.548259004574972,2.6510631485780847,0.0,-1.7350001335142393,-0.3499998748304006,-0.7176408582010829,0.0
1759838026.2809634,1,-0.8771432779258941,-0.6041733781564249,-2.415732531632978,0.0,-1.7350001335143412,-0.34999987483030504,-0.7176486450262445,0.0
1759838026.2918932,1,-0.9414931045404195,-0.648497325119127,-0.19749746628518022,0.0,-1.7350001335143803,-0.3499998748302685,-0.7176543487384243,0.0
1759838026.3021352,1,-0.9926729515501648,-0.6837498338478314,1.5864208004788705,0.0,-1.7350001335143952,-0.3499998748302546,-0.7176598036050894,0.0
1759838026.3133812,1,-1.0334347854465666,-0.7118264497266809,3.029038470108001,0.0,-1.7350001335144007,-0.34999987483024925,-0.7176635329987704,0.0
1759838026.3247902,1,-1.0659798202995057,-0.7342433617000745,-2.079928716711663,0.0,-1.735000133514403,-0.34999987483024725,-0.7176667841309303,0.0
1759838026.3355725,1,-1.0936083667559042,-0.7532738127862245,0.07575246888295008,0.0,-1.7350001335144039,-0.34999987483024647,-0.7176701610764091,0.0
1759838026.346097,1,-1.115511611790555,-0.7683606952582247,1.8046887464638426,0.0,-1.735000133514404,-0.34999987483024614,-0.717673206234668,0.0
1759838026.3569708,1,-1.1329133454841152,-0.7803469516612579,-3.084040213283224,0.0,-1.7350001335144043,-0.349999874830246,-0.7176755724813297,0.0
1759838026.3671799,1,-1.146783984975281,-0.7899010020991563,-0.7437629987767608,0.0,-1.7350001335144043,-0.34999987483024597,-0.7176779660213377,0.0
1759838026.3781776,1,-1.157857639552898,-0.7975284986131995,1.1461496672771345,0.0,-1.7350001335144043,-0.34999987483024597,-0.7176796049095486,0.0
1759838026.38887,1,-1.167209826130151,-0.8039702536830085,2.6613508320681105,0.0,-1.7350001335144043,-0.34999987483024597,-0.717681222513308,0.0
1759838026.399587,1,-1.1746257102323574,-0.8090782900355656,-2.3999790466601505,0.0,-1.7350001335144043,-0.34999987483024597,-0.7176826600864654,0.0
1759838026.411053,1,-1.1805166584565905,-0.8131359556174025,-0.18875403221820686,0.0,-1.7350001335144043,-0.34999987483024597,-0.7176836565509426,0.0
1759838026.4224005,1,-1.1852095203466981,-0.8163683833093439,1.5948149194242822,0.0,-1.7350001335144043,-0.34999987483024597,-0.7176846889912571,0.0
1759838026.4330873,1,-1.188960574924872,-0.8189520972511567,3.0414597421018863,0.0,-1.7350001335144043,-0.34999987483024597,-0.7176859206047225,0.0
1759838026.4439745,1,-1.1919657361483058,-0.8210220423262191,-2.061090084192249,0.0,-1.7350001335144043,-0.34999987483024597,-0.7176869484593311,0.0
1759838026.4545197,1,-1.1945284288858764,-0.8227871606080663,-1.7969650059947262,0.0,-1.7350001335144043,-0.34999987483024597,-0.7176879764867506,0.0
1759838026.464883,1,-1.1965655629473193,-0.8241902872965335,-1.5870068688411085,0.0,-1.7350001335144043,-0.34999987483024597,-0.717688934023462,0.0
1759838026.4756792,1,-1.1981881837724286,-0.8253079076967152,-1.4197707245957336,0.0,-1.7350001335144043,-0.34999987483024597,-0.7176896427760724,0.0
1759838026.4860759,1,-1.1994844814586172,-0.8262007649289002,-1.2861672212524538,0.0,-1.7350001335144043,-0.34999987483024597,-0.7176904022180343,0.0
1759838026.4974127,1,-1.200584031907578,-0.8269581076141234,-1.1728415602958568,0.0,-1.7350001335144043,-0.34999987483024597,-0.7176908400106043,0.0
1759838026.5076103,1,-1.2014553757574284,-0.8275582673354188,-1.0830361149903611,0.0,-1.7350001335144043,-0.34999987483024597,-0.7176915736748626,0.0
1759838026.5187895,1,-1.2021468653494918,-0.8280345479689744,-1.0117674295569044,0.0,-1.7350001335144043,-0.34999987483024597,-0.7176919960444064,0.0
1759838026.5292764,1,-1.2026974757832813,-0.8284137945827448,-0.9550185178559686,0.0,-1.7350001335144043,-0.34999987483024597,-0.7176925713947107,0.0
1759838026.5435991,1,-1.2031352327775662,-0.8287153105867083,-0.9099008965930132,0.0,-1.7350001335144043,-0.34999987483024597,-0.7176922801012574,0.0
1759838026.554464,1,-1.2035060535855955,-0.8289707226296529,-0.8716820834352219,0.0,-1.7350001335144043,-0.34999987483024597,-0.717692933751021,0.0
1759838026.5646698,1,-1.2038000865622902,-0.8291732451463092,-0.8413774426081838,0.0,-1.7350001335144043,-0.34999987483024597,-0.7176936842843773,0.0
1759838026.5758762,1,-1.2040335612890791,-0.8293340566640391,-0.8173142650113631,0.0,-1.7350001335144043,-0.34999987483024597,-0.7176941210949792,0.0
1759838026.5870712,1,-1.2042194450485908,-0.8294620887208684,-0.7981560718355304,0.0,-1.7350001335144043,-0.34999987483024597,-0.7176945169540936,0.0
1759838026.5972834,1,-1.2043679833959882,-0.8295643981974211,-0.7828469003353914,0.0,-1.7350001335144043,-0.34999987483024597,-0.7176950601032068,0.0
1759838026.607858,1,-1.2044936195535154,-0.8296509332217965,-0.769898153322215,0.0,-1.7350001335144043,-0.34999987483024597,-0.717695468012959,0.0
1759838026.6186874,1,-1.2045931858195447,-0.8297195119608108,-0.7596363113872405,0.0,-1.7350001335144043,-0.34999987483024597,-0.7176957854702408,0.0
1759838026.6291192,1,-1.204672327835058,-0.8297740229899314,-0.7514795040065936,0.0,-1.7350001335144043,-0.34999987483024597,-0.7176961431037068,0.0
1759838026.6395023,1,-1.2047353945704165,-0.8298174617705257,-0.7449795025963423,0.0,-1.7350001335144043,-0.34999987483024597,-0.7176964738717402,0.0
1759838026.6496534,1,-1.2047857872066756,-0.829852170950533,-0.739785762903164,0.0,-1.7350001335144043,-0.34999987483024597,-0.7176968039937837,0.0
1759838026.660448,1,-1.2048284304322483,-0.8298815425314299,-0.7353907197035334,0.0,-1.7350001335144043,-0.34999987483024597,-0.7176970077588418,0.0
1759838026.671148,1,-1.2048622191438927,-0.8299048153459071,-0.7319082709595046,0.0,-1.7350001335144043,-0.34999987483024597,-0.7176972209400425,0.0
1759838026.6821167,1,-1.2048890528608027,-0.8299232977349947,-0.7291426418720722,0.0,-1.7350001335144043,-0.34999987483024597,-0.7176973982318273,0.0
1759838026.6927724,1,-1.2049104256302305,-0.8299380187608506,-0.7269398477900411,0.0,-1.7350001335144043,-0.34999987483024597,-0.7176976209282238,0.0
1759838026.703843,1,-1.2049274843324491,-0.8299497683657523,-0.7251816849828469,0.0,-1.7350001335144043,-0.34999987483024597,-0.7176977871426988,0.0
1759838026.7142925,1,-1.2049419515344328,-0.8299597330104926,-0.7236906163115258,0.0,-1.7350001335144043,-0.34999987483024597,-0.7176980295766633,0.0
1759838026.7251923,1,-1.2049534075349495,-0.8299676236154224,-0.7225098984720765,0.0,-1.7350001335144043,-0.34999987483024597,-0.7176982048696381,0.0
1759838026.7352097,1,-1.2049625109041808,-0.8299738937871136,-0.7215716556328977,0.0,-1.7350001335144043,-0.34999987483024597,-0.7176984698546924,0.0
1759838026.7467048,1,-1.2049697509808837,-0.8299788805697905,-0.7208254538751748,0.0,-1.7350001335144043,-0.34999987483024597,-0.7176985523236254,0.0
1759838026.7577498,1,-1.204975527502761,-0.8299828592927257,-0.7202300940530035,0.0,-1.7350001335144043,-0.34999987483024597,-0.7176986967814525,0.0
1759838026.7677777,1,-1.2049804205413503,-0.8299862294946001,-0.7197257908327728,0.0,-1.7350001335144043,-0.34999987483024597,-0.7176989460496124,0.0
1759838026.7796724,1,-1.2049842902964305,-0.8299888948845385,-0.7193269527870888,0.0,-1.7350001335144043,-0.34999987483024597,-0.7176989940656302,0.0
1759838026.7906039,1,-1.2049873624519196,-0.829991010907946,-0.7190103197015326,0.0,-1.7350001335144043,-0.34999987483024597,-0.7176991512080093,0.0
1759838026.8016946,1,-1.2049898073329084,-0.8299926948804596,-0.7187583369441294,0.0,-1.7350001335144043,-0.34999987483024597,-0.7176992960283464,0.0
1759838026.8123944,1,-1.2049917589203123,-0.8299940390847627,-0.7185571957116549,0.0,-1.7350001335144043,-0.34999987483024597,-0.7176994702253001,0.0
1759838026.8229814,1,-1.2049933208639825,-0.8299951149122652,-0.7183962132856315,0.0,-1.7350001335144043,-0.34999987483024597,-0.7176996402534126,0.0
1759838026.8337913,1,-1.2049946542957002,-0.8299960333464839,-0.7182587825466634,0.0,-1.7350001335144043,-0.34999987483024597,-0.7176997772550564,0.0
1759838026.8447468,1,-1.2049957114117726,-0.8299967614614382,-0.718149830403786,0.0,-1.7350001335144043,-0.34999987483024597,-0.7176998955213953,0.0
1759838026.8550303,1,-1.204996552238813,-0.829997340601949,-0.7180631701871495,0.0,-1.7350001335144043,-0.34999987483024597,-0.7177000595256366,0.0
1759838026.8657718,1,-1.204997222346368,-0.8299978021551733,-0.7179941052509861,0.0,-1.7350001335144043,-0.34999987483024597,-0.7177001752580275,0.0
1759838026.8768501,1,-1.204997757563464,-0.8299981707992432,-0.7179389428605558,0.0,-1.7350001335144043,-0.34999987483024597,-0.7177002618302879,0.0
1759838026.8880966,1,-1.2049982104169796,-0.8299984827133512,-0.7178922693095543,0.0,-1.7350001335144043,-0.34999987483024597,-0.7177003412562862,0.0
1759838026.8982904,1,-1.2049985697993497,-0.829998730246886,-0.7178552294041256,0.0,-1.7350001335144043,-0.34999987483024597,-0.7177004925448287,0.0
1759838026.9089506,1,-1.2049988555603293,-0.8299989270718593,-0.717825777320377,0.0,-1.7350001335144043,-0.34999987483024597,-0.7177006001840311,0.0
1759838026.9202769,1,-1.204999083198571,-0.8299990838633531,-0.717802315682716,0.0,-1.7350001335144043,-0.34999987483024597,-0.717700660830431,0.0
1759838026.930953,1,-1.2049992651450743,-0.8299992091835268,-0.7177835632846322,0.0,-1.7350001335144043,-0.34999987483024597,-0.7177007647790301,0.0
1759838026.9412272,1,-1.2049994192970181,-0.8299993153595073,-0.7177676755453047,0.0,-1.7350001335144043,-0.34999987483024597,-0.7177008863167806,0.0
1759838026.9523716,1,-1.2049995415064971,-0.8299993995343217,-0.7177550799704501,0.0,-1.7350001335144043,-0.34999987483024597,-0.7177009493726185,0.0
1759838026.9631498,1,-1.2049996386859256,-0.829999466469067,-0.7177450641290067,0.0,-1.7350001335144043,-0.34999987483024597,-0.717701032936107,0.0
1759838026.9796362,1,-1.2049997156978836,-0.829999519512966,-0.7177371268569724,0.0,-1.7350001335144043,-0.34999987483024597,-0.7177008428757325,0.0
1759838026.9902186,1,-1.2049997806801993,-0.8299995642711503,-0.7177304294253908,0.0,-1.7350001335144043,-0.34999987483024597,-0.7177010090872891,0.0
1759838027.000811,1,-1.2049998322020943,-0.8299995997581353,-0.7177251192981465,0.0,-1.7350001335144043,-0.34999987483024597,-0.7177011662952726,0.0
1759838027.0109494,1,-1.2049998731741194,-0.8299996279786355,-0.7177208964979556,0.0,-1.7350001335144043,-0.34999987483024597,-0.7177013152416317,0.0
1759838027.0223603,1,-1.2049999057919794,-0.8299996504449967,-0.7177175347235685,0.0,-1.7350001335144043,-0.34999987483024597,-0.7177013845266664,0.0
1759838027.0332701,1,-1.2049999318427196,-0.829999668388091,-0.7177148497923297,0.0,-1.7350001335144043,-0.34999987483024597,-0.7177014687832646,0.0
1759838027.044085,1,-1.20499995393117,-0.82999968360206,-0.7177125732362608,0.0,-1.7350001335144043,-0.34999987483024597,-0.7177015505562317,0.0
1759838027.054317,1,-1.2049999714449053,-0.8299996956650804,-0.7177107681752501,0.0,-1.7350001335144043,-0.34999987483024597,-0.7177016465352004,0.0
1759838027.06437,1,-1.2049999853679156,-0.8299997052548995,-0.7177093331939446,0.0,-1.7350001335144043,-0.34999987483024597,-0.7177017361695484,0.0
1759838027.075386,1,-1.2049999964518228,-0.8299997128892159,-0.7177081908260858,0.0,-1.7350001335144043,-0.34999987483024597,-0.7177017791505786,0.0
1759838027.0862541,1,-1.2050000052999232,-0.8299997189835648,-0.7177072788926525,0.0,-1.7350001335144043,-0.34999987483024597,-0.7177018270777911,0.0
1759838027.097152,1,-1.205000012781203,-0.829999724136482,-0.7177065078311929,0.0,-1.7350001335144043,-0.34999987483024597,-0.7177018747560133,0.0
1759838027.1082218,1,-1.2050000187078258,-0.8299997282185906,-0.7177058970011716,0.0,-1.7350001335144043,-0.34999987483024597,-0.7177019171790064,0.0
1759838027.1188219,1,-1.2050000234175113,-0.8299997314625036,-0.7177054115953071,0.0,-1.7350001335144043,-0.34999987483024597,-0.7177019751316553,0.0
1759838027.1302814,1,-1.2050000271662182,-0.8299997340445185,-0.7177050252331469,0.0,-1.7350001335144043,-0.34999987483024597,-0.7177020044807724,0.0
1759838027.141184,1,-1.2050000301598471,-0.8299997361064547,-0.7177047166934502,0.0,-1.7350001335144043,-0.34999987483024597,-0.7177020532965859,0.0
1759838027.1520853,1,-1.205000032702997,-0.8299997378581124,-0.7177044545825628,0.0,-1.7350001335144043,-0.34999987483024597,-0.717702101389726,0.0
1759838027.163639,1,-1.2050000347155037,-0.8299997392442764,-0.7177042471626588,0.0,-1.7350001335144043,-0.34999987483024597,-0.7177021302411788,0.0
1759838027.1797786,1,-1.2050000363049453,-0.8299997403390439,-0.7177040833461349,0.0,-1.7350001335144043,-0.34999987483024597,-0.7177020486171344,0.0
1759838027.184271,1,-1.2050000375803531,-0.8299997412175127,-0.7177039518956523,0.0,-1.7350001335144043,-0.34999987483024597,-0.7177022873726707,0.0
1759838027.1954737,1,-1.205000038597731,-0.8299997419182571,-0.7177038470391296,0.0,-1.7350001335144043,-0.34999987483024597,-0.7177023169458607,0.0
1759838027.2070243,1,-1.2050000394569902,-0.8299997425100931,-0.7177037584792078,0.0,-1.7350001335144043,-0.34999987483024597,-0.7177023283378254,0.0
1759838027.2173755,1,-1.2050000401380863,-0.829999742979215,-0.7177036882817273,0.0,-1.7350001335144043,-0.34999987483024597,-0.7177023726206286,0.0
1759838027.2278473,1,-1.2050000406792292,-0.8299997433519406,-0.7177036325085882,0.0,-1.7350001335144043,-0.34999987483024597,-0.7177024119434705,0.0
1759838027.2383132,1,-1.205000041110251,-0.8299997436488176,-0.7177035880851346,0.0,-1.7350001335144043,-0.34999987483024597,-0.7177024481357321,0.0
1759838027.2489197,1,-1.2050000414543622,-0.8299997438858328,-0.7177035526191659,0.0,-1.7350001335144043,-0.34999987483024597,-0.7177024789725337,0.0
1759838027.259611,1,-1.205000041746094,-0.8299997440867701,-0.7177035225517087,0.0,-1.7350001335144043,-0.34999987483024597,-0.7177025069895464,0.0
1759838027.2699509,1,-1.2050000419771543,-0.8299997442459185,-0.7177034987373911,0.0,-1.7350001335144043,-0.34999987483024597,-0.7177025412359122,0.0
1759838027.2803578,1,-1.2050000421606009,-0.829999744372272,-0.7177034798303744,0.0,-1.7350001335144043,-0.34999987483024597,-0.717702571909351,0.0
1759838027.2913666,1,-1.205000042306516,-0.8299997444727747,-0.7177034647915637,0.0,-1.7350001335144043,-0.34999987483024597,-0.7177025899726885,0.0
1759838027.302934,1,-1.2050000424228127,-0.829999744552877,-0.717703452805386,0.0,-1.7350001335144043,-0.34999987483024597,-0.7177026002543219,0.0
1759838027.3143668,1,-1.2050000425210614,-0.829999744620548,-0.7177034426793548,0.0,-1.7350001335144043,-0.34999987483024597,-0.7177026175101009,0.0
1759838027.3249793,1,-1.2050000425988747,-0.8299997446741441,-0.7177034346594819,0.0,-1.7350001335144043,-0.34999987483024597,-0.7177026508549832,0.0
1759838027.3367453,1,-1.2050000426605865,-0.8299997447166497,-0.7177034282991183,0.0,-1.7350001335144043,-0.34999987483024597,-0.7177026645131548,0.0
1759838027.3484254,1,-1.2050000427096694,-0.8299997447504568,-0.717703423240368,0.0,-1.7350001335144043,-0.34999987483024597,-0.717702682079837,0.0
1759838027.3596523,1,-1.205000042748834,-0.8299997447774323,-0.7177034192038587,0.0,-1.7350001335144043,-0.34999987483024597,-0.7177027085301669,0.0
1759838027.3697443,1,-1.2050000427819176,-0.8299997448002194,-0.7177034157940956,0.0,-1.7350001335144043,-0.34999987483024597,-0.7177027497669819,0.0
1759838027.3812685,1,-1.2050000428081202,-0.8299997448182671,-0.717703413093504,0.0,-1.7350001335144043,-0.34999987483024597,-0.7177027662283652,0.0
1759838027.391432,1,-1.2050000428289591,-0.8299997448326204,-0.7177034109457245,0.0,-1.7350001335144043,-0.34999987483024597,-0.7177028000563759,0.0
1759838027.4020343,1,-1.2050000428455647,-0.829999744844058,-0.717703409234244,0.0,-1.7350001335144043,-0.34999987483024597,-0.7177028245024406,0.0
1759838027.412234,1,-1.205000042858836,-0.829999744853199,-0.717703407866431,0.0,-1.7350001335144043,-0.34999987483024597,-0.7177028511041357,0.0
1759838027.4228299,1,-1.2050000428700578,-0.8299997448609283,-0.7177034067098526,0.0,-1.7350001335144043,-0.34999987483024597,-0.7177028700400072,0.0
1759838027.4331193,1,-1.2050000428789578,-0.8299997448670584,-0.7177034057925605,0.0,-1.7350001335144043,-0.34999987483024597,-0.7177028910911964,0.0
1759838027.443403,1,-1.205000042886034,-0.8299997448719323,-0.7177034050632561,0.0,-1.7350001335144043,-0.34999987483024597,-0.7177029104642347,0.0
1759838027.4543924,1,-1.2050000428916694,-0.829999744875814,-0.7177034044824208,0.0,-1.7350001335144043,-0.34999987483024597,-0.7177029208412478,0.0
1759838027.465302,1,-1.2050000428961698,-0.8299997448789137,-0.7177034040185891,0.0,-1.7350001335144043,-0.34999987483024597,-0.7177029329909193,0.0
1759838027.4758255,1,-1.2050000428999827,-0.8299997448815399,-0.7177034036256101,0.0,-1.7350001335144043,-0.34999987483024597,-0.7177029498002039,0.0
1759838027.486003,1,-1.205000042903006,-0.8299997448836224,-0.717703403314,0.0,-1.7350001335144043,-0.34999987483024597,-0.7177029691806318,0.0
1759838027.4962187,1,-1.2050000429054093,-0.8299997448852776,-0.7177034030663192,0.0,-1.7350001335144043,-0.34999987483024597,-0.7177029862788623,0.0
1759838027.507466,1,-1.205000042907322,-0.829999744886595,-0.7177034028691842,0.0,-1.7350001335144043,-0.34999987483024597,-0.717702992592006,0.0
1759838027.5177422,1,-1.20500004290885,-0.8299997448876475,-0.7177034027117024,0.0,-1.7350001335144043,-0.34999987483024597,-0.7177030087440741,0.0
1759838027.5290189,1,-1.2050000429101426,-0.8299997448885377,-0.7177034025784992,0.0,-1.7350001335144043,-0.34999987483024597,-0.7177030157874391,0.0
1759838027.5398326,1,-1.2050000429111667,-0.8299997448892429,-0.7177034024729647,0.0,-1.7350001335144043,-0.34999987483024597,-0.7177030277438341,0.0
1759838027.5509346,1,-1.2050000429119796,-0.829999744889803,-0.717703402389161,0.0,-1.7350001335144043,-0.34999987483024597,-0.7177030377033624,0.0
1759838027.5614314,1,-1.2050000429126273,-0.8299997448902491,-0.717703402322396,0.0,-1.7350001335144043,-0.34999987483024597,-0.7177030526189512,0.0
1759838027.571753,1,-1.2050000429131449,-0.8299997448906056,-0.7177034022690637,0.0,-1.7350001335144043,-0.34999987483024597,-0.7177030677585297,0.0
1759838027.5825438,1,-1.2050000429135823,-0.8299997448909068,-0.7177034022239853,0.0,-1.7350001335144043,-0.34999987483024597,-0.7177030780527662,0.0
1759838027.59318,1,-1.2050000429139291,-0.8299997448911455,-0.7177034021882579,0.0,-1.7350001335144043,-0.34999987483024597,-0.7177030890618354,0.0
1759838027.6045375,1,-1.2050000429142043,-0.8299997448913351,-0.7177034021598909,0.0,-1.7350001335144043,-0.34999987483024597,-0.717703095005124,0.0
1759838027.6156049,1,-1.2050000429144234,-0.8299997448914861,-0.7177034021373006,0.0,-1.7350001335144043,-0.34999987483024597,-0.7177031037998134,0.0
1759838027.626141,1,-1.2050000429145986,-0.8299997448916067,-0.7177034021192531,0.0,-1.7350001335144043,-0.34999987483024597,-0.7177031162336291,0.0
1759838027.636248,1,-1.2050000429147465,-0.8299997448917085,-0.7177034021040202,0.0,-1.7350001335144043,-0.34999987483024597,-0.7177031302519499,0.0
1759838027.6474075,1,-1.2050000429148635,-0.8299997448917892,-0.7177034020919436,0.0,-1.7350001335144043,-0.34999987483024597,-0.7177031365240438,0.0
1759838027.657936,1,-1.2050000429149568,-0.8299997448918534,-0.7177034020823377,0.0,-1.7350001335144043,-0.34999987483024597,-0.7177031465324024,0.0
1759838027.6688123,1,-1.2050000429150312,-0.8299997448919045,-0.7177034020746809,0.0,-1.7350001335144043,-0.34999987483024597,-0.7177031542298025,0.0
1759838027.67995,1,-1.2050000429150904,-0.8299997448919454,-0.7177034020685634,0.0,-1.7350001335144043,-0.34999987483024597,-0.7177031605062041,0.0
1759838027.690578,1,-1.2050000429151406,-0.8299997448919801,-0.7177034020633789,0.0,-1.7350001335144043,-0.34999987483024597,-0.7177031697015472,0.0
1759838027.7008083,1,-1.2050000429151806,-0.8299997448920076,-0.7177034020592642,0.0,-1.7350001335144043,-0.34999987483024597,-0.7177031803351568,0.0
1759838027.7118847,1,-1.2050000429152123,-0.8299997448920294,-0.7177034020559935,0.0,-1.7350001335144043,-0.34999987483024597,-0.7177031858900058,0.0
1759838027.7233052,1,-1.2050000429152374,-0.8299997448920469,-0.7177034020533878,0.0,-1.7350001335144043,-0.34999987483024597,-0.7177031900687396,0.0
1759838027.7341955,1,-1.2050000429152576,-0.8299997448920607,-0.7177034020513051,0.0,-1.7350001335144043,-0.34999987483024597,-0.7177031973484915,0.0
1759838027.7448244,1,-1.2050000429152747,-0.8299997448920726,-0.7177034020495363,0.0,-1.7350001335144043,-0.34999987483024597,-0.717703205649622,0.0
1759838027.7550592,1,-1.2050000429152883,-0.829999744892082,-0.717703402048133,0.0,-1.7350001335144043,-0.34999987483024597,-0.7177032149015865,0.0
1759838027.7653623,1,-1.2050000429152992,-0.8299997448920895,-0.7177034020470172,0.0,-1.7350001335144043,-0.34999987483024597,-0.717703222798681,0.0
1759838027.7755342,1,-1.2050000429153078,-0.8299997448920955,-0.7177034020461275,0.0,-1.7350001335144043,-0.34999987483024597,-0.7177032303188682,0.0
1759838027.788112,1,-1.2050000429153147,-0.8299997448921002,-0.7177034020454183,0.0,-1.7350001335144043,-0.34999987483024597,-0.7177032283151146,0.0
1759838027.798269,1,-1.2050000429153205,-0.8299997448921042,-0.7177034020448173,0.0,-1.7350001335144043,-0.34999987483024597,-0.7177032368454839,0.0
1759838027.8082862,1,-1.2050000429153251,-0.8299997448921074,-0.7177034020443405,0.0,-1.7350001335144043,-0.34999987483024597,-0.7177032453150165,0.0
1759838027.8184156,1,-1.205000042915329,-0.8299997448921099,-0.7177034020439613,0.0,-1.7350001335144043,-0.34999987483024597,-0.7177032522011224,0.0
1759838027.8298829,1,-1.2050000429153318,-0.8299997448921119,-0.7177034020436592,0.0,-1.7350001335144043,-0.34999987483024597,-0.7177032539703632,0.0
1759838027.8400784,1,-1.2050000429153342,-0.8299997448921136,-0.7177034020434179,0.0,-1.7350001335144043,-0.34999987483024597,-0.7177032603223346,0.0
1759838027.8503244,1,-1.2050000429153362,-0.8299997448921149,-0.7177034020432133,0.0,-1.7350001335144043,-0.34999987483024597,-0.7177032661096748,0.0
1759838027.8610485,1,-1.2050000429153378,-0.829999744892116,-0.7177034020430512,0.0,-1.7350001335144043,-0.34999987483024597,-0.7177032699414703,0.0
1759838027.8720765,1,-1.2050000429153391,-0.8299997448921169,-0.7177034020429224,0.0,-1.7350001335144043,-0.34999987483024597,-0.7177032728965997,0.0
1759838027.8828099,1,-1.20500004291534,-0.8299997448921176,-0.7177034020428198,0.0,-1.7350001335144043,-0.34999987483024597,-0.717703276955822,0.0
1759838027.8929868,1,-1.205000042915341,-0.8299997448921181,-0.7177034020427379,0.0,-1.7350001335144043,-0.34999987483024597,-0.717703282470401,0.0
1759838027.903146,1,-1.2050000429153416,-0.8299997448921186,-0.7177034020426684,0.0,-1.7350001335144043,-0.34999987483024597,-0.7177032874955493,0.0
1759838027.9141326,1,-1.205000042915342,-0.829999744892119,-0.7177034020426133,0.0,-1.7350001335144043,-0.34999987483024597,-0.7177032899625004,0.0
1759838027.9244978,1,-1.2050000429153425,-0.8299997448921193,-0.7177034020425695,0.0,-1.7350001335144043,-0.34999987483024597,-0.7177032940825221,0.0
1759838027.9354768,1,-1.205000042915343,-0.8299997448921195,-0.7177034020425347,0.0,-1.7350001335144043,-0.34999987483024597,-0.7177032966257393,0.0
1759838027.9462879,1,-1.2050000429153434,-0.8299997448921197,-0.7177034020425069,0.0,-1.7350001335144043,-0.34999987483024597,-0.717703299701391,0.0
1759838027.9565878,1,-1.2050000429153434,-0.8299997448921199,-0.7177034020424847,0.0,-1.7350001335144043,-0.34999987483024597,-0.7177033039356608,0.0
1759838027.967379,1,-1.2050000429153434,-0.8299997448921199,-0.7177034020424659,0.0,-1.7350001335144043,-0.34999987483024597,-0.7177033068230827,0.0
1759838027.978465,1,-1.2050000429153434,-0.8299997448921199,-0.7177034020424509,0.0,-1.7350001335144043,-0.34999987483024597,-0.7177033090813083,0.0
1759838027.990113,1,-1.2050000429153434,-0.8299997448921199,-0.7177034020424389,0.0,-1.7350001335144043,-0.34999987483024597,-0.7177033104676962,0.0
1759838028.001455,1,-1.2050000429153434,-0.8299997448921199,-0.7177034020424293,0.0,-1.7350001335144043,-0.34999987483024597,-0.7177033129197525,0.0
1759838028.011618,1,-1.2050000429153434,-0.8299997448921199,-0.7177034020424213,0.0,-1.7350001335144043,-0.34999987483024597,-0.7177033176899138,0.0
1759838028.0225918,1,-1.2050000429153434,-0.8299997448921199,-0.717703402042415,0.0,-1.7350001335144043,-0.34999987483024597,-0.7177033204980567,0.0
1759838028.0332084,1,-1.2050000429153434,-0.8299997448921199,-0.7177034020424099,0.0,-1.7350001335144043,-0.34999987483024597,-0.7177033237303583,0.0
1759838028.04419,1,-1.2050000429153434,-0.8299997448921199,-0.7177034020424059,0.0,-1.7350001335144043,-0.34999987483024597,-0.7177033261523498,0.0
1759838028.0549147,1,-1.2050000429153434,-0.8299997448921199,-0.7177034020424026,0.0,-1.7350001335144043,-0.34999987483024597,-0.7177033289300425,0.0
1759838028.0659463,1,-1.2050000429153434,-0.8299997448921199,-0.7177034020423999,0.0,-1.7350001335144043,-0.34999987483024597,-0.7177033311177805,0.0
1759838028.0763695,1,-1.2050000429153434,-0.8299997448921199,-0.7177034020423977,0.0,-1.7350001335144043,-0.34999987483024597,-0.7177033341806478,0.0
1759838028.08664,1,-1.2050000429153434,-0.8299997448921199,-0.717703402042396,0.0,-1.7350001335144043,-0.34999987483024597,-0.7177033371950312,0.0
1759838028.0967,1,-1.2050000429153434,-0.8299997448921199,-0.7177034020423947,0.0,-1.7350001335144043,-0.34999987483024597,-0.717703340155829,0.0
1759838028.1079175,1,-1.2050000429153434,-0.8299997448921199,-0.7177034020423936,0.0,-1.7350001335144043,-0.34999987483024597,-0.717703341234678,0.0
1759838028.119459,1,-1.2050000429153434,-0.8299997448921199,-0.7177034020423927,0.0,-1.7350001335144043,-0.34999987483024597,-0.7177033420773782,0.0
1759838028.1302738,1,-1.2050000429153434,-0.8299997448921199,-0.717703402042392,0.0,-1.7350001335144043,-0.34999987483024597,-0.7177033441583429,0.0
1759838028.1410148,1,-1.2050000429153434,-0.8299997448921199,-0.7177034020423915,0.0,-1.7350001335144043,-0.34999987483024597,-0.7177033463181886,0.0
1759838028.1510193,1,-1.2050000429153434,-0.8299997448921199,-0.7177034020423909,0.0,-1.7350001335144043,-0.34999987483024597,-0.717703349192444,0.0
1759838028.1615534,1,-1.2050000429153434,-0.8299997448921199,-0.7177034020423905,0.0,-1.7350001335144043,-0.34999987483024597,-0.717703351108142,0.0
1759838028.171727,1,-1.2050000429153434,-0.8299997448921199,-0.7177034020423902,0.0,-1.7350001335144043,-0.34999987483024597,-0.7177033532411627,0.0
1759838028.1867979,1,-1.2050000429153434,-0.8299997448921199,-0.71770340204239,0.0,-1.7350001335144043,-0.34999987483024597,-0.7177033501609014,0.0
1759838028.1943104,1,-1.2050000429153434,-0.8299997448921199,-0.7177034020423898,0.0,-1.7350001335144043,-0.34999987483024597,-0.7177033559162957,0.0
1759838028.2046108,1,-1.2050000429153434,-0.8299997448921199,-0.7177034020423896,0.0,-1.7350001335144043,-0.34999987483024597,-0.7177033580334573,0.0
1759838028.2148345,1,-1.2050000429153434,-0.8299997448921199,-0.7177034020423894,0.0,-1.7350001335144043,-0.34999987483024597,-0.7177033597667943,0.0012114177732865273
1759838028.225717,1,-1.2050000429153434,-0.8299997448921199,-0.7177034020423894,0.0,-1.7350001335144043,-0.34999987483024597,-0.7177033607315195,0.0012114177732865273
1759838028.236032,1,-1.2050000429153434,-0.8299997448921199,-0.7177034020423894,0.0,-1.7350001335144043,-0.34999987483024597,-0.7177033622476278,0.0012114177732865273
1759838028.247377,1,-1.2050000429153434,-0.8299997448921199,-0.7177034020423894,0.0,-1.7349997873164764,-0.3500002924800047,-0.7177033659914758,0.0012333047382499765
1759838028.257957,1,-1.2050000429153434,-0.8299997448921199,-0.7177034020423894,0.0,-1.73499963410683,-0.3500006138610153,-0.7177033670039675,0.001241456415498754
1759838028.2680216,1,-1.2050000429153434,-0.8299997448921199,-0.7177034020423894,0.0,-1.7349984107013485,-0.3500019087327449,-0.7177033684141311,0.001381009943503661
1759838028.2795305,1,-1.2050000429153434,-0.8299997448921199,-0.7177034020423894,0.0,-1.734997243797384,-0.3500044414976321,-0.7177033687010831,0.0014928755912159565
1759838028.2903,1,-1.2050000429153434,-0.8299997448921199,-0.7177034020423894,0.0,-1.7349972437973862,-0.35000444149763454,-0.7177033697417035,0.0014928755912159565
1759838028.3015342,1,-1.2050000429153434,-0.8299997448921199,-0.7177034020423894,0.0,-1.7349950522357485,-0.35001137871242716,-0.7177033703400005,0.0016596618371339297
1759838028.3120635,1,-1.2050000429153434,-0.8299997448921199,-0.7177034020423894,0.0,-1.7349940761925924,-0.3500151697272372,-0.7177033715402621,0.0017210451750669727
1759838028.3230405,1,-1.2050000429153434,-0.8299997448921199,-0.7177034020423894,0.0,-1.734993139418029,-0.35001901936686086,-0.717703372403844,0.0017731325976026039
1759838028.3340235,1,-1.2050000429153434,-0.8299997448921199,-0.7177034020423894,0.0,-1.734992371591225,-0.35002255828540974,-0.7177033732774531,0.0018120893912412913
1759838028.3446403,1,-1.2050000429153434,-0.8299997448921199,-0.7177034020423894,0.0,-1.7349916642277483,-0.3500259125372742,-0.7177033743577719,0.0018449027678857242
1759838028.3560925,1,-1.2050000429153434,-0.8299997448921199,-0.7177034020423894,0.0,-1.7349910123353451,-0.3500290654522561,-0.7177033749250761,0.0018728296661751096
1759838028.3665116,1,-1.2050000429153434,-0.8299997448921199,-0.7177034020423894,0.0,-1.7349904115139971,-0.3500320106346602,-0.7177033760953612,0.001896791215099529
1759838028.3777852,1,-1.2050000429153434,-0.8299997448921199,-0.7177034020423894,0.0,-1.734989852014575,-0.3500347648400472,-0.7177033767448949,0.0019177477358457938
1759838028.3938367,1,-1.2050000429153434,-0.8299997448921199,-0.7177034020423894,0.0,-1.7349894792131528,-0.3500369263078555,-0.7177033751773217,0.001929902048087373
1759838028.4049573,1,-1.2050000429153434,-0.8299997448921199,-0.7177034020423894,0.0,-1.7349891243578588,-0.3500389075828895,-0.7177033766244398,0.0019411615239527842
1759838028.4151256,1,-1.2050000429153434,-0.8299997448921199,-0.7177034020423894,0.0,-1.7349887847410659,-0.35004074129575746,-0.7177033784346805,0.0019517312980371995
1759838028.4266412,1,-1.2050000429153434,-0.8299997448921199,-0.7177034020423894,0.0,-1.734988458727289,-0.3500424498186831,-0.7177033793548901,0.001961702608658967
1759838028.4375203,1,-1.2050000429153434,-0.8299997448921199,-0.7177034020423894,0.0,-1.734988140644139,-0.35004406409079136,-0.7177033804395636,0.0019713238917278457
1759838028.4484723,1,-1.2050000429153434,-0.8299997448921199,-0.7177034020423894,0.0,-1.7349880229471824,-0.35004501648309866,-0.7177033813843605,0.0019729517216382714
1759838028.4584873,1,-1.2050000429153434,-0.8299997448921199,-0.7177034020423894,0.0,-1.7349878818689741,-0.35004593959785485,-0.7177033825958591,0.0019758601913605484
1759838028.4692595,1,-1.2050000429153434,-0.8299997448921199,-0.7177034020423894,0.0,-1.7349877285863777,-0.35004682805611603,-0.7177033833430153,0.0019795897093718784
1759838028.480721,1,-1.2050000429153434,-0.8299997448921199,-0.7177034020423894,0.0,-1.7349875612913244,-0.35004770710723543,-0.7177033837701076,0.0019840831757470135
1759838028.491182,1,-1.2050000429153434,-0.8299997448921199,-0.7177034020423894,0.0,-1.7349873800160687,-0.3500485921897081,-0.7177033845748987,0.0019892405447726677
1759838028.5019393,1,-1.2050000429153434,-0.8299997448921199,-0.7177034020423894,0.0,-1.734987365342644,-0.35004893108485635,-0.7177033852203518,0.0019879689642987495
1759838028.5121317,1,-1.2050000429153434,-0.8299997448921199,-0.7177034020423894,0.0,-1.7349873158917348,-0.35004931593563193,-0.7177033860034144,0.001988389343791248
1759838028.5226872,1,-1.2050000429153434,-0.8299997448921199,-0.7177034020423894,0.0,-1.734987237865424,-0.3500497517371135,-0.717703386583071,0.001990184421982015
1759838028.5337877,1,-1.2050000429153434,-0.8299997448921199,-0.7177034020423894,0.0,-1.7349871343805199,-0.35005024474052987,-0.7177033869526039,0.0019930954986648445
1759838028.5450552,1,-1.2050000429153434,-0.8299997448921199,-0.7177034020423894,0.0,-1.734987011383423,-0.35005078748707164,-0.7177033872946394,0.0019967946715339887
1759838028.555061,1,-1.2050000429153434,-0.8299997448921199,-0.7177034020423894,0.0,-1.734987052441579,-0.35005080601943384,-0.7177033880380985,0.0019941362939522745
1759838028.5662448,1,-1.2050000429153434,-0.8299997448921199,-0.7177034020423894,0.0,-1.7349870527622093,-0.3500509074377786,-0.7177033883759547,0.001993365601471917
1759838028.5769622,1,-1.2050000429153434,-0.8299997448921199,-0.7177034020423894,0.0,-1.7349870165087626,-0.3500511026433337,-0.7177033888456108,0.0019941975506119394
1759838028.5878508,1,-1.2050000429153434,-0.8299997448921199,-0.7177034020423894,0.0,-1.7349869494359027,-0.3500513872427174,-0.7177033892570317,0.0019962786761856645
1759838028.5984418,1,-1.2050000429153434,-0.8299997448921199,-0.7177034020423894,0.0,-1.734986854277175,-0.350051761590804,-0.7177033897333446,0.00199941442198119
1759838028.6093276,1,-1.2050000429153434,-0.8299997448921199,-0.7177034020423894,0.0,-1.7349869257372508,-0.35005161080775116,-0.7177033901148171,0.001996091678574784
1759838028.6206772,1,-1.2050000429153434,-0.8299997448921199,-0.7177034020423894,0.0,-1.734986949092496,-0.3500515765406727,-0.7177033903853693,0.0019948577745723013
1759838028.6314654,1,-1.2050000429153434,-0.8299997448921199,-0.7177034020423894,0.0,-1.734986933421407,-0.35005165328750154,-0.7177033908067005,0.0019952641733152216
1759838028.641512,1,-1.2050000429153434,-0.8299997448921199,-0.7177034020423894,0.0,-1.73498693342141,-0.3500516532875051,-0.7177033913488269,0.0019952641733152216
1759838028.6529138,1,-1.2050000429153434,-0.8299997448921199,-0.7177034020423894,0.0,-1.734986792163128,-0.35005216348167667,-0.7177033915822989,0.002000254852470137
1759838028.663704,1,-1.2050000429153434,-0.8299997448921199,-0.7177034020423894,0.0,-1.7349868711068026,-0.35005195635869196,-0.7177033919446859,0.001996880796267051
1759838028.6747625,1,-1.2050000429153434,-0.8299997448921199,-0.7177034020423894,0.0,-1.7349868711068042,-0.3500519563586938,-0.7177033922234614,0.001996880796267051
1759838028.6849108,1,-1.2050000429153434,-0.8299997448921199,-0.7177034020423894,0.0,-1.7349869009130412,-0.35005187475403654,-0.7177033926966024,0.0019955950394520048
1759838028.6956642,1,-1.2050000429153434,-0.8299997448921199,-0.7177034020423894,0.0,-1.7349868481335398,-0.35005205471173867,-0.7177033930261775,0.0019975367597426974
1759838028.7065516,1,-1.2050000429153434,-0.8299997448921199,-0.7177034020423894,0.0,-1.7349867758567121,-0.35005230216326033,-0.7177033932934195,0.0020001883951826314
1759838028.7188935,1,-1.2050000429153434,-0.8299997448921199,-0.7177034020423894,0.0,-1.7349868577338683,-0.35005206913589526,-0.7177033933183015,0.0019968312668665134
1759838028.7290635,1,-1.2050000429153434,-0.8299997448921199,-0.7177034020423894,0.0,-1.7349868865039195,-0.3500519777284094,-0.7177033937721381,0.0019956912070706475
1759838028.7391639,1,-1.2050000429153434,-0.8299997448921199,-0.7177034020423894,0.0,-1.734986875509788,-0.3500520080411095,-0.7177033941928063,0.0019961558430662903
1759838028.7499003,1,-1.2050000429153434,-0.8299997448921199,-0.7177034020423894,0.0,-1.7349868296688749,-0.3500521545986232,-0.7177033944566463,0.001997927312198392
1759838028.7615035,1,-1.2050000429153434,-0.8299997448921199,-0.7177034020423894,0.0,-1.7349867526400138,-0.3500524123648009,-0.7177033945759561,0.0020007925722951127
1759838028.7721756,1,-1.2050000429153434,-0.8299997448921199,-0.7177034020423894,0.0,-1.7349868460135747,-0.3500521395960171,-0.7177033948611667,0.0019970146952457187
1759838028.782272,1,-1.2050000429153434,-0.8299997448921199,-0.7177034020423894,0.0,-1.7349868887825306,-0.35005199810259563,-0.7177033952152696,0.00199537562419272
1759838028.7976003,1,-1.2050000429153434,-0.8299997448921199,-0.7177034020423894,0.0,-1.7349868593314983,-0.3500520712537228,-0.7177033948549694,0.0019966950968604265
1759838028.8092883,1,-1.2050000429153434,-0.8299997448921199,-0.7177034020423894,0.0,-1.7349867935719334,-0.350052283422655,-0.7177033951141427,0.0019992149237095655
1759838028.8194962,1,-1.2050000429153434,-0.8299997448921199,-0.7177034020423894,0.0,-1.7349866998136592,-0.3500526004368611,-0.7177033955740055,0.0020026646370749236
1759838028.8303192,1,-1.2050000429153434,-0.8299997448921199,-0.7177034020423894,0.0,-1.734986699813661,-0.35005260043686315,-0.7177033958841463,0.0020026646370749236
1759838028.8406885,1,-1.2050000429153434,-0.8299997448921199,-0.7177034020423894,0.0,-1.7349868220322113,-0.3500522458919406,-0.7177033962198234,0.0019976237579967344
1759838028.8514435,1,-1.2050000429153434,-0.8299997448921199,-0.7177034020423894,0.0,-1.73498681485883,-0.3500522647407854,-0.7177033964602421,0.0019979350744056077
1759838028.8617353,1,-1.2050000429153434,-0.8299997448921199,-0.7177034020423894,0.0,-1.7349867727681243,-0.3500523985774762,-0.717703396721339,0.001999556876399867
1759838028.87234,1,-1.2050000429153434,-0.8299997448921199,-0.7177034020423894,0.0,-1.7349868805778519,-0.35005206136697625,-0.7177033969231977,0.001995367276914543
1759838028.8831122,1,-1.2050000429153434,-0.8299997448921199,-0.7177034020423894,0.0,-1.7349868805778528,-0.35005206136697725,-0.717703397077308,0.001995367276914543
1759838028.894258,1,-1.2050000429153434,-0.8299997448921199,-0.7177034020423894,0.0,-1.734986938847269,-0.35005182762195897,-0.7177033972176237,0.0019935222283027883
1759838028.9045742,1,-1.2050000429153434,-0.8299997448921199,-0.7177034020423894,0.0,-1.73498693884727,-0.35005182762196024,-0.717703397414738,0.0019935222283027883
1759838028.9149501,1,-1.2050000429153434,-0.8299997448921199,-0.7177034020423894,0.0,-1.7349868421956123,-0.35005210939634224,-0.7177033976123792,0.001997519053131258
1759838028.9255137,1,-1.2050000429153434,-0.8299997448921199,-0.7177034020423894,0.0,-1.7349869292568358,-0.3500518400100937,-0.7177033977649457,0.0019941303757306282
1759838028.935773,1,-1.2050000429153434,-0.8299997448921199,-0.7177034020423894,0.0,-1.7349869292568367,-0.35005184001009476,-0.7177033979235996,0.0019941303757306282
1759838028.9459834,1,-1.2050000429153434,-0.8299997448921199,-0.7177034020423894,0.0,-1.7349869639403657,-0.3500517146198709,-0.7177033980846665,0.0019929277920154725
1759838028.9568424,1,-1.2050000429153434,-0.8299997448921199,-0.7177034020423894,0.0,-1.7349869582547839,-0.350051714011024,-0.7177033981798373,0.0019933087010841075
1759838028.9669855,1,-1.2050000429153434,-0.8299997448921199,-0.7177034020423894,0.0,-1.7349869144743002,-0.35005184217916924,-0.7177033983331965,0.001995106453301829
1759838028.9774623,1,-1.2050000429153434,-0.8299997448921199,-0.7177034020423894,0.0,-1.7349868401063184,-0.35005208199587184,-0.7177033984503577,0.001997958092511901
1759838028.9883215,1,-1.2050000429153434,-0.8299997448921199,-0.7177034020423894,0.0,-1.7349869241699356,-0.350051831409299,-0.7177033985359538,0.0019945970687844346
1759838029.002029,1,-1.2050000429153434,-0.8299997448921199,-0.7177034020423894,0.0,-1.7349869572408712,-0.3500517173068091,-0.7177033984331562,0.0019933610126474013
1759838029.0125902,1,-1.2050000429153434,-0.8299997448921199,-0.7177034020423894,0.0,-1.7349869131769058,-0.3500518378972213,-0.7177033986084019,0.001995233691008272
1759838029.0235422,1,-1.2050000429153434,-0.8299997448921199,-0.7177034020423894,0.0,-1.7349868402596134,-0.35005207458207765,-0.7177033987474623,0.001997999152890461
1759838029.0338702,1,-1.2050000429153434,-0.8299997448921199,-0.7177034020423894,0.0,-1.7349867395792706,-0.35005241720890834,-0.7177033989110849,0.0020016855450657577
1759838029.0438752,1,-1.2050000429153434,-0.8299997448921199,-0.7177034020423894,0.0,-1.7349867395792715,-0.3500524172089094,-0.7177033990694879,0.0020016855450657577
1759838029.0553985,1,-1.2050000429153434,-0.8299997448921199,-0.7177034020423894,0.0,-1.7349868103693968,-0.3500522288130851,-0.7177033991224727,0.0019986412319646964
1759838029.066405,1,-1.2050000429153434,-0.8299997448921199,-0.7177034020423894,0.0,-1.7349868084787157,-0.3500522499963644,-0.7177033992183093,0.00199851708383154
1759838029.0776045,1,-1.2050000429153434,-0.8299997448921199,-0.7177034020423894,0.0,-1.7349868084787161,-0.3500522499963649,-0.7177033992935931,0.00199851708383154
1759838029.0882,1,-1.2050000429153434,-0.8299997448921199,-0.7177034020423894,0.0,-1.7349868578927705,-0.35005211958162036,-0.7177033994146306,0.0019963780049793447
1759838029.0986807,1,-1.2050000429153434,-0.8299997448921199,-0.7177034020423894,0.0,-1.734986857892771,-0.3500521195816211,-0.7177033995207984,0.0019963780049793447
1759838029.1094692,1,-1.2050000429153434,-0.8299997448921199,-0.7177034020423894,0.0,-1.7349869230580584,-0.3500518790788612,-0.7177033996130138,0.001994136338420961
1759838029.1203349,1,-1.2050000429153434,-0.8299997448921199,-0.7177034020423894,0.0,-1.734986898028355,-0.3500519421210769,-0.7177033996911346,0.001995262566491775
1759838029.1317806,1,-1.2050000429153434,-0.8299997448921199,-0.7177034020423894,0.0,-1.7349868387072394,-0.35005212584196704,-0.7177033997402967,0.0019976102017484933
1759838029.143008,1,-1.2050000429153434,-0.8299997448921199,-0.7177034020423894,0.0,-1.7349867472934972,-0.3500524281181075,-0.7177033998055029,0.0020010417384211587
1759838029.1533463,1,-1.2050000429153434,-0.8299997448921199,-0.7177034020423894,0.0,-1.7349867472934979,-0.35005242811810816,-0.7177033999073222,0.0020010417384211587
1759838029.1646328,1,-1.2050000429153434,-0.8299997448921199,-0.7177034020423894,0.0,-1.7349868425292176,-0.350052152782561,-0.7177033999701797,0.0019971037261743824
1759838029.1755269,1,-1.2050000429153434,-0.8299997448921199,-0.7177034020423894,0.0,-1.73498682508332,-0.3500522048198527,-0.7177034000429037,0.001997769606409014
1759838029.185711,1,-1.2050000429153434,-0.8299997448921199,-0.7177034020423894,0.0,-1.7349867723693795,-0.35005237655119165,-0.7177034001407792,0.0019997647066397313
1759838029.203011,1,-1.2050000429153434,-0.8299997448921199,-0.7177034020423894,0.0,-1.7349868759776261,-0.350052058613117,-0.7177033999712773,0.0019956898784247324
1759838029.2108822,1,-1.2050000429153434,-0.8299997448921199,-0.7177034020423894,0.0,-1.7349868759776275,-0.35005205861311844,-0.7177034001948265,0.0019956898784247324
1759838029.2220118,1,-1.2050000429153434,-0.8299997448921199,-0.7177034020423894,0.0,-1.734986930131665,-0.3500518477946354,-0.7177034002801025,0.0019939184836406
1759838029.2334015,1,-1.2049960985510653,-0.830003188372659,-0.7176748889181661,0.0005235987755982988,-1.734986895223804,-0.3500519425933206,-0.7177034003383448,0.0019954125653872832
1759838029.2439191,1,-1.2049921955802794,-0.830011583445036,-0.7176518508918462,0.0009466559712545144,-1.7349868952238043,-0.3500519425933211,-0.717703400418631,0.0019954125653872832
1759838029.2552798,1,-1.2049844889344203,-0.8300267556212901,-0.7176315085637307,0.0013307544278088994,-1.7349868018719061,-0.35005223749327263,-0.7177034004680006,0.001999041371483615
1759838029.2656963,1,-1.2049666157551453,-0.8300531186962383,-0.7172917925226684,0.007417737904259045,-1.7349866852036089,-0.3500526308687232,-0.7177034005428804,0.0020035247647157205
1759838029.2762585,1,-1.2049436297745604,-0.8301398281917314,-0.7170153465636341,0.012308026168699023,-1.7349867559157655,-0.35005244705415484,-0.7177034006071106,0.002000488196046938
1759838029.2863283,1,-1.2049169952453285,-0.8302635070991691,-0.7167876046170193,0.016318948089475732,-1.7349867751189705,-0.35005239789901627,-0.7177034006782912,0.0019995925875532284
1759838029.2977672,1,-1.2048887097932368,-0.8304083269411693,-0.7166021955705582,0.019625963526773465,-1.7349867542769173,-0.35005247072449347,-0.7177034007038675,0.002000317420366878
1759838029.3085952,1,-1.204859962039111,-0.8305635718895179,-0.7164481753344557,0.02237010983581251,-1.7349866986969016,-0.35005265901681154,-0.7177034007482175,0.002002347116498807
1759838029.318625,1,-1.2048345250747947,-0.8307134985731665,-0.7163016396654314,0.02444971182444661,-1.7349868005199447,-0.35005235258187606,-0.7177034008124231,0.0019982995753736518
1759838029.32992,1,-1.2048092248476376,-0.8308614703489295,-0.7161768108988309,0.026220604996142666,-1.7349868480173651,-0.35005218975562374,-0.7177034008387516,0.00199654368502807
1759838029.3413508,1,-1.2047846714405908,-0.8310050089973566,-0.7160743081203017,0.02773046498068206,-1.7349868224899598,-0.3500522400134936,-0.7177034008665951,0.001997819614594867
1759838029.3528388,1,-1.2047615280479331,-0.8311410532638577,-0.7159850158295679,0.02901413528319112,-1.7349867597112565,-0.3500524381188863,-0.7177034008940348,0.0020002586039400403
1759838029.3637717,1,-1.2047439294603857,-0.8312544990800403,-0.7159368972414328,0.029857355385775962,-1.7349867597112567,-0.3500524381188866,-0.7177034009346279,0.0020002586039400403
1759838029.3745136,1,-1.2047271376649422,-0.8313599870472848,-0.7158930349928228,0.03060569282842621,-1.7349869033609442,-0.3500519738699017,-0.7177034009827337,0.0019947895606069127
1759838029.3856986,1,-1.204711446390287,-0.8314570690317691,-0.7158573532333447,0.031269719097048496,-1.7349869065023817,-0.3500519430456637,-0.7177034010157106,0.0019948724211870713
1759838029.3999636,1,-1.204696677287053,-0.8315467767946039,-0.7158228597258446,0.0318773584989614,-1.7349868697108017,-0.35005204516783117,-0.7177034009889084,0.001996439642540015
1759838029.4074736,1,-1.2046832189695784,-0.8316282308610401,-0.7157926562852894,0.032407610294106354,-1.7349868697108024,-0.3500520451678319,-0.7177034011035367,0.001996439642540015
1759838029.417509,1,-1.2046754181149264,-0.8316852442694164,-0.7158065063266805,0.032603753763650545,-1.7349868004522924,-0.3500522643759178,-0.7177034011530462,0.0019991378202163807
1759838029.4282014,1,-1.2046676843890503,-0.8317378008613374,-0.7158175278758332,0.03282450062399589,-1.7349867035703026,-0.3500525891246791,-0.7177034011791747,0.0020027319726251755
1759838029.439354,1,-1.20465991121652,-0.8317873598117561,-0.715823257851949,0.03306761118996702,-1.734986774466055,-0.3500523957489299,-0.7177034011974995,0.0019997540597966323
1759838029.4493937,1,-1.2039775410077527,-0.8324640740098032,-0.7151308421244686,0.03793552421155212,-1.7349867632524603,-0.35005244193991425,-0.717703401238543,0.0020000314576554988
1759838029.460235,1,-1.2033492122846394,-0.8331255007971569,-0.7143433760711746,0.0419324349568397,-1.7349867090285847,-0.3500526236185261,-0.7177034012604188,0.0020020267216378715
1759838029.4714737,1,-1.2020041596123323,-0.8344495953010599,-0.7121761553796981,0.04996239537809721,-1.7349867090285849,-0.35005262361852624,-0.7177034012744412,0.0020020267216378715
1759838029.4822276,1,-1.2008598409190527,-0.8356468286665863,-0.7101423792925167,0.05654292653427569,-1.7349868619921571,-0.3500521392613615,-0.7177034013022265,0.0026172349776048395
1759838029.492776,1,-1.1999229150739716,-0.8366879205218758,-0.7084245340516593,0.06188865164718933,-1.7349867758262523,-0.35005217824646384,-0.7177034013304452,0.002623342932423241
1759838029.504227,1,-1.1991546334620562,-0.8375918005434945,-0.7069776690455519,0.06625461847997106,-1.734986658640186,-0.35005239699840307,-0.7177034013443221,0.0026297694730034304
1759838029.5146875,1,-1.198531155890519,-0.8383669417687194,-0.7058209271404092,0.0697969857885879,-1.7349866586401863,-0.35005239699840324,-0.7177034013718856,0.0026297694730034304
1759838029.5247247,1,-1.1980131722171827,-0.8390435944225152,-0.7048330683901143,0.07273221432577033,-1.7349865125281927,-0.35005277467118134,-0.7177034014044379,0.0026365769774327197
1759838029.5362785,1,-1.197577958966757,-0.8396081287174656,-0.7039800497226036,0.07497210228836408,-1.734985977387667,-0.35005315800534215,-0.717703401414081,0.002704489624805048
1759838029.5471692,1,-1.1972127079473314,-0.840104592508474,-0.7032575559739742,0.07687298010304365,-1.7349854158984055,-0.3500543235716186,-0.7177034014341608,0.0027605389706237583
1759838029.5578005,1,-1.1969108008356466,-0.8405351699398123,-0.7026545167793758,0.07846679983569557,-1.7349848319802963,-0.350056002362201,-0.7177034014573653,0.0028079234244758767
1759838029.568341,1,-1.1966608501857308,-0.8409098546491887,-0.7021556248892137,0.07981665166765795,-1.7349842418479984,-0.35005800717710567,-0.7177034014800894,0.0028483215752802384
1759838029.5794652,1,-1.1964517625723474,-0.8412391987265498,-0.7017396763869489,0.08097506577478798,-1.7349836520925597,-0.3500602175567366,-0.7177034014946799,0.002883228226247054
1759838029.5906875,1,-1.1962815304847763,-0.8414892901379062,-0.7014144874156791,0.081722655112618,-1.7349832963618008,-0.3500618619219586,-0.7177034015090573,0.0029046030218260006
1759838029.6041496,1,-1.1961372597836628,-0.8417147322741454,-0.7011398375006686,0.08240842571538465,-1.7349825430770238,-0.35006533351852187,-0.7177034015029177,0.002941777775207639
1759838029.6117103,1,-1.1960182830028605,-0.841909860901315,-0.7009176087445301,0.08299907229382848,-1.7349825430770243,-0.3500653335185224,-0.7177034015593733,0.002941777775207639
1759838029.6221025,1,-1.195917136278715,-0.8420853646232462,-0.7007335954895423,0.08353660070758444,-1.7349821469571034,-0.3500671352786882,-0.7177034015791457,0.0029585464387025954
1759838029.6323361,1,-1.195831526936671,-0.8422438135963753,-0.700580990104327,0.08403172907839668,-1.734981754702085,-0.35006892109350135,-0.7177034015967074,0.002974053826944668
1759838029.6435528,1,-1.19577033505668,-0.8423368401202829,-0.7004682541835564,0.08420362693554052,-1.73498161984042,-0.3500699089938572,-0.7177034016043061,0.002978442062361691
1759838029.6539097,1,-1.1948086964058908,-0.8431996905581118,-0.6992917821935306,0.08847376481156652,-1.7349814450030545,-0.3500709361838358,-0.7177034016206619,0.0029842734695194545
1759838029.6652684,1,-1.193689418868143,-0.8442164057795528,-0.6974713636565625,0.0919805365731382,-1.734981241226767,-0.35007200023180834,-0.7177034016279417,0.0029911082172109586
1759838029.6761866,1,-1.1926329263017543,-0.8451960681293794,-0.6953445438772187,0.0949273772442491,-1.7349810111740638,-0.35007310988049606,-0.7177034016401566,0.0029987916030458574
1759838029.687394,1,-1.1916975434591999,-0.8460844521978212,-0.6931254943225361,0.09743019610114008,-1.7349807542385371,-0.35007427985744444,-0.7177034016504635,0.0030073144327284283
1759838029.697535,1,-1.1893908988445427,-0.8480608233186601,-0.6866930173528987,0.10356934453531239,-1.7349807489797915,-0.35007464849960507,-0.7177034016695538,0.0030058035408101202
1759838029.7085423,1,-1.1875203820706517,-0.8497115751280321,-0.6813403543161076,0.10851957431670667,-1.7349806886758719,-0.35007511133476504,-0.7177034016803057,0.004559555996902769
1759838029.719107,1,-1.1859825440241383,-0.8511058165624111,-0.6768479742590922,0.11257420340797673,-1.734980582857637,-0.3500756747476821,-0.7177034016939272,0.004562511519011759
1759838029.7300365,1,-1.1847151335608697,-0.8522863089825574,-0.6730878527455395,0.11591484359897186,-1.734980202041344,-0.35007654925279286,-0.7177034017042739,0.004582632250653569
1759838029.740734,1,-1.1836684896044456,-0.8532882078278229,-0.6699557307421162,0.11868498537058574,-1.7349798105481775,-0.35007764916744977,-0.7177034017160222,0.004601040287361879
1759838029.7510133,1,-1.18277551686411,-0.8541108725587526,-0.6672343545539063,0.12082018783826341,-1.7349782944776602,-0.35007924405475865,-0.7177034017301392,0.004777686927227369
1759838029.761513,1,-1.1820396243262334,-0.8548086516960526,-0.6649948483671098,0.12259914227034101,-1.7349767777115501,-0.35008261246789796,-0.7177034017415148,0.004921874572367204
1759838029.7729688,1,-1.1814330314159511,-0.8554027773634709,-0.6631597540976981,0.12409751901408315,-1.7349752611003149,-0.3500870874109991,-0.7177034017464123,0.0050420826163451
1759838029.783858,1,-1.180929792613177,-0.8559126290760313,-0.6616525427807295,0.12537116194476772,-1.734973771737276,-0.3500922300894442,-0.7177034017556584,0.0051431766704306235
1759838029.7953358,1,-1.1805084129538561,-0.8563557211489797,-0.6604155039949835,0.12646911970834965,-1.734972321325803,-0.35009774739123395,-0.717703401761795,0.005229172020720334
1759838029.8072278,1,-1.1801645225454607,-0.8566781902000541,-0.6593537142771242,0.1271660307872267,-1.734971306801743,-0.35010231234240136,-0.7177034017667537,0.005287120988686864
1759838029.818112,1,-1.1798775262217278,-0.8569612198719113,-0.6584913095252651,0.12779065870311526,-1.7349703064482325,-0.3501068988128166,-0.7177034017781434,0.0053378517066396385
1759838029.829,1,-1.1796362796426367,-0.8572121400939974,-0.6577900283247405,0.128356032551565,-1.7349693295429882,-0.35011143369492304,-0.7177034017888837,0.005382735152292191
1759838029.840498,1,-1.1794315691841712,-0.8574383965473792,-0.6572191641308376,0.12887868947786613,-1.7349683748164728,-0.3501158848510703,-0.7177034017958731,0.005423040142370069
1759838029.8519204,1,-1.1761878176678993,-0.8598122117151772,-0.6492408792807405,0.13308209179131603,-1.7349674218964204,-0.3501202919952023,-0.7177034018033853,0.005460495124558566
1759838029.8627582,1,-1.1729916170748727,-0.8621608054541676,-0.6408864492765065,0.13651479867955063,-1.7349665454962342,-0.35012572921206675,-0.7177034018142059,0.007120347224888482
1759838029.8732212,1,-1.1704234402095797,-0.8640630347961519,-0.6342729090459811,0.1392973368283945,-1.7349665454962344,-0.3501257292120669,-0.7177034018248246,0.007120347224888482
1759838029.8834927,1,-1.1682549892384626,-0.8656776977624079,-0.6283114276380439,0.14160348902165565,-1.734965791120631,-0.35012864532280086,-0.7177034018353861,0.007153256952282583
1759838029.8935273,1,-1.1664482152363311,-0.8670305317462955,-0.6230452778855416,0.14352845887255464,-1.7349650414798679,-0.3501316444886524,-0.7177034018455012,0.007183636704019335
1759838029.9046175,1,-1.1649483490018697,-0.8681620856182425,-0.6184590304192793,0.14515321780267018,-1.734964283539651,-0.35013472712588495,-0.717703401850168,0.007212391133996474
1759838029.9157217,1,-1.163665540883311,-0.8690727772967509,-0.6142923327343989,0.14630049427997405,-1.7349625406813056,-0.35013764661127433,-0.7177034018550648,0.007399664858411691
1759838029.9258125,1,-1.1626099661567613,-0.8698288754870994,-0.6107676933742274,0.14728375807719843,-1.7349607772322917,-0.3501423498011704,-0.7177034018639096,0.007554292999513341
1759838029.9366395,1,-1.1617393747797105,-0.8704603110453993,-0.6078116595589088,0.14813818964398268,-1.7349589989106555,-0.3501481629890756,-0.717703401869261,0.007684810379614189
1759838029.9469633,1,-1.161016396984223,-0.8709927351536693,-0.6053348674242024,0.14888855796738545,-1.7349572318194648,-0.3501546585264283,-0.7177034018761262,0.007796253797761469
1759838029.957248,1,-1.1604145817716212,-0.8714448594141819,-0.603274460447084,0.14955661857045788,-1.7349554974641535,-0.35016152221706753,-0.7177034018825804,0.00789233348484327
1759838029.9678614,1,-1.1599324450432014,-0.8717534034595896,-0.6014942432357129,0.14986849016328593,-1.7349544662238803,-0.3501666136329422,-0.7177034018874725,0.007949690460786373
1759838029.978032,1,-1.1595250269531077,-0.8720242897694063,-0.6000166794806516,0.15018701310878416,-1.7349533758174513,-0.3501718314907549,-0.7177034018936272,0.008002664610526664
1759838029.9889784,1,-1.1591834162975236,-0.8722619537395158,-0.5988108729726206,0.15050528763217644,-1.7349522843446203,-0.35017702614795415,-0.7177034018969781,0.008050866803741008
1759838029.999721,1,-1.1588934420237802,-0.8724745469481606,-0.5978232345404187,0.15082371008442055,-1.7349511891564346,-0.3501821844335556,-0.7177034019011223,0.008095521576783313
1759838030.0134091,1,-1.1586427545253952,-0.8726729200650075,-0.5970116231222105,0.1511598980117029,-1.7349500872839727,-0.3501873070792531,-0.7177034018972804,0.008137584968672014
1759838030.0236595,1,-1.1584589958955742,-0.8727707666332538,-0.5963498749766654,0.15120433285729382,-1.7349496739804915,-0.35019027201902386,-0.7177034019051441,0.008150074730218813
1759838030.0345876,1,-1.1582965126882003,-0.8728707187269018,-0.5958105295227618,0.15130504086555072,-1.734948576683899,-0.35019637148697563,-0.7177034019109161,0.00818527212949441
1759838030.0459852,1,-1.1581557751462799,-0.8729704988560072,-0.5953724142946346,0.15145019091085787,-1.7349485766838992,-0.35019637148697574,-0.7177034019145356,0.00818527212949441
1759838030.0572014,1,-1.156346540126439,-0.8741278362945342,-0.5921075439941276,0.15234572055285386,-1.7349471826202092,-0.35020293628623067,-0.7177034019190551,0.008230612222587301
1759838030.068492,1,-1.1527413813464453,-0.8763338039048458,-0.5829032431731305,0.15359563780730767,-1.7349471826202092,-0.3502029362862307,-0.7177034019229159,0.008230612222587301
1759838030.0799944,1,-1.149681205172025,-0.8781980031079701,-0.5746996576764467,0.15464769718444896,-1.7349472038674343,-0.3502038827559077,-0.7177034019264966,0.009208443260120276
1759838030.090966,1,-1.1470413268107622,-0.8797951052347623,-0.5668232586658677,0.1555757250671779,-1.734946626252219,-0.3502067926685183,-0.7177034019315258,0.00922749726812526
1759838030.1025105,1,-1.1448749897225081,-0.8810983199634393,-0.5601377776531326,0.15638838650344172,-1.734946093864058,-0.350208837729226,-0.7177034019348155,0.00924767787304019
1759838030.1130624,1,-1.1431184720872802,-0.8821514360309934,-0.5548024338337134,0.15709765411827736,-1.7349460938640582,-0.3502088377292261,-0.7177034019398707,0.00924767787304019
1759838030.124283,1,-1.1416610868949981,-0.8830240585563688,-0.5502135477084237,0.15773806857793027,-1.7349454644874598,-0.35021124440740664,-0.7177034019433056,0.009270505115876754
