timestamp,vehicle_id,x,y,theta,velocity,gps_available,dt,gps_x,gps_y,gps_theta,gps_velocity,control_steering,control_acceleration
1759838025.9786909,1,-1.735,-0.35,-0.7801621756414647,0.0,False,0.01,nan,nan,nan,nan,0.0,0.0
1759838025.9899497,1,-1.735,-0.35,-0.7801621756414647,0.0,False,0.011258840560913086,nan,nan,nan,nan,0.0,0.0
1759838026.0016718,1,-1.735,-0.35,-0.7801621756414647,0.0,False,0.011722087860107422,nan,nan,nan,nan,0.0,0.0
1759838026.012391,1,-1.735,-0.35,-0.7801621756414647,0.0,False,0.01071929931640625,nan,nan,nan,nan,0.0,0.0
1759838026.0234282,1,-1.735,-0.35,-0.7801621756414647,0.0,False,0.011037111282348633,nan,nan,nan,nan,0.0,0.0
1759838026.0346856,1,-1.735,-0.35,-0.7801621756414647,0.0,False,0.011257410049438477,nan,nan,nan,nan,0.0,0.0
1759838026.045104,1,-1.735,-0.35,-0.7801621756414647,0.0,False,0.010418415069580078,nan,nan,nan,nan,0.0,0.0
1759838026.05518,1,-1.735,-0.35,-0.7801621756414647,0.0,False,0.010076045989990234,nan,nan,nan,nan,0.0,0.0
1759838026.0668585,1,-1.735,-0.35,-0.7801621756414647,0.0,False,0.011678457260131836,nan,nan,nan,nan,0.0,0.0
1759838026.07807,1,-1.735,-0.35,-0.7801621756414647,0.0,False,0.011211395263671875,nan,nan,nan,nan,0.0,0.0
1759838026.0882018,1,-1.735,-0.35,-0.7801621756414647,0.0,False,0.0101318359375,nan,nan,nan,nan,0.0,0.0
1759838026.098382,1,-1.735,-0.35,-0.7801621756414647,0.0,False,0.010180234909057617,nan,nan,nan,nan,0.0,0.0
1759838026.1090763,1,-1.735,-0.35,-0.7801621756414647,0.0,False,0.010694265365600586,nan,nan,nan,nan,0.0,0.0
1759838026.1195464,1,-1.735,-0.35,-0.7801621756414647,0.0,False,0.010470151901245117,nan,nan,nan,nan,0.0,0.0
1759838026.1295576,1,-1.735,-0.35,-0.7801621756414647,0.0,False,0.01001119613647461,nan,nan,nan,nan,0.0,0.0
1759838026.1398096,1,-1.735,-0.35,-0.7801621756414647,0.0,False,0.010251998901367188,nan,nan,nan,nan,0.0,0.0
1759838026.1498952,1,-1.735,-0.35,-0.7801621756414647,0.0,False,0.010085582733154297,nan,nan,nan,nan,0.0,0.0
1759838026.1601827,1,-1.735,-0.35,-0.7801621756414647,0.0,False,0.01028752326965332,nan,nan,nan,nan,0.0,0.0
1759838026.1726837,1,-1.7350001324017843,-0.34999987587332726,-0.7229997220961266,0.0,True,0.012501001358032227,-1.7350001335144043,-0.34999987483024597,-0.7177034020423889,0.0,0.0,0.0
1759838026.1841667,1,-1.7350001331424978,-0.34999987517890824,-0.7181144249326685,0.0,True,0.011482954025268555,-1.7350001335144043,-0.34999987483024597,-0.7177034020423889,0.0,0.0,0.0
1759838026.195415,1,-1.7350001333748908,-0.34999987496103985,-0.7176551181364168,0.0,True,0.011248350143432617,-1.7350001335144043,-0.34999987483024597,-0.7177034020423889,0.0,0.0,0.0
1759838026.2059608,1,-1.7350001334612537,-0.34999987488007467,-0.7175987938750943,0.0,True,0.010545730590820312,-1.7350001335144043,-0.34999987483024597,-0.7177034020423889,0.0,0.0,0.0
1759838026.2175238,1,-1.7350001334941103,-0.3499998748492716,-0.7175906306922624,0.0,True,0.01156306266784668,-1.7350001335144043,-0.34999987483024597,-0.7177034020423889,0.0,0.0,0.0
1759838026.2280574,1,-1.7350001335066532,-0.3499998748375127,-0.7175999145624363,0.0,True,0.010533571243286133,-1.7350001335144043,-0.34999987483024597,-0.7177034020423889,0.0,0.0,0.0
1759838026.238881,1,-1.7350001335114436,-0.3499998748330216,-0.7176112956032217,0.0,True,0.010823726654052734,-1.7350001335144043,-0.34999987483024597,-0.7177034020423889,0.0,0.0,0.0
1759838026.2489715,1,-1.7350001335132734,-0.3499998748313062,-0.7176236406083554,0.0,True,0.010090351104736328,-1.7350001335144043,-0.34999987483024597,-0.7177034020423889,0.0,0.0,0.0
1759838026.259476,1,-1.7350001335139724,-0.3499998748306509,-0.7176333932455066,0.0,True,0.010504484176635742,-1.7350001335144043,-0.34999987483024597,-0.7177034020423889,0.0,0.0,0.0
1759838026.270732,1,-1.7350001335142393,-0.3499998748304006,-0.7176408582010829,0.0,True,0.011255979537963867,-1.7350001335144043,-0.34999987483024597,-0.7177034020423889,0.0,0.0,0.0
1759838026.2809634,1,-1.7350001335143412,-0.34999987483030504,-0.7176486450262445,0.0,True,0.010231494903564453,-1.7350001335144043,-0.34999987483024597,-0.7177034020423889,0.0,0.0,0.0
1759838026.2918932,1,-1.7350001335143803,-0.3499998748302685,-0.7176543487384244,0.0,True,0.01092982292175293,-1.7350001335144043,-0.34999987483024597,-0.7177034020423889,0.0,0.0,0.0
1759838026.3021352,1,-1.7350001335143952,-0.3499998748302546,-0.7176598036050894,0.0,True,0.010241985321044922,-1.7350001335144043,-0.34999987483024597,-0.7177034020423889,0.0,0.0,0.0
1759838026.3133812,1,-1.7350001335144007,-0.34999987483024925,-0.7176635329987704,0.0,True,0.011245965957641602,-1.7350001335144043,-0.34999987483024597,-0.7177034020423889,0.0,0.0,0.0
1759838026.3247902,1,-1.735000133514403,-0.34999987483024725,-0.7176667841309303,0.0,True,0.01140904426574707,-1.7350001335144043,-0.34999987483024597,-0.7177034020423889,0.0,0.0,0.0
1759838026.3355725,1,-1.7350001335144039,-0.34999987483024647,-0.7176701610764091,0.0,True,0.010782241821289062,-1.7350001335144043,-0.34999987483024597,-0.7177034020423889,0.0,0.0,0.0
1759838026.346097,1,-1.735000133514404,-0.34999987483024614,-0.717673206234668,0.0,True,0.010524511337280273,-1.7350001335144043,-0.34999987483024597,-0.7177034020423889,0.0,0.0,0.0
1759838026.3569708,1,-1.7350001335144043,-0.349999874830246,-0.7176755724813297,0.0,True,0.010873794555664062,-1.7350001335144043,-0.34999987483024597,-0.7177034020423889,0.0,0.0,0.0
1759838026.3671799,1,-1.7350001335144043,-0.34999987483024597,-0.7176779660213377,0.0,True,0.010209083557128906,-1.7350001335144043,-0.34999987483024597,-0.7177034020423889,0.0,0.0,0.0
1759838026.3781776,1,-1.7350001335144043,-0.34999987483024597,-0.7176796049095486,0.0,True,0.010997772216796875,-1.7350001335144043,-0.34999987483024597,-0.7177034020423889,0.0,0.0,0.0
1759838026.38887,1,-1.7350001335144043,-0.34999987483024597,-0.717681222513308,0.0,True,0.010692358016967773,-1.7350001335144043,-0.34999987483024597,-0.7177034020423889,0.0,0.0,0.0
1759838026.399587,1,-1.7350001335144043,-0.34999987483024597,-0.7176826600864654,0.0,True,0.010716915130615234,-1.7350001335144043,-0.34999987483024597,-0.7177034020423889,0.0,0.0,0.0
1759838026.411053,1,-1.7350001335144043,-0.34999987483024597,-0.7176836565509426,0.0,True,0.011466026306152344,-1.7350001335144043,-0.34999987483024597,-0.7177034020423889,0.0,0.0,0.0
1759838026.4224005,1,-1.7350001335144043,-0.34999987483024597,-0.7176846889912571,0.0,True,0.011347532272338867,-1.7350001335144043,-0.34999987483024597,-0.7177034020423889,0.0,0.0,0.0
1759838026.4330873,1,-1.7350001335144043,-0.34999987483024597,-0.7176859206047226,0.0,True,0.010686874389648438,-1.7350001335144043,-0.34999987483024597,-0.7177034020423889,0.0,0.0,0.0
1759838026.4439745,1,-1.7350001335144043,-0.34999987483024597,-0.7176869484593311,0.0,True,0.01088714599609375,-1.7350001335144043,-0.34999987483024597,-0.7177034020423889,0.0,0.0,0.0
1759838026.4545197,1,-1.7350001335144043,-0.34999987483024597,-0.7176879764867508,0.0,True,0.01054525375366211,-1.7350001335144043,-0.34999987483024597,-0.7177034020423889,0.0,0.0,0.0
1759838026.464883,1,-1.7350001335144043,-0.34999987483024597,-0.717688934023462,0.0,True,0.010363340377807617,-1.7350001335144043,-0.34999987483024597,-0.7177034020423889,0.0,0.0,0.0
1759838026.4756792,1,-1.7350001335144043,-0.34999987483024597,-0.7176896427760724,0.0,True,0.010796070098876953,-1.7350001335144043,-0.34999987483024597,-0.7177034020423889,0.0,0.0,0.0
1759838026.4860759,1,-1.7350001335144043,-0.34999987483024597,-0.7176904022180342,0.0,True,0.010396718978881836,-1.7350001335144043,-0.34999987483024597,-0.7177034020423889,0.0,0.0,0.0
1759838026.4974127,1,-1.7350001335144043,-0.34999987483024597,-0.7176908400106043,0.0,True,0.011336803436279297,-1.7350001335144043,-0.34999987483024597,-0.7177034020423889,0.0,0.0,0.0
1759838026.5076103,1,-1.7350001335144043,-0.34999987483024597,-0.7176915736748626,0.0,True,0.010197639465332031,-1.7350001335144043,-0.34999987483024597,-0.7177034020423889,0.0,0.0,0.0
1759838026.5187895,1,-1.7350001335144043,-0.34999987483024597,-0.7176919960444064,0.0,True,0.011179208755493164,-1.7350001335144043,-0.34999987483024597,-0.7177034020423889,0.0,0.0,0.0
1759838026.5292764,1,-1.7350001335144043,-0.34999987483024597,-0.7176925713947107,0.0,True,0.010486841201782227,-1.7350001335144043,-0.34999987483024597,-0.7177034020423889,0.0,0.0,0.0
1759838026.5435991,1,-1.7350001335144043,-0.34999987483024597,-0.7176922801012573,0.0,True,0.014322757720947266,-1.7350001335144043,-0.34999987483024597,-0.7177034020423889,0.0,0.0,0.0
1759838026.554464,1,-1.7350001335144043,-0.34999987483024597,-0.717692933751021,0.0,True,0.010864973068237305,-1.7350001335144043,-0.34999987483024597,-0.7177034020423889,0.0,0.0,0.0
1759838026.5646698,1,-1.7350001335144043,-0.34999987483024597,-0.7176936842843773,0.0,True,0.010205745697021484,-1.7350001335144043,-0.34999987483024597,-0.7177034020423889,0.0,0.0,0.0
1759838026.5758762,1,-1.7350001335144043,-0.34999987483024597,-0.7176941210949792,0.0,True,0.011206388473510742,-1.7350001335144043,-0.34999987483024597,-0.7177034020423889,0.0,0.0,0.0
1759838026.5870712,1,-1.7350001335144043,-0.34999987483024597,-0.7176945169540936,0.0,True,0.011194944381713867,-1.7350001335144043,-0.34999987483024597,-0.7177034020423889,0.0,0.0,0.0
1759838026.5972834,1,-1.7350001335144043,-0.34999987483024597,-0.7176950601032068,0.0,True,0.010212182998657227,-1.7350001335144043,-0.34999987483024597,-0.7177034020423889,0.0,0.0,0.0
1759838026.607858,1,-1.7350001335144043,-0.34999987483024597,-0.717695468012959,0.0,True,0.010574579238891602,-1.7350001335144043,-0.34999987483024597,-0.7177034020423889,0.0,0.0,0.0
1759838026.6186874,1,-1.7350001335144043,-0.34999987483024597,-0.7176957854702408,0.0,True,0.010829448699951172,-1.7350001335144043,-0.34999987483024597,-0.7177034020423889,0.0,0.0,0.0
1759838026.6291192,1,-1.7350001335144043,-0.34999987483024597,-0.7176961431037068,0.0,True,0.010431766510009766,-1.7350001335144043,-0.34999987483024597,-0.7177034020423889,0.0,0.0,0.0
1759838026.6395023,1,-1.7350001335144043,-0.34999987483024597,-0.7176964738717402,0.0,True,0.010383129119873047,-1.7350001335144043,-0.34999987483024597,-0.7177034020423889,0.0,0.0,0.0
1759838026.6496534,1,-1.7350001335144043,-0.34999987483024597,-0.7176968039937837,0.0,True,0.010151147842407227,-1.7350001335144043,-0.34999987483024597,-0.7177034020423889,0.0,0.0,0.0
1759838026.660448,1,-1.7350001335144043,-0.34999987483024597,-0.7176970077588418,0.0,True,0.010794639587402344,-1.7350001335144043,-0.34999987483024597,-0.7177034020423889,0.0,0.0,0.0
1759838026.671148,1,-1.7350001335144043,-0.34999987483024597,-0.7176972209400425,0.0,True,0.010699987411499023,-1.7350001335144043,-0.34999987483024597,-0.7177034020423889,0.0,0.0,0.0
1759838026.6821167,1,-1.7350001335144043,-0.34999987483024597,-0.7176973982318273,0.0,True,0.010968685150146484,-1.7350001335144043,-0.34999987483024597,-0.7177034020423889,0.0,0.0,0.0
1759838026.6927724,1,-1.7350001335144043,-0.34999987483024597,-0.7176976209282238,0.0,True,0.010655641555786133,-1.7350001335144043,-0.34999987483024597,-0.7177034020423889,0.0,0.0,0.0
1759838026.703843,1,-1.7350001335144043,-0.34999987483024597,-0.7176977871426988,0.0,True,0.011070728302001953,-1.7350001335144043,-0.34999987483024597,-0.7177034020423889,0.0,0.0,0.0
1759838026.7142925,1,-1.7350001335144043,-0.34999987483024597,-0.7176980295766633,0.0,True,0.010449409484863281,-1.7350001335144043,-0.34999987483024597,-0.7177034020423889,0.0,0.0,0.0
1759838026.7251923,1,-1.7350001335144043,-0.34999987483024597,-0.7176982048696381,0.0,True,0.010899782180786133,-1.7350001335144043,-0.34999987483024597,-0.7177034020423889,0.0,0.0,0.0
1759838026.7352097,1,-1.7350001335144043,-0.34999987483024597,-0.7176984698546924,0.0,True,0.01001739501953125,-1.7350001335144043,-0.34999987483024597,-0.7177034020423889,0.0,0.0,0.0
1759838026.7467048,1,-1.7350001335144043,-0.34999987483024597,-0.7176985523236254,0.0,True,0.011495113372802734,-1.7350001335144043,-0.34999987483024597,-0.7177034020423889,0.0,0.0,0.0
1759838026.7577498,1,-1.7350001335144043,-0.34999987483024597,-0.7176986967814525,0.0,True,0.011044979095458984,-1.7350001335144043,-0.34999987483024597,-0.7177034020423889,0.0,0.0,0.0
1759838026.7677777,1,-1.7350001335144043,-0.34999987483024597,-0.7176989460496124,0.0,True,0.010027885437011719,-1.7350001335144043,-0.34999987483024597,-0.7177034020423889,0.0,0.0,0.0
1759838026.7796724,1,-1.7350001335144043,-0.34999987483024597,-0.7176989940656302,0.0,True,0.011894702911376953,-1.7350001335144043,-0.34999987483024597,-0.7177034020423889,0.0,0.0,0.0
1759838026.7906039,1,-1.7350001335144043,-0.34999987483024597,-0.7176991512080093,0.0,True,0.01093149185180664,-1.7350001335144043,-0.34999987483024597,-0.7177034020423889,0.0,0.0,0.0
1759838026.8016946,1,-1.7350001335144043,-0.34999987483024597,-0.7176992960283464,0.0,True,0.011090755462646484,-1.7350001335144043,-0.34999987483024597,-0.7177034020423889,0.0,0.0,0.0
1759838026.8123944,1,-1.7350001335144043,-0.34999987483024597,-0.7176994702253001,0.0,True,0.010699748992919922,-1.7350001335144043,-0.34999987483024597,-0.7177034020423889,0.0,0.0,0.0
1759838026.8229814,1,-1.7350001335144043,-0.34999987483024597,-0.7176996402534126,0.0,True,0.010586977005004883,-1.7350001335144043,-0.34999987483024597,-0.7177034020423889,0.0,0.0,0.0
1759838026.8337913,1,-1.7350001335144043,-0.34999987483024597,-0.7176997772550564,0.0,True,0.010809898376464844,-1.7350001335144043,-0.34999987483024597,-0.7177034020423889,0.0,0.0,0.0
1759838026.8447468,1,-1.7350001335144043,-0.34999987483024597,-0.7176998955213953,0.0,True,0.010955572128295898,-1.7350001335144043,-0.34999987483024597,-0.7177034020423889,0.0,0.0,0.0
1759838026.8550303,1,-1.7350001335144043,-0.34999987483024597,-0.7177000595256366,0.0,True,0.010283470153808594,-1.7350001335144043,-0.34999987483024597,-0.7177034020423889,0.0,0.0,0.0
1759838026.8657718,1,-1.7350001335144043,-0.34999987483024597,-0.7177001752580274,0.0,True,0.010741472244262695,-1.7350001335144043,-0.34999987483024597,-0.7177034020423889,0.0,0.0,0.0
1759838026.8768501,1,-1.7350001335144043,-0.34999987483024597,-0.7177002618302879,0.0,True,0.011078357696533203,-1.7350001335144043,-0.34999987483024597,-0.7177034020423889,0.0,0.0,0.0
1759838026.8880966,1,-1.7350001335144043,-0.34999987483024597,-0.7177003412562861,0.0,True,0.011246442794799805,-1.7350001335144043,-0.34999987483024597,-0.7177034020423889,0.0,0.0,0.0
1759838026.8982904,1,-1.7350001335144043,-0.34999987483024597,-0.7177004925448287,0.0,True,0.010193824768066406,-1.7350001335144043,-0.34999987483024597,-0.7177034020423889,0.0,0.0,0.0
1759838026.9089506,1,-1.7350001335144043,-0.34999987483024597,-0.7177006001840311,0.0,True,0.010660171508789062,-1.7350001335144043,-0.34999987483024597,-0.7177034020423889,0.0,0.0,0.0
1759838026.9202769,1,-1.7350001335144043,-0.34999987483024597,-0.717700660830431,0.0,True,0.011326313018798828,-1.7350001335144043,-0.34999987483024597,-0.7177034020423889,0.0,0.0,0.0
1759838026.930953,1,-1.7350001335144043,-0.34999987483024597,-0.7177007647790301,0.0,True,0.010676145553588867,-1.7350001335144043,-0.34999987483024597,-0.7177034020423889,0.0,0.0,0.0
1759838026.9412272,1,-1.7350001335144043,-0.34999987483024597,-0.7177008863167806,0.0,True,0.010274171829223633,-1.7350001335144043,-0.34999987483024597,-0.7177034020423889,0.0,0.0,0.0
1759838026.9523716,1,-1.7350001335144043,-0.34999987483024597,-0.7177009493726185,0.0,True,0.011144399642944336,-1.7350001335144043,-0.34999987483024597,-0.7177034020423889,0.0,0.0,0.0
1759838026.9631498,1,-1.7350001335144043,-0.34999987483024597,-0.7177010329361071,0.0,True,0.010778188705444336,-1.7350001335144043,-0.34999987483024597,-0.7177034020423889,0.0,0.0,0.0
1759838026.9796362,1,-1.7350001335144043,-0.34999987483024597,-0.7177008428757325,0.0,True,0.016486406326293945,-1.7350001335144043,-0.34999987483024597,-0.7177034020423889,0.0,0.0,0.0
1759838026.9902186,1,-1.7350001335144043,-0.34999987483024597,-0.7177010090872891,0.0,True,0.010582447052001953,-1.7350001335144043,-0.34999987483024597,-0.7177034020423889,0.0,0.0,0.0
1759838027.000811,1,-1.7350001335144043,-0.34999987483024597,-0.7177011662952726,0.0,True,0.010592460632324219,-1.7350001335144043,-0.34999987483024597,-0.7177034020423889,0.0,0.0,0.0
1759838027.0109494,1,-1.7350001335144043,-0.34999987483024597,-0.7177013152416318,0.0,True,0.010138273239135742,-1.7350001335144043,-0.34999987483024597,-0.7177034020423889,0.0,0.0,0.0
1759838027.0223603,1,-1.7350001335144043,-0.34999987483024597,-0.7177013845266664,0.0,True,0.011410951614379883,-1.7350001335144043,-0.34999987483024597,-0.7177034020423889,0.0,0.0,0.0
1759838027.0332701,1,-1.7350001335144043,-0.34999987483024597,-0.7177014687832646,0.0,True,0.010909795761108398,-1.7350001335144043,-0.34999987483024597,-0.7177034020423889,0.0,0.0,0.0
1759838027.044085,1,-1.7350001335144043,-0.34999987483024597,-0.7177015505562316,0.0,True,0.010814905166625977,-1.7350001335144043,-0.34999987483024597,-0.7177034020423889,0.0,0.0,0.0
1759838027.054317,1,-1.7350001335144043,-0.34999987483024597,-0.7177016465352004,0.0,True,0.010231971740722656,-1.7350001335144043,-0.34999987483024597,-0.7177034020423889,0.0,0.0,0.0
1759838027.06437,1,-1.7350001335144043,-0.34999987483024597,-0.7177017361695484,0.0,True,0.010052919387817383,-1.7350001335144043,-0.34999987483024597,-0.7177034020423889,0.0,0.0,0.0
1759838027.075386,1,-1.7350001335144043,-0.34999987483024597,-0.7177017791505786,0.0,True,0.011016130447387695,-1.7350001335144043,-0.34999987483024597,-0.7177034020423889,0.0,0.0,0.0
1759838027.0862541,1,-1.7350001335144043,-0.34999987483024597,-0.7177018270777911,0.0,True,0.010868072509765625,-1.7350001335144043,-0.34999987483024597,-0.7177034020423889,0.0,0.0,0.0
1759838027.097152,1,-1.7350001335144043,-0.34999987483024597,-0.7177018747560133,0.0,True,0.01089787483215332,-1.7350001335144043,-0.34999987483024597,-0.7177034020423889,0.0,0.0,0.0
1759838027.1082218,1,-1.7350001335144043,-0.34999987483024597,-0.7177019171790064,0.0,True,0.011069774627685547,-1.7350001335144043,-0.34999987483024597,-0.7177034020423889,0.0,0.0,0.0
1759838027.1188219,1,-1.7350001335144043,-0.34999987483024597,-0.7177019751316553,0.0,True,0.010600090026855469,-1.7350001335144043,-0.34999987483024597,-0.7177034020423889,0.0,0.0,0.0
1759838027.1302814,1,-1.7350001335144043,-0.34999987483024597,-0.7177020044807723,0.0,True,0.011459589004516602,-1.7350001335144043,-0.34999987483024597,-0.7177034020423889,0.0,0.0,0.0
1759838027.141184,1,-1.7350001335144043,-0.34999987483024597,-0.7177020532965859,0.0,True,0.010902643203735352,-1.7350001335144043,-0.34999987483024597,-0.7177034020423889,0.0,0.0,0.0
1759838027.1520853,1,-1.7350001335144043,-0.34999987483024597,-0.717702101389726,0.0,True,0.010901212692260742,-1.7350001335144043,-0.34999987483024597,-0.7177034020423889,0.0,0.0,0.0
1759838027.163639,1,-1.7350001335144043,-0.34999987483024597,-0.7177021302411788,0.0,True,0.011553764343261719,-1.7350001335144043,-0.34999987483024597,-0.7177034020423889,0.0,0.0,0.0
1759838027.1797786,1,-1.7350001335144043,-0.34999987483024597,-0.7177020486171344,0.0,True,0.016139507293701172,-1.7350001335144043,-0.34999987483024597,-0.7177034020423889,0.0,0.0,0.0
1759838027.184271,1,-1.7350001335144043,-0.34999987483024597,-0.7177022873726706,0.0,True,0.004492521286010742,-1.7350001335144043,-0.34999987483024597,-0.7177034020423889,0.0,0.0,0.0
1759838027.1954737,1,-1.7350001335144043,-0.34999987483024597,-0.7177023169458607,0.0,True,0.011202573776245117,-1.7350001335144043,-0.34999987483024597,-0.7177034020423889,0.0,0.0,0.0
1759838027.2070243,1,-1.7350001335144043,-0.34999987483024597,-0.7177023283378254,0.0,True,0.011550664901733398,-1.7350001335144043,-0.34999987483024597,-0.7177034020423889,0.0,0.0,0.0
1759838027.2173755,1,-1.7350001335144043,-0.34999987483024597,-0.7177023726206286,0.0,True,0.010351181030273438,-1.7350001335144043,-0.34999987483024597,-0.7177034020423889,0.0,0.0,0.0
1759838027.2278473,1,-1.7350001335144043,-0.34999987483024597,-0.7177024119434705,0.0,True,0.010471820831298828,-1.7350001335144043,-0.34999987483024597,-0.7177034020423889,0.0,0.0,0.0
1759838027.2383132,1,-1.7350001335144043,-0.34999987483024597,-0.7177024481357321,0.0,True,0.010465860366821289,-1.7350001335144043,-0.34999987483024597,-0.7177034020423889,0.0,0.0,0.0
1759838027.2489197,1,-1.7350001335144043,-0.34999987483024597,-0.7177024789725337,0.0,True,0.010606527328491211,-1.7350001335144043,-0.34999987483024597,-0.7177034020423889,0.0,0.0,0.0
1759838027.259611,1,-1.7350001335144043,-0.34999987483024597,-0.7177025069895464,0.0,True,0.010691165924072266,-1.7350001335144043,-0.34999987483024597,-0.7177034020423889,0.0,0.0,0.0
1759838027.2699509,1,-1.7350001335144043,-0.34999987483024597,-0.7177025412359122,0.0,True,0.010339975357055664,-1.7350001335144043,-0.34999987483024597,-0.7177034020423889,0.0,0.0,0.0
1759838027.2803578,1,-1.7350001335144043,-0.34999987483024597,-0.717702571909351,0.0,True,0.010406970977783203,-1.7350001335144043,-0.34999987483024597,-0.7177034020423889,0.0,0.0,0.0
1759838027.2913666,1,-1.7350001335144043,-0.34999987483024597,-0.7177025899726885,0.0,True,0.011008739471435547,-1.7350001335144043,-0.34999987483024597,-0.7177034020423889,0.0,0.0,0.0
1759838027.302934,1,-1.7350001335144043,-0.34999987483024597,-0.7177026002543219,0.0,True,0.011567354202270508,-1.7350001335144043,-0.34999987483024597,-0.7177034020423889,0.0,0.0,0.0
1759838027.3143668,1,-1.7350001335144043,-0.34999987483024597,-0.7177026175101009,0.0,True,0.011432886123657227,-1.7350001335144043,-0.34999987483024597,-0.7177034020423889,0.0,0.0,0.0
1759838027.3249793,1,-1.7350001335144043,-0.34999987483024597,-0.7177026508549833,0.0,True,0.01061248779296875,-1.7350001335144043,-0.34999987483024597,-0.7177034020423889,0.0,0.0,0.0
1759838027.3367453,1,-1.7350001335144043,-0.34999987483024597,-0.7177026645131548,0.0,True,0.01176595687866211,-1.7350001335144043,-0.34999987483024597,-0.7177034020423889,0.0,0.0,0.0
1759838027.3484254,1,-1.7350001335144043,-0.34999987483024597,-0.7177026820798371,0.0,True,0.011680126190185547,-1.7350001335144043,-0.34999987483024597,-0.7177034020423889,0.0,0.0,0.0
1759838027.3596523,1,-1.7350001335144043,-0.34999987483024597,-0.717702708530167,0.0,True,0.011226892471313477,-1.7350001335144043,-0.34999987483024597,-0.7177034020423889,0.0,0.0,0.0
1759838027.3697443,1,-1.7350001335144043,-0.34999987483024597,-0.7177027497669819,0.0,True,0.010092020034790039,-1.7350001335144043,-0.34999987483024597,-0.7177034020423889,0.0,0.0,0.0
1759838027.3812685,1,-1.7350001335144043,-0.34999987483024597,-0.7177027662283653,0.0,True,0.011524200439453125,-1.7350001335144043,-0.34999987483024597,-0.7177034020423889,0.0,0.0,0.0
1759838027.391432,1,-1.7350001335144043,-0.34999987483024597,-0.7177028000563759,0.0,True,0.010163545608520508,-1.7350001335144043,-0.34999987483024597,-0.7177034020423889,0.0,0.0,0.0
1759838027.4020343,1,-1.7350001335144043,-0.34999987483024597,-0.7177028245024406,0.0,True,0.010602235794067383,-1.7350001335144043,-0.34999987483024597,-0.7177034020423889,0.0,0.0,0.0
1759838027.412234,1,-1.7350001335144043,-0.34999987483024597,-0.7177028511041357,0.0,True,0.010199785232543945,-1.7350001335144043,-0.34999987483024597,-0.7177034020423889,0.0,0.0,0.0
1759838027.4228299,1,-1.7350001335144043,-0.34999987483024597,-0.7177028700400072,0.0,True,0.01059579849243164,-1.7350001335144043,-0.34999987483024597,-0.7177034020423889,0.0,0.0,0.0
1759838027.4331193,1,-1.7350001335144043,-0.34999987483024597,-0.7177028910911964,0.0,True,0.010289430618286133,-1.7350001335144043,-0.34999987483024597,-0.7177034020423889,0.0,0.0,0.0
1759838027.443403,1,-1.7350001335144043,-0.34999987483024597,-0.7177029104642347,0.0,True,0.010283708572387695,-1.7350001335144043,-0.34999987483024597,-0.7177034020423889,0.0,0.0,0.0
1759838027.4543924,1,-1.7350001335144043,-0.34999987483024597,-0.7177029208412478,0.0,True,0.01098942756652832,-1.7350001335144043,-0.34999987483024597,-0.7177034020423889,0.0,0.0,0.0
1759838027.465302,1,-1.7350001335144043,-0.34999987483024597,-0.7177029329909193,0.0,True,0.010909557342529297,-1.7350001335144043,-0.34999987483024597,-0.7177034020423889,0.0,0.0,0.0
1759838027.4758255,1,-1.7350001335144043,-0.34999987483024597,-0.7177029498002039,0.0,True,0.010523557662963867,-1.7350001335144043,-0.34999987483024597,-0.7177034020423889,0.0,0.0,0.0
1759838027.486003,1,-1.7350001335144043,-0.34999987483024597,-0.7177029691806318,0.0,True,0.010177373886108398,-1.7350001335144043,-0.34999987483024597,-0.7177034020423889,0.0,0.0,0.0
1759838027.4962187,1,-1.7350001335144043,-0.34999987483024597,-0.7177029862788622,0.0,True,0.01021575927734375,-1.7350001335144043,-0.34999987483024597,-0.7177034020423889,0.0,0.0,0.0
1759838027.507466,1,-1.7350001335144043,-0.34999987483024597,-0.717702992592006,0.0,True,0.011247396469116211,-1.7350001335144043,-0.34999987483024597,-0.7177034020423889,0.0,0.0,0.0
1759838027.5177422,1,-1.7350001335144043,-0.34999987483024597,-0.7177030087440741,0.0,True,0.010276079177856445,-1.7350001335144043,-0.34999987483024597,-0.7177034020423889,0.0,0.0,0.0
1759838027.5290189,1,-1.7350001335144043,-0.34999987483024597,-0.7177030157874391,0.0,True,0.011276721954345703,-1.7350001335144043,-0.34999987483024597,-0.7177034020423889,0.0,0.0,0.0
1759838027.5398326,1,-1.7350001335144043,-0.34999987483024597,-0.7177030277438341,0.0,True,0.010813713073730469,-1.7350001335144043,-0.34999987483024597,-0.7177034020423889,0.0,0.0,0.0
1759838027.5509346,1,-1.7350001335144043,-0.34999987483024597,-0.7177030377033624,0.0,True,0.011101961135864258,-1.7350001335144043,-0.34999987483024597,-0.7177034020423889,0.0,0.0,0.0
1759838027.5614314,1,-1.7350001335144043,-0.34999987483024597,-0.7177030526189512,0.0,True,0.010496854782104492,-1.7350001335144043,-0.34999987483024597,-0.7177034020423889,0.0,0.0,0.0
1759838027.571753,1,-1.7350001335144043,-0.34999987483024597,-0.7177030677585297,0.0,True,0.010321617126464844,-1.7350001335144043,-0.34999987483024597,-0.7177034020423889,0.0,0.0,0.0
1759838027.5825438,1,-1.7350001335144043,-0.34999987483024597,-0.7177030780527662,0.0,True,0.010790824890136719,-1.7350001335144043,-0.34999987483024597,-0.7177034020423889,0.0,0.0,0.0
1759838027.59318,1,-1.7350001335144043,-0.34999987483024597,-0.7177030890618354,0.0,True,0.010636091232299805,-1.7350001335144043,-0.34999987483024597,-0.7177034020423889,0.0,0.0,0.0
1759838027.6045375,1,-1.7350001335144043,-0.34999987483024597,-0.717703095005124,0.0,True,0.011357545852661133,-1.7350001335144043,-0.34999987483024597,-0.7177034020423889,0.0,0.0,0.0
1759838027.6156049,1,-1.7350001335144043,-0.34999987483024597,-0.7177031037998134,0.0,True,0.011067390441894531,-1.7350001335144043,-0.34999987483024597,-0.7177034020423889,0.0,0.0,0.0
1759838027.626141,1,-1.7350001335144043,-0.34999987483024597,-0.7177031162336291,0.0,True,0.01053619384765625,-1.7350001335144043,-0.34999987483024597,-0.7177034020423889,0.0,0.0,0.0
1759838027.636248,1,-1.7350001335144043,-0.34999987483024597,-0.7177031302519499,0.0,True,0.010107040405273438,-1.7350001335144043,-0.34999987483024597,-0.7177034020423889,0.0,0.0,0.0
1759838027.6474075,1,-1.7350001335144043,-0.34999987483024597,-0.7177031365240438,0.0,True,0.011159420013427734,-1.7350001335144043,-0.34999987483024597,-0.7177034020423889,0.0,0.0,0.0
1759838027.657936,1,-1.7350001335144043,-0.34999987483024597,-0.7177031465324024,0.0,True,0.010528564453125,-1.7350001335144043,-0.34999987483024597,-0.7177034020423889,0.0,0.0,0.0
1759838027.6688123,1,-1.7350001335144043,-0.34999987483024597,-0.7177031542298025,0.0,True,0.010876178741455078,-1.7350001335144043,-0.34999987483024597,-0.7177034020423889,0.0,0.0,0.0
1759838027.67995,1,-1.7350001335144043,-0.34999987483024597,-0.7177031605062041,0.0,True,0.011137723922729492,-1.7350001335144043,-0.34999987483024597,-0.7177034020423889,0.0,0.0,0.0
1759838027.690578,1,-1.7350001335144043,-0.34999987483024597,-0.7177031697015472,0.0,True,0.010627985000610352,-1.7350001335144043,-0.34999987483024597,-0.7177034020423889,0.0,0.0,0.0
1759838027.7008083,1,-1.7350001335144043,-0.34999987483024597,-0.7177031803351568,0.0,True,0.010230302810668945,-1.7350001335144043,-0.34999987483024597,-0.7177034020423889,0.0,0.0,0.0
1759838027.7118847,1,-1.7350001335144043,-0.34999987483024597,-0.7177031858900058,0.0,True,0.01107645034790039,-1.7350001335144043,-0.34999987483024597,-0.7177034020423889,0.0,0.0,0.0
1759838027.7233052,1,-1.7350001335144043,-0.34999987483024597,-0.7177031900687396,0.0,True,0.011420488357543945,-1.7350001335144043,-0.34999987483024597,-0.7177034020423889,0.0,0.0,0.0
1759838027.7341955,1,-1.7350001335144043,-0.34999987483024597,-0.7177031973484915,0.0,True,0.01089024543762207,-1.7350001335144043,-0.34999987483024597,-0.7177034020423889,0.0,0.0,0.0
1759838027.7448244,1,-1.7350001335144043,-0.34999987483024597,-0.717703205649622,0.0,True,0.010628938674926758,-1.7350001335144043,-0.34999987483024597,-0.7177034020423889,0.0,0.0,0.0
1759838027.7550592,1,-1.7350001335144043,-0.34999987483024597,-0.7177032149015865,0.0,True,0.010234832763671875,-1.7350001335144043,-0.34999987483024597,-0.7177034020423889,0.0,0.0,0.0
1759838027.7653623,1,-1.7350001335144043,-0.34999987483024597,-0.717703222798681,0.0,True,0.010303020477294922,-1.7350001335144043,-0.34999987483024597,-0.7177034020423889,0.0,0.0,0.0
1759838027.7755342,1,-1.7350001335144043,-0.34999987483024597,-0.7177032303188682,0.0,True,0.010171890258789062,-1.7350001335144043,-0.34999987483024597,-0.7177034020423889,0.0,0.0,0.0
1759838027.788112,1,-1.7350001335144043,-0.34999987483024597,-0.7177032283151146,0.0,True,0.01257777214050293,-1.7350001335144043,-0.34999987483024597,-0.7177034020423889,0.0,0.0,0.0
1759838027.798269,1,-1.7350001335144043,-0.34999987483024597,-0.7177032368454839,0.0,True,0.010157108306884766,-1.7350001335144043,-0.34999987483024597,-0.7177034020423889,0.0,0.0,0.0
1759838027.8082862,1,-1.7350001335144043,-0.34999987483024597,-0.7177032453150165,0.0,True,0.010017156600952148,-1.7350001335144043,-0.34999987483024597,-0.7177034020423889,0.0,0.0,0.0
1759838027.8184156,1,-1.7350001335144043,-0.34999987483024597,-0.7177032522011224,0.0,True,0.010129451751708984,-1.7350001335144043,-0.34999987483024597,-0.7177034020423889,0.0,0.0,0.0
1759838027.8298829,1,-1.7350001335144043,-0.34999987483024597,-0.7177032539703632,0.0,True,0.011467218399047852,-1.7350001335144043,-0.34999987483024597,-0.7177034020423889,0.0,0.0,0.0
1759838027.8400784,1,-1.7350001335144043,-0.34999987483024597,-0.7177032603223346,0.0,True,0.010195493698120117,-1.7350001335144043,-0.34999987483024597,-0.7177034020423889,0.0,0.0,0.0
1759838027.8503244,1,-1.7350001335144043,-0.34999987483024597,-0.7177032661096749,0.0,True,0.010246038436889648,-1.7350001335144043,-0.34999987483024597,-0.7177034020423889,0.0,0.0,0.0
1759838027.8610485,1,-1.7350001335144043,-0.34999987483024597,-0.7177032699414703,0.0,True,0.010724067687988281,-1.7350001335144043,-0.34999987483024597,-0.7177034020423889,0.0,0.0,0.0
1759838027.8720765,1,-1.7350001335144043,-0.34999987483024597,-0.7177032728965997,0.0,True,0.011028051376342773,-1.7350001335144043,-0.34999987483024597,-0.7177034020423889,0.0,0.0,0.0
1759838027.8828099,1,-1.7350001335144043,-0.34999987483024597,-0.717703276955822,0.0,True,0.010733366012573242,-1.7350001335144043,-0.34999987483024597,-0.7177034020423889,0.0,0.0,0.0
1759838027.8929868,1,-1.7350001335144043,-0.34999987483024597,-0.717703282470401,0.0,True,0.010176897048950195,-1.7350001335144043,-0.34999987483024597,-0.7177034020423889,0.0,0.0,0.0
1759838027.903146,1,-1.7350001335144043,-0.34999987483024597,-0.7177032874955493,0.0,True,0.01015925407409668,-1.7350001335144043,-0.34999987483024597,-0.7177034020423889,0.0,0.0,0.0
1759838027.9141326,1,-1.7350001335144043,-0.34999987483024597,-0.7177032899625004,0.0,True,0.010986566543579102,-1.7350001335144043,-0.34999987483024597,-0.7177034020423889,0.0,0.0,0.0
1759838027.9244978,1,-1.7350001335144043,-0.34999987483024597,-0.7177032940825221,0.0,True,0.01036524772644043,-1.7350001335144043,-0.34999987483024597,-0.7177034020423889,0.0,0.0,0.0
1759838027.9354768,1,-1.7350001335144043,-0.34999987483024597,-0.7177032966257393,0.0,True,0.010978937149047852,-1.7350001335144043,-0.34999987483024597,-0.7177034020423889,0.0,0.0,0.0
1759838027.9462879,1,-1.7350001335144043,-0.34999987483024597,-0.717703299701391,0.0,True,0.010811090469360352,-1.7350001335144043,-0.34999987483024597,-0.7177034020423889,0.0,0.0,0.0
1759838027.9565878,1,-1.7350001335144043,-0.34999987483024597,-0.7177033039356608,0.0,True,0.010299921035766602,-1.7350001335144043,-0.34999987483024597,-0.7177034020423889,0.0,0.0,0.0
1759838027.967379,1,-1.7350001335144043,-0.34999987483024597,-0.7177033068230827,0.0,True,0.010791301727294922,-1.7350001335144043,-0.34999987483024597,-0.7177034020423889,0.0,0.0,0.0
1759838027.978465,1,-1.7350001335144043,-0.34999987483024597,-0.7177033090813083,0.0,True,0.011085987091064453,-1.7350001335144043,-0.34999987483024597,-0.7177034020423889,0.0,0.0,0.0
1759838027.990113,1,-1.7350001335144043,-0.34999987483024597,-0.7177033104676962,0.0,True,0.011647939682006836,-1.7350001335144043,-0.34999987483024597,-0.7177034020423889,0.0,0.0,0.0
1759838028.001455,1,-1.7350001335144043,-0.34999987483024597,-0.7177033129197525,0.0,True,0.011342048645019531,-1.7350001335144043,-0.34999987483024597,-0.7177034020423889,0.0,0.0,0.0
1759838028.011618,1,-1.7350001335144043,-0.34999987483024597,-0.7177033176899137,0.0,True,0.010162830352783203,-1.7350001335144043,-0.34999987483024597,-0.7177034020423889,0.0,0.0,0.0
1759838028.0225918,1,-1.7350001335144043,-0.34999987483024597,-0.7177033204980567,0.0,True,0.010973930358886719,-1.7350001335144043,-0.34999987483024597,-0.7177034020423889,0.0,0.0,0.0
1759838028.0332084,1,-1.7350001335144043,-0.34999987483024597,-0.7177033237303583,0.0,True,0.010616540908813477,-1.7350001335144043,-0.34999987483024597,-0.7177034020423889,0.0,0.0,0.0
1759838028.04419,1,-1.7350001335144043,-0.34999987483024597,-0.7177033261523498,0.0,True,0.010981559753417969,-1.7350001335144043,-0.34999987483024597,-0.7177034020423889,0.0,0.0,0.0
1759838028.0549147,1,-1.7350001335144043,-0.34999987483024597,-0.7177033289300425,0.0,True,0.010724782943725586,-1.7350001335144043,-0.34999987483024597,-0.7177034020423889,0.0,0.0,0.0
1759838028.0659463,1,-1.7350001335144043,-0.34999987483024597,-0.7177033311177805,0.0,True,0.011031627655029297,-1.7350001335144043,-0.34999987483024597,-0.7177034020423889,0.0,0.0,0.0
1759838028.0763695,1,-1.7350001335144043,-0.34999987483024597,-0.7177033341806478,0.0,True,0.01042318344116211,-1.7350001335144043,-0.34999987483024597,-0.7177034020423889,0.0,0.0,0.0
1759838028.08664,1,-1.7350001335144043,-0.34999987483024597,-0.7177033371950312,0.0,True,0.010270357131958008,-1.7350001335144043,-0.34999987483024597,-0.7177034020423889,0.0,0.0,0.0
1759838028.0967,1,-1.7350001335144043,-0.34999987483024597,-0.717703340155829,0.0,True,0.01006007194519043,-1.7350001335144043,-0.34999987483024597,-0.7177034020423889,0.0,0.0,0.0
1759838028.1079175,1,-1.7350001335144043,-0.34999987483024597,-0.717703341234678,0.0,True,0.011217594146728516,-1.7350001335144043,-0.34999987483024597,-0.7177034020423889,0.0,0.0,0.0
1759838028.119459,1,-1.7350001335144043,-0.34999987483024597,-0.7177033420773782,0.0,True,0.011541366577148438,-1.7350001335144043,-0.34999987483024597,-0.7177034020423889,0.0,0.0,0.0
1759838028.1302738,1,-1.7350001335144043,-0.34999987483024597,-0.7177033441583429,0.0,True,0.010814905166625977,-1.7350001335144043,-0.34999987483024597,-0.7177034020423889,0.0,0.0,0.0
1759838028.1410148,1,-1.7350001335144043,-0.34999987483024597,-0.7177033463181886,0.0,True,0.010740995407104492,-1.7350001335144043,-0.34999987483024597,-0.7177034020423889,0.0,0.0,0.0
1759838028.1510193,1,-1.7350001335144043,-0.34999987483024597,-0.717703349192444,0.0,True,0.010004520416259766,-1.7350001335144043,-0.34999987483024597,-0.7177034020423889,0.0,0.0,0.0
1759838028.1615534,1,-1.7350001335144043,-0.34999987483024597,-0.7177033511081419,0.0,True,0.010534048080444336,-1.7350001335144043,-0.34999987483024597,-0.7177034020423889,0.0,0.0,0.0
1759838028.171727,1,-1.7350001335144043,-0.34999987483024597,-0.7177033532411627,0.0,True,0.010173559188842773,-1.7350001335144043,-0.34999987483024597,-0.7177034020423889,0.0,0.0,0.0
1759838028.1867979,1,-1.7350001335144043,-0.34999987483024597,-0.7177033501609014,0.0,True,0.015070915222167969,-1.7350001335144043,-0.34999987483024597,-0.7177034020423889,0.0,0.0,0.0
1759838028.1943104,1,-1.7350001335144043,-0.34999987483024597,-0.7177033559162957,0.0,True,0.007512569427490234,-1.7350001335144043,-0.34999987483024597,-0.7177034020423889,0.0,0.0,0.0
1759838028.2046108,1,-1.7350001335144043,-0.34999987483024597,-0.7177033580334573,0.0,True,0.010300397872924805,-1.7350001335144043,-0.34999987483024597,-0.7177034020423889,0.0,0.0,0.0
1759838028.2148345,1,-1.7350001335144043,-0.34999987483024597,-0.7177033597667943,0.0,True,0.010223627090454102,-1.7350001335144043,-0.34999987483024597,-0.7177034020423889,0.0,0.12114177732865272,0.0
1759838028.225717,1,-1.7350001335144043,-0.34999987483024597,-0.7177033607315195,0.0,True,0.01088261604309082,-1.7350001335144043,-0.34999987483024597,-0.7177034020423889,0.0,0.12114177732865272,0.0
1759838028.236032,1,-1.7350001335144043,-0.34999987483024597,-0.7177033622476277,0.0,True,0.01031494140625,-1.7350001335144043,-0.34999987483024597,-0.7177034020423889,0.0,0.12114177732865272,0.0
1759838028.247377,1,-1.7350001335144043,-0.34999987483024597,-0.7177033628237695,0.0,True,0.01134490966796875,-1.7350001335144043,-0.34999987483024597,-0.7177034020423889,0.0,0.12114177732865272,0.0
1759838028.257957,1,-1.7350001335144043,-0.34999987483024597,-0.7177033641892407,0.0,True,0.010580062866210938,-1.7350001335144043,-0.34999987483024597,-0.7177034020423889,0.0,0.12114177732865272,0.0
1759838028.2680216,1,-1.7350001335144043,-0.34999987483024597,-0.717703365941297,0.0,True,0.01006460189819336,-1.7350001335144043,-0.34999987483024597,-0.7177034020423889,0.0,0.12114177732865272,0.0
1759838028.2795305,1,-1.7350001335144043,-0.34999987483024597,-0.7177033663996824,0.0,True,0.011508941650390625,-1.7350001335144043,-0.34999987483024597,-0.7177034020423889,0.0,0.12114177732865272,0.0
1759838028.2903,1,-1.7350001335144043,-0.34999987483024597,-0.7177033675559272,0.0,True,0.010769367218017578,-1.7350001335144043,-0.34999987483024597,-0.7177034020423889,0.0,0.12114177732865272,0.0
1759838028.3015342,1,-1.7350001335144043,-0.34999987483024597,-0.7177033684001497,0.0,True,0.011234283447265625,-1.7350001335144043,-0.34999987483024597,-0.7177034020423889,0.0,0.12114177732865272,0.0
1759838028.3120635,1,-1.7350001335144043,-0.34999987483024597,-0.7177033697899198,0.0,True,0.010529279708862305,-1.7350001335144043,-0.34999987483024597,-0.7177034020423889,0.0,0.12114177732865272,0.0
1759838028.3230405,1,-1.7350001335144043,-0.34999987483024597,-0.7177033707914973,0.0,True,0.010977029800415039,-1.7350001335144043,-0.34999987483024597,-0.7177034020423889,0.0,0.12114177732865272,0.0
1759838028.3340235,1,-1.7350001335144043,-0.34999987483024597,-0.717703371768101,0.0,True,0.010982990264892578,-1.7350001335144043,-0.34999987483024597,-0.7177034020423889,0.0,0.12114177732865272,0.0
1759838028.3446403,1,-1.7350001335144043,-0.34999987483024597,-0.7177033729673177,0.0,True,0.010616779327392578,-1.7350001335144043,-0.34999987483024597,-0.7177034020423889,0.0,0.12114177732865272,0.0
1759838028.3560925,1,-1.7350001335144043,-0.34999987483024597,-0.717703373590826,0.0,True,0.011452198028564453,-1.7350001335144043,-0.34999987483024597,-0.7177034020423889,0.0,0.12114177732865272,0.0
1759838028.3665116,1,-1.7350001335144043,-0.34999987483024597,-0.7177033748770967,0.0,True,0.010419130325317383,-1.7350001335144043,-0.34999987483024597,-0.7177034020423889,0.0,0.12114177732865272,0.0
1759838028.3777852,1,-1.7350001335144043,-0.34999987483024597,-0.717703375584998,0.0,True,0.011273622512817383,-1.7350001335144043,-0.34999987483024597,-0.7177034020423889,0.0,0.12114177732865272,0.0
1759838028.3938367,1,-1.7350001335144043,-0.34999987483024597,-0.7177033738047385,0.0,True,0.016051530838012695,-1.7350001335144043,-0.34999987483024597,-0.7177034020423889,0.0,0.12114177732865272,0.0
1759838028.4049573,1,-1.7350001335144043,-0.34999987483024597,-0.717703375378056,0.0,True,0.01112055778503418,-1.7350001335144043,-0.34999987483024597,-0.7177034020423889,0.0,0.12114177732865272,0.0
1759838028.4151256,1,-1.7350001335144043,-0.34999987483024597,-0.7177033773826444,0.0,True,0.010168313980102539,-1.7350001335144043,-0.34999987483024597,-0.7177034020423889,0.0,0.12114177732865272,0.0
1759838028.4266412,1,-1.7350001335144043,-0.34999987483024597,-0.7177033783869291,0.0,True,0.011515617370605469,-1.7350001335144043,-0.34999987483024597,-0.7177034020423889,0.0,0.12114177732865272,0.0
1759838028.4375203,1,-1.7350001335144043,-0.34999987483024597,-0.7177033795608985,0.0,True,0.010879039764404297,-1.7350001335144043,-0.34999987483024597,-0.7177034020423889,0.0,0.12114177732865272,0.0
1759838028.4484723,1,-1.7350001335144043,-0.34999987483024597,-0.7177033805706419,0.0,True,0.010951995849609375,-1.7350001335144043,-0.34999987483024597,-0.7177034020423889,0.0,0.12114177732865272,0.0
1759838028.4584873,1,-1.7350001335144043,-0.34999987483024597,-0.7177033818656557,0.0,True,0.010015010833740234,-1.7350001335144043,-0.34999987483024597,-0.7177034020423889,0.0,0.12114177732865272,0.0
1759838028.4692595,1,-1.7350001335144043,-0.34999987483024597,-0.7177033826473362,0.0,True,0.010772228240966797,-1.7350001335144043,-0.34999987483024597,-0.7177034020423889,0.0,0.12114177732865272,0.0
1759838028.480721,1,-1.7350001335144043,-0.34999987483024597,-0.7177033830724717,0.0,True,0.011461496353149414,-1.7350001335144043,-0.34999987483024597,-0.7177034020423889,0.0,0.12114177732865272,0.0
1759838028.491182,1,-1.7350001335144043,-0.34999987483024597,-0.7177033839215099,0.0,True,0.010461091995239258,-1.7350001335144043,-0.34999987483024597,-0.7177034020423889,0.0,0.12114177732865272,0.0
1759838028.5019393,1,-1.7350001335144043,-0.34999987483024597,-0.7177033845913954,0.0,True,0.010757207870483398,-1.7350001335144043,-0.34999987483024597,-0.7177034020423889,0.0,0.12114177732865272,0.0
1759838028.5121317,1,-1.7350001335144043,-0.34999987483024597,-0.7177033854124026,0.0,True,0.010192394256591797,-1.7350001335144043,-0.34999987483024597,-0.7177034020423889,0.0,0.12114177732865272,0.0
1759838028.5226872,1,-1.7350001335144043,-0.34999987483024597,-0.7177033860125199,0.0,True,0.010555505752563477,-1.7350001335144043,-0.34999987483024597,-0.7177034020423889,0.0,0.12114177732865272,0.0
1759838028.5337877,1,-1.7350001335144043,-0.34999987483024597,-0.7177033863815296,0.0,True,0.011100530624389648,-1.7350001335144043,-0.34999987483024597,-0.7177034020423889,0.0,0.12114177732865272,0.0
1759838028.5450552,1,-1.7350001335144043,-0.34999987483024597,-0.7177033867237359,0.0,True,0.011267423629760742,-1.7350001335144043,-0.34999987483024597,-0.7177034020423889,0.0,0.12114177732865272,0.0
1759838028.555061,1,-1.7350001335144043,-0.34999987483024597,-0.717703387505896,0.0,True,0.010005950927734375,-1.7350001335144043,-0.34999987483024597,-0.7177034020423889,0.0,0.12114177732865272,0.0
1759838028.5662448,1,-1.7350001335144043,-0.34999987483024597,-0.7177033878443346,0.0,True,0.011183738708496094,-1.7350001335144043,-0.34999987483024597,-0.7177034020423889,0.0,0.12114177732865272,0.0
1759838028.5769622,1,-1.7350001335144043,-0.34999987483024597,-0.7177033883304134,0.0,True,0.010717391967773438,-1.7350001335144043,-0.34999987483024597,-0.7177034020423889,0.0,0.12114177732865272,0.0
1759838028.5878508,1,-1.7350001335144043,-0.34999987483024597,-0.7177033887570055,0.0,True,0.01088857650756836,-1.7350001335144043,-0.34999987483024597,-0.7177034020423889,0.0,0.12114177732865272,0.0
1759838028.5984418,1,-1.7350001335144043,-0.34999987483024597,-0.7177033892583431,0.0,True,0.01059103012084961,-1.7350001335144043,-0.34999987483024597,-0.7177034020423889,0.0,0.12114177732865272,0.0
1759838028.6093276,1,-1.7350001335144043,-0.34999987483024597,-0.7177033896517422,0.0,True,0.01088571548461914,-1.7350001335144043,-0.34999987483024597,-0.7177034020423889,0.0,0.12114177732865272,0.0
1759838028.6206772,1,-1.7350001335144043,-0.34999987483024597,-0.7177033899198655,0.0,True,0.011349678039550781,-1.7350001335144043,-0.34999987483024597,-0.7177034020423889,0.0,0.12114177732865272,0.0
1759838028.6314654,1,-1.7350001335144043,-0.34999987483024597,-0.7177033903594534,0.0,True,0.010788202285766602,-1.7350001335144043,-0.34999987483024597,-0.7177034020423889,0.0,0.12114177732865272,0.0
1759838028.641512,1,-1.7350001335144043,-0.34999987483024597,-0.717703390961816,0.0,True,0.01004648208618164,-1.7350001335144043,-0.34999987483024597,-0.7177034020423889,0.0,0.12114177732865272,0.0
1759838028.6529138,1,-1.7350001335144043,-0.34999987483024597,-0.7177033911747799,0.0,True,0.011401891708374023,-1.7350001335144043,-0.34999987483024597,-0.7177034020423889,0.0,0.12114177732865272,0.0
1759838028.663704,1,-1.7350001335144043,-0.34999987483024597,-0.717703391546646,0.0,True,0.010790109634399414,-1.7350001335144043,-0.34999987483024597,-0.7177034020423889,0.0,0.12114177732865272,0.0
1759838028.6747625,1,-1.7350001335144043,-0.34999987483024597,-0.7177033918563964,0.0,True,0.011058568954467773,-1.7350001335144043,-0.34999987483024597,-0.7177034020423889,0.0,0.12114177732865272,0.0
1759838028.6849108,1,-1.7350001335144043,-0.34999987483024597,-0.7177033923563236,0.0,True,0.010148286819458008,-1.7350001335144043,-0.34999987483024597,-0.7177034020423889,0.0,0.12114177732865272,0.0
1759838028.6956642,1,-1.7350001335144043,-0.34999987483024597,-0.7177033926787431,0.0,True,0.010753393173217773,-1.7350001335144043,-0.34999987483024597,-0.7177034020423889,0.0,0.12114177732865272,0.0
1759838028.7065516,1,-1.7350001335144043,-0.34999987483024597,-0.7177033929552046,0.0,True,0.010887384414672852,-1.7350001335144043,-0.34999987483024597,-0.7177034020423889,0.0,0.12114177732865272,0.0
1759838028.7188935,1,-1.7350001335144043,-0.34999987483024597,-0.7177033929610399,0.0,True,0.012341976165771484,-1.7350001335144043,-0.34999987483024597,-0.7177034020423889,0.0,0.12114177732865272,0.0
1759838028.7290635,1,-1.7350001335144043,-0.34999987483024597,-0.7177033934425712,0.0,True,0.01016998291015625,-1.7350001335144043,-0.34999987483024597,-0.7177034020423889,0.0,0.12114177732865272,0.0
1759838028.7391639,1,-1.7350001335144043,-0.34999987483024597,-0.717703393892684,0.0,True,0.010100364685058594,-1.7350001335144043,-0.34999987483024597,-0.7177034020423889,0.0,0.12114177732865272,0.0
1759838028.7499003,1,-1.7350001335144043,-0.34999987483024597,-0.7177033941680673,0.0,True,0.010736465454101562,-1.7350001335144043,-0.34999987483024597,-0.7177034020423889,0.0,0.12114177732865272,0.0
1759838028.7615035,1,-1.7350001335144043,-0.34999987483024597,-0.7177033942827844,0.0,True,0.011603116989135742,-1.7350001335144043,-0.34999987483024597,-0.7177034020423889,0.0,0.12114177732865272,0.0
1759838028.7721756,1,-1.7350001335144043,-0.34999987483024597,-0.7177033945803224,0.0,True,0.01067209243774414,-1.7350001335144043,-0.34999987483024597,-0.7177034020423889,0.0,0.12114177732865272,0.0
1759838028.782272,1,-1.7350001335144043,-0.34999987483024597,-0.7177033949550413,0.0,True,0.010096549987792969,-1.7350001335144043,-0.34999987483024597,-0.7177034020423889,0.0,0.12114177732865272,0.0
1759838028.7976003,1,-1.7350001335144043,-0.34999987483024597,-0.7177033945206972,0.0,True,0.015328168869018555,-1.7350001335144043,-0.34999987483024597,-0.7177034020423889,0.0,0.12114177732865272,0.0
1759838028.8092883,1,-1.7350001335144043,-0.34999987483024597,-0.7177033947961089,0.0,True,0.011687994003295898,-1.7350001335144043,-0.34999987483024597,-0.7177034020423889,0.0,0.12114177732865272,0.0
1759838028.8194962,1,-1.7350001335144043,-0.34999987483024597,-0.7177033953018501,0.0,True,0.010207891464233398,-1.7350001335144043,-0.34999987483024597,-0.7177034020423889,0.0,0.12114177732865272,0.0
1759838028.8303192,1,-1.7350001335144043,-0.34999987483024597,-0.7177033956464509,0.0,True,0.01082301139831543,-1.7350001335144043,-0.34999987483024597,-0.7177034020423889,0.0,0.12114177732865272,0.0
1759838028.8406885,1,-1.7350001335144043,-0.34999987483024597,-0.7177033959947003,0.0,True,0.010369300842285156,-1.7350001335144043,-0.34999987483024597,-0.7177034020423889,0.0,0.12114177732865272,0.0
1759838028.8514435,1,-1.7350001335144043,-0.34999987483024597,-0.717703396244902,0.0,True,0.010755062103271484,-1.7350001335144043,-0.34999987483024597,-0.7177034020423889,0.0,0.12114177732865272,0.0
1759838028.8617353,1,-1.7350001335144043,-0.34999987483024597,-0.7177033965221895,0.0,True,0.010291814804077148,-1.7350001335144043,-0.34999987483024597,-0.7177034020423889,0.0,0.12114177732865272,0.0
1759838028.87234,1,-1.7350001335144043,-0.34999987483024597,-0.7177033967302044,0.0,True,0.010604619979858398,-1.7350001335144043,-0.34999987483024597,-0.7177034020423889,0.0,0.12114177732865272,0.0
1759838028.8831122,1,-1.7350001335144043,-0.34999987483024597,-0.7177033969014381,0.0,True,0.010772228240966797,-1.7350001335144043,-0.34999987483024597,-0.7177034020423889,0.0,0.12114177732865272,0.0
1759838028.894258,1,-1.7350001335144043,-0.34999987483024597,-0.7177033970270408,0.0,True,0.011145830154418945,-1.7350001335144043,-0.34999987483024597,-0.7177034020423889,0.0,0.12114177732865272,0.0
1759838028.9045742,1,-1.7350001335144043,-0.34999987483024597,-0.7177033972460567,0.0,True,0.010316133499145508,-1.7350001335144043,-0.34999987483024597,-0.7177034020423889,0.0,0.12114177732865272,0.0
1759838028.9149501,1,-1.7350001335144043,-0.34999987483024597,-0.7177033974405838,0.0,True,0.0103759765625,-1.7350001335144043,-0.34999987483024597,-0.7177034020423889,0.0,0.12114177732865272,0.0
1759838028.9255137,1,-1.7350001335144043,-0.34999987483024597,-0.7177033975977434,0.0,True,0.01056361198425293,-1.7350001335144043,-0.34999987483024597,-0.7177034020423889,0.0,0.12114177732865272,0.0
1759838028.935773,1,-1.7350001335144043,-0.34999987483024597,-0.7177033977740255,0.0,True,0.010259151458740234,-1.7350001335144043,-0.34999987483024597,-0.7177034020423889,0.0,0.12114177732865272,0.0
1759838028.9459834,1,-1.7350001335144043,-0.34999987483024597,-0.7177033979398999,0.0,True,0.010210514068603516,-1.7350001335144043,-0.34999987483024597,-0.7177034020423889,0.0,0.12114177732865272,0.0
1759838028.9568424,1,-1.7350001335144043,-0.34999987483024597,-0.7177033980339704,0.0,True,0.010859012603759766,-1.7350001335144043,-0.34999987483024597,-0.7177034020423889,0.0,0.12114177732865272,0.0
1759838028.9669855,1,-1.7350001335144043,-0.34999987483024597,-0.717703398193823,0.0,True,0.010143041610717773,-1.7350001335144043,-0.34999987483024597,-0.7177034020423889,0.0,0.12114177732865272,0.0
1759838028.9774623,1,-1.7350001335144043,-0.34999987483024597,-0.7177033983150025,0.0,True,0.010476827621459961,-1.7350001335144043,-0.34999987483024597,-0.7177034020423889,0.0,0.12114177732865272,0.0
1759838028.9883215,1,-1.7350001335144043,-0.34999987483024597,-0.717703398400575,0.0,True,0.010859251022338867,-1.7350001335144043,-0.34999987483024597,-0.7177034020423889,0.0,0.12114177732865272,0.0
1759838029.002029,1,-1.7350001335144043,-0.34999987483024597,-0.7177033982762531,0.0,True,0.013707399368286133,-1.7350001335144043,-0.34999987483024597,-0.7177034020423889,0.0,0.12114177732865272,0.0
1759838029.0125902,1,-1.7350001335144043,-0.34999987483024597,-0.7177033984571093,0.0,True,0.010561227798461914,-1.7350001335144043,-0.34999987483024597,-0.7177034020423889,0.0,0.12114177732865272,0.0
1759838029.0235422,1,-1.7350001335144043,-0.34999987483024597,-0.71770339860592,0.0,True,0.010951995849609375,-1.7350001335144043,-0.34999987483024597,-0.7177034020423889,0.0,0.12114177732865272,0.0
1759838029.0338702,1,-1.7350001335144043,-0.34999987483024597,-0.7177033987835966,0.0,True,0.010328054428100586,-1.7350001335144043,-0.34999987483024597,-0.7177034020423889,0.0,0.12114177732865272,0.0
1759838029.0438752,1,-1.7350001335144043,-0.34999987483024597,-0.7177033989595998,0.0,True,0.010004997253417969,-1.7350001335144043,-0.34999987483024597,-0.7177034020423889,0.0,0.12114177732865272,0.0
1759838029.0553985,1,-1.7350001335144043,-0.34999987483024597,-0.7177033990115795,0.0,True,0.011523246765136719,-1.7350001335144043,-0.34999987483024597,-0.7177034020423889,0.0,0.12114177732865272,0.0
1759838029.066405,1,-1.7350001335144043,-0.34999987483024597,-0.7177033991037973,0.0,True,0.011006593704223633,-1.7350001335144043,-0.34999987483024597,-0.7177034020423889,0.0,0.12114177732865272,0.0
1759838029.0776045,1,-1.7350001335144043,-0.34999987483024597,-0.717703399187446,0.0,True,0.011199474334716797,-1.7350001335144043,-0.34999987483024597,-0.7177034020423889,0.0,0.12114177732865272,0.0
1759838029.0882,1,-1.7350001335144043,-0.34999987483024597,-0.7177033993082809,0.0,True,0.010595560073852539,-1.7350001335144043,-0.34999987483024597,-0.7177034020423889,0.0,0.12114177732865272,0.0
1759838029.0986807,1,-1.7350001335144043,-0.34999987483024597,-0.7177033994262452,0.0,True,0.010480642318725586,-1.7350001335144043,-0.34999987483024597,-0.7177034020423889,0.0,0.12114177732865272,0.0
1759838029.1094692,1,-1.7350001335144043,-0.34999987483024597,-0.7177033995155746,0.0,True,0.010788440704345703,-1.7350001335144043,-0.34999987483024597,-0.7177034020423889,0.0,0.12114177732865272,0.0
1759838029.1203349,1,-1.7350001335144043,-0.34999987483024597,-0.7177033995960365,0.0,True,0.01086568832397461,-1.7350001335144043,-0.34999987483024597,-0.7177034020423889,0.0,0.12114177732865272,0.0
1759838029.1317806,1,-1.7350001335144043,-0.34999987483024597,-0.7177033996459077,0.0,True,0.011445760726928711,-1.7350001335144043,-0.34999987483024597,-0.7177034020423889,0.0,0.12114177732865272,0.0
1759838029.143008,1,-1.7350001335144043,-0.34999987483024597,-0.717703399714015,0.0,True,0.01122736930847168,-1.7350001335144043,-0.34999987483024597,-0.7177034020423889,0.0,0.12114177732865272,0.0
1759838029.1533463,1,-1.7350001335144043,-0.34999987483024597,-0.7177033998271476,0.0,True,0.010338306427001953,-1.7350001335144043,-0.34999987483024597,-0.7177034020423889,0.0,0.12114177732865272,0.0
1759838029.1646328,1,-1.7350001335144043,-0.34999987483024597,-0.7177033998856643,0.0,True,0.011286497116088867,-1.7350001335144043,-0.34999987483024597,-0.7177034020423889,0.0,0.12114177732865272,0.0
1759838029.1755269,1,-1.7350001335144043,-0.34999987483024597,-0.7177033999620406,0.0,True,0.010894060134887695,-1.7350001335144043,-0.34999987483024597,-0.7177034020423889,0.0,0.12114177732865272,0.0
1759838029.185711,1,-1.7350001335144043,-0.34999987483024597,-0.7177034000660285,0.0,True,0.010184049606323242,-1.7350001335144043,-0.34999987483024597,-0.7177034020423889,0.0,0.12114177732865272,0.0
1759838029.203011,1,-1.7350001335144043,-0.34999987483024597,-0.7177033998726756,0.0,True,0.017300128936767578,-1.7350001335144043,-0.34999987483024597,-0.7177034020423889,0.0,0.12114177732865272,0.0
1759838029.2108822,1,-1.7350001335144043,-0.34999987483024597,-0.7177034001210636,0.0,True,0.007871150970458984,-1.7350001335144043,-0.34999987483024597,-0.7177034020423889,0.0,0.12114177732865272,0.0
1759838029.2220118,1,-1.7350001335144043,-0.34999987483024597,-0.7177034002093023,0.0,True,0.011129617691040039,-1.7350001335144043,-0.34999987483024597,-0.7177034020423889,0.0,0.12114177732865272,0.0
1759838029.2334015,1,-1.7350001335144043,-0.34999987483024597,-0.7177034002704463,0.0,True,0.011389732360839844,-1.7350001335144043,-0.34999987483024597,-0.7177034020423889,0.0,0.12114177732865272,0.0
1759838029.2439191,1,-1.7350001335144043,-0.34999987483024597,-0.7177034003596532,0.0,True,0.010517597198486328,-1.7350001335144043,-0.34999987483024597,-0.7177034020423889,0.0,0.12114177732865272,0.0
1759838029.2552798,1,-1.7350001335144043,-0.34999987483024597,-0.7177034004104765,0.0,True,0.011360645294189453,-1.7350001335144043,-0.34999987483024597,-0.7177034020423889,0.0,0.12114177732865272,0.0
1759838029.2656963,1,-1.7350001335144043,-0.34999987483024597,-0.7177034004906488,0.0,True,0.010416507720947266,-1.7350001335144043,-0.34999987483024597,-0.7177034020423889,0.0,0.12115854437559292,0.0
1759838029.2762585,1,-1.7350001335144043,-0.34999987483024597,-0.7177034005575464,0.0,True,0.01056218147277832,-1.7350001335144043,-0.34999987483024597,-0.7177034020423889,0.0,0.12115854437559292,0.0
1759838029.2863283,1,-1.7350001335144043,-0.34999987483024597,-0.7177034006319065,0.0,True,0.010069847106933594,-1.7350001335144043,-0.34999987483024597,-0.7177034020423889,0.0,0.12115854437559292,0.0
1759838029.2977672,1,-1.7350001335144043,-0.34999987483024597,-0.7177034006560348,0.0,True,0.011438846588134766,-1.7350001335144043,-0.34999987483024597,-0.7177034020423889,0.0,0.12115854437559292,0.0
1759838029.3085952,1,-1.7350001335144043,-0.34999987483024597,-0.7177034007012768,0.0,True,0.010828018188476562,-1.7350001335144043,-0.34999987483024597,-0.7177034020423889,0.0,0.12115854437559292,0.0
1759838029.318625,1,-1.7350001335144043,-0.34999987483024597,-0.7177034007685226,0.0,True,0.010029792785644531,-1.7350001335144043,-0.34999987483024597,-0.7177034020423889,0.0,0.12115854437559292,0.0
1759838029.32992,1,-1.7350001335144043,-0.34999987483024597,-0.7177034007939227,0.0,True,0.011295080184936523,-1.7350001335144043,-0.34999987483024597,-0.7177034020423889,0.0,0.12115854437559292,0.0
1759838029.3413508,1,-1.7350001335144043,-0.34999987483024597,-0.7177034008182055,0.0,True,0.011430740356445312,-1.7350001335144043,-0.34999987483024597,-0.7177034020423889,0.0,0.12115854437559292,0.0
1759838029.3528388,1,-1.7350001335144043,-0.34999987483024597,-0.7177034008461032,0.0,True,0.011487960815429688,-1.7350001335144043,-0.34999987483024597,-0.7177034020423889,0.0,0.12115854437559292,0.0
1759838029.3637717,1,-1.7350001335144043,-0.34999987483024597,-0.7177034008912067,0.0,True,0.01093292236328125,-1.7350001335144043,-0.34999987483024597,-0.7177034020423889,0.0,0.12115854437559292,0.0
1759838029.3745136,1,-1.7350001335144043,-0.34999987483024597,-0.7177034009390386,0.0,True,0.010741949081420898,-1.7350001335144043,-0.34999987483024597,-0.7177034020423889,0.0,0.12115854437559292,0.0
1759838029.3856986,1,-1.7350001335144043,-0.34999987483024597,-0.7177034009730363,0.0,True,0.011184930801391602,-1.7350001335144043,-0.34999987483024597,-0.7177034020423889,0.0,0.12115854437559292,0.0
1759838029.3999636,1,-1.7350001335144043,-0.34999987483024597,-0.7177034009412893,0.0,True,0.014265060424804688,-1.7350001335144043,-0.34999987483024597,-0.7177034020423889,0.0,0.12115854437559292,0.0
1759838029.4074736,1,-1.7350001335144043,-0.34999987483024597,-0.717703401068654,0.0,True,0.007509946823120117,-1.7350001335144043,-0.34999987483024597,-0.7177034020423889,0.0,0.12115854437559292,0.0
1759838029.417509,1,-1.7350001335144043,-0.34999987483024597,-0.7177034011218595,0.0,True,0.010035514831542969,-1.7350001335144043,-0.34999987483024597,-0.7177034020423889,0.0,0.12115854437559292,0.0
1759838029.4282014,1,-1.7350001335144043,-0.34999987483024597,-0.7177034011498691,0.0,True,0.010692358016967773,-1.7350001335144043,-0.34999987483024597,-0.7177034020423889,0.0,0.12115854437559292,0.0
1759838029.439354,1,-1.7350001335144043,-0.34999987483024597,-0.7177034011675403,0.0,True,0.011152505874633789,-1.7350001335144043,-0.34999987483024597,-0.7177034020423889,0.0,0.12115854437559292,0.0
1759838029.4493937,1,-1.7350001335144043,-0.34999987483024597,-0.7177034012079506,0.0,True,0.010039806365966797,-1.7350001335144043,-0.34999987483024597,-0.7177034020423889,0.0,0.12115854437559292,0.0
1759838029.460235,1,-1.7350001335144043,-0.34999987483024597,-0.7177034012304642,0.0,True,0.01084136962890625,-1.7350001335144043,-0.34999987483024597,-0.7177034020423889,0.0,0.12115854437559292,0.0
