timestamp,observer_vehicle_id,vehicle_0_x,vehicle_0_y,vehicle_0_theta,vehicle_0_velocity,vehicle_1_x,vehicle_1_y,vehicle_1_theta,vehicle_1_velocity
1759839078.2904541,0,-1.205,-0.83,-0.7801621756414646,0.0,0.0,0.0,0.0,0.0
1759839078.3011997,0,-1.205,-0.83,-0.7801621756414646,0.0,0.0,0.0,0.0,0.0
1759839078.3112943,0,-1.205,-0.83,-0.7801621756414646,0.0,0.0,0.0,0.0,0.0
1759839078.3214273,0,-1.205,-0.83,-0.7801621756414646,0.0,-0.25378190565109254,-0.05119519710540772,1.779975766851874,0.0
1759839078.3314936,0,-1.205,-0.83,-0.7801621756414646,0.0,-0.4674605579989486,-0.09430040074906744,-2.9785659122446146,0.0
1759839078.3424737,0,-1.205,-0.83,-0.7801621756414646,0.0,-0.647530648336221,-0.13062577920327223,-0.772425982613888,0.0
1759839078.352734,0,-1.205,-0.83,-0.7801621756414646,0.0,-0.8111734341199532,-0.16363729218558135,1.1207643665895735,0.0
1759839078.362822,0,-1.205,-0.83,-0.7801621756414646,0.0,-0.9483272872789931,-0.19130521645397555,2.7327760188965042,0.0
1759839078.3731666,0,-1.205,-0.83,-0.7801621756414646,0.0,-1.0634913511460942,-0.21453716017356367,-2.170582655573613,0.0
1759839078.3845787,0,-1.205,-0.83,-0.7801621756414646,0.0,-1.1602634312279212,-0.23405890543502728,-0.07625045872658262,0.0
1759839078.3959715,0,-1.205,-0.83,-0.7801621756414646,0.0,-1.2481584824411636,-0.25178989559331827,1.7106071632917017,0.0
1759839078.4069486,0,-1.205,-0.83,-0.7801621756414646,0.0,-1.3215428388177497,-0.26659365624565556,-3.0536553590486153,0.0
1759839078.418405,0,-1.205,-0.83,-0.7801621756414646,0.0,-1.3829182054505902,-0.2789748541254793,-0.8219408879685985,0.0
1759839078.4285655,0,-1.205,-0.83,-0.7801621756414646,0.0,-1.4383470552300892,-0.29015644450108136,-0.805530626203477,0.0
1759839078.439826,0,-1.205,-0.83,-0.7801621756414646,0.0,-1.484381546994726,-0.29944292315089766,-0.791901657478937,0.0
1759839078.4503653,0,-1.205,-0.83,-0.7801621756414646,0.0,-1.5227441505388202,-0.3071817616849481,-0.7805440274964545,0.0
1759839078.461705,0,-1.205,-0.83,-0.7801621756414646,0.0,-1.5570969997186044,-0.3141117176427435,-0.7703735251378343,0.0
1759839078.4723456,0,-1.205,-0.83,-0.7801621756414646,0.0,-1.5855113581906062,-0.3198437095293396,-0.7619611719631162,0.0
1759839078.4869282,0,-1.2050001607735952,-0.8299998061259588,-0.722999340427048,0.0,-1.6089514319449574,-0.32457224537552265,-0.7550215052077557,0.0
1759839078.4976144,0,-1.205000161673033,-0.8299998050413424,-0.7181172038174033,0.0,-1.629830034119479,-0.3287840588636134,-0.7488401875665505,0.0
1759839078.5090175,0,-1.2050001619552244,-0.8299998047010527,-0.717654422944916,0.0,-1.6470104602933147,-0.3322498440768789,-0.7437537516785508,0.0
1759839078.5190244,0,-1.2050001620600936,-0.8299998045745929,-0.7175988422838913,0.0,-1.6612082087100073,-0.33511393755316143,-0.7395503671789606,0.0
1759839078.53018,0,-1.205000162099991,-0.8299998045264814,-0.7175897484388916,0.0,-1.6729504040117296,-0.3374826754666575,-0.7360739735795085,0.0
1759839078.5405078,0,-1.2050001621152215,-0.8299998045081151,-0.7175979200220333,0.0,-1.6833563591224232,-0.33958185536985863,-0.7329931871666224,0.0
1759839078.5507395,0,-1.2050001621210387,-0.8299998045011003,-0.7176095349857512,0.0,-1.6919115090336856,-0.3413076747272898,-0.7304603500241926,0.0
1759839078.5608215,0,-1.2050001621232607,-0.829999804498421,-0.7176210854743807,0.0,-1.6989625458927027,-0.34273007129865,-0.7283728204970187,0.0
1759839078.5713239,0,-1.2050001621241093,-0.8299998044973976,-0.7176306088262159,0.0,-1.7051948129882433,-0.3439872985016481,-0.7265276958943104,0.0
1759839078.582907,0,-1.2050001621244335,-0.8299998044970067,-0.7176377831270849,0.0,-1.7102802270815822,-0.3450131725276876,-0.7250221085190046,0.0
1759839078.5935156,0,-1.2050001621245572,-0.8299998044968574,-0.7176456964947953,0.0,-1.714445503917929,-0.3458534284516385,-0.7237889369218931,0.0
1759839078.6041412,0,-1.2050001621246045,-0.8299998044968003,-0.7176523052088619,0.0,-1.717865245772145,-0.3465432885652122,-0.7227764883645069,0.0
1759839078.6151676,0,-1.2050001621246227,-0.8299998044967786,-0.7176574414742927,0.0,-1.7208698795609356,-0.34714940946414125,-0.7218869366747546,0.0
1759839078.6259973,0,-1.2050001621246296,-0.8299998044967702,-0.7176620161115927,0.0,-1.72331702987191,-0.3476430699401153,-0.7211624335082367,0.0
1759839078.6362727,0,-1.2050001621246322,-0.8299998044967671,-0.717666294527664,0.0,-1.7253163504413866,-0.348046390299934,-0.7205705147867042,0.0
1759839078.646581,0,-1.2050001621246331,-0.8299998044967659,-0.7176697803242966,0.0,-1.7270576813872376,-0.3483976667457257,-0.7200549764568489,0.0
1759839078.657983,0,-1.2050001621246336,-0.8299998044967655,-0.7176720241586789,0.0,-1.7284677645245874,-0.3486821209983416,-0.7196375073322587,0.0
1759839078.6695437,0,-1.2050001621246338,-0.8299998044967652,-0.7176740529109793,0.0,-1.729612390849915,-0.34891302499064636,-0.7192986293346708,0.0
1759839078.679751,0,-1.2050001621246338,-0.8299998044967651,-0.7176766936456184,0.0,-1.7306023365169707,-0.34911272545326016,-0.719005546083002,0.0
1759839078.6905677,0,-1.2050001621246338,-0.8299998044967651,-0.7176786168441751,0.0,-1.7314008639009952,-0.3492738113525235,-0.7187691341161186,0.0
1759839078.7019198,0,-1.2050001621246338,-0.8299998044967651,-0.7176800524149946,0.0,-1.7320462163421615,-0.34940399746812434,-0.7185780711131441,0.0
1759839078.7121658,0,-1.2050001621246338,-0.8299998044967651,-0.7176818702687449,0.0,-1.7325697925257133,-0.3495096178163399,-0.7184230611813082,0.0
1759839078.7236938,0,-1.2050001621246338,-0.8299998044967651,-0.717682916887771,0.0,-1.7330214108436517,-0.34960072219713423,-0.7182893550906212,0.0
1759839078.7341921,0,-1.2050001621246338,-0.8299998044967651,-0.7176843138570739,0.0,-1.733384940910625,-0.3496740566486749,-0.7181817284019517,0.0
1759839078.7449143,0,-1.2050001621246338,-0.8299998044967651,-0.7176854659570928,0.0,-1.7336782084150195,-0.34973321712408906,-0.7180949036431218,0.0
1759839078.7551131,0,-1.2050001621246338,-0.8299998044967651,-0.7176866625182541,0.0,-1.7339301063141885,-0.3497840321623983,-0.7180203267670024,0.0
1759839078.765606,0,-1.2050001621246338,-0.8299998044967651,-0.7176875965047458,0.0,-1.734131746346891,-0.34982470874612626,-0.717960629231655,0.0
1759839078.7763398,0,-1.2050001621246338,-0.8299998044967651,-0.7176883500270144,0.0,-1.7342935123953431,-0.34985734160243964,-0.7179127367855666,0.0
1759839078.78682,0,-1.2050001621246338,-0.8299998044967651,-0.7176891253818134,0.0,-1.73442365135953,-0.34988359436783584,-0.7178742078520484,0.0
1759839078.7973664,0,-1.2050001621246338,-0.8299998044967651,-0.7176898143362287,0.0,-1.7345348082469734,-0.3499060179033731,-0.7178412987509719,0.0
1759839078.8073776,0,-1.2050001621246338,-0.8299998044967651,-0.7176905888824088,0.0,-1.7346235876597786,-0.3499239272598134,-0.7178150147236236,0.0
1759839078.818412,0,-1.2050001621246338,-0.8299998044967651,-0.7176910061098525,0.0,-1.7346945856105456,-0.3499382495848507,-0.7177939950748032,0.0
1759839078.8296485,0,-1.2050001621246338,-0.8299998044967651,-0.7176913797074658,0.0,-1.7347550318548997,-0.3499504433277625,-0.7177760993635173,0.0
1759839078.8398318,0,-1.2050001621246338,-0.8299998044967651,-0.7176920298109994,0.0,-1.7348030076028786,-0.34996012141352467,-0.7177618956666006,0.0
1759839078.8499234,0,-1.2050001621246338,-0.8299998044967651,-0.7176926346658732,0.0,-1.7348411818050993,-0.34996782224610273,-0.7177505938147022,0.0
1759839078.8600824,0,-1.2050001621246338,-0.8299998044967651,-0.7176931464497116,0.0,-1.7348716277560239,-0.3499739640685145,-0.7177415799883943,0.0
1759839078.8702643,0,-1.2050001621246338,-0.8299998044967651,-0.7176935956578294,0.0,-1.7348959679155165,-0.34997887417749574,-0.7177343738423121,0.0
1759839078.880377,0,-1.2050001621246338,-0.8299998044967651,-0.7176940163876323,0.0,-1.7349165725616624,-0.3499830307261875,-0.7177282736320754,0.0
1759839078.8915439,0,-1.2050001621246338,-0.8299998044967651,-0.7176941982318432,0.0,-1.7349329016077393,-0.3499863247635919,-0.7177234392557251,0.0
1759839078.9029584,0,-1.2050001621246338,-0.8299998044967651,-0.7176943706316585,0.0,-1.7349458733336194,-0.34998894153312315,-0.7177195988473803,0.0
1759839078.9135597,0,-1.2050001621246338,-0.8299998044967651,-0.7176947368896744,0.0,-1.7349562146229276,-0.34999102766807744,-0.7177165372059209,0.0
1759839078.924385,0,-1.2050001621246338,-0.8299998044967651,-0.7176950531438067,0.0,-1.7349644776060824,-0.34999269454901194,-0.7177140908676498,0.0
1759839078.9349902,0,-1.2050001621246338,-0.8299998044967651,-0.7176953928277356,0.0,-1.7349714697643646,-0.3499941050680839,-0.7177120207697102,0.0
1759839078.9466426,0,-1.2050001621246338,-0.8299998044967651,-0.717695548249683,0.0,-1.734977010894236,-0.3499952228730661,-0.7177103802631504,0.0
1759839078.9570863,0,-1.2050001621246338,-0.8299998044967651,-0.7176959154723725,0.0,-1.734981419757427,-0.34999611226735117,-0.7177090749753925,0.0
1759839078.9687123,0,-1.2050001621246338,-0.8299998044967651,-0.7176960855541913,0.0,-1.7349849320807587,-0.34999682080380684,-0.7177080351171687,0.0
1759839078.979536,0,-1.2050001621246338,-0.8299998044967651,-0.7176963845041618,0.0,-1.7349878928557185,-0.34999741807712076,-0.7177071585503211,0.0
1759839078.989932,0,-1.2050001621246338,-0.8299998044967651,-0.7176967257263378,0.0,-1.7349902383614222,-0.3499978912329612,-0.7177064641400506,0.0
1759839079.0012295,0,-1.2050001621246338,-0.8299998044967651,-0.7176969127325794,0.0,-1.7349920993547105,-0.349998266648737,-0.7177059131744952,0.0
1759839079.0117376,0,-1.2050001621246338,-0.8299998044967651,-0.7176971981157099,0.0,-1.7349935810917718,-0.34999856555764325,-0.7177054744915145,0.0
1759839079.0221074,0,-1.2050001621246338,-0.8299998044967651,-0.7176974760819449,0.0,-1.7349947639737289,-0.34999880417889484,-0.717705124287557,0.0
1759839079.033151,0,-1.2050001621246338,-0.8299998044967651,-0.7176976459106434,0.0,-1.7349957099172086,-0.349998995002853,-0.71770484423159,0.0
1759839079.0441947,0,-1.2050001621246338,-0.8299998044967651,-0.7176978145052093,0.0,-1.7349965137776655,-0.3499991571645861,-0.717704606240714,0.0
1759839079.0551429,0,-1.2050001621246338,-0.8299998044967651,-0.7176979964026522,0.0,-1.7349971515684561,-0.34999928582529977,-0.7177044174164128,0.0
1759839079.066205,0,-1.2050001621246338,-0.8299998044967651,-0.7176981639842914,0.0,-1.734997658855546,-0.3499993881596701,-0.717704267229029,0.0
1759839079.0773299,0,-1.2050001621246338,-0.8299998044967651,-0.7176983243339771,0.0,-1.734998063372473,-0.349999469762348,-0.7177041474677731,0.0
1759839079.0887947,0,-1.2050001621246338,-0.8299998044967651,-0.7176984528275483,0.0,-1.7349983866685907,-0.3499995349804569,-0.7177040517527449,0.0
1759839079.099044,0,-1.2050001621246338,-0.8299998044967651,-0.7176987002242825,0.0,-1.734998661393522,-0.34999959040036294,-0.7177039704176991,0.0
1759839079.1103737,0,-1.2050001621246338,-0.8299998044967651,-0.7176988246943523,0.0,-1.734998879264834,-0.34999963435126175,-0.7177039059147322,0.0
1759839079.121079,0,-1.2050001621246338,-0.8299998044967651,-0.7176990015362534,0.0,-1.734999052624956,-0.34999966932297555,-0.7177038545897455,0.0
1759839079.1318672,0,-1.2050001621246338,-0.8299998044967651,-0.7176991601769505,0.0,-1.7349991909056854,-0.34999969721816876,-0.7177038136503614,0.0
1759839079.1428237,0,-1.2050001621246338,-0.8299998044967651,-0.7176992944678666,0.0,-1.734999301466584,-0.3499997195214763,-0.7177037809177087,0.0
1759839079.1540709,0,-1.2050001621246338,-0.8299998044967651,-0.7176994021005019,0.0,-1.7349993951908749,-0.3499997384283566,-0.7177037531697011,0.0
1759839079.1643577,0,-1.2050001621246338,-0.8299998044967651,-0.7176995831502282,0.0,-1.734999469616184,-0.3499997534420782,-0.7177037311353489,0.0
1759839079.174905,0,-1.2050001621246338,-0.8299998044967651,-0.7176997265930005,0.0,-1.7349995288454092,-0.3499997653903134,-0.7177037135999482,0.0
1759839079.1863163,0,-1.2050001621246338,-0.8299998044967651,-0.7176997967842773,0.0,-1.734999576056565,-0.34999977491415896,-0.7177036996226164,0.0
1759839079.1965623,0,-1.2050001621246338,-0.8299998044967651,-0.7176999519232511,0.0,-1.7349996138358708,-0.3499997825353296,-0.7177036884376775,0.0
1759839079.2067554,0,-1.2050001621246338,-0.8299998044967651,-0.7177000961152036,0.0,-1.7349996461317727,-0.3499997890503403,-0.7177036788761548,0.0
1759839079.2174628,0,-1.2050001621246338,-0.8299998044967651,-0.7177001906672089,0.0,-1.7349996717133933,-0.3499997942108876,-0.7177036713024618,0.0
1759839079.2279649,0,-1.2050001621246338,-0.8299998044967651,-0.7177002930750955,0.0,-1.7349996920326978,-0.3499997983098747,-0.7177036652867299,0.0
1759839079.2389376,0,-1.2050001621246338,-0.8299998044967651,-0.7177003633092411,0.0,-1.7349997082046356,-0.3499998015722189,-0.717703660498867,0.0
1759839079.2492583,0,-1.2050001621246338,-0.8299998044967651,-0.7177004729362118,0.0,-1.7349997211179709,-0.34999980417720933,-0.7177036566757458,0.0
1759839079.260281,0,-1.2050001621246338,-0.8299998044967651,-0.7177005371426564,0.0,-1.734999732032411,-0.3499998063789652,-0.7177036534444173,0.0
1759839079.2707095,0,-1.2050001621246338,-0.8299998044967651,-0.7177006348507078,0.0,-1.7349997406803237,-0.3499998081234975,-0.7177036508841168,0.0
1759839079.2808921,0,-1.2050001621246338,-0.8299998044967651,-0.7177007392884054,0.0,-1.7349997475511933,-0.34999980950954923,-0.7177036488499275,0.0
1759839079.291676,0,-1.2050001621246338,-0.8299998044967651,-0.7177008037101302,0.0,-1.734999753020026,-0.3499998106127698,-0.7177036472308252,0.0
1759839079.3028765,0,-1.2050001621246338,-0.8299998044967651,-0.717700848224986,0.0,-1.7349997573821294,-0.3499998114927313,-0.7177036459393813,0.0
1759839079.3138998,0,-1.2050001621246338,-0.8299998044967651,-0.7177009082512988,0.0,-1.7349997608713055,-0.34999981219659826,-0.7177036449063761,0.0
1759839079.3248096,0,-1.2050001621246338,-0.8299998044967651,-0.7177009770108249,0.0,-1.7349997638341979,-0.3499998127942987,-0.7177036440291822,0.0
1759839079.3357036,0,-1.2050001621246338,-0.8299998044967651,-0.7177010462260665,0.0,-1.7349997661861751,-0.34999981326876006,-0.7177036433328559,0.0
1759839079.3470309,0,-1.2050001621246338,-0.8299998044967651,-0.7177010963484847,0.0,-1.7349997680571956,-0.3499998136461986,-0.7177036427789216,0.0
1759839079.3584876,0,-1.2050001621246338,-0.8299998044967651,-0.7177011451514748,0.0,-1.7349997695493908,-0.34999981394721724,-0.7177036423371425,0.0
1759839079.369838,0,-1.2050001621246338,-0.8299998044967651,-0.7177012029053689,0.0,-1.7349997708121696,-0.34999981420195597,-0.7177036419632843,0.0
1759839079.3811858,0,-1.2050001621246338,-0.8299998044967651,-0.7177012627061643,0.0,-1.7349997718118026,-0.3499998144036106,-0.717703641667333,0.0
1759839079.3915188,0,-1.2050001621246338,-0.8299998044967651,-0.7177013581842822,0.0,-1.7349997726060906,-0.34999981456384127,-0.7177036414321762,0.0
1759839079.4017372,0,-1.2050001621246338,-0.8299998044967651,-0.7177014458226232,0.0,-1.7349997732388436,-0.3499998146914857,-0.7177036412448434,0.0
1759839079.4123974,0,-1.2050001621246338,-0.8299998044967651,-0.7177015061571552,0.0,-1.7349997737439025,-0.34999981479337056,-0.7177036410953158,0.0
1759839079.4235501,0,-1.2050001621246338,-0.8299998044967651,-0.7177015454431661,0.0,-1.7349997741692806,-0.3499998148791816,-0.7177036409693783,0.0
1759839079.4341688,0,-1.2050001621246338,-0.8299998044967651,-0.7177016028050183,0.0,-1.7349997745065613,-0.34999981494722077,-0.7177036408695231,0.0
1759839079.4451787,0,-1.2050001621246338,-0.8299998044967651,-0.7177016456616929,0.0,-1.734999774774559,-0.34999981500128363,-0.7177036407901796,0.0
1759839079.4560955,0,-1.2050001621246338,-0.8299998044967651,-0.7177016910065924,0.0,-1.7349997749880823,-0.34999981504435745,-0.7177036407269639,0.0
1759839079.4674304,0,-1.2050001621246338,-0.8299998044967651,-0.7177017243208468,0.0,-1.7349997751585677,-0.3499998150787493,-0.71770364067649,0.0
1759839079.4786763,0,-1.2050001621246338,-0.8299998044967651,-0.7177017626364108,0.0,-1.7349997753028956,-0.3499998151078643,-0.7177036406337604,0.0
1759839079.4934905,0,-1.2050001621246338,-0.8299998044967651,-0.7177017125166198,0.0,-1.7349997754168796,-0.34999981513085815,-0.7177036406000142,0.0
1759839079.5002127,0,-1.2050001621246338,-0.8299998044967651,-0.717701889157091,0.0,-1.7349997755079711,-0.34999981514923395,-0.7177036405730457,0.0
1759839079.5112514,0,-1.2050001621246338,-0.8299998044967651,-0.717701928233998,0.0,-1.7349997755805593,-0.34999981516387707,-0.7177036405515552,0.0
1759839079.522139,0,-1.2050001621246338,-0.8299998044967651,-0.7177019619780047,0.0,-1.734999775638563,-0.349999815175578,-0.7177036405343827,0.0
1759839079.5329175,0,-1.2050001621246338,-0.8299998044967651,-0.717701997931341,0.0,-1.7349997756877418,-0.3499998151854988,-0.7177036405198229,0.0
1759839079.5438643,0,-1.2050001621246338,-0.8299998044967651,-0.7177020293502281,0.0,-1.7349997757267321,-0.3499998151933642,-0.7177036405082794,0.0
1759839079.5546048,0,-1.2050001621246338,-0.8299998044967651,-0.7177020650310819,0.0,-1.7349997757577318,-0.34999981519961776,-0.7177036404991018,0.0
1759839079.5649445,0,-1.2050001621246338,-0.8299998044967651,-0.71770210738093,0.0,-1.7349997757824516,-0.3499998152046045,-0.7177036404917833,0.0
1759839079.575647,0,-1.2050001621246338,-0.8299998044967651,-0.717702138591175,0.0,-1.7349997758022044,-0.3499998152085892,-0.7177036404859352,0.0
1759839079.5858088,0,-1.2050001621246338,-0.8299998044967651,-0.7177021783385449,0.0,-1.7349997758189495,-0.34999981521196716,-0.7177036404809777,0.0
1759839079.5969818,0,-1.2050001621246338,-0.8299998044967651,-0.7177021956622447,0.0,-1.7349997758322186,-0.3499998152146439,-0.7177036404770492,0.0
1759839079.6080117,0,-1.2050001621246338,-0.8299998044967651,-0.7177022173453942,0.0,-1.7349997758427629,-0.349999815216771,-0.7177036404739274,0.0
1759839079.6194854,0,-1.2050001621246338,-0.8299998044967651,-0.7177022332491294,0.0,-1.73499977585116,-0.34999981521846485,-0.7177036404714414,0.0
1759839079.6306803,0,-1.2050001621246338,-0.8299998044967651,-0.717702256912414,0.0,-1.7349997758578668,-0.3499998152198178,-0.7177036404694558,0.0
1759839079.6419168,0,-1.2050001621246338,-0.8299998044967651,-0.7177022810524569,0.0,-1.7349997758635485,-0.34999981522096396,-0.7177036404677737,0.0
1759839079.6532755,0,-1.2050001621246338,-0.8299998044967651,-0.7177023037133559,0.0,-1.734999775868052,-0.34999981522187246,-0.7177036404664404,0.0
1759839079.6640356,0,-1.2050001621246338,-0.8299998044967651,-0.7177023357052246,0.0,-1.7349997758716333,-0.34999981522259493,-0.7177036404653802,0.0
1759839079.6749272,0,-1.2050001621246338,-0.8299998044967651,-0.7177023633591801,0.0,-1.7349997758744882,-0.3499998152231709,-0.7177036404645349,0.0
1759839079.6856608,0,-1.2050001621246338,-0.8299998044967651,-0.717702391068423,0.0,-1.7349997758767703,-0.34999981522363127,-0.7177036404638593,0.0
1759839079.6971738,0,-1.2050001621246338,-0.8299998044967651,-0.7177024062540553,0.0,-1.734999775878707,-0.34999981522402196,-0.7177036404632858,0.0
1759839079.7079234,0,-1.2050001621246338,-0.8299998044967651,-0.7177024324032447,0.0,-1.734999775880243,-0.34999981522433177,-0.7177036404628311,0.0
1759839079.7190218,0,-1.2050001621246338,-0.8299998044967651,-0.7177024527243692,0.0,-1.7349997758814635,-0.349999815224578,-0.7177036404624697,0.0
1759839079.7295575,0,-1.2050001621246338,-0.8299998044967651,-0.7177024790248367,0.0,-1.7349997758824365,-0.3499998152247743,-0.7177036404621816,0.0
1759839079.7398062,0,-1.2050001621246338,-0.8299998044967651,-0.7177025061633096,0.0,-1.7349997758832145,-0.3499998152249313,-0.7177036404619512,0.0
1759839079.7505229,0,-1.2050001621246338,-0.8299998044967651,-0.7177025246693951,0.0,-1.7349997758838727,-0.34999981522506407,-0.7177036404617564,0.0
1759839079.7613578,0,-1.2050001621246338,-0.8299998044967651,-0.7177025406481619,0.0,-1.7349997758843945,-0.3499998152251694,-0.7177036404616018,0.0
1759839079.7718885,0,-1.2050001621246338,-0.8299998044967651,-0.7177025595633193,0.0,-1.7349997758848095,-0.3499998152252531,-0.7177036404614788,0.0
1759839079.7819934,0,-1.2050001621246338,-0.8299998044967651,-0.7177025816239624,0.0,-1.7349997758851405,-0.34999981522531987,-0.7177036404613808,0.0
1759839079.7922635,0,-1.2050001621246338,-0.8299998044967651,-0.7177025995759525,0.0,-1.7349997758854052,-0.34999981522537327,-0.7177036404613024,0.0
1759839079.8037112,0,-1.2050001621246338,-0.8299998044967651,-0.7177026046587383,0.0,-1.73499977588563,-0.3499998152254186,-0.7177036404612359,0.0
1759839079.8138502,0,-1.2050001621246338,-0.8299998044967651,-0.7177026238502879,0.0,-1.7349997758858082,-0.34999981522545454,-0.7177036404611831,0.0
1759839079.824985,0,-1.2050001621246338,-0.8299998044967651,-0.7177026329048495,0.0,-1.73499977588595,-0.34999981522548307,-0.7177036404611412,0.0
1759839079.8364074,0,-1.2050001621246338,-0.8299998044967651,-0.7177026402470403,0.0,-1.7349997758860625,-0.3499998152255058,-0.7177036404611079,0.0
1759839079.8473036,0,-1.2050001621246338,-0.8299998044967651,-0.7177026537076152,0.0,-1.7349997758861524,-0.3499998152255239,-0.7177036404610813,0.0
1759839079.8575068,0,-1.2050001621246338,-0.8299998044967651,-0.7177026726794331,0.0,-1.7349997758862246,-0.34999981522553847,-0.7177036404610599,0.0
1759839079.8676968,0,-1.2050001621246338,-0.8299998044967651,-0.7177026895953453,0.0,-1.7349997758862858,-0.3499998152255508,-0.7177036404610417,0.0
1759839079.878553,0,-1.2050001621246338,-0.8299998044967651,-0.7177026994285498,0.0,-1.7349997758863347,-0.3499998152255606,-0.7177036404610274,0.0
1759839079.8895032,0,-1.2050001621246338,-0.8299998044967651,-0.7177027084826513,0.0,-1.7349997758863736,-0.34999981522556844,-0.717703640461016,0.0
1759839079.9003067,0,-1.2050001621246338,-0.8299998044967651,-0.7177027190037143,0.0,-1.7349997758864044,-0.34999981522557466,-0.7177036404610069,0.0
1759839079.9106019,0,-1.2050001621246338,-0.8299998044967651,-0.7177027329146544,0.0,-1.7349997758864304,-0.34999981522557994,-0.7177036404609991,0.0
1759839079.9209146,0,-1.2050001621246338,-0.8299998044967651,-0.717702745465262,0.0,-1.734999775886451,-0.3499998152255841,-0.717703640460993,0.0
1759839079.931419,0,-1.2050001621246338,-0.8299998044967651,-0.7177027555966013,0.0,-1.7349997758864675,-0.34999981522558743,-0.7177036404609881,0.0
1759839079.9416406,0,-1.2050001621246338,-0.8299998044967651,-0.7177027668762506,0.0,-1.7349997758864806,-0.3499998152255901,-0.7177036404609842,0.0
1759839079.9520605,0,-1.2050001621246338,-0.8299998044967651,-0.7177027760789798,0.0,-1.734999775886491,-0.3499998152255922,-0.717703640460981,0.0
1759839079.963252,0,-1.2050001621246338,-0.8299998044967651,-0.7177027803896774,0.0,-1.7349997758865,-0.349999815225594,-0.7177036404609783,0.0
1759839079.974273,0,-1.2050001621246338,-0.8299998044967651,-0.7177027866758632,0.0,-1.734999775886507,-0.3499998152255954,-0.7177036404609763,0.0
1759839079.9849634,0,-1.2050001621246338,-0.8299998044967651,-0.7177027954414328,0.0,-1.7349997758865126,-0.34999981522559653,-0.7177036404609747,0.0
1759839079.9960651,0,-1.2050001621246338,-0.8299998044967651,-0.7177028019206055,0.0,-1.734999775886517,-0.3499998152255974,-0.7177036404609735,0.0
1759839080.0061295,0,-1.2050001621246338,-0.8299998044967651,-0.7177028138458503,0.0,-1.7349997758865205,-0.34999981522559814,-0.7177036404609725,0.0
1759839080.0177996,0,-1.2050001621246338,-0.8299998044967651,-0.717702816769485,0.0,-1.7349997758865237,-0.34999981522559875,-0.7177036404609716,0.0
1759839080.0281699,0,-1.2050001621246338,-0.8299998044967651,-0.717702826706274,0.0,-1.7349997758865259,-0.3499998152255992,-0.7177036404609709,0.0
1759839080.0392542,0,-1.2050001621246338,-0.8299998044967651,-0.717702832804699,0.0,-1.7349997758865277,-0.3499998152255996,-0.7177036404609703,0.0
1759839080.0496812,0,-1.2050001621246338,-0.8299998044967651,-0.71770284175971,0.0,-1.7349997758865292,-0.3499998152255999,-0.7177036404609699,0.0
1759839080.0598884,0,-1.2050001621246338,-0.8299998044967651,-0.7177028509256704,0.0,-1.7349997758865305,-0.34999981522560014,-0.7177036404609695,0.0
1759839080.0702996,0,-1.2050001621246338,-0.8299998044967651,-0.7177028582102984,0.0,-1.7349997758865314,-0.34999981522560036,-0.7177036404609692,0.0
1759839080.0805635,0,-1.2050001621246338,-0.8299998044967651,-0.7177028654430941,0.0,-1.7349997758865323,-0.34999981522560053,-0.717703640460969,0.0
1759839080.0916274,0,-1.2050001621246338,-0.8299998044967651,-0.7177028690339675,0.0,-1.734999775886533,-0.34999981522560064,-0.7177036404609688,0.0
1759839080.1036673,0,-1.2050001621246338,-0.8299998044967651,-0.7177028694886829,0.0,-1.7349997758865334,-0.34999981522560075,-0.7177036404609686,0.0
1759839080.1151617,0,-1.2050001621246338,-0.8299998044967651,-0.7177028734845159,0.0,-1.7349997758865339,-0.34999981522560086,-0.7177036404609685,0.0
1759839080.1264064,0,-1.2050001621246338,-0.8299998044967651,-0.7177028790964837,0.0,-1.7349997758865343,-0.349999815225601,-0.7177036404609685,0.0
1759839080.136935,0,-1.2050001621246338,-0.8299998044967651,-0.7177028871014013,0.0,-1.7349997758865348,-0.349999815225601,-0.7177036404609685,0.0
1759839080.1471996,0,-1.2050001621246338,-0.8299998044967651,-0.7177028950988831,0.0,-1.7349997758865348,-0.349999815225601,-0.7177036404609685,0.0
1759839080.158707,0,-1.2050001621246338,-0.8299998044967651,-0.7177028982120888,0.0,-1.7349997758865348,-0.349999815225601,-0.7177036404609685,0.0
1759839080.1700416,0,-1.2050001621246338,-0.8299998044967651,-0.7177029021284351,0.0,-1.7349997758865348,-0.349999815225601,-0.7177036404609685,0.0
1759839080.1804354,0,-1.2050001621246338,-0.8299998044967651,-0.7177029090128428,0.0,-1.7349997758865348,-0.349999815225601,-0.7177036404609685,0.0
1759839080.191849,0,-1.2050001621246338,-0.8299998044967651,-0.717702912410207,0.0,-1.7349997758865348,-0.349999815225601,-0.7177036404609685,0.0
1759839080.2032764,0,-1.2050001621246338,-0.8299998044967651,-0.7177029158977835,0.0,-1.7349997758865348,-0.349999815225601,-0.7177036404609685,0.0
1759839080.2143373,0,-1.2050001621246338,-0.8299998044967651,-0.717702920584026,0.0,-1.7349997758865348,-0.349999815225601,-0.7177036404609685,0.0
1759839080.2249281,0,-1.2050001621246338,-0.8299998044967651,-0.7177029262856197,0.0,-1.7349997758865348,-0.349999815225601,-0.7177036404609685,0.0
1759839080.23542,0,-1.2050001621246338,-0.8299998044967651,-0.7177029316435329,0.0,-1.7349997758865348,-0.349999815225601,-0.7177036404609685,0.0
1759839080.2457056,0,-1.2050001621246338,-0.8299998044967651,-0.7177029368611194,0.0,-1.7349997758865348,-0.349999815225601,-0.7177036404609685,0.0
1759839080.2562327,0,-1.2050001621246338,-0.8299998044967651,-0.717702940906122,0.0,-1.7349997758865348,-0.349999815225601,-0.7177036404609685,0.0
1759839080.266706,0,-1.2050001621246338,-0.8299998044967651,-0.7177029447189902,0.0,-1.7349997758865348,-0.349999815225601,-0.7177036404609685,0.0
1759839080.2781525,0,-1.2050001621246338,-0.8299998044967651,-0.7177029462383403,0.0,-1.7349997758865348,-0.349999815225601,-0.7177036404609685,0.0
1759839080.301495,0,-1.2050001621246338,-0.8299998044967651,-0.7177029251880604,0.0,-1.734997975582066,-0.35000138691521915,-0.7177036363734356,0.0014504519170687338
1759839080.3099115,0,-1.2050001621246338,-0.8299998044967651,-0.7177029399746289,0.0,-1.7349945994587834,-0.3500181531105201,-0.7177036333162671,0.0026151791094147295
1759839080.3202345,0,-1.2050001621246338,-0.8299998044967651,-0.7177029494663572,0.0,-1.734990054116535,-0.35004436247037224,-0.7177036314208273,0.0035695066968585557
1759839080.3312912,0,-1.2050001621246338,-0.8299998044967651,-0.7177029553356569,0.0,-1.7349850341724713,-0.3500758538956889,-0.7177036300500499,0.0043443676046176095
1759839080.3422282,0,-1.2050001621246338,-0.8299998044967651,-0.717702960271783,0.0,-1.7349794291305383,-0.3501105510102216,-0.7177036289815142,0.004999034656200255
1759839080.3528268,0,-1.2050001621246338,-0.8299998044967651,-0.7177029649953983,0.0,-1.7349742268080355,-0.3501449720191001,-0.7177036282983726,0.005505200974554741
1759839080.363288,0,-1.2050001621246338,-0.8299998044967651,-0.7177029692096575,0.0,-1.7349691069528257,-0.3501787917705353,-0.7177036278651724,0.005926835778396864
1759839080.3738108,0,-1.2050001621246338,-0.8299998044967651,-0.7177029726966744,0.0,-1.7349641560472484,-0.35021135948804133,-0.7177036275661204,0.006280987232634142
1759839080.3850348,0,-1.2050001621246338,-0.8299998044967651,-0.7177029747104804,0.0,-1.7349594025956412,-0.3502423622995443,-0.717703627314069,0.006582210904656821
1759839080.3951385,0,-1.2050001621246338,-0.8299998044967651,-0.717702978283187,0.0,-1.7349548785799584,-0.3502716005318685,-0.7177036271631634,0.0068402218537778545
1759839080.405782,0,-1.2050001621246338,-0.8299998044967651,-0.7177029806911291,0.0,-1.7349506667340728,-0.3502987342759926,-0.7177036270125055,0.00706139312790995
1759839080.4163718,0,-1.2050001621246338,-0.8299998044967651,-0.7177029829530088,0.0,-1.7349477218620561,-0.35032032436294025,-0.7177036270685768,0.007188800859541549
1759839080.4269016,0,-1.2050001621246338,-0.8299998044967651,-0.7177029851529895,0.0,-1.7349448220817252,-0.35034041717638775,-0.7177036269120214,0.007308544646408978
1759839080.4382336,0,-1.2050001621246338,-0.8299998044967651,-0.7177029862231734,0.0,-1.7349420960947068,-0.3503587473791286,-0.7177036269740674,0.0074188217795812346
1759839080.4498296,0,-1.2050001621246338,-0.8299998044967651,-0.7177029871668132,0.0,-1.7349393616763216,-0.3503763110110251,-0.7177036272973819,0.007525874936233409
1759839080.4601119,0,-1.2050001621246338,-0.8299998044967651,-0.7177029899131409,0.0,-1.7349379829328266,-0.35038787764757706,-0.7177036276793265,0.007555030328649059
1759839080.4709446,0,-1.2050001621246338,-0.8299998044967651,-0.7177029917952247,0.0,-1.7349365593462096,-0.35039857472520625,-0.7177036281723362,0.00759319832202073
1759839080.4822342,0,-1.2050001621246338,-0.8299998044967651,-0.7177029930603959,0.0,-1.734935113887015,-0.35040856947009896,-0.7177036285405635,0.007638263404536155
1759839080.4935272,0,-1.2050001621246338,-0.8299998044967651,-0.7177029944132425,0.0,-1.734933574137281,-0.3504184579800166,-0.7177036289530544,0.007690199751590838
1759839080.5060647,0,-1.2050001621246338,-0.8299998044967651,-0.7177029946211881,0.0,-1.7349319480232668,-0.35042826384133513,-0.717703629324535,0.007748913153319267
1759839080.517322,0,-1.2050001621246338,-0.8299998044967651,-0.71770299650316,0.0,-1.734931571295282,-0.3504327235405849,-0.7177036297227208,0.007739416329312563
1759839080.528349,0,-1.2050001621246338,-0.8299998044967651,-0.7177029985985081,0.0,-1.7349309978961627,-0.35043735164601525,-0.7177036301860643,0.007746788579388476
1759839080.53915,0,-1.2050001621246338,-0.8299998044967651,-0.717703000714396,0.0,-1.7349302699693823,-0.3504422313395489,-0.7177036305930189,0.007766736218731278
1759839080.5500383,0,-1.2050001621246338,-0.8299998044967651,-0.717703002524649,0.0,-1.7349293906966075,-0.3504474817106347,-0.7177036309388248,0.00779715968806523
1759839080.5612698,0,-1.2050001621246338,-0.8299998044967651,-0.7177030038798868,0.0,-1.734928358814628,-0.35045320454203865,-0.7177036312408822,0.007836735120220446
1759839080.5719452,0,-1.2050001621246338,-0.8299998044967651,-0.7177030056454043,0.0,-1.7349285067742313,-0.3504540113164221,-0.7177036315645716,0.00781207481399661
1759839080.5832667,0,-1.2050001621246338,-0.8299998044967651,-0.7177030067543626,0.0,-1.7349283543055583,-0.3504556404303748,-0.7177036319036627,0.0078079504690425384
1759839080.5940769,0,-1.2050001621246338,-0.8299998044967651,-0.717703008248762,0.0,-1.734927980581133,-0.35045799019725493,-0.7177036322140548,0.00781864981785219
1759839080.6051705,0,-1.2050001621246338,-0.8299998044967651,-0.7177030094456178,0.0,-1.7349273942098808,-0.350461127695487,-0.7177036324846591,0.007841893098760303
1759839080.6163433,0,-1.2050001621246338,-0.8299998044967651,-0.7177030105467656,0.0,-1.7349266096893683,-0.3504650662764719,-0.7177036326637684,0.00787560470654185
1759839080.6269612,0,-1.2050001621246338,-0.8299998044967651,-0.7177030120153596,0.0,-1.7349270558307854,-0.35046396284790454,-0.7177036328802928,0.007841955491461737
1759839080.6382306,0,-1.2050001621246338,-0.8299998044967651,-0.717703012930933,0.0,-1.7349271589382527,-0.35046394190802,-0.717703633141808,0.007830501814393799
1759839080.6491823,0,-1.2050001621246338,-0.8299998044967651,-0.7177030140497216,0.0,-1.734926998344582,-0.35046489910303824,-0.7177036333909168,0.00783545820771683
1759839080.6600394,0,-1.2050001621246338,-0.8299998044967651,-0.7177030151883415,0.0,-1.7349265986043447,-0.35046682631717235,-0.7177036336061959,0.007853721366070213
1759839080.6712554,0,-1.2050001621246338,-0.8299998044967651,-0.7177030160476914,0.0,-1.7349259718827372,-0.35046973519261904,-0.7177036338212319,0.007883428179079999
1759839080.6819491,0,-1.2050001621246338,-0.8299998044967651,-0.7177030172067695,0.0,-1.7349264945935956,-0.35046797304238736,-0.7177036340528258,0.007849868129655747
1759839080.6929777,0,-1.2050001621246338,-0.8299998044967651,-0.7177030180994564,0.0,-1.7349266684563696,-0.35046738562237867,-0.7177036343156502,0.007838086771147779
1759839080.7057533,0,-1.2050001621246338,-0.8299998044967651,-0.717703018038449,0.0,-1.734926519885092,-0.3504680714630298,-0.7177036345282,0.007845212542059481
1759839080.716381,0,-1.2050001621246338,-0.8299998044967651,-0.7177030193445475,0.0,-1.7349261320054874,-0.3504697814591879,-0.7177036347226721,0.007864941377344456
1759839080.726826,0,-1.2050001621246338,-0.8299998044967651,-0.7177030206524417,0.0,-1.7349255302431204,-0.35047245657611914,-0.7177036349039357,0.00789486306065108
1759839080.7382972,0,-1.2050001621246338,-0.8299998044967651,-0.7177030212898963,0.0,-1.734926027285297,-0.350470690929499,-0.7177036350966488,0.00786406384069247
1759839080.7494793,0,-1.2050001621246338,-0.8299998044967651,-0.7177030220637484,0.0,-1.7349261725120482,-0.3504701464517927,-0.7177036353018275,0.007854725382689571
1759839080.7596328,0,-1.2050001621246338,-0.8299998044967651,-0.7177030232855496,0.0,-1.7349260604087349,-0.35047063056491684,-0.7177036354761279,0.007860393944705096
1759839080.769789,0,-1.2050001621246338,-0.8299998044967651,-0.7177030243447611,0.0,-1.7349257136764966,-0.35047212027803165,-0.7177036356297597,0.007878378636758821
1759839080.7805028,0,-1.2050001621246338,-0.8299998044967651,-0.7177030250152631,0.0,-1.7349251403158692,-0.3504746294485558,-0.7177036357829016,0.00790726490396395
1759839080.7908525,0,-1.2050001621246338,-0.8299998044967651,-0.7177030257861999,0.0,-1.734925750526308,-0.35047233963953184,-0.7177036359681709,0.00787083482445403
1759839080.8020806,0,-1.2050001621246338,-0.8299998044967651,-0.717703026151316,0.0,-1.7349259989673151,-0.3504713027972089,-0.7177036361385324,0.007856866125791354
1759839080.8123288,0,-1.2050001621246338,-0.8299998044967651,-0.7177030269310389,0.0,-1.7349259751918253,-0.3504713479352352,-0.7177036362634289,0.007858890120337308
1759839080.8233027,0,-1.2050001621246338,-0.8299998044967651,-0.7177030273863565,0.0,-1.734925681403415,-0.3504725368606145,-0.717703636403771,0.00787511144927493
1759839080.8344684,0,-1.2050001621246338,-0.8299998044967651,-0.7177030277805478,0.0,-1.7349251481891792,-0.35047481389218355,-0.7177036365239517,0.0079029853084135
1759839080.8448899,0,-1.2050001621246338,-0.8299998044967651,-0.7177030284679589,0.0,-1.7349257934175977,-0.3504723262168681,-0.7177036366565107,0.007865850299232566
1759839080.8559864,0,-1.2050001621246338,-0.8299998044967651,-0.7177030288847597,0.0,-1.734926069300985,-0.3504711216140053,-0.7177036367933751,0.00785128962268436
1759839080.8673465,0,-1.2050001621246338,-0.8299998044967651,-0.7177030292277102,0.0,-1.7349260414659895,-0.350471137831868,-0.7177036369101468,0.007854299136902509
1759839080.8775394,0,-1.2050001621246338,-0.8299998044967651,-0.7177030299732472,0.0,-1.7349257675812437,-0.3504722190568246,-0.7177036370211838,0.007870121558506544
1759839080.8887243,0,-1.2050001621246338,-0.8299998044967651,-0.7177030303477085,0.0,-1.7349252460853237,-0.3504744178146304,-0.7177036371223636,0.007897834496636693
1759839080.8998995,0,-1.2050001621246338,-0.8299998044967651,-0.7177030307293375,0.0,-1.7349258733574282,-0.3504719787571421,-0.7177036372334529,0.00786203323430898
1759839080.9101417,0,-1.2050001621246338,-0.8299998044967651,-0.7177030313886377,0.0,-1.7349261549624282,-0.3504707363264684,-0.717703637358167,0.007847389529272096
1759839080.9209948,0,-1.2050001621246338,-0.8299998044967651,-0.7177030318151356,0.0,-1.7349261442097004,-0.3504706689438231,-0.7177036374633509,0.00784966545586922
1759839080.9318702,0,-1.2050001621246338,-0.8299998044967651,-0.7177030322128388,0.0,-1.734925868565806,-0.35047174376304113,-0.7177036375593467,0.007865791956862224
1759839080.9420812,0,-1.2050001621246338,-0.8299998044967651,-0.7177030327706557,0.0,-1.7349253700055969,-0.35047383799711546,-0.7177036376541759,0.007892436119970182
1759839080.9525454,0,-1.2050001621246338,-0.8299998044967651,-0.7177030332093519,0.0,-1.7349260085754077,-0.350471338756818,-0.7177036377552888,0.007856211664627973
1759839080.963363,0,-1.2050001621246338,-0.8299998044967651,-0.717703033526675,0.0,-1.7349262860454464,-0.35047010083310687,-0.7177036378704682,0.007841981504408665
1759839080.9743745,0,-1.2050001621246338,-0.8299998044967651,-0.7177030337996158,0.0,-1.7349262680135937,-0.3504700558113221,-0.7177036379721764,0.007844785548839472
1759839080.98568,0,-1.2050001621246338,-0.8299998044967651,-0.7177030340258561,0.0,-1.7349259754161954,-0.3504711972076767,-0.7177036380590394,0.00786190161013264
1759839080.9965394,0,-1.2050001621246338,-0.8299998044967651,-0.7177030343794115,0.0,-1.7349254458574805,-0.3504734217836536,-0.7177036381354355,0.007890205300070625
1759839081.0071723,0,-1.2050001621246338,-0.8299998044967651,-0.7177030347748605,0.0,-1.7349260487139313,-0.35047107154698165,-0.7177036382338562,0.007855621174441777
1759839081.017951,0,-1.2050001621246338,-0.8299998044967651,-0.7177030351135727,0.0,-1.7349263012217953,-0.3504699542126758,-0.7177036383117169,0.00784250257821789
1759839081.028941,0,-1.2050001621246338,-0.8299998044967651,-0.7177030353940025,0.0,-1.7349262616557928,-0.3504700169653906,-0.717703638382186,0.007846186710630244
1759839081.0398188,0,-1.2050001621246338,-0.8299998044967651,-0.7177030356940808,0.0,-1.7349259606150378,-0.35047121197803366,-0.7177036384427876,0.007863459270491069
1759839081.0499067,0,-1.2050001621246338,-0.8299998044967651,-0.7177030361280732,0.0,-1.7349254427025365,-0.35047340342672023,-0.7177036384955935,0.007890876593439022
1759839081.0609746,0,-1.2050001621246338,-0.8299998044967651,-0.717703036341275,0.0,-1.7349261154296778,-0.35047078068118837,-0.7177036385561982,0.007852524482856525
1759839081.0723982,0,-1.2050001621246338,-0.8299998044967651,-0.7177030364971628,0.0,-1.7349264198022663,-0.3504694543593148,-0.717703638622811,0.007837035476541934
1759839081.0834963,0,-1.2050001621246338,-0.8299998044967651,-0.717703036735486,0.0,-1.7349264113695133,-0.3504693623214457,-0.7177036386893497,0.00783929756423633
1759839081.0935192,0,-1.2050001621246338,-0.8299998044967651,-0.7177030371479773,0.0,-1.7349261597510544,-0.35047032570575604,-0.7177036387520158,0.007854251092259089
1759839081.1043835,0,-1.2050001621246338,-0.8299998044967651,-0.7177030373818454,0.0,-1.734925667019499,-0.3504723807049858,-0.7177036388093612,0.007880784659728388
1759839081.1147313,0,-1.2050001621246338,-0.8299998044967651,-0.7177030376764755,0.0,-1.7349263243163233,-0.35046979062334715,-0.7177036388703169,0.007843653432895278
1759839081.1261494,0,-1.2050001621246338,-0.8299998044967651,-0.7177030377956761,0.0,-1.7349266041090945,-0.3504685280191884,-0.7177036389319271,0.007829470466866505
1759839081.1361506,0,-1.2050001621246338,-0.8299998044967651,-0.7177030381276257,0.0,-1.7349266138403052,-0.350468355950578,-0.7177036389899847,0.007830943351591412
1759839081.1476367,0,-1.2050001621246338,-0.8299998044967651,-0.7177030382306437,0.0,-1.7349263420078318,-0.3504693949959214,-0.7177036390385185,0.007847193984917362
1759839081.158672,0,-1.2050001621246338,-0.8299998044967651,-0.7177030384097964,0.0,-1.7349258226148176,-0.35047155203626323,-0.7177036390815004,0.00787514104709407
1759839081.1693928,0,-1.2050001621246338,-0.8299998044967651,-0.7177030386358645,0.0,-1.7349264164447882,-0.3504692259325709,-0.7177036391280082,0.007841253546098463
1759839081.179666,0,-1.2050001621246338,-0.8299998044967651,-0.7177030389030784,0.0,-1.7349266741704745,-0.3504680794392085,-0.717703639167578,0.007827999568246112
1759839081.1915946,0,-1.2050001621246338,-0.8299998044967651,-0.7177030389523065,0.0,-1.7349266166122388,-0.35046820990663435,-0.7177036392115204,0.007832797699061363
1759839081.2023401,0,-1.2050001621246338,-0.8299998044967651,-0.717703039162993,0.0,-1.734926303906042,-0.3504694534074879,-0.7177036392485961,0.007850761314433807
1759839081.2134244,0,-1.2050001621246338,-0.8299998044967651,-0.7177030393326689,0.0,-1.734925752966436,-0.3504717885539601,-0.7177036392758629,0.007879992993622721
1759839081.224651,0,-1.2050001621246338,-0.8299998044967651,-0.7177030394840608,0.0,-1.7349264322842508,-0.35046914054357553,-0.7177036393019033,0.007840939859805333
1759839081.2355304,0,-1.2050001621246338,-0.8299998044967651,-0.7177030396720117,0.0,-1.7349267492816915,-0.3504677467318285,-0.7177036393349586,0.007824387060268691
1759839081.2459939,0,-1.2050001621246338,-0.8299998044967651,-0.7177030398900328,0.0,-1.7349267813812388,-0.3504674894097361,-0.7177036393691917,0.007824545489987025
1759839081.2563212,0,-1.2050001621246338,-0.8299998044967651,-0.7177030400973656,0.0,-1.7349265533432487,-0.35046833976446484,-0.7177036394024742,0.007838332118791851
1759839081.266758,0,-1.2050001621246338,-0.8299998044967651,-0.71770304027004,0.0,-1.73492609948146,-0.35047022402234235,-0.7177036394360159,0.007863127083806185
1759839081.278159,0,-1.2050001621246338,-0.8299998044967651,-0.7177030403426734,0.0,-1.7349267613579296,-0.3504675906815648,-0.7177036394809698,0.007825960797250644
1759839081.288854,0,-1.2050001621246338,-0.8299998044967651,-0.7177030404876046,0.0,-1.7349270688524039,-0.3504662018127745,-0.7177036395231787,0.007810605576461402
1759839081.2991965,0,-1.2050001621246338,-0.8299998044967651,-0.7174069745645938,0.005235987755982988,-1.7349270950170312,-0.35046594626259825,-0.7177036395642471,0.0078115596871842965
1759839081.3155518,0,-1.2049604720993286,-0.8300381886798864,-0.7174103982325647,0.005625117382104125,-1.734926719800969,-0.35046740164293017,-0.7177036396003899,0.007833763175822805
1759839081.321323,0,-1.2049516345693139,-0.8300459105010127,-0.7174007553801488,0.005638564297051841,-1.7349262445047748,-0.35046940312673147,-0.7177036396342431,0.007859356283437171
1759839081.3326347,0,-1.204946415725066,-0.8300504701294559,-0.7173818916511531,0.005638564297051841,-1.7349268581603208,-0.3504670057194532,-0.7177036396685466,0.007824485869289306
1759839081.3427696,0,-1.2049432880986017,-0.8300537380765467,-0.7173597767494829,0.005684800941868307,-1.7349271308308076,-0.3504657897774016,-0.71770363969789,0.007810445132831437
1759839081.3533757,0,-1.2049404624218527,-0.8300581451981539,-0.7173454132454942,0.005752852215316095,-1.7349271202171914,-0.3504657155061941,-0.7177036397284241,0.007812822374850582
1759839081.3641162,0,-1.2049339544410256,-0.8300650028846327,-0.7173340091510589,0.006355458164944628,-1.7349268503013033,-0.3504667613246581,-0.7177036397532528,0.007828792516354623
1759839081.375473,0,-1.2049278015698168,-0.8300770885395419,-0.7172874020856326,0.0068458680057914365,-1.7349263263089238,-0.35046894806177925,-0.7177036397749573,0.00785689532849691
1759839081.3864326,0,-1.2049277733368073,-0.8300771132039695,-0.7172918554756326,0.0068458680057914365,-1.7349255928016885,-0.35047214349420713,-0.7177036397910199,0.007894206287630061
1759839081.3973024,0,-1.2049221407112374,-0.8300921769960602,-0.7172536328100786,0.007246681963526121,-1.7349260004233924,-0.3504707499594677,-0.7177036398128832,0.00786782369333094
1759839081.4079227,0,-1.2049170262225362,-0.8301086696412157,-0.7172645699049706,0.007572266749921024,-1.734926086631759,-0.3504704791550697,-0.717703639832842,0.007861150272316911
1759839081.4186234,0,-1.2049123550139174,-0.8301256266933561,-0.7172427003299329,0.007838564951568632,-1.734925900105026,-0.35047129059107995,-0.7177036398513417,0.007870008357182327
1759839081.4295082,0,-1.2049083173484285,-0.830141865125032,-0.7172101589213686,0.008045308853581873,-1.734925475509156,-0.3504731448394918,-0.7177036398600901,0.007891390147710562
1759839081.440409,0,-1.204904528856739,-0.8301577020200616,-0.7172173580817047,0.00822107036785273,-1.7349248293552613,-0.35047600852915667,-0.7177036398730626,0.007923281759548685
1759839081.450493,0,-1.2049046078962715,-0.830157633021493,-0.7172205467815557,0.00822107036785273,-1.7349254772907923,-0.35047363062811826,-0.7177036398892911,0.007884094367844641
1759839081.4617662,0,-1.204897960270278,-0.830186736117946,-0.7172069696960146,0.008493131300778469,-1.7349257603261505,-0.35047249380351153,-0.717703639910948,0.00786792741918938
1759839081.4729145,0,-1.2048956501027044,-0.8301983632133306,-0.7171894511719772,0.00857495287664158,-1.7349257214662508,-0.350472591042348,-0.7177036399317158,0.007870086631919257
1759839081.4835176,0,-1.2048936320895662,-0.830208817487887,-0.7171818639394767,0.008645737383174583,-1.7349254361760267,-0.3504737590950347,-0.7177036399502904,0.007885556095004732
1759839081.4943516,0,-1.2048915954900672,-0.830218825468872,-0.7172211804477536,0.008711760277750667,-1.7349249188477298,-0.3504759791778174,-0.7177036399664986,0.007912384303167156
1759839081.5058126,0,-1.2048896456849618,-0.8302281113528008,-0.7172012014496231,0.008770896315602317,-1.73492548388431,-0.3504738187080216,-0.7177036399874555,0.007879391615824578
1759839081.5186262,0,-1.2001547962087722,-0.8348063289251968,-0.713231813203025,0.05531817511717042,-1.7349256527146697,-0.3504730853002831,-0.7177036400086344,0.007870271237680939
1759839081.5290926,0,-1.1984168479821393,-0.8363017947823027,-0.7101597740228655,0.055334960616099375,-1.7349255513562296,-0.3504734536755163,-0.7177036400264871,0.007876537256796597
1759839081.5392373,0,-1.1977562052323536,-0.8368661728267093,-0.7079310413359304,0.055334960616099375,-1.7349252085554012,-0.350474868064269,-0.7177036400400152,0.007895117531905794
1759839081.5497305,0,-1.1974253714356662,-0.8371566951785946,-0.7062119789469058,0.05582030867410377,-1.734924644561997,-0.35047729707214115,-0.7177036400518615,0.007924149957718115
1759839081.560118,0,-1.1972613010330593,-0.8373075311082527,-0.704966371819801,0.056217510451329764,-1.7349252328843483,-0.35047506241018583,-0.7177036400682083,0.007889547407734131
1759839081.5704901,0,-1.197169137655102,-0.8373988065888531,-0.7040660305333638,0.0565452302597158,-1.7349254919503303,-0.3504739761676085,-0.7177036400835538,0.00787562899263186
1759839081.58118,0,-1.1969042225751063,-0.8376635878284066,-0.7030190539986628,0.05790316942478362,-1.7349249879809754,-0.35047446013120537,-0.7177036400985524,0.007940968723207494
1759839081.5920942,0,-1.1968014119281607,-0.8377740039026883,-0.7023883105377848,0.05840420109382662,-1.7349242038855175,-0.3504766966411024,-0.7177036401122925,0.0080090265847866
1759839081.6030426,0,-1.1967966476750507,-0.8377773428122967,-0.7020721908499175,0.05840420109382662,-1.7349240392976506,-0.35047540598058785,-0.7177036401262405,0.008695681070554729
1759839081.6134949,0,-1.1966644821707302,-0.837937244863129,-0.7016261493978533,0.05914604157928733,-1.7349226164262936,-0.35048289854429354,-0.7177036401406337,0.009267474542327521
1759839081.6247241,0,-1.1966555928835618,-0.83794438319046,-0.7014510207333655,0.05914604157928733,-1.7349204152087785,-0.35049622018258314,-0.7177036401514711,0.009743279795637817
1759839081.635499,0,-1.196605630433197,-0.8380073123257223,-0.7012563637241247,0.059411775738441516,-1.7349176028242126,-0.35051337056433646,-0.7177036401557372,0.010149148688421197
1759839081.6467233,0,-1.1965578006783717,-0.8380671827163042,-0.7010906950700418,0.05962822605284467,-1.7349143608068758,-0.3505330375046641,-0.7177036401614236,0.010500242311429342
1759839081.6578732,0,-1.1965216229086624,-0.838116110126224,-0.7009901837094172,0.059808954430254704,-1.7349108267600153,-0.35055426816257357,-0.7177036401677958,0.010807861624968738
1759839081.6690264,0,-1.1964919351663825,-0.8381583571468733,-0.7008894726331804,0.05996086210454698,-1.7349089290155297,-0.350569228805336,-0.7177036401788853,0.010975943287871702
1759839081.6798954,0,-1.1964712478971034,-0.8381918506311835,-0.7008692940854897,0.06008977553653197,-1.7349067550293011,-0.3505846489495675,-0.7177036401898724,0.01113374282696844
1759839081.691049,0,-1.1964493096376578,-0.838221475747181,-0.7008060943110103,0.06017323627977247,-1.734904430805527,-0.35060018348050026,-0.7177036401996371,0.011281431960098544
1759839081.7014284,0,-1.1964424672830125,-0.8382379849786025,-0.7007847025893632,0.060248289252833626,-1.7349019199053186,-0.35061601958856164,-0.7177036402082471,0.011423442216414637
1759839081.7115917,0,-1.1964352521754047,-0.8382542625926377,-0.7008009772588826,0.060315102316704575,-1.7348993029189084,-0.3506319065343938,-0.7177036402156846,0.011559264657046781
1759839081.722694,0,-1.1874847153787407,-0.8459050171987788,-0.689801781092046,0.10234406608850526,-1.7348984808423389,-0.3506402739045838,-0.7177036402251873,0.011584906324084928
1759839081.7330647,0,-1.1841100612995994,-0.8486141264899121,-0.6809494544205699,0.10239921443469538,-1.7348973785957227,-0.3506488965411876,-0.7177036402336753,0.011627048821399906
1759839081.7432604,0,-1.1825544641904713,-0.8498592285220258,-0.673929797077747,0.1033028751627631,-1.7348960646701088,-0.35065782240689813,-0.717703640241532,0.011681155352148693
1759839081.7547503,0,-1.1817745457862638,-0.8504870915519614,-0.6686053987665296,0.10402491846254582,-1.7348933162053095,-0.35066838856210164,-0.7177036402488274,0.011905781813609923
1759839081.765239,0,-1.1813791300157088,-0.8508121559649567,-0.6647432286005304,0.10461306935379971,-1.7348903828582733,-0.3506809768741735,-0.7177036402555131,0.01210903659365983
1759839081.7762797,0,-1.1811111869861992,-0.851038193421529,-0.661812642524275,0.10509444413135254,-1.7348881393000484,-0.3506879174427752,-0.717703640263868,0.013920406111465469
1759839081.7877324,0,-1.1809138785679567,-0.8512096860685506,-0.659592525784184,0.10549054384804447,-1.7348834540382383,-0.3507147122091492,-0.7177036402714719,0.015398662659641515
1759839081.7985327,0,-1.1807819466820078,-0.8513261778781961,-0.6579784728389341,0.10580654071696778,-1.7348769698339523,-0.35075408543186753,-0.7177036402782102,0.016631154489639515
1759839081.81071,0,-1.1806359630346561,-0.851453461505433,-0.6566515655283964,0.10606669424835602,-1.7348692641971606,-0.3508015347979646,-0.717703640284258,0.017671687813989114
1759839081.821826,0,-1.1805608383940152,-0.8515263391557655,-0.6558207101760675,0.1062825610056728,-1.7348608274085504,-0.3508536070182817,-0.7177036402895642,0.018557059949754835
1759839081.8332038,0,-1.180484994912194,-0.8515994955061974,-0.6551704852935356,0.10646362869173621,-1.7348547339168583,-0.3508976200890694,-0.7177036402956752,0.019153090171120667
1759839081.8445013,0,-1.180425088887749,-0.8516600097162638,-0.6546774187250914,0.10661679187627167,-1.7348482451558003,-0.35094218769267366,-0.717703640301075,0.01967555887151793
1759839081.8552957,0,-1.1803892207042075,-0.8516955388817542,-0.6544101603405074,0.10671998173142802,-1.7348417348395124,-0.35098588850450124,-0.7177036403064688,0.020130897545552983
1759839081.8661194,0,-1.180351700991065,-0.8517327728290951,-0.6542137904646356,0.10681123138697476,-1.734834958155856,-0.3510294150591496,-0.7177036403113317,0.020545490676977748
1759839081.8770936,0,-1.1803144885435228,-0.8517698086824548,-0.6540496863460302,0.10689078691690733,-1.7348281308066855,-0.3510720632682613,-0.7177036403159157,0.02092290180231564
1759839081.887361,0,-1.1803035256737429,-0.8517868832105344,-0.6540116080107452,0.10696100565527879,-1.7348246179122215,-0.35110071421325967,-0.7177036403219776,0.021078655039121198
1759839081.897686,0,-1.1802842872252157,-0.8518102952809464,-0.6539974856756356,0.10702403712605456,-1.734820833011874,-0.3511283460036621,-0.7177036403273755,0.02124382031497066
1759839081.9082985,0,-1.1802601031013746,-0.8518315028227976,-0.6539517042137721,0.10705350827314464,-1.7348168452714776,-0.3511552820538699,-0.717703640332187,0.021416025056804507
1759839081.9232872,0,-1.169154871607139,-0.8599990708576933,-0.6387138081131813,0.12443944930707668,-1.7348123138339366,-0.3511832510710213,-0.7177036403374419,0.021612191454240808
1759839081.9341452,0,-1.165063576633061,-0.8629120499527863,-0.6270174907047821,0.12443944930707668,-1.7348076722655585,-0.351210818328137,-0.717703640341426,0.02181044638020453
1759839081.9444501,0,-1.1633815296376464,-0.8640976612845656,-0.6183422305274134,0.12464328674297118,-1.7348063721011613,-0.3512242748075787,-0.7177036403461644,0.021816577055771228
1759839081.9547348,0,-1.1626351681713671,-0.8646160247925154,-0.6119333192225964,0.12481394825558796,-1.7348045608794278,-0.35123821335533234,-0.7177036403504551,0.021861330120254437
1759839081.9659026,0,-1.1619469516063157,-0.8650971888949137,-0.6063077114684842,0.1252357495826135,-1.7348010602923232,-0.35125415106101043,-0.7177036403548613,0.022100862948207376
1759839081.9768019,0,-1.1615916721866806,-0.8653375641473772,-0.6023021642590078,0.1254677218187113,-1.7347970729587683,-0.35127292013779887,-0.7177036403585386,0.02233777613482048
1759839081.9879544,0,-1.161543081502399,-0.8653611024732356,-0.5999464220943996,0.1254677218187113,-1.7347952840652563,-0.3512796571333924,-0.7177036403623983,0.024149909614354495
1759839081.9985564,0,-1.161156041715676,-0.8656334371447818,-0.5971551320607892,0.12582032737956944,-1.7347903690514603,-0.35130789638050847,-0.7177036403664476,0.025661916533041174
1759839082.0086756,0,-1.1610322484861078,-0.8657047213634164,-0.5956727995997085,0.12587811528490805,-1.7347836772016405,-0.3513496475348519,-0.7177036403700293,0.026917539461211108
1759839082.0192952,0,-1.16089688870065,-0.8657953006111105,-0.5944690305128018,0.12598590397954973,-1.7347752627432276,-0.3514009224773677,-0.7177036403730792,0.028002278059538227
1759839082.0303524,0,-1.1607756931202813,-0.865877560447993,-0.5935556165665401,0.12607915128810881,-1.7347658715868275,-0.3514580096721992,-0.7177036403754529,0.028939267927629284
1759839082.0415468,0,-1.1607628283209677,-0.8658843398190178,-0.5931330605382461,0.12607915128810881,-1.7347560565109001,-0.351517872969946,-0.7177036403771822,0.02975098106409004
1759839082.0523655,0,-1.1606868922619042,-0.865937906297441,-0.5926568165140761,0.12616010388914167,-1.7347504953604842,-0.3515611292749034,-0.7177036403800482,0.030202357249038636
1759839082.0636775,0,-1.1606044401554887,-0.8659964030797148,-0.5922853702911467,0.1262308599290326,-1.7347442195698701,-0.3516052846921954,-0.7177036403826703,0.03062970715037843
1759839082.0744898,0,-1.1605140106403309,-0.8660594527935529,-0.5919646263929387,0.12632326753787781,-1.7347375007121248,-0.3516497268297441,-0.7177036403852836,0.031033544679322587
1759839082.0852869,0,-1.1604797446381219,-0.8660821480015767,-0.5918559001541993,0.1263543050891114,-1.7347302844341408,-0.3516948496751225,-0.7177036403877529,0.031423921876375396
1759839082.0963004,0,-1.1604744464272856,-0.8660858355406602,-0.5918880402160093,0.1263543050891114,-1.7347228760354445,-0.3517396692554093,-0.71770364038959,0.03179795190765646
1759839082.1074584,0,-1.160434656369459,-0.8661135958965805,-0.5918441338533047,0.12638570172775657,-1.7347203620070233,-0.35176394463864685,-0.7177036403920701,0.031873304110381
1759839082.1214964,0,-1.1480777011123229,-0.8739214296972959,-0.575047977325542,0.13385826498002143,-1.734716761294378,-0.35179018345145413,-0.7177036403946004,0.03201287678654936
1759839082.1289415,0,-1.1435940450694724,-0.8766952588937913,-0.5627478507393332,0.13386539711824577,-1.7347129119126925,-0.3518159977984981,-0.7177036403970627,0.03216623298343581
1759839082.139054,0,-1.1417779016455811,-0.8777997900881732,-0.5533554988461183,0.13386539711824577,-1.734708603148849,-0.3518425090478812,-0.7177036403989208,0.03234486830689117
1759839082.1504395,0,-1.1408428628092846,-0.8783555053189557,-0.5459343435541231,0.13395227447118355,-1.7347036212521383,-0.35187103948700976,-0.7177036404005834,0.03255450931313476
1759839082.161154,0,-1.1404054160993946,-0.8786071176081002,-0.5405992549845465,0.1340283088313645,-1.734703588007128,-0.35187891212658134,-0.7177036404028759,0.03248750244223731
1759839082.1718466,0,-1.1401503297535303,-0.8787503589585407,-0.5367024257861812,0.13409727701728497,-1.7347024932214172,-0.3518892328259712,-0.7177036404048356,0.032494512903013195
1759839082.1832325,0,-1.139471011416033,-0.8791456000392851,-0.5322317512150068,0.13430515622213782,-1.7346997283049903,-0.3519031342373277,-0.7177036404071555,0.03265821035797748
1759839082.1938858,0,-1.139241062292667,-0.879273665256054,-0.5298195183058214,0.13418060213769498,-1.7346961391660878,-0.3519207109789513,-0.7177036404092918,0.03285081626139367
1759839082.205184,0,-1.1392145758227419,-0.8792829526611812,-0.5284610793544036,0.13438909224083617,-1.7346965485641523,-0.3519200117877367,-0.7177036404114533,0.03383043115371642
1759839082.21602,0,-1.138883444797956,-0.8794736499710367,-0.526673801598294,0.1338053897221616,-1.7346942702435735,-0.3519347888948092,-0.7177036404136223,0.03468700635393456
1759839082.2268376,0,-1.1387687538444646,-0.8795239474434542,-0.5257176057814332,0.13397328945558235,-1.734690173484687,-0.35196040475343754,-0.7177036404155654,0.03543692738599833
1759839082.2369876,0,-1.1386877132587587,-0.8795657074572684,-0.5251100686137621,0.1344008872556304,-1.7346844812254072,-0.3519940443710367,-0.7177036404171099,0.03611658142807624
1759839082.2473164,0,-1.1386907763258214,-0.8795632153296845,-0.5250289069272736,0.13379698605571622,-1.734677841337048,-0.35203301057029346,-0.7177036404182661,0.03672742834205341
1759839082.2582,0,-1.138583464818029,-0.8796214536095707,-0.5245861206366546,0.1339178195015306,-1.734676156686113,-0.3520525853299984,-0.7177036404198,0.036968220515776244
1759839082.2690318,0,-1.138447356986071,-0.8796958571949044,-0.5241148229879299,0.1340201611158559,-1.7346730734826317,-0.3520764168537407,-0.717703640421432,0.03723665595120488
1759839082.2799647,0,-1.138395248676061,-0.8797194549160887,-0.5240203175224718,0.133439449508235,-1.7346690120809478,-0.3521034119257439,-0.7177036404228915,0.037520506795167025
1759839082.2913175,0,-1.138337213698718,-0.8797482340141985,-0.5238278282444456,0.13411202200079123,-1.7346639152338479,-0.35213401320145954,-0.7177036404242234,0.03782614695935153
1759839082.3025057,0,-1.1383028917559015,-0.8797654455874747,-0.5238792961398466,0.1332980640050645,-1.7346579983359964,-0.3521675875622474,-0.7177036404254412,0.03814720558329011
1759839082.313367,0,-1.1383151955711164,-0.8797588223145792,-0.5239835954715125,0.13393125771101932,-1.7346576473193283,-0.3521783239889359,-0.7177036404267243,0.03813836305203813
1759839082.3256345,0,-1.124449267655345,-0.8872275489073524,-0.5063579581891431,0.14370561928703807,-1.7346558345404366,-0.3521931806225772,-0.7177036404279603,0.03821325159202611
1759839082.3367486,0,-1.1192015161051274,-0.889992522602634,-0.49242965578016606,0.14331682935109397,-1.7346529735820215,-0.3522112690788962,-0.7177036404291037,0.038345049182712886
1759839082.347368,0,-1.1168127195793698,-0.8912218562789792,-0.481426213200513,0.1435489146671277,-1.7346492060378347,-0.35223256651500345,-0.7177036404301737,0.03852072306116308
1759839082.358842,0,-1.1156353859591266,-0.8918097483151866,-0.47307422867146187,0.14389476051896982,-1.7346445060251712,-0.3522574734641856,-0.7177036404311126,0.038738633986267895
