timestamp,vehicle_id,x,y,theta,velocity,gps_available,dt,gps_x,gps_y,gps_theta,gps_velocity,control_steering,control_acceleration
1759839078.2904541,0,-1.205,-0.83,-0.7801621756414647,0.0,False,0.01,nan,nan,nan,nan,0.0,0.0
1759839078.3011997,0,-1.205,-0.83,-0.7801621756414647,0.0,False,0.010745525360107422,nan,nan,nan,nan,0.0,0.0
1759839078.3112943,0,-1.205,-0.83,-0.7801621756414647,0.0,False,0.010094642639160156,nan,nan,nan,nan,0.0,0.0
1759839078.3214273,0,-1.205,-0.83,-0.7801621756414647,0.0,False,0.010133028030395508,nan,nan,nan,nan,0.0,0.0
1759839078.3314936,0,-1.205,-0.83,-0.7801621756414647,0.0,False,0.01006627082824707,nan,nan,nan,nan,0.0,0.0
1759839078.3424737,0,-1.205,-0.83,-0.7801621756414647,0.0,False,0.01098012924194336,nan,nan,nan,nan,0.0,0.0
1759839078.352734,0,-1.205,-0.83,-0.7801621756414647,0.0,False,0.010260343551635742,nan,nan,nan,nan,0.0,0.0
1759839078.362822,0,-1.205,-0.83,-0.7801621756414647,0.0,False,0.010087966918945312,nan,nan,nan,nan,0.0,0.0
1759839078.3731666,0,-1.205,-0.83,-0.7801621756414647,0.0,False,0.010344505310058594,nan,nan,nan,nan,0.0,0.0
1759839078.3845787,0,-1.205,-0.83,-0.7801621756414647,0.0,False,0.01141214370727539,nan,nan,nan,nan,0.0,0.0
1759839078.3959715,0,-1.205,-0.83,-0.7801621756414647,0.0,False,0.011392831802368164,nan,nan,nan,nan,0.0,0.0
1759839078.4069486,0,-1.205,-0.83,-0.7801621756414647,0.0,False,0.010977029800415039,nan,nan,nan,nan,0.0,0.0
1759839078.418405,0,-1.205,-0.83,-0.7801621756414647,0.0,False,0.011456489562988281,nan,nan,nan,nan,0.0,0.0
1759839078.4285655,0,-1.205,-0.83,-0.7801621756414647,0.0,False,0.010160446166992188,nan,nan,nan,nan,0.0,0.0
1759839078.439826,0,-1.205,-0.83,-0.7801621756414647,0.0,False,0.011260509490966797,nan,nan,nan,nan,0.0,0.0
1759839078.4503653,0,-1.205,-0.83,-0.7801621756414647,0.0,False,0.01053929328918457,nan,nan,nan,nan,0.0,0.0
1759839078.461705,0,-1.205,-0.83,-0.7801621756414647,0.0,False,0.011339664459228516,nan,nan,nan,nan,0.0,0.0
1759839078.4723456,0,-1.205,-0.83,-0.7801621756414647,0.0,False,0.010640621185302734,nan,nan,nan,nan,0.0,0.0
1759839078.4869282,0,-1.2050001607735952,-0.8299998061259588,-0.722999340427048,0.0,True,0.014582633972167969,-1.2050001621246338,-0.8299998044967651,-0.7177030444145203,0.0,0.0,0.0
1759839078.4976144,0,-1.205000161673033,-0.8299998050413424,-0.7181172038174033,0.0,True,0.010686159133911133,-1.2050001621246338,-0.8299998044967651,-0.7177030444145203,0.0,0.0,0.0
1759839078.5090175,0,-1.2050001619552244,-0.8299998047010527,-0.717654422944916,0.0,True,0.011403083801269531,-1.2050001621246338,-0.8299998044967651,-0.7177030444145203,0.0,0.0,0.0
1759839078.5190244,0,-1.2050001620600936,-0.8299998045745929,-0.7175988422838913,0.0,True,0.010006904602050781,-1.2050001621246338,-0.8299998044967651,-0.7177030444145203,0.0,0.0,0.0
1759839078.53018,0,-1.205000162099991,-0.8299998045264814,-0.7175897484388916,0.0,True,0.01115560531616211,-1.2050001621246338,-0.8299998044967651,-0.7177030444145203,0.0,0.0,0.0
1759839078.5405078,0,-1.2050001621152215,-0.8299998045081151,-0.7175979200220333,0.0,True,0.010327816009521484,-1.2050001621246338,-0.8299998044967651,-0.7177030444145203,0.0,0.0,0.0
1759839078.5507395,0,-1.2050001621210387,-0.8299998045011003,-0.7176095349857512,0.0,True,0.010231733322143555,-1.2050001621246338,-0.8299998044967651,-0.7177030444145203,0.0,0.0,0.0
1759839078.5608215,0,-1.2050001621232607,-0.829999804498421,-0.7176210854743807,0.0,True,0.010082006454467773,-1.2050001621246338,-0.8299998044967651,-0.7177030444145203,0.0,0.0,0.0
1759839078.5713239,0,-1.2050001621241093,-0.8299998044973976,-0.7176306088262159,0.0,True,0.010502338409423828,-1.2050001621246338,-0.8299998044967651,-0.7177030444145203,0.0,0.0,0.0
1759839078.582907,0,-1.2050001621244335,-0.8299998044970067,-0.7176377831270848,0.0,True,0.011583089828491211,-1.2050001621246338,-0.8299998044967651,-0.7177030444145203,0.0,0.0,0.0
1759839078.5935156,0,-1.2050001621245572,-0.8299998044968574,-0.7176456964947953,0.0,True,0.010608673095703125,-1.2050001621246338,-0.8299998044967651,-0.7177030444145203,0.0,0.0,0.0
1759839078.6041412,0,-1.2050001621246045,-0.8299998044968003,-0.7176523052088619,0.0,True,0.010625600814819336,-1.2050001621246338,-0.8299998044967651,-0.7177030444145203,0.0,0.0,0.0
1759839078.6151676,0,-1.2050001621246227,-0.8299998044967786,-0.7176574414742927,0.0,True,0.011026382446289062,-1.2050001621246338,-0.8299998044967651,-0.7177030444145203,0.0,0.0,0.0
1759839078.6259973,0,-1.2050001621246296,-0.8299998044967702,-0.7176620161115927,0.0,True,0.010829687118530273,-1.2050001621246338,-0.8299998044967651,-0.7177030444145203,0.0,0.0,0.0
1759839078.6362727,0,-1.2050001621246322,-0.8299998044967671,-0.717666294527664,0.0,True,0.01027536392211914,-1.2050001621246338,-0.8299998044967651,-0.7177030444145203,0.0,0.0,0.0
1759839078.646581,0,-1.2050001621246331,-0.8299998044967659,-0.7176697803242966,0.0,True,0.010308265686035156,-1.2050001621246338,-0.8299998044967651,-0.7177030444145203,0.0,0.0,0.0
1759839078.657983,0,-1.2050001621246336,-0.8299998044967655,-0.7176720241586789,0.0,True,0.011402130126953125,-1.2050001621246338,-0.8299998044967651,-0.7177030444145203,0.0,0.0,0.0
1759839078.6695437,0,-1.2050001621246338,-0.8299998044967652,-0.7176740529109793,0.0,True,0.011560678482055664,-1.2050001621246338,-0.8299998044967651,-0.7177030444145203,0.0,0.0,0.0
1759839078.679751,0,-1.2050001621246338,-0.8299998044967651,-0.7176766936456183,0.0,True,0.010207176208496094,-1.2050001621246338,-0.8299998044967651,-0.7177030444145203,0.0,0.0,0.0
1759839078.6905677,0,-1.2050001621246338,-0.8299998044967651,-0.7176786168441751,0.0,True,0.010816812515258789,-1.2050001621246338,-0.8299998044967651,-0.7177030444145203,0.0,0.0,0.0
1759839078.7019198,0,-1.2050001621246338,-0.8299998044967651,-0.7176800524149947,0.0,True,0.011352062225341797,-1.2050001621246338,-0.8299998044967651,-0.7177030444145203,0.0,0.0,0.0
1759839078.7121658,0,-1.2050001621246338,-0.8299998044967651,-0.7176818702687449,0.0,True,0.010246038436889648,-1.2050001621246338,-0.8299998044967651,-0.7177030444145203,0.0,0.0,0.0
1759839078.7236938,0,-1.2050001621246338,-0.8299998044967651,-0.717682916887771,0.0,True,0.01152801513671875,-1.2050001621246338,-0.8299998044967651,-0.7177030444145203,0.0,0.0,0.0
1759839078.7341921,0,-1.2050001621246338,-0.8299998044967651,-0.7176843138570739,0.0,True,0.010498285293579102,-1.2050001621246338,-0.8299998044967651,-0.7177030444145203,0.0,0.0,0.0
1759839078.7449143,0,-1.2050001621246338,-0.8299998044967651,-0.7176854659570928,0.0,True,0.010722160339355469,-1.2050001621246338,-0.8299998044967651,-0.7177030444145203,0.0,0.0,0.0
1759839078.7551131,0,-1.2050001621246338,-0.8299998044967651,-0.7176866625182541,0.0,True,0.010198831558227539,-1.2050001621246338,-0.8299998044967651,-0.7177030444145203,0.0,0.0,0.0
1759839078.765606,0,-1.2050001621246338,-0.8299998044967651,-0.7176875965047458,0.0,True,0.010492801666259766,-1.2050001621246338,-0.8299998044967651,-0.7177030444145203,0.0,0.0,0.0
1759839078.7763398,0,-1.2050001621246338,-0.8299998044967651,-0.7176883500270144,0.0,True,0.010733842849731445,-1.2050001621246338,-0.8299998044967651,-0.7177030444145203,0.0,0.0,0.0
1759839078.78682,0,-1.2050001621246338,-0.8299998044967651,-0.7176891253818134,0.0,True,0.010480165481567383,-1.2050001621246338,-0.8299998044967651,-0.7177030444145203,0.0,0.0,0.0
1759839078.7973664,0,-1.2050001621246338,-0.8299998044967651,-0.7176898143362287,0.0,True,0.010546445846557617,-1.2050001621246338,-0.8299998044967651,-0.7177030444145203,0.0,0.0,0.0
1759839078.8073776,0,-1.2050001621246338,-0.8299998044967651,-0.7176905888824088,0.0,True,0.01001119613647461,-1.2050001621246338,-0.8299998044967651,-0.7177030444145203,0.0,0.0,0.0
1759839078.818412,0,-1.2050001621246338,-0.8299998044967651,-0.7176910061098525,0.0,True,0.011034488677978516,-1.2050001621246338,-0.8299998044967651,-0.7177030444145203,0.0,0.0,0.0
1759839078.8296485,0,-1.2050001621246338,-0.8299998044967651,-0.7176913797074658,0.0,True,0.011236429214477539,-1.2050001621246338,-0.8299998044967651,-0.7177030444145203,0.0,0.0,0.0
1759839078.8398318,0,-1.2050001621246338,-0.8299998044967651,-0.7176920298109994,0.0,True,0.010183334350585938,-1.2050001621246338,-0.8299998044967651,-0.7177030444145203,0.0,0.0,0.0
1759839078.8499234,0,-1.2050001621246338,-0.8299998044967651,-0.7176926346658732,0.0,True,0.010091543197631836,-1.2050001621246338,-0.8299998044967651,-0.7177030444145203,0.0,0.0,0.0
1759839078.8600824,0,-1.2050001621246338,-0.8299998044967651,-0.7176931464497116,0.0,True,0.010159015655517578,-1.2050001621246338,-0.8299998044967651,-0.7177030444145203,0.0,0.0,0.0
1759839078.8702643,0,-1.2050001621246338,-0.8299998044967651,-0.7176935956578294,0.0,True,0.010181903839111328,-1.2050001621246338,-0.8299998044967651,-0.7177030444145203,0.0,0.0,0.0
1759839078.880377,0,-1.2050001621246338,-0.8299998044967651,-0.7176940163876324,0.0,True,0.010112762451171875,-1.2050001621246338,-0.8299998044967651,-0.7177030444145203,0.0,0.0,0.0
1759839078.8915439,0,-1.2050001621246338,-0.8299998044967651,-0.7176941982318432,0.0,True,0.011166810989379883,-1.2050001621246338,-0.8299998044967651,-0.7177030444145203,0.0,0.0,0.0
1759839078.9029584,0,-1.2050001621246338,-0.8299998044967651,-0.7176943706316585,0.0,True,0.011414527893066406,-1.2050001621246338,-0.8299998044967651,-0.7177030444145203,0.0,0.0,0.0
1759839078.9135597,0,-1.2050001621246338,-0.8299998044967651,-0.7176947368896744,0.0,True,0.010601282119750977,-1.2050001621246338,-0.8299998044967651,-0.7177030444145203,0.0,0.0,0.0
1759839078.924385,0,-1.2050001621246338,-0.8299998044967651,-0.7176950531438067,0.0,True,0.010825395584106445,-1.2050001621246338,-0.8299998044967651,-0.7177030444145203,0.0,0.0,0.0
1759839078.9349902,0,-1.2050001621246338,-0.8299998044967651,-0.7176953928277356,0.0,True,0.010605096817016602,-1.2050001621246338,-0.8299998044967651,-0.7177030444145203,0.0,0.0,0.0
1759839078.9466426,0,-1.2050001621246338,-0.8299998044967651,-0.717695548249683,0.0,True,0.011652469635009766,-1.2050001621246338,-0.8299998044967651,-0.7177030444145203,0.0,0.0,0.0
1759839078.9570863,0,-1.2050001621246338,-0.8299998044967651,-0.7176959154723725,0.0,True,0.010443687438964844,-1.2050001621246338,-0.8299998044967651,-0.7177030444145203,0.0,0.0,0.0
1759839078.9687123,0,-1.2050001621246338,-0.8299998044967651,-0.7176960855541914,0.0,True,0.011626005172729492,-1.2050001621246338,-0.8299998044967651,-0.7177030444145203,0.0,0.0,0.0
1759839078.979536,0,-1.2050001621246338,-0.8299998044967651,-0.717696384504162,0.0,True,0.010823726654052734,-1.2050001621246338,-0.8299998044967651,-0.7177030444145203,0.0,0.0,0.0
1759839078.989932,0,-1.2050001621246338,-0.8299998044967651,-0.7176967257263378,0.0,True,0.010396003723144531,-1.2050001621246338,-0.8299998044967651,-0.7177030444145203,0.0,0.0,0.0
1759839079.0012295,0,-1.2050001621246338,-0.8299998044967651,-0.7176969127325794,0.0,True,0.011297464370727539,-1.2050001621246338,-0.8299998044967651,-0.7177030444145203,0.0,0.0,0.0
1759839079.0117376,0,-1.2050001621246338,-0.8299998044967651,-0.7176971981157099,0.0,True,0.010508060455322266,-1.2050001621246338,-0.8299998044967651,-0.7177030444145203,0.0,0.0,0.0
1759839079.0221074,0,-1.2050001621246338,-0.8299998044967651,-0.7176974760819448,0.0,True,0.01036977767944336,-1.2050001621246338,-0.8299998044967651,-0.7177030444145203,0.0,0.0,0.0
1759839079.033151,0,-1.2050001621246338,-0.8299998044967651,-0.7176976459106434,0.0,True,0.011043548583984375,-1.2050001621246338,-0.8299998044967651,-0.7177030444145203,0.0,0.0,0.0
1759839079.0441947,0,-1.2050001621246338,-0.8299998044967651,-0.7176978145052093,0.0,True,0.011043787002563477,-1.2050001621246338,-0.8299998044967651,-0.7177030444145203,0.0,0.0,0.0
1759839079.0551429,0,-1.2050001621246338,-0.8299998044967651,-0.7176979964026522,0.0,True,0.01094818115234375,-1.2050001621246338,-0.8299998044967651,-0.7177030444145203,0.0,0.0,0.0
1759839079.066205,0,-1.2050001621246338,-0.8299998044967651,-0.7176981639842914,0.0,True,0.011062145233154297,-1.2050001621246338,-0.8299998044967651,-0.7177030444145203,0.0,0.0,0.0
1759839079.0773299,0,-1.2050001621246338,-0.8299998044967651,-0.717698324333977,0.0,True,0.011124849319458008,-1.2050001621246338,-0.8299998044967651,-0.7177030444145203,0.0,0.0,0.0
1759839079.0887947,0,-1.2050001621246338,-0.8299998044967651,-0.7176984528275483,0.0,True,0.011464834213256836,-1.2050001621246338,-0.8299998044967651,-0.7177030444145203,0.0,0.0,0.0
1759839079.099044,0,-1.2050001621246338,-0.8299998044967651,-0.7176987002242825,0.0,True,0.01024937629699707,-1.2050001621246338,-0.8299998044967651,-0.7177030444145203,0.0,0.0,0.0
1759839079.1103737,0,-1.2050001621246338,-0.8299998044967651,-0.7176988246943523,0.0,True,0.01132965087890625,-1.2050001621246338,-0.8299998044967651,-0.7177030444145203,0.0,0.0,0.0
1759839079.121079,0,-1.2050001621246338,-0.8299998044967651,-0.7176990015362534,0.0,True,0.010705232620239258,-1.2050001621246338,-0.8299998044967651,-0.7177030444145203,0.0,0.0,0.0
1759839079.1318672,0,-1.2050001621246338,-0.8299998044967651,-0.7176991601769505,0.0,True,0.010788202285766602,-1.2050001621246338,-0.8299998044967651,-0.7177030444145203,0.0,0.0,0.0
1759839079.1428237,0,-1.2050001621246338,-0.8299998044967651,-0.7176992944678666,0.0,True,0.010956525802612305,-1.2050001621246338,-0.8299998044967651,-0.7177030444145203,0.0,0.0,0.0
1759839079.1540709,0,-1.2050001621246338,-0.8299998044967651,-0.7176994021005019,0.0,True,0.01124715805053711,-1.2050001621246338,-0.8299998044967651,-0.7177030444145203,0.0,0.0,0.0
1759839079.1643577,0,-1.2050001621246338,-0.8299998044967651,-0.7176995831502282,0.0,True,0.010286808013916016,-1.2050001621246338,-0.8299998044967651,-0.7177030444145203,0.0,0.0,0.0
1759839079.174905,0,-1.2050001621246338,-0.8299998044967651,-0.7176997265930005,0.0,True,0.010547399520874023,-1.2050001621246338,-0.8299998044967651,-0.7177030444145203,0.0,0.0,0.0
1759839079.1863163,0,-1.2050001621246338,-0.8299998044967651,-0.7176997967842773,0.0,True,0.011411190032958984,-1.2050001621246338,-0.8299998044967651,-0.7177030444145203,0.0,0.0,0.0
1759839079.1965623,0,-1.2050001621246338,-0.8299998044967651,-0.717699951923251,0.0,True,0.010246038436889648,-1.2050001621246338,-0.8299998044967651,-0.7177030444145203,0.0,0.0,0.0
1759839079.2067554,0,-1.2050001621246338,-0.8299998044967651,-0.7177000961152036,0.0,True,0.010193109512329102,-1.2050001621246338,-0.8299998044967651,-0.7177030444145203,0.0,0.0,0.0
1759839079.2174628,0,-1.2050001621246338,-0.8299998044967651,-0.7177001906672089,0.0,True,0.010707378387451172,-1.2050001621246338,-0.8299998044967651,-0.7177030444145203,0.0,0.0,0.0
1759839079.2279649,0,-1.2050001621246338,-0.8299998044967651,-0.7177002930750955,0.0,True,0.010502099990844727,-1.2050001621246338,-0.8299998044967651,-0.7177030444145203,0.0,0.0,0.0
1759839079.2389376,0,-1.2050001621246338,-0.8299998044967651,-0.7177003633092411,0.0,True,0.010972738265991211,-1.2050001621246338,-0.8299998044967651,-0.7177030444145203,0.0,0.0,0.0
1759839079.2492583,0,-1.2050001621246338,-0.8299998044967651,-0.7177004729362118,0.0,True,0.010320663452148438,-1.2050001621246338,-0.8299998044967651,-0.7177030444145203,0.0,0.0,0.0
1759839079.260281,0,-1.2050001621246338,-0.8299998044967651,-0.7177005371426564,0.0,True,0.011022806167602539,-1.2050001621246338,-0.8299998044967651,-0.7177030444145203,0.0,0.0,0.0
1759839079.2707095,0,-1.2050001621246338,-0.8299998044967651,-0.7177006348507078,0.0,True,0.010428428649902344,-1.2050001621246338,-0.8299998044967651,-0.7177030444145203,0.0,0.0,0.0
1759839079.2808921,0,-1.2050001621246338,-0.8299998044967651,-0.7177007392884054,0.0,True,0.010182619094848633,-1.2050001621246338,-0.8299998044967651,-0.7177030444145203,0.0,0.0,0.0
1759839079.291676,0,-1.2050001621246338,-0.8299998044967651,-0.7177008037101302,0.0,True,0.010783910751342773,-1.2050001621246338,-0.8299998044967651,-0.7177030444145203,0.0,0.0,0.0
1759839079.3028765,0,-1.2050001621246338,-0.8299998044967651,-0.717700848224986,0.0,True,0.011200428009033203,-1.2050001621246338,-0.8299998044967651,-0.7177030444145203,0.0,0.0,0.0
1759839079.3138998,0,-1.2050001621246338,-0.8299998044967651,-0.7177009082512988,0.0,True,0.011023283004760742,-1.2050001621246338,-0.8299998044967651,-0.7177030444145203,0.0,0.0,0.0
1759839079.3248096,0,-1.2050001621246338,-0.8299998044967651,-0.7177009770108249,0.0,True,0.010909795761108398,-1.2050001621246338,-0.8299998044967651,-0.7177030444145203,0.0,0.0,0.0
1759839079.3357036,0,-1.2050001621246338,-0.8299998044967651,-0.7177010462260665,0.0,True,0.010894060134887695,-1.2050001621246338,-0.8299998044967651,-0.7177030444145203,0.0,0.0,0.0
1759839079.3470309,0,-1.2050001621246338,-0.8299998044967651,-0.7177010963484847,0.0,True,0.011327266693115234,-1.2050001621246338,-0.8299998044967651,-0.7177030444145203,0.0,0.0,0.0
1759839079.3584876,0,-1.2050001621246338,-0.8299998044967651,-0.7177011451514748,0.0,True,0.011456727981567383,-1.2050001621246338,-0.8299998044967651,-0.7177030444145203,0.0,0.0,0.0
1759839079.369838,0,-1.2050001621246338,-0.8299998044967651,-0.7177012029053689,0.0,True,0.011350393295288086,-1.2050001621246338,-0.8299998044967651,-0.7177030444145203,0.0,0.0,0.0
1759839079.3811858,0,-1.2050001621246338,-0.8299998044967651,-0.7177012627061643,0.0,True,0.011347770690917969,-1.2050001621246338,-0.8299998044967651,-0.7177030444145203,0.0,0.0,0.0
1759839079.3915188,0,-1.2050001621246338,-0.8299998044967651,-0.7177013581842822,0.0,True,0.010333061218261719,-1.2050001621246338,-0.8299998044967651,-0.7177030444145203,0.0,0.0,0.0
1759839079.4017372,0,-1.2050001621246338,-0.8299998044967651,-0.7177014458226232,0.0,True,0.010218381881713867,-1.2050001621246338,-0.8299998044967651,-0.7177030444145203,0.0,0.0,0.0
1759839079.4123974,0,-1.2050001621246338,-0.8299998044967651,-0.7177015061571552,0.0,True,0.010660171508789062,-1.2050001621246338,-0.8299998044967651,-0.7177030444145203,0.0,0.0,0.0
1759839079.4235501,0,-1.2050001621246338,-0.8299998044967651,-0.7177015454431661,0.0,True,0.01115274429321289,-1.2050001621246338,-0.8299998044967651,-0.7177030444145203,0.0,0.0,0.0
1759839079.4341688,0,-1.2050001621246338,-0.8299998044967651,-0.7177016028050183,0.0,True,0.01061868667602539,-1.2050001621246338,-0.8299998044967651,-0.7177030444145203,0.0,0.0,0.0
1759839079.4451787,0,-1.2050001621246338,-0.8299998044967651,-0.7177016456616929,0.0,True,0.011009931564331055,-1.2050001621246338,-0.8299998044967651,-0.7177030444145203,0.0,0.0,0.0
1759839079.4560955,0,-1.2050001621246338,-0.8299998044967651,-0.7177016910065923,0.0,True,0.010916709899902344,-1.2050001621246338,-0.8299998044967651,-0.7177030444145203,0.0,0.0,0.0
1759839079.4674304,0,-1.2050001621246338,-0.8299998044967651,-0.7177017243208468,0.0,True,0.011334896087646484,-1.2050001621246338,-0.8299998044967651,-0.7177030444145203,0.0,0.0,0.0
1759839079.4786763,0,-1.2050001621246338,-0.8299998044967651,-0.7177017626364108,0.0,True,0.011245965957641602,-1.2050001621246338,-0.8299998044967651,-0.7177030444145203,0.0,0.0,0.0
1759839079.4934905,0,-1.2050001621246338,-0.8299998044967651,-0.7177017125166198,0.0,True,0.014814138412475586,-1.2050001621246338,-0.8299998044967651,-0.7177030444145203,0.0,0.0,0.0
1759839079.5002127,0,-1.2050001621246338,-0.8299998044967651,-0.717701889157091,0.0,True,0.006722211837768555,-1.2050001621246338,-0.8299998044967651,-0.7177030444145203,0.0,0.0,0.0
1759839079.5112514,0,-1.2050001621246338,-0.8299998044967651,-0.717701928233998,0.0,True,0.011038780212402344,-1.2050001621246338,-0.8299998044967651,-0.7177030444145203,0.0,0.0,0.0
1759839079.522139,0,-1.2050001621246338,-0.8299998044967651,-0.7177019619780047,0.0,True,0.010887622833251953,-1.2050001621246338,-0.8299998044967651,-0.7177030444145203,0.0,0.0,0.0
1759839079.5329175,0,-1.2050001621246338,-0.8299998044967651,-0.717701997931341,0.0,True,0.010778427124023438,-1.2050001621246338,-0.8299998044967651,-0.7177030444145203,0.0,0.0,0.0
1759839079.5438643,0,-1.2050001621246338,-0.8299998044967651,-0.7177020293502281,0.0,True,0.01094675064086914,-1.2050001621246338,-0.8299998044967651,-0.7177030444145203,0.0,0.0,0.0
1759839079.5546048,0,-1.2050001621246338,-0.8299998044967651,-0.7177020650310819,0.0,True,0.010740518569946289,-1.2050001621246338,-0.8299998044967651,-0.7177030444145203,0.0,0.0,0.0
1759839079.5649445,0,-1.2050001621246338,-0.8299998044967651,-0.71770210738093,0.0,True,0.010339736938476562,-1.2050001621246338,-0.8299998044967651,-0.7177030444145203,0.0,0.0,0.0
1759839079.575647,0,-1.2050001621246338,-0.8299998044967651,-0.717702138591175,0.0,True,0.01070261001586914,-1.2050001621246338,-0.8299998044967651,-0.7177030444145203,0.0,0.0,0.0
1759839079.5858088,0,-1.2050001621246338,-0.8299998044967651,-0.7177021783385449,0.0,True,0.010161638259887695,-1.2050001621246338,-0.8299998044967651,-0.7177030444145203,0.0,0.0,0.0
1759839079.5969818,0,-1.2050001621246338,-0.8299998044967651,-0.7177021956622447,0.0,True,0.011173009872436523,-1.2050001621246338,-0.8299998044967651,-0.7177030444145203,0.0,0.0,0.0
1759839079.6080117,0,-1.2050001621246338,-0.8299998044967651,-0.7177022173453942,0.0,True,0.011029958724975586,-1.2050001621246338,-0.8299998044967651,-0.7177030444145203,0.0,0.0,0.0
1759839079.6194854,0,-1.2050001621246338,-0.8299998044967651,-0.7177022332491294,0.0,True,0.011473655700683594,-1.2050001621246338,-0.8299998044967651,-0.7177030444145203,0.0,0.0,0.0
1759839079.6306803,0,-1.2050001621246338,-0.8299998044967651,-0.7177022569124141,0.0,True,0.011194944381713867,-1.2050001621246338,-0.8299998044967651,-0.7177030444145203,0.0,0.0,0.0
1759839079.6419168,0,-1.2050001621246338,-0.8299998044967651,-0.7177022810524569,0.0,True,0.011236429214477539,-1.2050001621246338,-0.8299998044967651,-0.7177030444145203,0.0,0.0,0.0
1759839079.6532755,0,-1.2050001621246338,-0.8299998044967651,-0.7177023037133559,0.0,True,0.01135873794555664,-1.2050001621246338,-0.8299998044967651,-0.7177030444145203,0.0,0.0,0.0
1759839079.6640356,0,-1.2050001621246338,-0.8299998044967651,-0.7177023357052246,0.0,True,0.010760068893432617,-1.2050001621246338,-0.8299998044967651,-0.7177030444145203,0.0,0.0,0.0
1759839079.6749272,0,-1.2050001621246338,-0.8299998044967651,-0.7177023633591801,0.0,True,0.01089167594909668,-1.2050001621246338,-0.8299998044967651,-0.7177030444145203,0.0,0.0,0.0
1759839079.6856608,0,-1.2050001621246338,-0.8299998044967651,-0.717702391068423,0.0,True,0.010733604431152344,-1.2050001621246338,-0.8299998044967651,-0.7177030444145203,0.0,0.0,0.0
1759839079.6971738,0,-1.2050001621246338,-0.8299998044967651,-0.7177024062540553,0.0,True,0.011512994766235352,-1.2050001621246338,-0.8299998044967651,-0.7177030444145203,0.0,0.0,0.0
1759839079.7079234,0,-1.2050001621246338,-0.8299998044967651,-0.7177024324032448,0.0,True,0.010749578475952148,-1.2050001621246338,-0.8299998044967651,-0.7177030444145203,0.0,0.0,0.0
1759839079.7190218,0,-1.2050001621246338,-0.8299998044967651,-0.7177024527243692,0.0,True,0.011098384857177734,-1.2050001621246338,-0.8299998044967651,-0.7177030444145203,0.0,0.0,0.0
1759839079.7295575,0,-1.2050001621246338,-0.8299998044967651,-0.7177024790248367,0.0,True,0.010535717010498047,-1.2050001621246338,-0.8299998044967651,-0.7177030444145203,0.0,0.0,0.0
1759839079.7398062,0,-1.2050001621246338,-0.8299998044967651,-0.7177025061633096,0.0,True,0.010248661041259766,-1.2050001621246338,-0.8299998044967651,-0.7177030444145203,0.0,0.0,0.0
1759839079.7505229,0,-1.2050001621246338,-0.8299998044967651,-0.7177025246693951,0.0,True,0.010716676712036133,-1.2050001621246338,-0.8299998044967651,-0.7177030444145203,0.0,0.0,0.0
1759839079.7613578,0,-1.2050001621246338,-0.8299998044967651,-0.7177025406481619,0.0,True,0.010834932327270508,-1.2050001621246338,-0.8299998044967651,-0.7177030444145203,0.0,0.0,0.0
1759839079.7718885,0,-1.2050001621246338,-0.8299998044967651,-0.7177025595633193,0.0,True,0.010530710220336914,-1.2050001621246338,-0.8299998044967651,-0.7177030444145203,0.0,0.0,0.0
1759839079.7819934,0,-1.2050001621246338,-0.8299998044967651,-0.7177025816239624,0.0,True,0.010104894638061523,-1.2050001621246338,-0.8299998044967651,-0.7177030444145203,0.0,0.0,0.0
1759839079.7922635,0,-1.2050001621246338,-0.8299998044967651,-0.7177025995759525,0.0,True,0.010270118713378906,-1.2050001621246338,-0.8299998044967651,-0.7177030444145203,0.0,0.0,0.0
1759839079.8037112,0,-1.2050001621246338,-0.8299998044967651,-0.7177026046587383,0.0,True,0.011447668075561523,-1.2050001621246338,-0.8299998044967651,-0.7177030444145203,0.0,0.0,0.0
1759839079.8138502,0,-1.2050001621246338,-0.8299998044967651,-0.7177026238502879,0.0,True,0.010138988494873047,-1.2050001621246338,-0.8299998044967651,-0.7177030444145203,0.0,0.0,0.0
1759839079.824985,0,-1.2050001621246338,-0.8299998044967651,-0.7177026329048495,0.0,True,0.011134862899780273,-1.2050001621246338,-0.8299998044967651,-0.7177030444145203,0.0,0.0,0.0
1759839079.8364074,0,-1.2050001621246338,-0.8299998044967651,-0.7177026402470403,0.0,True,0.011422395706176758,-1.2050001621246338,-0.8299998044967651,-0.7177030444145203,0.0,0.0,0.0
1759839079.8473036,0,-1.2050001621246338,-0.8299998044967651,-0.7177026537076152,0.0,True,0.01089620590209961,-1.2050001621246338,-0.8299998044967651,-0.7177030444145203,0.0,0.0,0.0
1759839079.8575068,0,-1.2050001621246338,-0.8299998044967651,-0.7177026726794331,0.0,True,0.010203123092651367,-1.2050001621246338,-0.8299998044967651,-0.7177030444145203,0.0,0.0,0.0
1759839079.8676968,0,-1.2050001621246338,-0.8299998044967651,-0.7177026895953453,0.0,True,0.010190010070800781,-1.2050001621246338,-0.8299998044967651,-0.7177030444145203,0.0,0.0,0.0
1759839079.878553,0,-1.2050001621246338,-0.8299998044967651,-0.7177026994285498,0.0,True,0.010856151580810547,-1.2050001621246338,-0.8299998044967651,-0.7177030444145203,0.0,0.0,0.0
1759839079.8895032,0,-1.2050001621246338,-0.8299998044967651,-0.7177027084826513,0.0,True,0.010950326919555664,-1.2050001621246338,-0.8299998044967651,-0.7177030444145203,0.0,0.0,0.0
1759839079.9003067,0,-1.2050001621246338,-0.8299998044967651,-0.7177027190037144,0.0,True,0.010803461074829102,-1.2050001621246338,-0.8299998044967651,-0.7177030444145203,0.0,0.0,0.0
1759839079.9106019,0,-1.2050001621246338,-0.8299998044967651,-0.7177027329146544,0.0,True,0.01029515266418457,-1.2050001621246338,-0.8299998044967651,-0.7177030444145203,0.0,0.0,0.0
1759839079.9209146,0,-1.2050001621246338,-0.8299998044967651,-0.717702745465262,0.0,True,0.010312795639038086,-1.2050001621246338,-0.8299998044967651,-0.7177030444145203,0.0,0.0,0.0
1759839079.931419,0,-1.2050001621246338,-0.8299998044967651,-0.7177027555966013,0.0,True,0.01050424575805664,-1.2050001621246338,-0.8299998044967651,-0.7177030444145203,0.0,0.0,0.0
1759839079.9416406,0,-1.2050001621246338,-0.8299998044967651,-0.7177027668762506,0.0,True,0.010221719741821289,-1.2050001621246338,-0.8299998044967651,-0.7177030444145203,0.0,0.0,0.0
1759839079.9520605,0,-1.2050001621246338,-0.8299998044967651,-0.7177027760789798,0.0,True,0.010419845581054688,-1.2050001621246338,-0.8299998044967651,-0.7177030444145203,0.0,0.0,0.0
1759839079.963252,0,-1.2050001621246338,-0.8299998044967651,-0.7177027803896774,0.0,True,0.011191606521606445,-1.2050001621246338,-0.8299998044967651,-0.7177030444145203,0.0,0.0,0.0
1759839079.974273,0,-1.2050001621246338,-0.8299998044967651,-0.7177027866758632,0.0,True,0.011020898818969727,-1.2050001621246338,-0.8299998044967651,-0.7177030444145203,0.0,0.0,0.0
1759839079.9849634,0,-1.2050001621246338,-0.8299998044967651,-0.7177027954414328,0.0,True,0.010690450668334961,-1.2050001621246338,-0.8299998044967651,-0.7177030444145203,0.0,0.0,0.0
1759839079.9960651,0,-1.2050001621246338,-0.8299998044967651,-0.7177028019206055,0.0,True,0.011101722717285156,-1.2050001621246338,-0.8299998044967651,-0.7177030444145203,0.0,0.0,0.0
1759839080.0061295,0,-1.2050001621246338,-0.8299998044967651,-0.7177028138458503,0.0,True,0.010064363479614258,-1.2050001621246338,-0.8299998044967651,-0.7177030444145203,0.0,0.0,0.0
1759839080.0177996,0,-1.2050001621246338,-0.8299998044967651,-0.717702816769485,0.0,True,0.011670112609863281,-1.2050001621246338,-0.8299998044967651,-0.7177030444145203,0.0,0.0,0.0
1759839080.0281699,0,-1.2050001621246338,-0.8299998044967651,-0.7177028267062742,0.0,True,0.010370254516601562,-1.2050001621246338,-0.8299998044967651,-0.7177030444145203,0.0,0.0,0.0
1759839080.0392542,0,-1.2050001621246338,-0.8299998044967651,-0.717702832804699,0.0,True,0.011084318161010742,-1.2050001621246338,-0.8299998044967651,-0.7177030444145203,0.0,0.0,0.0
1759839080.0496812,0,-1.2050001621246338,-0.8299998044967651,-0.71770284175971,0.0,True,0.010426998138427734,-1.2050001621246338,-0.8299998044967651,-0.7177030444145203,0.0,0.0,0.0
1759839080.0598884,0,-1.2050001621246338,-0.8299998044967651,-0.7177028509256704,0.0,True,0.010207176208496094,-1.2050001621246338,-0.8299998044967651,-0.7177030444145203,0.0,0.0,0.0
1759839080.0702996,0,-1.2050001621246338,-0.8299998044967651,-0.7177028582102984,0.0,True,0.010411262512207031,-1.2050001621246338,-0.8299998044967651,-0.7177030444145203,0.0,0.0,0.0
1759839080.0805635,0,-1.2050001621246338,-0.8299998044967651,-0.7177028654430941,0.0,True,0.010263919830322266,-1.2050001621246338,-0.8299998044967651,-0.7177030444145203,0.0,0.0,0.0
1759839080.0916274,0,-1.2050001621246338,-0.8299998044967651,-0.7177028690339675,0.0,True,0.011063814163208008,-1.2050001621246338,-0.8299998044967651,-0.7177030444145203,0.0,0.0,0.0
1759839080.1036673,0,-1.2050001621246338,-0.8299998044967651,-0.7177028694886829,0.0,True,0.012039899826049805,-1.2050001621246338,-0.8299998044967651,-0.7177030444145203,0.0,0.0,0.0
1759839080.1151617,0,-1.2050001621246338,-0.8299998044967651,-0.7177028734845159,0.0,True,0.01149439811706543,-1.2050001621246338,-0.8299998044967651,-0.7177030444145203,0.0,0.0,0.0
1759839080.1264064,0,-1.2050001621246338,-0.8299998044967651,-0.7177028790964837,0.0,True,0.011244773864746094,-1.2050001621246338,-0.8299998044967651,-0.7177030444145203,0.0,0.0,0.0
1759839080.136935,0,-1.2050001621246338,-0.8299998044967651,-0.7177028871014013,0.0,True,0.010528564453125,-1.2050001621246338,-0.8299998044967651,-0.7177030444145203,0.0,0.0,0.0
1759839080.1471996,0,-1.2050001621246338,-0.8299998044967651,-0.7177028950988831,0.0,True,0.01026463508605957,-1.2050001621246338,-0.8299998044967651,-0.7177030444145203,0.0,0.0,0.0
1759839080.158707,0,-1.2050001621246338,-0.8299998044967651,-0.7177028982120888,0.0,True,0.011507272720336914,-1.2050001621246338,-0.8299998044967651,-0.7177030444145203,0.0,0.0,0.0
1759839080.1700416,0,-1.2050001621246338,-0.8299998044967651,-0.7177029021284351,0.0,True,0.011334657669067383,-1.2050001621246338,-0.8299998044967651,-0.7177030444145203,0.0,0.0,0.0
1759839080.1804354,0,-1.2050001621246338,-0.8299998044967651,-0.7177029090128428,0.0,True,0.010393857955932617,-1.2050001621246338,-0.8299998044967651,-0.7177030444145203,0.0,0.0,0.0
1759839080.191849,0,-1.2050001621246338,-0.8299998044967651,-0.717702912410207,0.0,True,0.01141357421875,-1.2050001621246338,-0.8299998044967651,-0.7177030444145203,0.0,0.0,0.0
1759839080.2032764,0,-1.2050001621246338,-0.8299998044967651,-0.7177029158977835,0.0,True,0.01142740249633789,-1.2050001621246338,-0.8299998044967651,-0.7177030444145203,0.0,0.0,0.0
1759839080.2143373,0,-1.2050001621246338,-0.8299998044967651,-0.717702920584026,0.0,True,0.011060953140258789,-1.2050001621246338,-0.8299998044967651,-0.7177030444145203,0.0,0.0,0.0
1759839080.2249281,0,-1.2050001621246338,-0.8299998044967651,-0.7177029262856198,0.0,True,0.010590791702270508,-1.2050001621246338,-0.8299998044967651,-0.7177030444145203,0.0,0.0,0.0
1759839080.23542,0,-1.2050001621246338,-0.8299998044967651,-0.717702931643533,0.0,True,0.01049184799194336,-1.2050001621246338,-0.8299998044967651,-0.7177030444145203,0.0,0.0,0.0
1759839080.2457056,0,-1.2050001621246338,-0.8299998044967651,-0.7177029368611194,0.0,True,0.010285615921020508,-1.2050001621246338,-0.8299998044967651,-0.7177030444145203,0.0,0.0,0.0
1759839080.2562327,0,-1.2050001621246338,-0.8299998044967651,-0.717702940906122,0.0,True,0.01052713394165039,-1.2050001621246338,-0.8299998044967651,-0.7177030444145203,0.0,0.0,0.0
1759839080.266706,0,-1.2050001621246338,-0.8299998044967651,-0.7177029447189902,0.0,True,0.010473251342773438,-1.2050001621246338,-0.8299998044967651,-0.7177030444145203,0.0,0.0,0.0
1759839080.2781525,0,-1.2050001621246338,-0.8299998044967651,-0.7177029462383402,0.0,True,0.011446475982666016,-1.2050001621246338,-0.8299998044967651,-0.7177030444145203,0.0,0.0,0.0
1759839080.301495,0,-1.2050001621246338,-0.8299998044967651,-0.7177029251880604,0.0,True,0.023342609405517578,-1.2050001621246338,-0.8299998044967651,-0.7177030444145203,0.0,0,0
1759839080.3099115,0,-1.2050001621246338,-0.8299998044967651,-0.7177029399746289,0.0,True,0.008416414260864258,-1.2050001621246338,-0.8299998044967651,-0.7177030444145203,0.0,0,0
1759839080.3202345,0,-1.2050001621246338,-0.8299998044967651,-0.7177029494663572,0.0,True,0.010323047637939453,-1.2050001621246338,-0.8299998044967651,-0.7177030444145203,0.0,0,0
1759839080.3312912,0,-1.2050001621246338,-0.8299998044967651,-0.7177029553356569,0.0,True,0.011056661605834961,-1.2050001621246338,-0.8299998044967651,-0.7177030444145203,0.0,0,0
1759839080.3422282,0,-1.2050001621246338,-0.8299998044967651,-0.717702960271783,0.0,True,0.010936975479125977,-1.2050001621246338,-0.8299998044967651,-0.7177030444145203,0.0,0,0
1759839080.3528268,0,-1.2050001621246338,-0.8299998044967651,-0.7177029649953983,0.0,True,0.01059865951538086,-1.2050001621246338,-0.8299998044967651,-0.7177030444145203,0.0,0,0
1759839080.363288,0,-1.2050001621246338,-0.8299998044967651,-0.7177029692096575,0.0,True,0.010461091995239258,-1.2050001621246338,-0.8299998044967651,-0.7177030444145203,0.0,0,0
1759839080.3738108,0,-1.2050001621246338,-0.8299998044967651,-0.7177029726966744,0.0,True,0.010522842407226562,-1.2050001621246338,-0.8299998044967651,-0.7177030444145203,0.0,0,0
1759839080.3850348,0,-1.2050001621246338,-0.8299998044967651,-0.7177029747104804,0.0,True,0.011224031448364258,-1.2050001621246338,-0.8299998044967651,-0.7177030444145203,0.0,0,0
1759839080.3951385,0,-1.2050001621246338,-0.8299998044967651,-0.717702978283187,0.0,True,0.010103702545166016,-1.2050001621246338,-0.8299998044967651,-0.7177030444145203,0.0,0,0
1759839080.405782,0,-1.2050001621246338,-0.8299998044967651,-0.7177029806911293,0.0,True,0.010643482208251953,-1.2050001621246338,-0.8299998044967651,-0.7177030444145203,0.0,0,0
1759839080.4163718,0,-1.2050001621246338,-0.8299998044967651,-0.7177029829530088,0.0,True,0.010589838027954102,-1.2050001621246338,-0.8299998044967651,-0.7177030444145203,0.0,0,0
1759839080.4269016,0,-1.2050001621246338,-0.8299998044967651,-0.7177029851529895,0.0,True,0.010529756546020508,-1.2050001621246338,-0.8299998044967651,-0.7177030444145203,0.0,0,0
1759839080.4382336,0,-1.2050001621246338,-0.8299998044967651,-0.7177029862231734,0.0,True,0.011332035064697266,-1.2050001621246338,-0.8299998044967651,-0.7177030444145203,0.0,0,0
1759839080.4498296,0,-1.2050001621246338,-0.8299998044967651,-0.7177029871668132,0.0,True,0.011595964431762695,-1.2050001621246338,-0.8299998044967651,-0.7177030444145203,0.0,0,0
1759839080.4601119,0,-1.2050001621246338,-0.8299998044967651,-0.7177029899131409,0.0,True,0.010282278060913086,-1.2050001621246338,-0.8299998044967651,-0.7177030444145203,0.0,0,0
1759839080.4709446,0,-1.2050001621246338,-0.8299998044967651,-0.7177029917952247,0.0,True,0.010832786560058594,-1.2050001621246338,-0.8299998044967651,-0.7177030444145203,0.0,0,0
1759839080.4822342,0,-1.2050001621246338,-0.8299998044967651,-0.7177029930603958,0.0,True,0.011289596557617188,-1.2050001621246338,-0.8299998044967651,-0.7177030444145203,0.0,0,0
1759839080.4935272,0,-1.2050001621246338,-0.8299998044967651,-0.7177029944132425,0.0,True,0.01129293441772461,-1.2050001621246338,-0.8299998044967651,-0.7177030444145203,0.0,0,0
1759839080.5060647,0,-1.2050001621246338,-0.8299998044967651,-0.7177029946211881,0.0,True,0.012537479400634766,-1.2050001621246338,-0.8299998044967651,-0.7177030444145203,0.0,0,0
1759839080.517322,0,-1.2050001621246338,-0.8299998044967651,-0.71770299650316,0.0,True,0.011257410049438477,-1.2050001621246338,-0.8299998044967651,-0.7177030444145203,0.0,0,0
1759839080.528349,0,-1.2050001621246338,-0.8299998044967651,-0.717702998598508,0.0,True,0.011026859283447266,-1.2050001621246338,-0.8299998044967651,-0.7177030444145203,0.0,0,0
1759839080.53915,0,-1.2050001621246338,-0.8299998044967651,-0.7177030007143959,0.0,True,0.010801076889038086,-1.2050001621246338,-0.8299998044967651,-0.7177030444145203,0.0,0,0
1759839080.5500383,0,-1.2050001621246338,-0.8299998044967651,-0.7177030025246491,0.0,True,0.010888338088989258,-1.2050001621246338,-0.8299998044967651,-0.7177030444145203,0.0,0,0
1759839080.5612698,0,-1.2050001621246338,-0.8299998044967651,-0.7177030038798868,0.0,True,0.011231422424316406,-1.2050001621246338,-0.8299998044967651,-0.7177030444145203,0.0,0,0
1759839080.5719452,0,-1.2050001621246338,-0.8299998044967651,-0.7177030056454043,0.0,True,0.010675430297851562,-1.2050001621246338,-0.8299998044967651,-0.7177030444145203,0.0,0,0
1759839080.5832667,0,-1.2050001621246338,-0.8299998044967651,-0.7177030067543626,0.0,True,0.011321544647216797,-1.2050001621246338,-0.8299998044967651,-0.7177030444145203,0.0,0,0
1759839080.5940769,0,-1.2050001621246338,-0.8299998044967651,-0.7177030082487619,0.0,True,0.010810136795043945,-1.2050001621246338,-0.8299998044967651,-0.7177030444145203,0.0,0,0
1759839080.6051705,0,-1.2050001621246338,-0.8299998044967651,-0.7177030094456178,0.0,True,0.011093616485595703,-1.2050001621246338,-0.8299998044967651,-0.7177030444145203,0.0,0,0
1759839080.6163433,0,-1.2050001621246338,-0.8299998044967651,-0.7177030105467654,0.0,True,0.011172771453857422,-1.2050001621246338,-0.8299998044967651,-0.7177030444145203,0.0,0,0
1759839080.6269612,0,-1.2050001621246338,-0.8299998044967651,-0.7177030120153596,0.0,True,0.010617971420288086,-1.2050001621246338,-0.8299998044967651,-0.7177030444145203,0.0,0,0
1759839080.6382306,0,-1.2050001621246338,-0.8299998044967651,-0.717703012930933,0.0,True,0.011269330978393555,-1.2050001621246338,-0.8299998044967651,-0.7177030444145203,0.0,0,0
1759839080.6491823,0,-1.2050001621246338,-0.8299998044967651,-0.7177030140497216,0.0,True,0.010951757431030273,-1.2050001621246338,-0.8299998044967651,-0.7177030444145203,0.0,0,0
1759839080.6600394,0,-1.2050001621246338,-0.8299998044967651,-0.7177030151883415,0.0,True,0.010857105255126953,-1.2050001621246338,-0.8299998044967651,-0.7177030444145203,0.0,0,0
1759839080.6712554,0,-1.2050001621246338,-0.8299998044967651,-0.7177030160476914,0.0,True,0.011215925216674805,-1.2050001621246338,-0.8299998044967651,-0.7177030444145203,0.0,0,0
1759839080.6819491,0,-1.2050001621246338,-0.8299998044967651,-0.7177030172067695,0.0,True,0.010693788528442383,-1.2050001621246338,-0.8299998044967651,-0.7177030444145203,0.0,0,0
1759839080.6929777,0,-1.2050001621246338,-0.8299998044967651,-0.7177030180994564,0.0,True,0.011028528213500977,-1.2050001621246338,-0.8299998044967651,-0.7177030444145203,0.0,0,0
1759839080.7057533,0,-1.2050001621246338,-0.8299998044967651,-0.7177030180384492,0.0,True,0.012775659561157227,-1.2050001621246338,-0.8299998044967651,-0.7177030444145203,0.0,0,0
1759839080.716381,0,-1.2050001621246338,-0.8299998044967651,-0.7177030193445475,0.0,True,0.01062774658203125,-1.2050001621246338,-0.8299998044967651,-0.7177030444145203,0.0,0,0
1759839080.726826,0,-1.2050001621246338,-0.8299998044967651,-0.7177030206524417,0.0,True,0.010444879531860352,-1.2050001621246338,-0.8299998044967651,-0.7177030444145203,0.0,0,0
1759839080.7382972,0,-1.2050001621246338,-0.8299998044967651,-0.7177030212898963,0.0,True,0.011471271514892578,-1.2050001621246338,-0.8299998044967651,-0.7177030444145203,0.0,0,0
1759839080.7494793,0,-1.2050001621246338,-0.8299998044967651,-0.7177030220637484,0.0,True,0.011182069778442383,-1.2050001621246338,-0.8299998044967651,-0.7177030444145203,0.0,0,0
1759839080.7596328,0,-1.2050001621246338,-0.8299998044967651,-0.7177030232855497,0.0,True,0.010153532028198242,-1.2050001621246338,-0.8299998044967651,-0.7177030444145203,0.0,0,0
1759839080.769789,0,-1.2050001621246338,-0.8299998044967651,-0.7177030243447611,0.0,True,0.01015615463256836,-1.2050001621246338,-0.8299998044967651,-0.7177030444145203,0.0,0,0
1759839080.7805028,0,-1.2050001621246338,-0.8299998044967651,-0.717703025015263,0.0,True,0.010713815689086914,-1.2050001621246338,-0.8299998044967651,-0.7177030444145203,0.0,0,0
1759839080.7908525,0,-1.2050001621246338,-0.8299998044967651,-0.7177030257862,0.0,True,0.010349750518798828,-1.2050001621246338,-0.8299998044967651,-0.7177030444145203,0.0,0,0
1759839080.8020806,0,-1.2050001621246338,-0.8299998044967651,-0.717703026151316,0.0,True,0.011228084564208984,-1.2050001621246338,-0.8299998044967651,-0.7177030444145203,0.0,0,0
1759839080.8123288,0,-1.2050001621246338,-0.8299998044967651,-0.7177030269310389,0.0,True,0.010248184204101562,-1.2050001621246338,-0.8299998044967651,-0.7177030444145203,0.0,0,0
1759839080.8233027,0,-1.2050001621246338,-0.8299998044967651,-0.7177030273863565,0.0,True,0.010973930358886719,-1.2050001621246338,-0.8299998044967651,-0.7177030444145203,0.0,0,0
1759839080.8344684,0,-1.2050001621246338,-0.8299998044967651,-0.7177030277805478,0.0,True,0.011165618896484375,-1.2050001621246338,-0.8299998044967651,-0.7177030444145203,0.0,0,0
1759839080.8448899,0,-1.2050001621246338,-0.8299998044967651,-0.7177030284679589,0.0,True,0.010421514511108398,-1.2050001621246338,-0.8299998044967651,-0.7177030444145203,0.0,0,0
1759839080.8559864,0,-1.2050001621246338,-0.8299998044967651,-0.7177030288847597,0.0,True,0.011096477508544922,-1.2050001621246338,-0.8299998044967651,-0.7177030444145203,0.0,0,0
1759839080.8673465,0,-1.2050001621246338,-0.8299998044967651,-0.7177030292277102,0.0,True,0.01136016845703125,-1.2050001621246338,-0.8299998044967651,-0.7177030444145203,0.0,0,0
1759839080.8775394,0,-1.2050001621246338,-0.8299998044967651,-0.7177030299732472,0.0,True,0.01019287109375,-1.2050001621246338,-0.8299998044967651,-0.7177030444145203,0.0,0,0
1759839080.8887243,0,-1.2050001621246338,-0.8299998044967651,-0.7177030303477085,0.0,True,0.011184930801391602,-1.2050001621246338,-0.8299998044967651,-0.7177030444145203,0.0,0,0
1759839080.8998995,0,-1.2050001621246338,-0.8299998044967651,-0.7177030307293375,0.0,True,0.011175155639648438,-1.2050001621246338,-0.8299998044967651,-0.7177030444145203,0.0,0,0
1759839080.9101417,0,-1.2050001621246338,-0.8299998044967651,-0.7177030313886377,0.0,True,0.010242223739624023,-1.2050001621246338,-0.8299998044967651,-0.7177030444145203,0.0,0,0
1759839080.9209948,0,-1.2050001621246338,-0.8299998044967651,-0.7177030318151356,0.0,True,0.010853052139282227,-1.2050001621246338,-0.8299998044967651,-0.7177030444145203,0.0,0,0
1759839080.9318702,0,-1.2050001621246338,-0.8299998044967651,-0.7177030322128388,0.0,True,0.010875463485717773,-1.2050001621246338,-0.8299998044967651,-0.7177030444145203,0.0,0,0
1759839080.9420812,0,-1.2050001621246338,-0.8299998044967651,-0.7177030327706557,0.0,True,0.010210990905761719,-1.2050001621246338,-0.8299998044967651,-0.7177030444145203,0.0,0,0
1759839080.9525454,0,-1.2050001621246338,-0.8299998044967651,-0.7177030332093519,0.0,True,0.010464191436767578,-1.2050001621246338,-0.8299998044967651,-0.7177030444145203,0.0,0,0
1759839080.963363,0,-1.2050001621246338,-0.8299998044967651,-0.717703033526675,0.0,True,0.010817527770996094,-1.2050001621246338,-0.8299998044967651,-0.7177030444145203,0.0,0,0
1759839080.9743745,0,-1.2050001621246338,-0.8299998044967651,-0.7177030337996158,0.0,True,0.011011600494384766,-1.2050001621246338,-0.8299998044967651,-0.7177030444145203,0.0,0,0
1759839080.98568,0,-1.2050001621246338,-0.8299998044967651,-0.7177030340258561,0.0,True,0.011305570602416992,-1.2050001621246338,-0.8299998044967651,-0.7177030444145203,0.0,0,0
1759839080.9965394,0,-1.2050001621246338,-0.8299998044967651,-0.7177030343794115,0.0,True,0.010859251022338867,-1.2050001621246338,-0.8299998044967651,-0.7177030444145203,0.0,0,0
1759839081.0071723,0,-1.2050001621246338,-0.8299998044967651,-0.7177030347748605,0.0,True,0.010632991790771484,-1.2050001621246338,-0.8299998044967651,-0.7177030444145203,0.0,0,0
1759839081.017951,0,-1.2050001621246338,-0.8299998044967651,-0.7177030351135727,0.0,True,0.010778665542602539,-1.2050001621246338,-0.8299998044967651,-0.7177030444145203,0.0,0,0
1759839081.028941,0,-1.2050001621246338,-0.8299998044967651,-0.7177030353940026,0.0,True,0.010989904403686523,-1.2050001621246338,-0.8299998044967651,-0.7177030444145203,0.0,0,0
1759839081.0398188,0,-1.2050001621246338,-0.8299998044967651,-0.7177030356940808,0.0,True,0.010877847671508789,-1.2050001621246338,-0.8299998044967651,-0.7177030444145203,0.0,0,0
1759839081.0499067,0,-1.2050001621246338,-0.8299998044967651,-0.7177030361280732,0.0,True,0.010087966918945312,-1.2050001621246338,-0.8299998044967651,-0.7177030444145203,0.0,0,0
1759839081.0609746,0,-1.2050001621246338,-0.8299998044967651,-0.7177030363412751,0.0,True,0.011067867279052734,-1.2050001621246338,-0.8299998044967651,-0.7177030444145203,0.0,0,0
1759839081.0723982,0,-1.2050001621246338,-0.8299998044967651,-0.7177030364971628,0.0,True,0.011423587799072266,-1.2050001621246338,-0.8299998044967651,-0.7177030444145203,0.0,0,0
1759839081.0834963,0,-1.2050001621246338,-0.8299998044967651,-0.717703036735486,0.0,True,0.011098146438598633,-1.2050001621246338,-0.8299998044967651,-0.7177030444145203,0.0,0,0
1759839081.0935192,0,-1.2050001621246338,-0.8299998044967651,-0.7177030371479773,0.0,True,0.010022878646850586,-1.2050001621246338,-0.8299998044967651,-0.7177030444145203,0.0,0,0
1759839081.1043835,0,-1.2050001621246338,-0.8299998044967651,-0.7177030373818454,0.0,True,0.0108642578125,-1.2050001621246338,-0.8299998044967651,-0.7177030444145203,0.0,0,0
1759839081.1147313,0,-1.2050001621246338,-0.8299998044967651,-0.7177030376764755,0.0,True,0.010347843170166016,-1.2050001621246338,-0.8299998044967651,-0.7177030444145203,0.0,0,0
1759839081.1261494,0,-1.2050001621246338,-0.8299998044967651,-0.7177030377956761,0.0,True,0.01141810417175293,-1.2050001621246338,-0.8299998044967651,-0.7177030444145203,0.0,0,0
1759839081.1361506,0,-1.2050001621246338,-0.8299998044967651,-0.7177030381276257,0.0,True,0.010001182556152344,-1.2050001621246338,-0.8299998044967651,-0.7177030444145203,0.0,0,0
1759839081.1476367,0,-1.2050001621246338,-0.8299998044967651,-0.7177030382306437,0.0,True,0.011486053466796875,-1.2050001621246338,-0.8299998044967651,-0.7177030444145203,0.0,0,0
1759839081.158672,0,-1.2050001621246338,-0.8299998044967651,-0.7177030384097964,0.0,True,0.011035442352294922,-1.2050001621246338,-0.8299998044967651,-0.7177030444145203,0.0,0,0
1759839081.1693928,0,-1.2050001621246338,-0.8299998044967651,-0.7177030386358645,0.0,True,0.01072072982788086,-1.2050001621246338,-0.8299998044967651,-0.7177030444145203,0.0,0,0
1759839081.179666,0,-1.2050001621246338,-0.8299998044967651,-0.7177030389030783,0.0,True,0.010273218154907227,-1.2050001621246338,-0.8299998044967651,-0.7177030444145203,0.0,0,0
1759839081.1915946,0,-1.2050001621246338,-0.8299998044967651,-0.7177030389523065,0.0,True,0.011928558349609375,-1.2050001621246338,-0.8299998044967651,-0.7177030444145203,0.0,0,0
1759839081.2023401,0,-1.2050001621246338,-0.8299998044967651,-0.717703039162993,0.0,True,0.010745525360107422,-1.2050001621246338,-0.8299998044967651,-0.7177030444145203,0.0,0,0
1759839081.2134244,0,-1.2050001621246338,-0.8299998044967651,-0.7177030393326689,0.0,True,0.011084318161010742,-1.2050001621246338,-0.8299998044967651,-0.7177030444145203,0.0,0,0
1759839081.224651,0,-1.2050001621246338,-0.8299998044967651,-0.7177030394840607,0.0,True,0.011226654052734375,-1.2050001621246338,-0.8299998044967651,-0.7177030444145203,0.0,0,0
1759839081.2355304,0,-1.2050001621246338,-0.8299998044967651,-0.7177030396720117,0.0,True,0.010879278182983398,-1.2050001621246338,-0.8299998044967651,-0.7177030444145203,0.0,0,0
1759839081.2459939,0,-1.2050001621246338,-0.8299998044967651,-0.7177030398900328,0.0,True,0.010463476181030273,-1.2050001621246338,-0.8299998044967651,-0.7177030444145203,0.0,0,0
1759839081.2563212,0,-1.2050001621246338,-0.8299998044967651,-0.7177030400973656,0.0,True,0.010327339172363281,-1.2050001621246338,-0.8299998044967651,-0.7177030444145203,0.0,0,0
1759839081.266758,0,-1.2050001621246338,-0.8299998044967651,-0.71770304027004,0.0,True,0.010436773300170898,-1.2050001621246338,-0.8299998044967651,-0.7177030444145203,0.0,0,0
1759839081.278159,0,-1.2050001621246338,-0.8299998044967651,-0.7177030403426734,0.0,True,0.011400938034057617,-1.2050001621246338,-0.8299998044967651,-0.7177030444145203,0.0,0,0
1759839081.288854,0,-1.2050001621246338,-0.8299998044967651,-0.7177030404876046,0.0,True,0.01069498062133789,-1.2050001621246338,-0.8299998044967651,-0.7177030444145203,0.0,0,0
1759839081.2991965,0,-1.2050001621246338,-0.8299998044967651,-0.7177030406577529,0.0,True,0.010342597961425781,-1.2050001621246338,-0.8299998044967651,-0.7177030444145203,0.0,0.5235987755982988,0.029606609315912205
1759839081.3155518,0,-1.2049615668225926,-0.8300335257022414,-0.7176978946961636,0.0003891296261211371,True,0.016355276107788086,-1.204940676689148,-0.8300517797470093,-0.7176899313926697,0.0003891296261211371,0.5235987755982988,0.028749646359895006
1759839081.321323,0,-1.2049480098167724,-0.8300453714515904,-0.717695961031021,0.0003891296261211371,True,0.005771160125732422,-1.204940676689148,-0.8300517797470093,-0.7176899313926697,0.0003891296261211371,0.5235987755982988,0.02929532907229164
1759839081.3326347,0,-1.204942211121003,-0.8300504377163197,-0.7176934016737135,0.0003891296261211371,True,0.011311769485473633,-1.204940676689148,-0.8300517797470093,-0.7176899313926697,0.0003891296261211371,0.5235987755982988,0.03095135981418961
1759839081.3427696,0,-1.2049401279833483,-0.8300522578193417,-0.7176919558658472,0.0003891296261211371,True,0.01013493537902832,-1.204940676689148,-0.8300517797470093,-0.7176899313926697,0.0003891296261211371,0.5235987755982988,0.03278782592768953
1759839081.3533757,0,-1.2049392795434772,-0.8300529990863507,-0.7176908091306089,0.0003891296261211371,True,0.010606050491333008,-1.204940676689148,-0.8300517797470093,-0.7176899313926697,0.0003891296261211371,0.5235987755982988,0.033741550919498486
1759839081.3641162,0,-1.2049389404107431,-0.8300532953679595,-0.7176899881643823,0.0003891296261211371,True,0.010740518569946289,-1.204940676689148,-0.8300517797470093,-0.7176899313926697,0.0003891296261211371,0.5235987755982988,0.03103390487121456
1759839081.375473,0,-1.2049387418642559,-0.8300534687803867,-0.7176893353409142,0.0003891296261211371,True,0.011356830596923828,-1.204940676689148,-0.8300517797470093,-0.7176899313926697,0.0003891296261211371,0.5235987755982988,0.032580640608621196
1759839081.3864326,0,-1.2049387105006597,-0.8300534961908375,-0.7176889503211061,0.0003891296261211371,True,0.010959625244140625,-1.204940676689148,-0.8300517797470093,-0.7176899313926697,0.0003891296261211371,0.5235987755982988,0.0321006498259058
1759839081.3973024,0,-1.2049387085847274,-0.8300534978741922,-0.7176886677360148,0.0003891296261211371,True,0.010869741439819336,-1.204940676689148,-0.8300517797470093,-0.7176899313926697,0.0003891296261211371,0.5235987755982988,0.033384395228657195
1759839081.4079227,0,-1.2049387357763823,-0.8300534741396618,-0.7176884912913088,0.0003891296261211371,True,0.010620355606079102,-1.204940676689148,-0.8300517797470093,-0.7176899313926697,0.0003891296261211371,0.5235987755982988,0.030237922500619255
1759839081.4186234,0,-1.2049387371660158,-0.8300534729275025,-0.717688345614576,0.0003891296261211371,True,0.010700702667236328,-1.204940676689148,-0.8300517797470093,-0.7176899313926697,0.0003891296261211371,0.5235987755982988,0.030745821580944924
1759839081.4295082,0,-1.2049387170875256,-0.8300534904558933,-0.7176882293683988,0.0003891296261211371,True,0.010884761810302734,-1.204940676689148,-0.8300517797470093,-0.7176899313926697,0.0003891296261211371,0.5235987755982988,0.03261740060573953
1759839081.440409,0,-1.2049387076294895,-0.8300534987124508,-0.7176881616143334,0.0003891296261211371,True,0.010900735855102539,-1.204940676689148,-0.8300517797470093,-0.7176899313926697,0.0003891296261211371,0.5235987755982988,0.03075471596300232
1759839081.450493,0,-1.2049387954498065,-0.8300534220460324,-0.7176882134850189,0.0003891296261211371,True,0.010084152221679688,-1.204940676689148,-0.8300517797470093,-0.7176899313926697,0.0003891296261211371,0.5235987755982988,0.030440514339606702
1759839081.4617662,0,-1.2049386958623975,-0.8300535089847997,-0.7176880755245989,0.0003891296261211371,True,0.01127314567565918,-1.204940676689148,-0.8300517797470093,-0.7176899313926697,0.0003891296261211371,0.5235987755982988,0.029994042629985642
1759839081.4729145,0,-1.204938671811841,-0.8300535299804087,-0.7176880631841414,0.0003891296261211371,True,0.011148214340209961,-1.204940676689148,-0.8300517797470093,-0.7176899313926697,0.0003891296261211371,0.5235987755982988,0.031543395536167335
1759839081.4835176,0,-1.2049387236518798,-0.8300534847244821,-0.7176881202197691,0.0003891296261211371,True,0.010603189468383789,-1.204940676689148,-0.8300517797470093,-0.7176899313926697,0.0003891296261211371,0.5235987755982988,0.03211590596082907
1759839081.4943516,0,-1.2049387176115545,-0.8300534899976817,-0.7176881098778587,0.0003891296261211371,True,0.010833978652954102,-1.204940676689148,-0.8300517797470093,-0.7176899313926697,0.0003891296261211371,0.5235987755982988,0.027963497152016042
1759839081.5058126,0,-1.2049386450944584,-0.830053553304346,-0.7176880507878209,0.0003891296261211371,True,0.011461019515991211,-1.204940676689148,-0.8300517797470093,-0.7176899313926697,0.0003891296261211371,0.5235987755982988,0.0297391704815493
1759839081.5186262,0,-1.1998041751082533,-0.8344752255692868,-0.7132850717388912,0.051993740958304904,True,0.012813568115234375,-1.1969411373138428,-0.8369372487068176,-0.7020714282989502,0.051993740958304904,0.5235987755982988,0.030069960582950823
1759839081.5290926,0,-1.1978775116800573,-0.8361328215563781,-0.7098804265203054,0.051993740958304904,True,0.010466337203979492,-1.1969411373138428,-0.8369372487068176,-0.7020714282989502,0.051993740958304904,0.5235987755982988,0.030915977045682056
1759839081.5392373,0,-1.1971459848045056,-0.8367612802393898,-0.7073891541487907,0.051993740958304904,True,0.010144710540771484,-1.1969411373138428,-0.8369372487068176,-0.7020714282989502,0.051993740958304904,0.5235987755982988,0.029574732302868494
1759839081.5497305,0,-1.1968609864030728,-0.8370054571087121,-0.7055700312454913,0.051993740958304904,True,0.010493278503417969,-1.1969411373138428,-0.8369372487068176,-0.7020714282989502,0.051993740958304904,0.5235987755982988,0.030729758096999373
1759839081.560118,0,-1.1967534867322178,-0.8370970794644998,-0.7042597892015259,0.051993740958304904,True,0.010387420654296875,-1.1969411373138428,-0.8369372487068176,-0.7020714282989502,0.051993740958304904,0.5235987755982988,0.029434603739554022
1759839081.5704901,0,-1.1967124854910685,-0.837131678937113,-0.7033140183784496,0.051993740958304904,True,0.010372161865234375,-1.1969411373138428,-0.8369372487068176,-0.7020714282989502,0.051993740958304904,0.5235987755982988,0.027885535854540604
1759839081.58118,0,-1.196691888168179,-0.8371488327809637,-0.7026211389133348,0.051993740958304904,True,0.010689973831176758,-1.1969411373138428,-0.8369372487068176,-0.7020714282989502,0.051993740958304904,0.5235987755982988,0.02837234342287069
1759839081.5920942,0,-1.196680531851946,-0.8371581524588672,-0.7021182465042539,0.051993740958304904,True,0.010914087295532227,-1.1969411373138428,-0.8369372487068176,-0.7020714282989502,0.051993740958304904,0.5235987755982988,0.02950492924034043
1759839081.6030426,0,-1.196675605022905,-0.8371620716479864,-0.7017611322969195,0.051993740958304904,True,0.010948419570922852,-1.1969411373138428,-0.8369372487068176,-0.7020714282989502,0.051993740958304904,0.5235987755982988,0.028976619366992386
1759839081.6134949,0,-1.1966811980365468,-0.8371571482189246,-0.7015289283239277,0.051993740958304904,True,0.0104522705078125,-1.1969411373138428,-0.8369372487068176,-0.7020714282989502,0.051993740958304904,0.5235987755982988,0.027304994449892067
1759839081.6247241,0,-1.1966715190742472,-0.8371651935303264,-0.7013370062029249,0.051993740958304904,True,0.011229276657104492,-1.1969411373138428,-0.8369372487068176,-0.7020714282989502,0.051993740958304904,0.5235987755982988,0.027544870008430637
1759839081.635499,0,-1.1966746886857489,-0.8371624100857009,-0.7012277859988227,0.051993740958304904,True,0.010774850845336914,-1.1969411373138428,-0.8369372487068176,-0.7020714282989502,0.051993740958304904,0.5235987755982988,0.027448852790922428
1759839081.6467233,0,-1.1966690666369089,-0.8371670894531256,-0.7011389004087505,0.051993740958304904,True,0.01122426986694336,-1.1969411373138428,-0.8369372487068176,-0.7020714282989502,0.051993740958304904,0.5235987755982988,0.028097793480319704
1759839081.6578732,0,-1.1966680354824206,-0.8371679089664473,-0.7010889310799495,0.051993740958304904,True,0.011149883270263672,-1.1969411373138428,-0.8369372487068176,-0.7020714282989502,0.051993740958304904,0.5235987755982988,0.027134227964833637
1759839081.6690264,0,-1.1966675841099486,-0.8371682566383802,-0.701061412002213,0.051993740958304904,True,0.011153221130371094,-1.1969411373138428,-0.8369372487068176,-0.7020714282989502,0.051993740958304904,0.5235987755982988,0.029333828655391574
1759839081.6798954,0,-1.196671720019736,-0.8371647433545277,-0.7010596336697716,0.051993740958304904,True,0.010869026184082031,-1.1969411373138428,-0.8369372487068176,-0.7020714282989502,0.051993740958304904,0.5235987755982988,0.026744335713608944
1759839081.691049,0,-1.196668980327351,-0.837167048955237,-0.7010552916770703,0.051993740958304904,True,0.011153697967529297,-1.1969411373138428,-0.8369372487068176,-0.7020714282989502,0.051993740958304904,0.5235987755982988,0.028847387790809087
1759839081.7014284,0,-1.1966796830809898,-0.8371580062318444,-0.701086563173682,0.051993740958304904,True,0.010379314422607422,-1.1969411373138428,-0.8369372487068176,-0.7020714282989502,0.051993740958304904,0.5235987755982988,0.03060955988329272
1759839081.7115917,0,-1.1966870526144031,-0.8371517890448152,-0.7011174391605373,0.051993740958304904,True,0.010163307189941406,-1.1969411373138428,-0.8369372487068176,-0.7020714282989502,0.051993740958304904,0.5235987755982988,0.02912067558843845
1759839081.722694,0,-1.186900296662705,-0.845066027311714,-0.6888884470600409,0.09862562443861204,True,0.01110219955444336,-1.1813691854476929,-0.8495211601257324,-0.6570309400558472,0.09862562443861204,0.5235987755982988,0.026263480903147014
1759839081.7330647,0,-1.1831801462169462,-0.8480676209936004,-0.6791134274948689,0.09862562443861204,True,0.010370731353759766,-1.1813691854476929,-0.8495211601257324,-0.6570309400558472,0.09862562443861204,0.5235987755982988,0.02998561413225777
1759839081.7432604,0,-1.18176194985734,-0.8492070953157871,-0.6719496839109986,0.09862562443861204,True,0.010195732116699219,-1.1813691854476929,-0.8495211601257324,-0.6570309400558472,0.09862562443861204,0.5235987755982988,0.030645383201257287
1759839081.7547503,0,-1.1811804135929171,-0.8496705873797529,-0.6666098378538603,0.09862562443861204,True,0.0114898681640625,-1.1813691854476929,-0.8495211601257324,-0.6570309400558472,0.09862562443861204,0.5235987755982988,0.029154494322937236
1759839081.765239,0,-1.180986524510069,-0.8498225333151642,-0.6628562404090896,0.09862562443861204,True,0.010488748550415039,-1.1813691854476929,-0.8495211601257324,-0.6570309400558472,0.09862562443861204,0.5235987755982988,0.028400063577357554
