timestamp,observer_vehicle_id,vehicle_0_x,vehicle_0_y,vehicle_0_theta,vehicle_0_velocity,vehicle_1_x,vehicle_1_y,vehicle_1_theta,vehicle_1_velocity
1759494852.1844223,1,-0.24061912352065068,-0.16573760569004892,-0.14331378050907234,0.0,-1.735,-0.35,-0.7801621756414646,0.0
1759494852.1946776,1,-0.43121245972021205,-0.2970176250833653,-0.2568319878358127,0.0,-1.735,-0.35,-0.7801621756414646,0.0
1759494852.9396243,1,-0.58518988801772,-0.40307673594264815,-0.34854160359495506,0.0,-1.7349997780414728,-0.3499999055495629,-0.7230010291656335,0.0
1759494853.0388787,1,-0.7035321071672611,-0.4845904401192353,-0.4190267361646376,0.0,-1.7349997766071577,-0.34999990493921607,-0.7180959540033882,0.0
1759494853.1264694,1,-0.8014935484803886,-0.5520659362295459,-0.47737299016675155,0.0,-1.7349997761568776,-0.3499999047476075,-0.7176951022335665,0.0
1759494853.203826,1,-0.878592483052518,-0.6051714110990103,-0.5232934458025448,0.0,-1.734999775989529,-0.3499999046763953,-0.7176711481182672,0.0
1759494853.2964838,1,-0.9420832107633108,-0.6489036009613117,-0.5611087951495592,0.0,-1.7349997759258606,-0.3499999046493024,-0.7176747429327826,0.0
1759494853.378111,1,-0.9918085060632789,-0.6831542094111428,-0.5907253939971435,0.0,-1.7349997759015556,-0.34999990463895986,-0.7176805321707409,0.0
1759494853.462284,1,-1.033248924874078,-0.7116982240846285,-0.6154074849247384,0.0,-1.7349997758922728,-0.3499999046350097,-0.7176847118391478,0.0
1759494853.5511584,1,-1.0673735313369146,-0.7352031329526898,-0.6357322466852213,0.0,-1.734999775888727,-0.34999990463350084,-0.7176878675425407,0.0
1759494853.6333838,1,-1.0938823941224924,-0.753462344370982,-0.6515210388942969,0.0,-1.7349997758873728,-0.3499999046329245,-0.7176907310728176,0.0
1759494853.7177563,1,-1.1158772463098783,-0.7686123211712715,-0.6646212670581733,0.0,-1.7349997758868554,-0.3499999046327044,-0.7176929911382164,0.0
1759494853.8101065,1,-1.13287617824994,-0.7803211256827806,-0.6747459037258717,0.0,-1.7349997758866578,-0.3499999046326203,-0.7176947867203971,0.0
1759494853.889612,1,-1.1471166593897257,-0.7901299189883544,-0.6832275952828427,0.0,-1.7349997758865823,-0.34999990463258823,-0.7176965543159533,0.0
1759494853.9773052,1,-1.1581716630015004,-0.7977445665803737,-0.6898120027811474,0.0,-1.7349997758865534,-0.34999990463257596,-0.717697901871766,0.0
1759494854.0575488,1,-1.167423703886302,-0.8041173397895731,-0.6953225579574138,0.0,-1.7349997758865425,-0.34999990463257125,-0.7176990935338381,0.0
1759494854.1423023,1,-1.174617213837243,-0.809072204134236,-0.6996070432930548,0.0,-1.7349997758865383,-0.34999990463256947,-0.7177000327099741,0.0
1759494854.2650685,1,-1.180656840876439,-0.8132322779890945,-0.7032042710245311,0.0,-1.7351348427391222,-0.34989494146417127,-0.7181048622307185,0.002565864288838442
1759494854.3781273,1,-1.1854916356654126,-0.8165624676290648,-0.7060838955076363,0.0,-1.735176239116678,-0.3498871068050015,-0.7183167460666515,0.0032278966363040893
1759494854.5039685,1,-1.1892971412226232,-0.8191836864676337,-0.7083504709159925,0.0,-1.7389255675009523,-0.3471099729636003,-0.7155472500084343,0.04526144412021139
1759494854.6150403,1,-1.1923707705548088,-0.8213007915374285,-0.7101811377101938,0.0,-1.740793863726263,-0.3456031926542622,-0.7131636209829346,0.04862367250797045
1759494854.7450683,1,-1.1947868367644368,-0.8229649694419665,-0.7116201570923432,0.0,-1.7465860684336365,-0.34083037967584273,-0.7089168762425901,0.053834608634605825
1759494854.8593354,1,-1.1967239614251122,-0.8242992540926873,-0.7127739168366926,0.0,-1.7493574358070267,-0.33848980831784903,-0.7055200875092938,0.054427045972754405
1759494854.9818702,1,-1.1983605634243057,-0.8254265397915342,-0.713748683996764,0.0,-1.7553947001899681,-0.33337127964129065,-0.7007781190667975,0.05188850480495737
1759494855.097609,1,-1.1996640619212833,-0.8263243849700413,-0.7145250532842771,0.0,-1.7582623623510403,-0.3309277932664544,-0.697081123038238,0.051762211586878895
1759494855.2142744,1,-1.2006966408400028,-0.8270417770119373,-0.7151108684899964,0.0005235987755982988,-1.7643534812373913,-0.3258610311560235,-0.6919930988432409,0.052451932420608235
1759494855.3121188,1,-1.2014933421424858,-0.8276077289257749,-0.7152074700091352,0.006693819635325201,-1.7672445176938876,-0.3234358695458271,-0.6881495030444984,0.05259173867059009
1759494855.4257867,1,-1.201038706659739,-0.8291441568420066,-0.7137361624219427,0.01880295683415785,-1.7729985244453956,-0.3187167886936354,-0.6829607091271181,0.051997233656531215
1759494855.5129588,1,-1.2006404688095174,-0.8305490886888749,-0.7123920940962707,0.028745749959768658,-1.7758288068699768,-0.3163836775299075,-0.6794073133667488,0.052151341852026266
1759494855.5978036,1,-1.1994050522539503,-0.832553149963802,-0.7103169431159368,0.04114182586633862,-1.7769541713427686,-0.31544725988708977,-0.6773808344225866,0.052201043148052795
1759494855.6928248,1,-1.196416958562981,-0.8359589881801348,-0.7020361464610118,0.05593502336262957,-1.7830645822651596,-0.31058475525539564,-0.6713505494030463,0.05495578406435234
1759494855.7756643,1,-1.1940230478670237,-0.8388145931296348,-0.6954418764644049,0.06777147024810763,-1.786141312600746,-0.3081240532331999,-0.6669197398288184,0.05577614890421481
1759494855.859125,1,-1.1881439767599056,-0.8441874086711771,-0.6786535270701468,0.08603713670957039,-1.7873435216434024,-0.30716663479438294,-0.6639575491433364,0.05751098962225119
1759494855.9618194,1,-1.1832776802023321,-0.8487514809775674,-0.6646582870238267,0.10095537786540999,-1.793502786311219,-0.30245590144073603,-0.6531822933343521,0.058360165963291424
1759494856.0422585,1,-1.174940687461245,-0.8553265808929674,-0.6409606051915229,0.11276295716275242,-1.7966648899378954,-0.29999588820542333,-0.6447880012896005,0.05970086844410733
1759494856.1273832,1,-1.1683153843793272,-0.8606050767227276,-0.6213717055580427,0.12167992663977467,-1.7978988113797343,-0.2990289880208407,-0.639304735441122,0.060392396986656896
1759494856.2267103,1,-1.1581654952488136,-0.8674967423672457,-0.5927949518902199,0.13247668650549693,-1.804100465148434,-0.2945418784632359,-0.6229198325504963,0.05956675697650917
1759494856.3157728,1,-1.1496462912286298,-0.8732500830244159,-0.5679771903630235,0.13907567117089242,-1.8072044315257647,-0.29223837197401487,-0.6098737901280515,0.05948850196729255
1759494856.4078305,1,-1.138272841262585,-0.8798789947612791,-0.5382273335033173,0.1411446940762792,-1.808335695163759,-0.29135691285249554,-0.6018009405129967,0.05944718696294119
1759494856.496889,1,-1.12851221388103,-0.8853992460360185,-0.5110260589031116,0.14219322040422952,-1.8150747390018898,-0.28685088359339095,-0.58333322240854,0.06080599085874093
1759494856.583105,1,-1.118743512012287,-0.8905478999448296,-0.48700646614352017,0.1450433160629579,-1.818321807519683,-0.2846240281176426,-0.5685209856082765,0.06091217940011793
1759494856.6689162,1,-1.1068780953365176,-0.896157618855419,-0.45888034169566766,0.1476036723812051,-1.8195765143049574,-0.2837229910943442,-0.5593555820528303,0.0609355310046001
1759494856.769214,1,-1.0976185262907354,-0.9005064525391308,-0.4371140567196256,0.1490449529153129,-1.8256674386016845,-0.27989150408727564,-0.541547525718194,0.05218058958555646
1759494856.852736,1,-1.0825162336845582,-0.90653856852167,-0.4128481401685398,0.15800781991558938,-1.8287824704468725,-0.2779034256045474,-0.5282418024626121,0.051421464373028324
1759494856.9290926,1,-1.0704143410941476,-0.911360070523098,-0.39350591352505326,0.1646846814947745,-1.8300584163824274,-0.2770579900742672,-0.521074397163883,0.051215483745829286
1759494857.0184877,1,-1.0539086115414742,-0.9173518065011396,-0.3765729637886771,0.16576864679592193,-1.8300260932477592,-0.276866662824884,-0.5193884057341013,0.024487004568712
1759494857.1072607,1,-1.039831230281443,-0.9223828518119088,-0.36279417688826415,0.16593302196658602,-1.8299356000452858,-0.27685641989928506,-0.5195740136041151,0.02230802761132944
1759494857.1912603,1,-1.0261357796070336,-0.9271733949021751,-0.35238036225945735,0.16747015810703478,-1.8299340323178532,-0.27680808238673216,-0.5208178687202871,0.02169197525087637
1759494857.2735116,1,-1.0110250896277195,-0.932323796531192,-0.34488328788428685,0.16989320981318032,-1.8194867666302268,-0.28370104184666584,-0.5393121656629998,0.07429559934532394
1759494857.3692927,1,-0.9992514537620114,-0.936354781077567,-0.33915462076854863,0.17202701257619296,-1.814169621489596,-0.2872338392836104,-0.558363381572711,0.07882555502076875
1759494857.460328,1,-0.9815292581577494,-0.9424104075544993,-0.33725158398241145,0.18388546647891613,-1.8122321999573026,-0.28864358444952226,-0.5711756225079426,0.07954512434114182
1759494857.5465536,1,-0.9666895746897074,-0.9475054066954185,-0.33577011432889936,0.19393825644037505,-1.7985967122716084,-0.29893723480706574,-0.6057723044843283,0.10819761941498882
1759494857.6314976,1,-0.947745825818473,-0.9541007727505535,-0.3363318576792722,0.19410613683447936,-1.7922575831736964,-0.3038950128654247,-0.6363575247725465,0.10827425253435224
1759494857.7203226,1,-0.9319395046747344,-0.9595949965704794,-0.33698121878194554,0.19458393755263234,-1.7897131436735956,-0.30606022813827655,-0.6559508843561163,0.10787826993301934
1759494857.8220778,1,-0.9116964533749577,-0.966719532895897,-0.3377610138681061,0.19893756232323853,-1.7742417818596832,-0.3196101899080249,-0.691633131492584,0.12067024393662192
1759494857.902028,1,-0.8951610033065456,-0.9725825799076291,-0.3384061609887242,0.2025549707347773,-1.767594164697295,-0.3256941799481124,-0.7192910028481198,0.12019233662166581
1759494857.981564,1,-0.8812814195455507,-0.9775008789409593,-0.33896095671773513,0.20568604922997769,-1.7651245425534303,-0.32812032842187716,-0.7356634016113156,0.1197674144712291
1759494858.0638149,1,-0.8617245216722041,-0.9844313210405251,-0.33799966957110694,0.2128753280689028,-1.7496674264798515,-0.3432433485615346,-0.7565330134985305,0.1457874011702611
1759494858.155527,1,-0.8463994771359704,-0.9899143279162582,-0.3371564502789281,0.2186525760650915,-1.7419319752316005,-0.3509338829131011,-0.7741314596432468,0.14708199015938522
1759494858.2340865,1,-0.8251106563007388,-0.997345670608625,-0.33350836308772636,0.22284707256476624,-1.7395440793786192,-0.3534600356561345,-0.7823291452911404,0.14687284807668044
1759494858.3187497,1,-0.8082261757892283,-1.0032608759015014,-0.330221755108709,0.22624647619473184,-1.722250462520018,-0.37086285662405016,-0.7908587830789062,0.152786388793352
1759494858.3963668,1,-0.7915149131330748,-1.008996315781458,-0.3268164254365693,0.22895310565091181,-1.7142853070209487,-0.37890208449816803,-0.796257157498527,0.1529853779350963
1759494858.48509,1,-0.7717472612848837,-1.0155594736108498,-0.31975486328832936,0.23123585518664788,-1.7107405789263344,-0.3825417177373442,-0.798876016488527,0.15273421761155023
1759494858.5772805,1,-0.7563122554683108,-1.020694949884437,-0.3141882712925558,0.23296369019228283,-1.692513472949611,-0.4009651460187637,-0.7982163384442053,0.16478640809847447
1759494858.6589317,1,-0.7348634224997002,-1.0273263441162026,-0.3036652561789438,0.23552513795417204,-1.6842068407935529,-0.4092748054211929,-0.7959054474914422,0.16558948101878176
1759494858.7548902,1,-0.7172285922312345,-1.032730197475658,-0.29478871361094694,0.23746211940500273,-1.6803469376680125,-0.4131558757755753,-0.7938822514464562,0.16578065075766257
1759494858.840923,1,-0.6948865053326462,-1.0389990622655148,-0.28118096967303546,0.23952568814025577,-1.6600604668149421,-0.43316537269147265,-0.7867571101395504,0.1767696851874228
1759494858.9206982,1,-0.6761013536870666,-1.0441888892909597,-0.2693025722948579,0.24125254814852135,-1.6505663829788402,-0.4423920507433664,-0.7808000029721187,0.17778850427167806
1759494859.008578,1,-0.6525896351557003,-1.0499858168378917,-0.2533977907305747,0.2411014465464709,-1.646414895277565,-0.446404199791009,-0.7765977885717869,0.17814116729269222
1759494859.0933907,1,-0.6334776345009531,-1.0546058353598842,-0.23901069670298172,0.24098100731405503,-1.6248150278235007,-0.4671141546475173,-0.7680844767863318,0.19314835459801757
1759494859.1824584,1,-0.6175758269979703,-1.0583709063239553,-0.22700834537959474,0.24053506190958623,-1.6142374506148343,-0.4770986132053315,-0.7613388049809183,0.19455146157661313
1759494859.2678068,1,-0.5949879010198178,-1.0627788859211051,-0.20774738448410587,0.2511230371073361,-1.6101347552691463,-0.480931992116844,-0.7564059203288109,0.19488427015301493
1759494859.369047,1,-0.5763196682011965,-1.0663507284876312,-0.19163699519104416,0.25947838706646836,-1.5844118922949681,-0.5047060086192153,-0.7474698431694308,0.20069467869904586
1759494859.4604583,1,-0.5520382069077759,-1.0700361751728984,-0.17015345671955906,0.25701602956761443,-1.5723271050028238,-0.5157275521457942,-0.7405122657829201,0.20124428725151505
1759494859.5405753,1,-0.531775238251786,-1.072986397593253,-0.1518435217175262,0.25477588734363027,-1.5683703455088727,-0.5192524075116435,-0.7365221925164612,0.20137564171087294
1759494859.6437335,1,-0.5049711300947868,-1.0758496585662036,-0.1307023784040079,0.25751926111738077,-1.540925556984699,-0.5439403635418464,-0.7280568321811581,0.21707752118681337
1759494859.7307875,1,-0.48388218623525814,-1.0780173605001846,-0.11361857952341411,0.25948361265897124,-1.528334117601615,-0.5550967802377498,-0.7218517213703308,0.218516143586989
1759494859.8262398,1,-0.4573840498760872,-1.0799806077468446,-0.09648411157048489,0.25443485903733415,-1.523085601743023,-0.5596950347855909,-0.7181325307317074,0.21835989032515501
1759494859.9090445,1,-0.4361019935015239,-1.0814663041881318,-0.08241856551297326,0.2502113370566264,-1.4953607234019701,-0.5834207614604789,-0.7060549427868614,0.2294759502039403
1759494859.999985,1,-0.41529846721199715,-1.0826820989497206,-0.07047434449952775,0.2523576128419355,-1.481255172276026,-0.5952869848146259,-0.6959110303279561,0.2308793520116326
1759494860.085233,1,-0.3907483387676513,-1.083748603905021,-0.05888752759871585,0.2599193415407063,-1.4760999197857294,-0.599521733641184,-0.6899935290460779,0.23070100722686773
1759494860.1738346,1,-0.37140796125957487,-1.0845488782638497,-0.04984410732306443,0.2657749475179828,-1.4489028800942756,-0.6210626200671466,-0.6749002534261962,0.21825162196511444
1759494860.2590213,1,-0.34577247245367054,-1.0852556096043724,-0.04134170878917791,0.26432389647652627,-1.4358269916276425,-0.6312260507874735,-0.6626958172689791,0.21710262597928404
1759494860.3502402,1,-0.32459942019535787,-1.0857944103706538,-0.03426937945809,0.26312132246128483,-1.4303507650991834,-0.6353390658448494,-0.6551097715278896,0.2167798633675337
1759494860.4451935,1,-0.297343366513523,-1.0862401397712063,-0.0276941973080574,0.2618915718581914,-1.400222363473289,-0.6574306868426679,-0.6355608220583279,0.2181743322933872
1759494860.5277088,1,-0.275232258812227,-1.0865650152502664,-0.02238867530156175,0.2609513241996419,-1.3861455195243342,-0.6674796389090727,-0.6198293980687304,0.21838336351533522
1759494860.618773,1,-0.24834366076545003,-1.0868038287015718,-0.017400099207513783,0.265388132680191,-1.3801895710144552,-0.6715695186534446,-0.6101294991329873,0.21791078609179168
1759494860.711078,1,-0.22552769819218652,-1.0869745622599225,-0.013139715749870438,0.2690898637868335,-1.3473071481033245,-0.6935216250627783,-0.5868670691686253,0.23641587982831738
1759494860.8094084,1,-0.20419169864342962,-1.0870751308997064,-0.009696259356232334,0.27370222114421533,-1.3307702147520868,-0.7041905939202542,-0.5672806054536828,0.23888405625611586
1759494860.8956268,1,-0.17859481065283492,-1.08710183001768,-0.006146829227443915,0.2794319389219605,-1.3251880420322422,-0.707584146641123,-0.5567299369216134,0.23904129972285107
1759494860.9910789,1,-0.157401564678018,-1.087105847221249,-0.0032391625416814014,0.2841122406752409,-1.2893235758631,-0.7285914955819324,-0.5316826964829989,0.24123607738719827
1759494861.0813103,1,-0.12954347590919282,-1.0870149830703038,-0.0005289762011559234,0.282209201548114,-1.272324929234546,-0.7381851339095865,-0.5117632949486806,0.241774403423741
1759494861.168487,1,-0.10764996201973968,-1.0869303923644285,0.001620356477858822,0.2806789454662545,-1.2657490287398288,-0.7416748654089693,-0.500369186505864,0.24201802192555402
1759494861.2605138,1,-0.07944863205617186,-1.0867693880928904,0.003329050282382497,0.27910710398524324,-1.2288679625289134,-0.7608368682354593,-0.47744405507581894,0.2518918375271958
1759494861.3526008,1,-0.05613355299462845,-1.0866276018564658,0.004745071380469722,0.2777821941090044,-1.2107369734781055,-0.7699157733328876,-0.45884839792020915,0.2533757178602857
1759494861.4393334,1,-0.02716935526240675,-1.0864365425522526,0.005714739457935434,0.27319581301405127,-1.2045219586700255,-0.7728312010458143,-0.4491720018121626,0.25334822188443024
1759494861.5269458,1,-0.003827842907901519,-1.086278094629281,0.006431157528748826,0.2695727555454274,-1.1640606860920593,-0.7913193778239802,-0.4255428023152501,0.2712886058728333
1759494861.6133919,1,0.019461957760878747,-1.0861214178613459,0.006949142352831893,0.2694659122580697,-1.1445043033567002,-0.7998896091845322,-0.40650460066747507,0.27377091169456425
1759494861.7016635,1,0.04420177346410046,-1.0859599087826788,0.007155709689467601,0.27241850008581425,-1.1367421591230016,-0.8030840319672102,-0.3956051228177898,0.27419308334724746
1759494861.8002994,1,0.06351073985228807,-1.0858317338481485,0.007345390777873748,0.2747350655116903,-1.0993537356751848,-0.8179139223390196,-0.37664895253066427,0.24122687067855172
1759494861.881046,1,0.09163901058884252,-1.0856813691882476,0.007119902015236335,0.27807040074312617,-1.0827156002494995,-0.8243160262955752,-0.36385235651698644,0.23861479959934903
1759494861.9653194,1,0.11501273754391053,-1.0855579759205642,0.006879030904286646,0.28092144749179726,-1.076057054117625,-0.8267366979421885,-0.35675500979079616,0.23794582640209722
1759494862.0573726,1,0.14326596083567966,-1.0854466462332961,0.006417998980521714,0.28341320222206945,-1.0363368507285633,-0.8414026205393701,-0.34200952139913676,0.26514783541406495
1759494862.1475267,1,0.16673677334932255,-1.085357012027691,0.00601215953308401,0.28553204616853056,-1.0171542289195985,-0.8482667914660471,-0.33090481831785906,0.267877638657497
1759494862.2307894,1,0.1960379803708533,-1.0852789366213818,0.005577129863276122,0.27968333079182284,-1.0106736518613588,-0.8504842388494998,-0.32555573759030587,0.26818323565942714
1759494862.320688,1,0.21960090203301666,-1.0852192431203231,0.005234874541938062,0.27517522703648273,-0.9672348272975858,-0.8646760565217185,-0.30864835555993825,0.2800251635924583
1759494862.4115465,1,0.23907777139427494,-1.0851722161490533,0.0049808424180467865,0.2714765069134362,-0.9460943777107746,-0.8713188790158204,-0.29492864034582095,0.2817837808492428
1759494862.4987605,1,0.26715914140651414,-1.0851237601524817,0.004863904424474152,0.2827346785616134,-0.9381680323037216,-0.8736600937235185,-0.2873364160912379,0.28203503034728855
1759494862.5874598,1,0.2893116154487822,-1.0850844620957687,0.004788892354835369,0.2914276552006607,-0.8984202961435347,-0.8849640283043512,-0.2735775474257741,0.2636823261383085
1759494862.672284,1,0.31784322869380416,-1.0850292114483184,0.0050052149977669195,0.28805567389692593,-0.8794366256682691,-0.890202215161496,-0.2632443961745099,0.2623387869596707
1759494862.7797716,1,0.3410075368580871,-1.0849830742171307,0.005224263492674131,0.2852810733413163,-0.8706336021810667,-0.892509676856797,-0.2568079563446709,0.2620188086387463
1759494862.870908,1,0.37153222127050617,-1.0849083116272684,0.005448090574068136,0.2867684683527164,-0.8258103811222167,-0.9041393041814273,-0.24523605667226886,0.27404687070205214
1759494862.9593534,1,0.3967184889807767,-1.0848456423890611,0.005636702192825067,0.2880977979132908,-0.8042494146568673,-0.9095718052544378,-0.2369121166802277,0.2753630921182402
1759494863.0484333,1,0.42677460009549534,-1.084774472814192,0.00549200174554824,0.28372275345806536,-0.7960290276584201,-0.9115561267384227,-0.23234823995413462,0.2754557278204578
1759494863.1392593,1,0.45216216217670413,-1.084716964181114,0.005277565399432457,0.28018153212611,-0.7487451327766097,-0.922519224229571,-0.22022984293666187,0.29475930204397055
1759494863.2218392,1,0.47518892071525,-1.0846729866488474,0.0050509093018548225,0.27875756086649217,-0.7269640447394146,-0.9273855137803869,-0.21140623261609606,0.2968169549996364
1759494863.3151593,1,0.5010548474395637,-1.084642609981172,0.004481810699005988,0.27905689402606465,-0.7171486634226327,-0.9294751093580298,-0.20577331794322623,0.2972979088167562
1759494863.4070199,1,0.5223961697922316,-1.0846208295450273,0.004031110853240325,0.2794603649725617,-0.6765850546385139,-0.9377360346956017,-0.19650737259314394,0.2674269320105602
1759494863.4929268,1,0.5512250050234915,-1.084634652090858,0.0033846475955639334,0.29171534496053847,-0.6574879652300314,-0.941522264696679,-0.18988848533006494,0.26495129525630096
1759494863.585785,1,0.5751834942441016,-1.0846492769286487,0.0028484882756188625,0.3017282866839182,-0.649519848622248,-0.943024396498354,-0.18614911987232122,0.264317014455048
1759494863.6778238,1,0.6049455846688248,-1.0846812275413877,0.0027123666863697023,0.2959249574253306,-0.6054428927572978,-0.9512962702332863,-0.17766250836638353,0.2652861324083898
1759494863.7732747,1,0.6293126933961751,-1.0847083876033097,0.0026166503403983908,0.291171929343658,-0.5835487056852628,-0.955291147159171,-0.17143897111299883,0.26560562915490893
1759494863.863464,1,0.6593414861055343,-1.0847258641304303,0.002856121277834563,0.29195561659122937,-0.5757770309100174,-0.9566472202092255,-0.16807217842983888,0.2655740854734605
1759494863.94703,1,0.6844647564007434,-1.084739262667107,0.0031025704254789366,0.2925900304990871,-0.5267923580358665,-0.9648618729525035,-0.1592232474848758,0.3047275242308208
1759494864.0422204,1,0.715478764270921,-1.084734485750037,0.0034220320925036126,0.2902669107938266,-0.5015329358464292,-0.968941035145688,-0.15177117885329164,0.30837287822169707
1759494864.1268215,1,0.7401485033090759,-1.0847277824412602,0.003716496360075612,0.28842951032317965,-0.4931088198368986,-0.970219198316816,-0.14800645776805135,0.3091963801330067
1759494864.2135315,1,0.7607009293565469,-1.0847211789897577,0.0039625992696854994,0.28679874233968844,-0.44752732016139873,-0.9768669621419666,-0.1407535353933266,0.29382239398206217
1759494864.2989051,1,0.7895163925683769,-1.0846891620135175,0.00426917114848771,0.29029326251844273,-0.4255172920481681,-0.9799819166489029,-0.13513900518195038,0.2926541448400282
1759494864.385657,1,0.8122038000465162,-1.0846613658962434,0.004482913952833192,0.29305655716708523,-0.41688182779420313,-0.9811377833198094,-0.13198209760813476,0.29237422613653863
1759494864.4790564,1,0.8422902319934727,-1.0846192170879958,0.004526150946890922,0.2940292948630916,-0.37419629260479415,-0.9868569153469673,-0.1265575295297617,0.2729470259014232
1759494864.5597918,1,0.8673563244996662,-1.0845845130448588,0.004506940141340582,0.2949704735456504,-0.35497265820543733,-0.9893797363286781,-0.12362519130756629,0.271492913619164
1759494864.6531725,1,0.8912459040778062,-1.0845558162584896,0.004431253251499794,0.29203003905666286,-0.3462034826982452,-0.9904926584648154,-0.12194175198754587,0.2710693490321198
1759494864.7475967,1,0.916827624854452,-1.0845332797978209,0.00410304862364121,0.2857720399983732,-0.29972765417570996,-0.9962744774374643,-0.11665842984523037,0.2855268166604883
1759494864.8400679,1,0.9475783173809189,-1.084523339497421,0.003828872883626305,0.2875761196133618,-0.2775613844545049,-0.9989510439236422,-0.11281210613743255,0.28672869987820465
1759494864.926851,1,0.9737908510577074,-1.0845174275239766,0.00359640796021329,0.28903622760360503,-0.26960613678265,-0.9998723019559261,-0.11098976527998747,0.2870504473870293
1759494865.0184028,1,0.994306932100833,-1.0845130475343894,0.0034428911961409325,0.290187118007889,-0.22013436732693745,-1.0053499001430135,-0.10489688652990115,0.3044631115134822
1759494865.104709,1,1.02388314214957,-1.0845153701704133,0.003334754397246164,0.3014784295392262,-0.19668074762095422,-1.0078469820067169,-0.10002985543319035,0.3060984832509015
1759494865.1956825,1,1.0484155056946003,-1.0845175600211425,0.00325714953297079,0.31086354704808145,-0.18738374860448748,-1.008777892077506,-0.097241676413346,0.30649029448294896
1759494865.280971,1,1.0774137903869812,-1.0845217103940497,0.0032341178944672497,0.30377254425620787,-0.14449631032437188,-1.0129116830763751,-0.09198769244311027,0.2809664583780563
1759494865.3740065,1,1.1013537236674942,-1.0845258589890876,0.003221712612128483,0.29828001129405574,-0.12295481455703945,-1.0149289999728484,-0.08841815161347556,0.27897663658699806
1759494865.4617298,1,1.1324497258629758,-1.084499586038423,0.004084087547945166,0.2980097867330396,-0.11546156386267187,-1.0155903049588515,-0.08605313684934028,0.2785177783786636
1759494865.5510364,1,1.1575342512828197,-1.0844685581926512,0.0050681442183173105,0.2982129192123199,-0.06572131198118453,-1.0199523331460827,-0.08148700813243208,0.2914597622991284
1759494865.6375065,1,1.1825049463827306,-1.0843708497897395,0.00671919685754715,0.29782556029608365,-0.04217929568609539,-1.0219536665039548,-0.07891933770437086,0.2926759513609588
1759494865.7400835,1,1.208598379403198,-1.0841738298374572,0.010712085082667591,0.2972624822667485,-0.031380735249047574,-1.0228409205717977,-0.076636278801885,0.29318562765612505
1759494865.8275259,1,1.2368647463819822,-1.0836478834722978,0.01831525438143375,0.3006107364702312,0.014195124056447222,-1.0265406819358955,-0.07494429095880675,0.2927370581356627
1759494865.9155257,1,1.2647886139555562,-1.0828853076777607,0.028021764705676678,0.3070598852023857,0.03656696180779222,-1.0283388651192882,-0.07375660431968736,0.29307676183898695
1759494866.009523,1,1.287939555151016,-1.0821952813811488,0.03619219092934448,0.3121683645182306,0.04559627592693355,-1.0290530338876467,-0.07337737689866615,0.29325329753213103
1759494866.1047273,1,1.3177499604943712,-1.080455669056083,0.05270434885560386,0.3104522313329366,0.09220818060201633,-1.0331114561059107,-0.07685689925100536,0.2817561333594658
1759494866.1947875,1,1.3411806791504735,-1.0789893019390904,0.06605787094940412,0.3089016456175631,0.11427299341170351,-1.0351019417199947,-0.08189376403690596,0.2807390115463576
1759494866.2828443,1,1.3704086948449494,-1.0761252135883617,0.08678935999181099,0.3075110487217852,0.1225869552046655,-1.0359120712998224,-0.08436800491087473,0.28069659808192515
1759494866.3692915,1,1.3946688166997645,-1.073626600155024,0.10465414223131235,0.30603629777966873,0.17103715903588654,-1.0413222316714044,-0.09581075603066318,0.3023625675540539
1759494866.457544,1,1.418432965743398,-1.0705187971161996,0.121651496922354,0.3046918978805078,0.19437672016086838,-1.0440970197936514,-0.10758154537108958,0.30355141568551103
1759494866.5454245,1,1.4445296628460296,-1.0664059358622746,0.1447152146462075,0.3031379948691829,0.20374172691741835,-1.0453624321268589,-0.1140097577659392,0.3040500982607114
1759494866.646984,1,1.4705513076344208,-1.0615652661045556,0.1663548510606801,0.30605164241242944,0.24927102947968635,-1.0517072983729552,-0.12563312168167587,0.27612210990812064
1759494866.7396064,1,1.4985367719595493,-1.0555131194388183,0.1930230942062997,0.31267057687352134,0.27062992516756273,-1.0548572595870034,-0.13533853815243987,0.27340062596373954
1759494866.8290005,1,1.5205242486962762,-1.050573495672301,0.21388405699762122,0.31809504296428176,0.27832673799453583,-1.0560997631865152,-0.14090665926113285,0.272682037777706
1759494866.9132178,1,1.5487946571340214,-1.0428203631648885,0.24145827881671567,0.31434764085550554,0.3228238208126164,-1.0630611520496533,-0.14688689502891605,0.28321696362947396
1759494867.0004606,1,1.5722228430635903,-1.0362475692302013,0.26457503239504776,0.31154655982067414,0.3447395700860135,-1.0665555416472945,-0.1525232471275156,0.2838665555760628
1759494867.0899117,1,1.6006898192486054,-1.026710714777044,0.2925573288162705,0.31096567652513535,0.35324088580785207,-1.0679742841764615,-0.1551936024867463,0.28381661007618986
1759494867.179994,1,1.6242812229881576,-1.0186423146868333,0.3164112179691382,0.31081535960022266,0.4023112282606238,-1.0757658115585726,-0.15518607365324616,0.3041428868240936
1759494867.2671745,1,1.6519647279810135,-1.0078889857577258,0.3439894987370459,0.3049153035766665,0.4242607191414014,-1.0792247041319027,-0.1553612489339233,0.3054204265914972
1759494867.3542585,1,1.6751298233906393,-0.9985292700471442,0.36886084275962255,0.3004273189434356,0.43447825020901737,-1.0808381303457957,-0.15447114459582026,0.30608535450741203
1759494867.442695,1,1.6983209088199591,-0.9883692496397022,0.39248753848461887,0.3011060596638906,0.47579977420339953,-1.086905983844682,-0.15006211361034769,0.27083192361530406
1759494867.5266263,1,1.7220980700004556,-0.9770108797239506,0.4199188437271897,0.3061752640175138,0.49518541833066193,-1.0896986748368906,-0.1461392530513705,0.2679280604996195
1759494867.6100075,1,1.7419376281672023,-0.9673645763199219,0.4430557846747013,0.31060417562073594,0.5027551102085323,-1.0907373345555207,-0.14335722651047855,0.26707720357120496
1759494867.7025828,1,1.7672158486722074,-0.9533882211456153,0.47435416105812395,0.3088303980547117,0.548625430920426,-1.0969665661822052,-0.13596479489278931,0.29372534237928344
1759494867.7882102,1,1.7869811626013217,-0.9422079459111966,0.49934191556628466,0.3073991752070711,0.5700555386569189,-1.0997492002060099,-0.13016994177311106,0.29610534778060743
1759494867.867692,1,1.812359775087976,-0.9258728267347746,0.5323748701583735,0.3135761893639263,0.5776587220981472,-1.1006680640837287,-0.12631801585147914,0.29647131037144875
1759494867.94901,1,1.8334653806527759,-0.9120249953555896,0.5616581163765377,0.318506327437546,0.6210274946109062,-1.1056345898273552,-0.11668244097742296,0.2925056039179118
1759494868.02011,1,1.8501520272363874,-0.9008001144953651,0.5849417311823364,0.32248666720975194,0.6405261046081103,-1.1077392480719692,-0.10936923682278804,0.29260677877742924
1759494868.103579,1,1.8711941597662418,-0.8847181582057106,0.6159509626730715,0.31621979437413666,0.6498682643912198,-1.108672258075988,-0.10416193748488782,0.2922899990107518
1759494868.1918979,1,1.8885823238190365,-0.8712799829591039,0.6423281577381766,0.31082216633271714,0.6891989875388599,-1.112346732388544,-0.09446540872988068,0.2652738706967511
1759494868.274878,1,1.9108308001672256,-0.851881450322262,0.6758711657566471,0.3156154855333577,0.7076136004712392,-1.1139561529732287,-0.0870662197170515,0.26290190234009353
1759494868.3558924,1,1.9282725126079714,-0.8362593916904003,0.7038603597021079,0.31946576456336606,0.7145817994942048,-1.114485532906696,-0.08259095965243765,0.2622151059868281
1759494868.4311967,1,1.9428038066828186,-0.8230728004770732,0.7273886695700712,0.3227012257659666,0.7552807088603588,-1.1174464417298715,-0.07176060059314368,0.2856872607913391
1759494868.515844,1,1.9610119735234148,-0.8044083726283549,0.7577735188240043,0.31947213820045545,0.7759372843730106,-1.1188028228682525,-0.06260144946829696,0.2874894162470874
1759494868.600353,1,1.9760238554748457,-0.7888570594796217,0.783402413544484,0.3167148025883199,0.7840311771481776,-1.1192304899434533,-0.056898098319031,0.28798415124797544
1759494868.674748,1,1.994262742812353,-0.7676848613761043,0.8144665448956211,0.31539169278105506,0.8221010789634926,-1.1208907795622054,-0.044459834649664895,0.27863700070194874
1759494868.7591035,1,2.0094398844922483,-0.7498546040614807,0.8421455302332616,0.31421023139257154,0.8416306260479579,-1.121590541865734,-0.03387539334166105,0.2781239501471293
1759494868.83837,1,2.0229742514640634,-0.7330143847890145,0.8654756154241179,0.31204879014852965,0.8486216706496282,-1.1217293922864635,-0.0278478024332554,0.27812915107672775
1759494868.9295242,1,2.0379423960820393,-0.7130282812074562,0.8949669732981805,0.30875186592890375,0.8898925919190765,-1.122033953335914,-0.010664722094715778,0.258650253997092
1759494869.0029242,1,2.0497021044549935,-0.69699182358673,0.9186515084455597,0.3062297866802987,0.9078631833358252,-1.1219570492102313,0.002719031465514825,0.2576672001021583
1759494869.0733364,1,2.0651026021761667,-0.6733534706677895,0.9503507733871972,0.3129814839636161,0.9147677575203675,-1.1218021830130513,0.010553452814390863,0.25675891033404963
1759494869.1463013,1,2.0771603624966644,-0.6542394745397788,0.9771048364448439,0.31837514835615544,0.9507480104951737,-1.1207105351349844,0.027696639448952502,0.2663878967075776
1759494869.228139,1,2.087077473984816,-0.638260655613453,0.9994799288664833,0.32284105976979977,0.9688166354020337,-1.1199650208414005,0.04234810860243227,0.2678091867742866
1759494869.304835,1,2.0991961790039566,-0.6159982922161963,1.0290646458978612,0.31914971897403344,0.9754407904685999,-1.1195399321717585,0.05086450993560778,0.2676827958651381
1759494869.3904276,1,2.10914426657588,-0.5975492781205239,1.0542170857746918,0.3158690193199404,1.0141885223012013,-1.1168051160573378,0.06978904037455005,0.26871965833052536
1759494869.4766564,1,2.1184450119740226,-0.5786515946314351,1.077322060399301,0.3120485503659544,1.0322070611233551,-1.115312673756731,0.0847870138840479,0.26950859938147065
1759494869.5592966,1,2.1283457365876832,-0.5571865223398377,1.1059632315028058,0.307532282836283,1.039644685010166,-1.1145284364000079,0.09353659552377987,0.2691959864489507
1759494869.6308274,1,2.1360657704305352,-0.5400149338463981,1.128935771069109,0.3040641911307596,1.0728000516183993,-1.1109036577142175,0.10969847036360414,0.2375704704839123
1759494869.732723,1,2.1454059540780737,-0.5155731961538926,1.159888991769847,0.3086315320256542,1.0914491008391989,-1.1086803071783522,0.12435349130629002,0.23463422122818292
1759494869.8030229,1,2.1531717392600878,-0.4949454217262378,1.186294741093036,0.31226259683927476,1.0959254532965959,-1.1080343594322075,0.1311227993095704,0.2340519683019528
1759494869.8790941,1,2.161547527911847,-0.46814707440499426,1.2186529376544222,0.3109092722403784,1.1341510681590883,-1.1022565807632152,0.15026964361075063,0.25146817504206165
1759494869.9510746,1,2.1679816085512194,-0.4466666928581901,1.245557230128187,0.3097511093236152,1.1518586971892049,-1.0993782452936278,0.1660397625454789,0.2533474757755959
1759494870.0221715,1,2.1733951558618356,-0.4285960719366556,1.2684367732476023,0.3080188136025986,1.158761678737554,-1.0981133836274337,0.17537114326408562,0.2540556792826322
1759494870.1121757,1,2.179566901932437,-0.40315171975418584,1.2987344292834864,0.30475573868680694,1.1961580641619165,-1.0904467562045543,0.19855677811424313,0.2672559928499644
1759494870.1966918,1,2.184140289130777,-0.3831564994963683,1.3231533842978631,0.3020713587547724,1.2133769565072043,-1.0866117521139007,0.21786692382220674,0.26899501868095954
1759494870.2708275,1,2.188107896414842,-0.36249836593235624,1.345051978080728,0.30085609398518043,1.2188893053087457,-1.0851877197127109,0.22796975357480628,0.2695725952656067
1759494870.3604865,1,2.192048249590413,-0.3390636924656597,1.3701414725826482,0.30102232787944255,1.252693789808589,-1.076485031016738,0.25058912667171,0.23469877545402196
1759494870.4533346,1,2.195422258223139,-0.31636953061736667,1.39149537310325,0.30304711383717714,1.269200717852157,-1.0719668743874329,0.2694662239284772,0.23220471426891642
1759494870.5401955,1,2.1986841005934328,-0.2895882807448122,1.4138147815836735,0.30737392992228074,1.2749117707863686,-1.0702336402474506,0.27905432167770294,0.23088445788006834
1759494870.6216989,1,2.2009430077211536,-0.2684382980076779,1.431364836326917,0.3105901407001528,1.3110071148821283,-1.0588471080049129,0.3046794786490591,0.2370962495023009
1759494870.733546,1,2.203317948127755,-0.2408943727462842,1.447825110217437,0.30568268269763105,1.3302539633347918,-1.052443404028781,0.3274543256650313,0.23767361985320085
1759494870.816826,1,2.2053696288368387,-0.2180473793921993,1.4615182414979546,0.30199388171929287,1.3358668122042672,-1.0503676160641875,0.3391714842698893,0.2378317821812032
1759494870.9079394,1,2.207704573331692,-0.18865166385615897,1.4739636745691755,0.2978379837595713,1.376245387135946,-1.0343474442270326,0.3722507627839272,0.24957313199598974
1759494870.9843152,1,2.2094240632471065,-0.16543416520721163,1.4838209452583357,0.2949326859284381,1.3942960110173024,-1.0267640990414193,0.39922185350541756,0.25157094118980095
1759494871.0683637,1,2.2113519544319202,-0.13553816348791486,1.492724638973161,0.29579731407619086,1.4017452751368586,-1.023350627629964,0.41496626648717,0.25136808460737403
1759494871.158421,1,2.2126520556075464,-0.111427325671748,1.499836066061993,0.2964230506545691,1.4369820875667612,-1.0059508164601603,0.4522220213336686,0.2508701902725054
1759494871.245216,1,2.2137687876452525,-0.09138763342606095,1.505729725721332,0.29705134471842876,1.4534210370606326,-0.9973313894141825,0.48285491335151814,0.25229280479298727
1759494871.3212276,1,2.214891730739498,-0.06379840968953812,1.5117847397861253,0.30078236174431955,1.4586508922118746,-0.9942591876915502,0.4987070967200743,0.25187948119804515
1759494871.4062297,1,2.215831843783653,-0.04075270456639166,1.5168777231169004,0.30402469176808083,1.490307132718595,-0.9755595186834,0.5313184903719329,0.2418269201277186
1759494871.4929295,1,2.217041455344858,-0.011124058387403773,1.5224892238420331,0.300555886571849,1.5053931304129753,-0.9662344828424149,0.5575591128177237,0.24127219864614974
1759494871.5794845,1,2.217846073115625,0.012253294762081837,1.5270988978071354,0.2977123735862274,1.5112015607364655,-0.9623458902358547,0.5728627203276967,0.24117333415241288
1759494871.6996276,1,2.2189901366655107,0.04290927879278113,1.5328091084394158,0.2954258393159488,1.5485977868152363,-0.9363985653770456,0.6088738684539328,0.24711150117779068
1759494871.7873683,1,2.219716664004419,0.06700374000002543,1.5374961460927077,0.29328195167812776,1.5654781870895667,-0.9241720978007759,0.6362680700129099,0.24816514581359553
1759494871.8778968,1,2.2204443855231233,0.09734803048237102,1.5429719340569352,0.2943786733029567,1.5718646306694795,-0.9192129857627371,0.6513186307432065,0.2476721369156409
1759494871.9713554,1,2.2210774132793776,0.12325206251394927,1.548046113383941,0.29496305085697044,1.605243435349454,-0.8923022050482391,0.6835764047630029,0.25816095840619135
1759494872.0636573,1,2.221286318441941,0.1484356903739894,1.5524375310535423,0.2986902615495665,1.6211286340659272,-0.8789800053970848,0.7094242637683756,0.2602585610446321
1759494872.1541998,1,2.221391646253284,0.17607987319375798,1.5573551589879024,0.30493251151265216,1.6267566052351992,-0.8738929489623499,0.7226350033926016,0.26016602570278424
1759494872.2497652,1,2.221403779470389,0.19886823036737158,1.5614313560355946,0.310058824288891,1.6576601232452304,-0.8453679412396224,0.752816996905314,0.2490859159235976
1759494872.3490798,1,2.221356536661847,0.22883063565205203,1.5652871660807146,0.30822983876941473,1.6727018260966764,-0.830948193421459,0.7771837214938073,0.24837489669544807
1759494872.436754,1,2.22113559485336,0.25234104207769176,1.5683380385454468,0.30676511842147897,1.6774209639491648,-0.8261161029462174,0.7891542638309333,0.24831695879966723
1759494872.5323315,1,2.2210559015491547,0.2823401356734762,1.5705768667773938,0.29941399062784796,1.7085908083542705,-0.792970300873953,0.8188737084838416,0.2613112981033984
1759494872.6226223,1,2.2211687586013547,0.30712567819538616,1.5724145895930095,0.2931858042955159,1.7231808751382145,-0.7769256820319147,0.8432399869368238,0.2633085845355753
1759494872.7271862,1,2.2212055343709998,0.3379942414077569,1.5732394490475086,0.29488697386244606,1.7290655550898533,-0.7699813456618471,0.8568036414157005,0.26334714045373936
1759494872.8231616,1,2.2212499781629824,0.3633681096996088,1.573859879513892,0.2963754637010499,1.7595169783239404,-0.7321777863630291,0.8922180424230125,0.26996701350611835
1759494872.910832,1,2.221054295378363,0.3950990853215502,1.5734387251222577,0.30040297432371127,1.7732014157962863,-0.7144638027614663,0.920072138421275,0.27107782092108107
1759494873.0012379,1,2.2209125335538014,0.4215695848123609,1.572978621294519,0.30394762389153457,1.778534859597856,-0.707035013104885,0.9363529156761273,0.2715632485019806
1759494873.1008053,1,2.22098916430485,0.453474886977142,1.571998594253153,0.2967662691170448,1.805371293050207,-0.6680974416336116,0.9687654689222066,0.27166691992991004
1759494873.1956887,1,2.2212205991579035,0.4799302496289149,1.5710786438121804,0.29089113221255897,1.8177973630322042,-0.6493056848380937,0.9946385184144824,0.27259173182113183
1759494873.2829673,1,2.2212889982822173,0.5052598750662429,1.5703482679329084,0.29001068203440655,1.8217615055805432,-0.6428075033522215,1.0074176709336446,0.27313176196038214
1759494873.3797274,1,2.2214112519200433,0.5322735891428445,1.5696551079185237,0.29294190903274336,1.845710957247905,-0.6027755365579175,1.0343505123453125,0.271169597790197
1759494873.4710655,1,2.2215059808010698,0.5582961484926521,1.5691061861963942,0.29849303418139983,1.856725970518186,-0.5837288620310327,1.0552099174797827,0.2717991522557319
1759494873.573239,1,2.221514973570936,0.5878502544708217,1.5688729969626563,0.3061640164948435,1.8611277984618282,-0.5755662066764745,1.066947417046012,0.2715944006294908
1759494873.6690195,1,2.221534635655774,0.6153934288654598,1.5687640737407524,0.30818746441200134,1.8834619529385124,-0.5336423609912002,1.0887053875436967,0.27950642586895236
1759494873.7732801,1,2.221624258926428,0.6454418854010143,1.5690558745902015,0.3051440259736818,1.8942861000301734,-0.5126929603229122,1.1057162935657976,0.28044988076801164
1759494873.8592708,1,2.221572935328915,0.6691475409706273,1.5693273064442563,0.30279685819515867,1.8975401662133418,-0.506033821499394,1.1133295642020504,0.28073701892849057
1759494873.9647145,1,2.2215687630289485,0.6995660795500401,1.5699952963474975,0.30239409923251415,1.9189504046358068,-0.4616137931084264,1.1327958852248932,0.2735435250564754
1759494874.0593276,1,2.221623099741384,0.7247668613809362,1.5705694112836797,0.3019424626773227,1.9288493189545317,-0.4405076309761808,1.1476648452182294,0.27348610885982244
1759494874.1512597,1,2.2217688104455773,0.7565186197778092,1.5714058803384139,0.29983264603331866,1.9323668708992827,-0.4326297050281711,1.1551344678647606,0.27319324634388914
1759494874.2455447,1,2.2219606797744706,0.7826067181846408,1.5721068398993883,0.2980205069929551,1.9517893798043504,-0.38649707972872466,1.1750380847533903,0.2897613860738376
1759494874.33956,1,2.221962892750967,0.8138296046290783,1.5728135594078467,0.294336633410527,1.960716574488039,-0.3647094317560232,1.1907736437930587,0.2913626247243261
1759494874.4309988,1,2.2220897062278855,0.8397929947894904,1.573423328878478,0.2911858568822481,1.9641154898229876,-0.3557505201177601,1.1996544168571563,0.29204684068666253
1759494874.5356739,1,2.222077745544238,0.8720690860945023,1.5737984024874907,0.2965148384194437,1.9819295412211748,-0.30844510330124175,1.2183449862228284,0.2821722276105072
1759494874.6315427,1,2.222031957511496,0.898805369838666,1.5740670051709202,0.300958121573445,1.9902146584181164,-0.28573324869936834,1.2327243820327687,0.28183696633628497
1759494874.7426665,1,2.2219802585559574,0.9314410405234826,1.5739116812041538,0.29996009730074097,2.004193819506717,-0.24366768990694335,1.2502855353102684,0.29810227219227525
1759494874.8344176,1,2.22201905544167,0.9584595949967563,1.573741165173483,0.29924694490791515,2.010231741618979,-0.22484100005387989,1.262565015430669,0.2998442919445478
1759494874.9266849,1,2.2221789844785538,0.9921514872462063,1.5730713615540932,0.29893727761090044,2.0123649670583523,-0.21764181254285844,1.269063979774311,0.29996622793426864
1759494875.0239635,1,2.222348720963648,1.019720176475277,1.572501710219922,0.29874800127669293,2.026668272427531,-0.17072039966606686,1.2841542423432182,0.29348151145513723
1759494875.1190598,1,2.222298369850349,1.0516013918749993,1.5717938735375871,0.3001161397371086,2.033371261170205,-0.1479110274043743,1.2958110211272482,0.29314117953285934
1759494875.212036,1,2.2223205140695783,1.0781803784474404,1.5711363245665593,0.3013859056428339,2.035693593051681,-0.1395562763756709,1.3017322787526515,0.2931501186231126
1759494875.3089073,1,2.222506945554602,1.1111832675825226,1.5705155303045035,0.2979558428146991,2.048939042410505,-0.09066692979784487,1.3158385076759307,0.2968138176127477
1759494875.3991017,1,2.222793159241004,1.1385500194303584,1.5699735462906999,0.2950849011471746,2.0550009427072147,-0.06768077281802307,1.3263089864785542,0.29754846224921105
1759494875.4958925,1,2.223113401651162,1.1709808062520353,1.5697498644921497,0.2963258772999419,2.057357341604518,-0.05811289226941409,1.3320445108538224,0.29788471788623777
1759494875.590914,1,2.2231431853190027,1.1969866189748846,1.5696811053824071,0.29719001713719473,2.068691556278805,-0.010527209343796189,1.344045646276494,0.29177761138880537
1759494875.7002451,1,2.2231757080743426,1.223274996606462,1.5698015551252407,0.29642892351300654,2.0741978984669784,0.013432444288702819,1.3533849404400233,0.2915791896108721
1759494875.7929053,1,2.2233164129903535,1.2504392422003823,1.5701790818570294,0.29431923837541923,2.0826957144540805,0.05121818043459022,1.3623201909628357,0.27720106287955587
1759494875.8823762,1,2.223467682541464,1.2781894628599522,1.5705533268958534,0.29678505968838315,2.0865025716246066,0.06881944503784727,1.368172097335745,0.276076659759003
1759494875.9746304,1,2.2235564878608134,1.3085783122247523,1.5710117586337016,0.3033531726777784,2.087926315523217,0.07560286085378305,1.3714821036715712,0.2756313448144536
1759494876.0671208,1,2.223321636244352,1.3324121329971286,1.5713799070750358,0.30845885750935775,2.097233132169943,0.12118475131185258,1.3787754129859653,0.27832210626457926
1759494876.1579874,1,2.223212601908557,1.3625902556693266,1.5717697994312108,0.30770885399699816,2.1016444772833536,0.14322348849432345,1.38400067848601,0.2785912553725807
1759494876.2526968,1,2.2231855179936386,1.38747349319904,1.5720784854765257,0.307027994893202,2.103332848369145,0.15201451155590923,1.3867139258458132,0.2786754978188798
1759494876.3451548,1,2.223348809956981,1.4193313183493816,1.5724594494399506,0.3014228785410741,2.1121869535464617,0.2019739262240501,1.3947030420982363,0.30869049592943815
1759494876.4316328,1,2.22338801592263,1.4443433908778989,1.5727650690180424,0.29703375772057955,2.116328215820297,0.22556689013720171,1.400341194264804,0.31146066773053727
1759494876.5348048,1,2.2233762643755037,1.4757792714746503,1.5729796587229925,0.30058112126347913,2.1180081080758977,0.23619569497874301,1.4039886552459262,0.31206784390830883
1759494876.6340334,1,2.223345052518099,1.5017066672055193,1.573154062368,0.303496972529438,2.126633134611288,0.28809191375709603,1.413889169842107,0.298840870549248
1759494876.7446144,1,2.223314084237081,1.5336372589954481,1.5731386774029197,0.30203795301393654,2.1307110030885776,0.31367765399532194,1.4217902579537622,0.29785082641029637
1759494876.835075,1,2.2233833426714638,1.5600957950644256,1.5731259717065886,0.3008478708284951,2.136877530891331,0.3562940226774827,1.4303411627414724,0.30306083362572894
1759494876.944358,1,2.223468100995782,1.5925892982414798,1.5728706162968886,0.29949420070012883,2.139793294287979,0.37761766365234034,1.4370112440872638,0.3035730205347342
1759494877.0316741,1,2.2236505129209445,1.6195162994369143,1.5726534456817869,0.298578038821093,2.140637546264437,0.3840864378279598,1.4402222136421248,0.3036832658306988
1759494877.1250896,1,2.223649438010407,1.651094980170374,1.5722609124884583,0.29712742429578687,2.1472182705092475,0.4338388408302426,1.446670171262406,0.30117171032983764
1759494877.213775,1,2.2237513413614622,1.6774184568743022,1.5719077536882922,0.29601044971460605,2.1502530991838102,0.4573084736266626,1.4506358684457705,0.3011194025933333
1759494877.3078043,1,2.2239602498108164,1.7097193577017642,1.5716659889933902,0.2962903210165257,2.1514449532854543,0.4669514693540425,1.4532509749308435,0.3010035458991923
1759494877.4025335,1,2.224180885381492,1.7370135398354298,1.5714809145010509,0.2963449024204392,2.157497835072995,0.5195565179038579,1.4599046211505875,0.30968566296747463
1759494877.496976,1,2.2241787019729475,1.7626190186508899,1.5714906826848716,0.2946899330638451,2.16035167668622,0.5450101962072986,1.4644349108137396,0.31071274108679625
1759494877.5932558,1,2.2242904766055522,1.789607402733154,1.5718524716168467,0.2915763342866524,2.1613665572236953,0.5550309699912579,1.467324909271098,0.31093748387897396
1759494877.7047021,1,2.2242646620751034,1.8173846610155233,1.5722459859302957,0.29601764190721586,2.166931294484865,0.603815195680445,1.4720173372018162,0.283020599917335
1759494877.795506,1,2.22413424705139,1.847131470505824,1.5728346514814608,0.3069282587589981,2.1694410180077965,0.6265918870525283,1.4750091832755376,0.2806533309798723
1759494877.8893068,1,2.223995181975598,1.876193753064567,1.5733180145802312,0.3103589572729715,2.170438602552899,0.6355238646107405,1.476540142915223,0.2801029623947677
1759494877.9799097,1,2.2239946963638437,1.906693136501391,1.573795001238497,0.3071531407934023,2.175090814672914,0.6823225854629644,1.4799702862831832,0.2807465450383693
1759494878.0685759,1,2.223856743551777,1.9306135693200959,1.5742066356845912,0.3046523418109612,2.1772716502519454,0.704826434240378,1.48168837055427,0.280849017938147
1759494878.1552594,1,2.2238489166502204,1.961553876818849,1.5746666912015788,0.30271940801431596,2.1780821871310634,0.7133033305228111,1.4829232404631967,0.28079587834882364
1759494878.259925,1,2.223885104136026,1.9868321323042393,1.5750155890058675,0.3010990054627054,2.1824960166803637,0.7671608229065401,1.4874162923074514,0.3049012509041234
1759494878.351784,1,2.2240114517133884,2.0190107470115546,1.5754241361485475,0.29943688574221516,2.184575246853716,0.7919705577187236,1.490496357591254,0.30694950361065704
1759494878.4452496,1,2.2239277049817394,2.04411656355967,1.575746766378872,0.2981571234170496,2.185288070373703,0.802059835445089,1.49224275338095,0.30758464125453644
1759494878.5411222,1,2.2238715541294365,2.075925756806963,1.5757761330946198,0.29829469566871397,2.189359048753692,0.8520014325033947,1.496922083638647,0.29857967625940246
1759494878.6354237,1,2.2238754728058807,2.102190375022776,1.5757644324524875,0.2984838582265503,2.191252007371812,0.8759835567284551,1.4997976693434223,0.29795693192230477
1759494878.7474444,1,2.223912792957427,2.134547991925952,1.5754619735907822,0.29450212582410606,2.1942693658178327,0.9222686599204586,1.5044578737544458,0.313874408652077
1759494878.841376,1,2.224063473258582,2.1612179170295236,1.5751967677241283,0.2912721240885685,2.195634617164402,0.9432143623795323,1.5073082054115254,0.31531984635696436
1759494878.9417439,1,2.2241469222323347,2.1943212251346553,1.5747425161290673,0.2995300110098403,2.1961293392135968,0.951867579476065,1.5093489855119802,0.315608826078842
1759494879.0614133,1,2.2240270576832972,2.220961890910442,1.5743897001915044,0.3061658892412729,2.1996902170607058,1.0073493021086344,1.5139169190888566,0.3040667198610863
1759494879.143776,1,2.223864905424379,2.2526760862979853,1.5740846313405565,0.300589922783838,2.201266986220517,1.0319864503666727,1.516723470023115,0.3032583756750181
1759494879.2377012,1,2.223885292407654,2.278942627263854,1.5738163490319126,0.29598435489636404,2.201937782083095,1.0430754947134484,1.5184746700758438,0.30301041907983095
1759494879.3342648,1,2.22391100894975,2.3114131459622587,1.5736677371747694,0.29907644522455445,2.2048406743858155,1.0920192587769326,1.5220727519530404,0.2903196031269134
1759494879.4229362,1,2.2239617122059725,2.3383351140109316,1.5735299821738997,0.3016236860859823,2.2061115555710504,1.114837333918148,1.5238217541941868,0.2893356027999924
1759494879.5397708,1,2.2240653895951885,2.3711684770559947,1.573557177046342,0.2950889864038406,2.208139565892784,1.1597545307133728,1.5267231098421794,0.303230050954587
1759494879.6290114,1,2.2243409877197684,2.39856802665193,1.573599019737869,0.28965838732293864,2.2090869953744745,1.179356368231211,1.5279553513183954,0.30434131438108086
1759494879.7304232,1,2.2243353825499543,2.4245966475873764,1.5737014513463,0.28857511947317305,2.209438213911997,1.1882384583921202,1.5286390944558341,0.30470135939179255
1759494879.8222535,1,2.2243849352271114,2.452580084366191,1.5738920790586575,0.29061237412752905,2.211861872541066,1.2344140844243177,1.5306725455526082,0.2860636621718935
1759494879.915288,1,2.22435816799678,2.486239309705078,1.574190661429802,0.298219117935041,2.21295477151594,1.2567576500643525,1.531876361951491,0.28455103235526724
1759494880.0005312,1,2.224068229234446,2.513264096470116,1.5744332359840134,0.3042870216012311,2.2133927810891634,1.264708464907774,1.5323196862562065,0.284127680731993
1759494880.09707,1,2.2238109303073283,2.5405474604753584,1.574586824605663,0.307565621623018,2.215067962315491,1.3190559714858774,1.5340367755754931,0.32251812480453795
1759494880.1843195,1,2.2236687484560003,2.5700563798944667,1.5745986359634372,0.3086452226202633,2.2159323505082873,1.3442328314016723,1.53494957140888,0.32581979665658484
1759494880.275085,1,2.2236101567865094,2.594437031908104,1.574562214731917,0.30948714977522346,2.216221496818171,1.3540112806295845,1.5354478116726944,0.32652588363438306
1759494880.3661914,1,2.223336054157305,2.624326455435582,1.5743791355372345,0.3111696737822592,2.2186983206261024,1.398009942526488,1.5375639578131497,0.2759295425935885
1759494880.4596293,1,2.2231595891391107,2.6491669150397446,1.5742024934625067,0.3125752222829019,2.219785145807882,1.4196849609303814,1.5385360962860744,0.27154800902181736
1759494880.5529385,1,2.223190687220452,2.6801166279353956,1.5739211765045757,0.3067354937531174,2.2202714586343837,1.427807784886533,1.5394945940512423,0.2705736410070741
1759494880.6420257,1,2.223386420518507,2.7056221747485036,1.573715756306942,0.30200313910464904,2.2213424288242423,1.480236230081622,1.5418299628491625,0.3173217262393543
1759494880.7445138,1,2.223374728242535,2.7372911276670213,1.573596340717598,0.3011379802292242,2.2219506186656997,1.5069073829168076,1.543406306120139,0.3213467992608757
1759494880.831674,1,2.2234803075728378,2.763762241944925,1.5735148479861043,0.3003217182765713,2.222074705845369,1.5156838535520034,1.5441754099687002,0.3222934865585305
1759494880.9282935,1,2.2237009018676734,2.7961534804980714,1.5735766652918832,0.2973667465583076,2.223914194768738,1.5680348356655907,1.546812548886627,0.29940126928054456
1759494881.0225682,1,2.223979599874347,2.822989783178267,1.5736787772133132,0.29495686016809636,2.2247218833493747,1.5931633589106127,1.5479341742943473,0.29758784111659725
1759494881.1106508,1,2.2240373950233936,2.848387370019922,1.5737650942412906,0.29434727648061204,2.225041610611113,1.6021642661019961,1.5484393041816793,0.2971395163874141
1759494881.2022405,1,2.2241318843307747,2.8753816426108156,1.5738357424573723,0.29518595015534166,2.2261948318854583,1.6515538434628925,1.550092083924111,0.30580802829577136
1759494881.2919242,1,2.2242765426497226,2.8977308838805045,1.57387224553719,0.29582661729518905,2.2267562019016522,1.675003757886104,1.550287691383053,0.30652716767740185
1759494881.383417,1,2.224110122273495,2.927493914467139,1.573870104786104,0.3018338240579935,2.22694604224333,1.6844939644875294,1.551020208890069,0.30670406617104085
1759494881.475144,1,2.2239386670269603,2.9522078238546117,1.5738448401267435,0.3068066500802687,2.2285006103914715,1.7303888476397955,1.5520547620407674,0.2810892331819213
1759494881.580174,1,2.223901189591679,2.9828566434853863,1.5737139895377663,0.3022426609352578,2.2291895772846786,1.7536252822489355,1.5525485270247845,0.278845323757704
1759494881.6749985,1,2.224007004756296,3.0081387255461,1.573583147568568,0.2983679832348324,2.2295206325539065,1.7986102590650377,1.5533408720706012,0.3253354953470725
1759494881.7676492,1,2.223942510179496,3.039218771863315,1.5733966780486837,0.29907060615638614,2.2298061113832555,1.8188962270312348,1.5537639994769081,0.3287785362097309
1759494881.8619902,1,2.2239377937845215,3.065012630294439,1.5732418226697855,0.299861103035145,2.229774103454671,1.8275884187050986,1.553998764479626,0.3300963515490321
1759494881.9594893,1,2.2240453537065417,3.0974624350777513,1.5729809593226551,0.29917894170529385,2.2315135438425613,1.8738634653916006,1.555678171876107,0.2790049619757132
1759494882.0470953,1,2.2242379924669446,3.124357842425458,1.572742723051208,0.2986382326204515,2.2322222697798924,1.8954614227138318,1.5561419795487812,0.2747973761878194
1759494882.1371932,1,2.224173717892405,3.1561162020642186,1.5728745732148883,0.3012882928392528,2.232583795630565,1.9039552541225992,1.5569814925481833,0.27371338392806505
1759494882.2295012,1,2.2241339082755553,3.1824698045939668,1.572991638667986,0.30341168392770385,2.2327931734981004,1.957479972713203,1.5584208245772657,0.32038952535680404
1759494882.3257673,1,2.224292614983661,3.2138337615872463,1.5733836680410578,0.2951571588631475,2.233035533970986,1.9835272807487438,1.5589864615658002,0.32422182316471937
1759494882.4132388,1,2.224644351099605,3.240432886548716,1.5737939524507027,0.2881762134637895,2.232997438667001,1.992819447037617,1.5592845514112494,0.32530275208852144
1759494882.5101573,1,2.224727306713339,3.2647413768608735,1.5742122563532217,0.28678414968157856,2.2340965825130996,2.0436403872483395,1.5597414801984961,0.30362305481459967
1759494882.6055355,1,2.2247950127661147,3.292639258621141,1.5748911785423372,0.2897468830309508,2.2345794707466378,2.068293006132405,1.5598864809250685,0.30176741667032336
1759494882.7109938,1,2.2247201123455147,3.3189205126017116,1.5754936972602365,0.29476601743344255,2.2357058506120655,2.107922627863315,1.559825192843811,0.27785421127689447
1759494882.8100955,1,2.2245280333609996,3.3485907657188707,1.576093926432951,0.30166584952472225,2.236174390607919,2.1264962477168723,1.5598588558093267,0.2756858429382712
1759494882.9055338,1,2.224350523627138,3.3763300341318185,1.5765487301590848,0.30400090780093364,2.236387776769804,2.133093970871041,1.5598152429054084,0.27521882537070724
1759494883.000843,1,2.2242644560507805,3.4070178382410936,1.5766604063166572,0.30223286937376875,2.2369536901238396,2.1820852767840924,1.560369986226248,0.291005692414202
1759494883.0923266,1,2.2240228188506355,3.431001627400229,1.5767448647155136,0.3008592974837474,2.237262140500085,2.205713155109571,1.5596743323160633,0.29235804911741975
1759494883.1790042,1,2.223905659708309,3.4616266737276082,1.5764964053313912,0.3014326921011537,2.2373599454781594,2.2139970536245928,1.5597519846606815,0.29259165329498016
1759494883.2745,1,2.223840476676599,3.48679130533775,1.5762719447311928,0.30197145030306827,2.2379714388015293,2.26544014093631,1.5609064039287794,0.29972951670439163
1759494883.361771,1,2.223661775161698,3.517232151231201,1.5758952992765594,0.29999204854213124,2.2382809273186814,2.2892339269725652,1.561521908595251,0.30033448714903616
1759494883.449526,1,2.223638051966694,3.5426161866590102,1.5755223503179603,0.29906952744351845,2.2383908259142107,2.298587223537516,1.5619048990324698,0.3005089745405329
1759494883.5482607,1,2.2236266469883352,3.5747127791596847,1.5758742215383243,0.30039339467997833,2.2388013130826976,2.3492635750119826,1.564091618264975,0.3072563951466686
1759494883.6395168,1,2.223671209675643,3.6012852145386516,1.5761954491379953,0.3022455146953478,2.239024841839643,2.372813629867968,1.5648118372846307,0.30790357361149595
1759494883.7347388,1,2.2234483837312524,3.6267944240965915,1.5777055870118875,0.3005379644863721,2.239068000629551,2.382176305404507,1.5652288520683975,0.30807787496793976
1759494883.8332782,1,2.2233024059930178,3.6532725757719917,1.5814915906433193,0.29620061040030765,2.2399704597115035,2.430818420077367,1.566500026530587,0.280975049246714
1759494883.9203022,1,2.22275560051101,3.6850746740237295,1.5904057490246373,0.3030349014719319,2.240297421251495,2.452780392696214,1.5672825022443233,0.27944902131223504
