timestamp,vehicle_id,x,y,theta,velocity,gps_available,dt,gps_x,gps_y,gps_theta,gps_velocity,control_steering,control_acceleration
1759494852.1844223,1,-1.735,-0.35,-0.7801621756414647,0.0,False,0.01,nan,nan,nan,nan,0.0,0.0
1759494852.1946776,1,-1.735,-0.35,-0.7801621756414647,0.0,False,0.01025533676147461,nan,nan,nan,nan,0.0,0.0
1759494852.9396243,1,-1.7349997780414728,-0.3499999055495629,-0.7230010291656335,0.0,True,0.1,-1.7349997758865356,-0.34999990463256836,-0.7177034020423889,0.0,0.0,0.0
1759494853.0388787,1,-1.7349997766071577,-0.34999990493921607,-0.7180959540033882,0.0,True,0.09925436973571777,-1.7349997758865356,-0.34999990463256836,-0.7177034020423889,0.0,0.0,0.0
1759494853.1264694,1,-1.7349997761568776,-0.3499999047476075,-0.7176951022335665,0.0,True,0.08759069442749023,-1.7349997758865356,-0.34999990463256836,-0.7177034020423889,0.0,0.0,0.0
1759494853.203826,1,-1.734999775989529,-0.3499999046763953,-0.7176711481182672,0.0,True,0.07735657691955566,-1.7349997758865356,-0.34999990463256836,-0.7177034020423889,0.0,0.0,0.0
1759494853.2964838,1,-1.7349997759258606,-0.3499999046493024,-0.7176747429327826,0.0,True,0.09265780448913574,-1.7349997758865356,-0.34999990463256836,-0.7177034020423889,0.0,0.0,0.0
1759494853.378111,1,-1.7349997759015556,-0.34999990463895986,-0.7176805321707409,0.0,True,0.08162713050842285,-1.7349997758865356,-0.34999990463256836,-0.7177034020423889,0.0,0.0,0.0
1759494853.462284,1,-1.7349997758922728,-0.3499999046350097,-0.7176847118391478,0.0,True,0.08417320251464844,-1.7349997758865356,-0.34999990463256836,-0.7177034020423889,0.0,0.0,0.0
1759494853.5511584,1,-1.734999775888727,-0.34999990463350084,-0.7176878675425407,0.0,True,0.08887434005737305,-1.7349997758865356,-0.34999990463256836,-0.7177034020423889,0.0,0.0,0.0
1759494853.6333838,1,-1.7349997758873728,-0.3499999046329245,-0.7176907310728176,0.0,True,0.08222532272338867,-1.7349997758865356,-0.34999990463256836,-0.7177034020423889,0.0,0.0,0.0
1759494853.7177563,1,-1.7349997758868554,-0.3499999046327044,-0.7176929911382164,0.0,True,0.08437252044677734,-1.7349997758865356,-0.34999990463256836,-0.7177034020423889,0.0,0.0,0.0
1759494853.8101065,1,-1.7349997758866578,-0.3499999046326203,-0.7176947867203971,0.0,True,0.09235024452209473,-1.7349997758865356,-0.34999990463256836,-0.7177034020423889,0.0,0.0,0.0
1759494853.889612,1,-1.7349997758865823,-0.34999990463258823,-0.7176965543159533,0.0,True,0.07950544357299805,-1.7349997758865356,-0.34999990463256836,-0.7177034020423889,0.0,0.0,0.0
1759494853.9773052,1,-1.7349997758865534,-0.34999990463257596,-0.717697901871766,0.0,True,0.0876932144165039,-1.7349997758865356,-0.34999990463256836,-0.7177034020423889,0.0,0.0,0.0
1759494854.0575488,1,-1.7349997758865425,-0.34999990463257125,-0.7176990935338381,0.0,True,0.08024358749389648,-1.7349997758865356,-0.34999990463256836,-0.7177034020423889,0.0,0.0,0.0
1759494854.1423023,1,-1.7349997758865383,-0.34999990463256947,-0.7177000327099741,0.0,True,0.08475351333618164,-1.7349997758865356,-0.34999990463256836,-0.7177034020423889,0.0,0.0,0.0
1759494854.2650685,1,-1.7351386554486423,-0.3498787124791876,-0.7176048622307185,0.0013544320202899638,True,0.1,-1.7352875471115112,-0.34974876046180725,-0.7174719572067261,0.0013544320202899638,0.1211432268548478,-0.05
1759494854.3781273,1,-1.7351916995574255,-0.3498324175716225,-0.717535118509911,0.0013544320202899638,True,0.1,-1.7352875471115112,-0.34974876046180725,-0.7174719572067261,0.0013544320202899638,0.12139115914484933,-0.05
1759494854.5039685,1,-1.7394673660278746,-0.34614012613907374,-0.7144026098989222,0.04789391990434725,True,0.1,-1.7443400621414185,-0.3419119119644165,-0.7102118730545044,0.04789391990434725,0.12139115914484933,-0.05
1759494854.6150403,1,-1.741096875970171,-0.3447256017254467,-0.7121658815004714,0.04789391990434725,True,0.1,-1.7443400621414185,-0.3419119119644165,-0.7102118730545044,0.04789391990434725,0.12911842903814374,-0.05
1759494854.7450683,1,-1.74734396909502,-0.33938404826336827,-0.7076848396726199,0.05229909087716388,True,0.1,-1.753651738166809,-0.3339708149433136,-0.7025263905525208,0.05229909087716388,0.12911842903814374,-0.05
1759494854.8593354,1,-1.7497244813791144,-0.3373371641924725,-0.7044832948146578,0.05229909087716388,True,0.1,-1.753651738166809,-0.3339708149433136,-0.7025263905525208,0.05229909087716388,0.13749018955312664,-0.05
1759494854.9818702,1,-1.7561786698879556,-0.33189004192025734,-0.6994820082293849,0.0493204182585047,True,0.1,-1.7624903917312622,-0.3265497386455536,-0.6948139667510986,0.0493204182585047,0.13749018955312664,-0.05
1759494855.097609,1,-1.7586380498188967,-0.32980244793746416,-0.6959906918169398,0.0493204182585047,True,0.1,-1.7624903917312622,-0.3265497386455536,-0.6948139667510986,0.0493204182585047,0.14623304222351763,-0.05
1759494855.2142744,1,-1.7651586288261274,-0.3243871127201481,-0.6906168275533844,0.050075365938008806,True,0.1,-1.7715638875961304,-0.31905636191368103,-0.6864666938781738,0.050075365938008806,0.14623304222351763,-0.05
1759494855.3121188,1,-1.7676746840449566,-0.3222847096636227,-0.6869790301796002,0.050075365938008806,True,0.09784436225891113,-1.7715638875961304,-0.31905636191368103,-0.6864666938781738,0.050075365938008806,0.15599125503564082,-0.05
1759494855.4257867,1,-1.7737789057412003,-0.3172960664753125,-0.6815396175030326,0.048991499432970445,True,0.1,-1.7798926830291748,-0.31229281425476074,-0.6782731413841248,0.048991499432970445,0.18589847935558623,-0.05
1759494855.5129588,1,-1.776290665857759,-0.3152316589266648,-0.6782055658863655,0.048991499432970445,True,0.08717203140258789,-1.7798926830291748,-0.31229281425476074,-0.6782731413841248,0.048991499432970445,0.19486699098471405,-0.05
1759494855.5978036,1,-1.7772806715261467,-0.3144117058778925,-0.6762438619652738,0.048991499432970445,True,0.08484482765197754,-1.7798926830291748,-0.31229281425476074,-0.6782731413841248,0.048991499432970445,0.19486699098471405,-0.05
1759494855.6928248,1,-1.7839570594296208,-0.3090916798004696,-0.6697232242444802,0.05065875815310539,True,0.09502124786376953,-1.7904033660888672,-0.3039414882659912,-0.66501784324646,0.05065875815310539,0.3168552885142759,-0.05
1759494855.7756643,1,-1.7866846700291636,-0.30690407731260233,-0.6656285544983067,0.05065875815310539,True,0.0828394889831543,-1.7904033660888672,-0.3039414882659912,-0.66501784324646,0.05065875815310539,0.329376985023881,-0.05
1759494855.859125,1,-1.787713434127321,-0.3060713002162238,-0.6627474020072786,0.05065875815310539,True,0.08346056938171387,-1.7904033660888672,-0.3039414882659912,-0.66501784324646,0.05065875815310539,0.4757169622809201,-0.05
1759494855.9618194,1,-1.7944640493171407,-0.3008914688787624,-0.6510063710061011,0.05062277715080406,True,0.1,-1.8011022806167603,-0.29576486349105835,-0.6392440795898438,0.05062277715080406,0.4757169622809201,-0.05
1759494856.0422585,1,-1.7973299305803119,-0.2986662481195912,-0.6431142889181647,0.05062277715080406,True,0.08043909072875977,-1.8011022806167603,-0.29576486349105835,-0.6392440795898438,0.05062277715080406,0.6,-0.05
1759494856.1273832,1,-1.7983450148490083,-0.2978612641103258,-0.6379128023662322,0.05062277715080406,True,0.08512473106384277,-1.8011022806167603,-0.29576486349105835,-0.6392440795898438,0.05062277715080406,0.6,-0.05
1759494856.2267103,1,-1.8051355485622718,-0.2929725866010529,-0.6201345685923787,0.04948473400061893,True,0.09932708740234375,-1.8117728233337402,-0.2881423830986023,-0.602165699005127,0.04948473400061893,0.6,-0.05
1759494856.3157728,1,-1.8078678961595847,-0.2909660097208419,-0.6079688967151355,0.04948473400061893,True,0.08906245231628418,-1.8117728233337402,-0.2881423830986023,-0.602165699005127,0.04948473400061893,0.6,-0.05
1759494856.4078305,1,-1.8088537001847194,-0.2902157635686282,-0.6000254953151298,0.04948473400061893,True,0.09205770492553711,-1.8117728233337402,-0.2881423830986023,-0.602165699005127,0.04948473400061893,0.6,-0.05
1759494856.496889,1,-1.8162332317067325,-0.2853169907399259,-0.5802178471349713,0.05097181577789315,True,0.08905863761901855,-1.8231101036071777,-0.2807060480117798,-0.5614933967590332,0.05097181577789315,0.6,-0.05
1759494856.583105,1,-1.8190795978222958,-0.2833876269950786,-0.5663893420831396,0.05097181577789315,True,0.08621597290039062,-1.8231101036071777,-0.2807060480117798,-0.5614933967590332,0.05097181577789315,0.6,-0.05
1759494856.6689162,1,-1.8201612666749951,-0.28262756760982943,-0.5577178305515407,0.05097181577789315,True,0.08581113815307617,-1.8231101036071777,-0.2807060480117798,-0.5614933967590332,0.05097181577789315,0.6,-0.030014946877227302
1759494856.769214,1,-1.8267731004640626,-0.2785765882652602,-0.5387703045945926,0.04118852829942679,True,0.1,-1.8330198526382446,-0.27472659945487976,-0.5267736315727234,0.04118852829942679,0.6,-0.030014946877227302
1759494856.852736,1,-1.8295059313226902,-0.2768713680793558,-0.5270505558093603,0.04118852829942679,True,0.08352208137512207,-1.8330198526382446,-0.27472659945487976,-0.5267736315727234,0.04118852829942679,0.6,0.027458018601093516
1759494856.9290926,1,-1.8306396042932709,-0.27615043539959117,-0.5204435013626831,0.04118852829942679,True,0.07635664939880371,-1.8330198526382446,-0.27472659945487976,-0.5267736315727234,0.04118852829942679,0.6,0.027458018601093516
1759494857.0184877,1,-1.830324478762801,-0.27631812854694465,-0.5195627712293813,0.0115439743375022,True,0.08939504623413086,-1.8306829929351807,-0.27610448002815247,-0.5349133014678955,0.0115439743375022,0.6,0.06659344135693977
1759494857.1072607,1,-1.8302063382506712,-0.27638055096724357,-0.5199898650570383,0.0115439743375022,True,0.08877301216125488,-1.8306829929351807,-0.27610448002815247,-0.5349133014678955,0.0115439743375022,0.6,0.07341802865171487
1759494857.1912603,1,-1.8301795709961606,-0.27639409797152914,-0.5214294432297244,0.0115439743375022,True,0.0839996337890625,-1.8306829929351807,-0.27610448002815247,-0.5349133014678955,0.0115439743375022,0.6,0.07341802865171487
1759494857.2735116,1,-1.818876368377403,-0.2834688461170279,-0.5423193697254582,0.07015948575665956,True,0.08225131034851074,-1.8149770498275757,-0.2860541343688965,-0.5907032489776611,0.07015948575665956,0.6,0.10946130753627198
1759494857.3692927,1,-1.814272600751044,-0.28639913194821714,-0.5599628142407092,0.07015948575665956,True,0.09578108787536621,-1.8149770498275757,-0.2860541343688965,-0.5907032489776611,0.07015948575665956,0.6,0.06974978783576252
1759494857.460328,1,-1.8126446962181053,-0.2874877085911388,-0.5730082141722157,0.07015948575665956,True,0.09103536605834961,-1.8149770498275757,-0.2860541343688965,-0.5907032489776611,0.07015948575665956,0.5658615294024969,0.11622678406731542
1759494857.5465536,1,-1.7977678946161793,-0.2983653826291322,-0.6107801860768554,0.10196310209451649,True,0.08622550964355469,-1.79312264919281,-0.3021164536476135,-0.6702190637588501,0.10196310209451649,0.5658615294024969,0.11622678406731542
1759494857.6314976,1,-1.7921942269383548,-0.30259156422302624,-0.6400195717416501,0.10196310209451649,True,0.08494400978088379,-1.79312264919281,-0.3021164536476135,-0.6702190637588501,0.10196310209451649,0.3485230192410036,0.12067603486331488
1759494857.7203226,1,-1.789999637999423,-0.30437248764469105,-0.6591541654750301,0.10196310209451649,True,0.08882498741149902,-1.79312264919281,-0.3021164536476135,-0.6702190637588501,0.10196310209451649,0.3485230192410036,0.12067603486331488
1759494857.8220778,1,-1.7730103817231497,-0.3189673088796809,-0.697876188534897,0.11693652932898044,True,0.1,-1.7682021856307983,-0.3235336244106293,-0.7377161979675293,0.11693652932898044,0.2879038949962478,0.1667716695013389
1759494857.902028,1,-1.767309290218863,-0.3240921871723787,-0.7236798989509765,0.11693652932898044,True,0.07995033264160156,-1.7682021856307983,-0.3235336244106293,-0.7377161979675293,0.11693652932898044,0.1629369144075028,0.125831309769642
1759494857.981564,1,-1.765203704626051,-0.3261046654612309,-0.7393552721684848,0.11693652932898044,True,0.07953596115112305,-1.7682021856307983,-0.3235336244106293,-0.7377161979675293,0.11693652932898044,0.1629369144075028,0.125831309769642
1759494858.0638149,1,-1.7482352666293137,-0.3422714380197485,-0.7618718326996206,0.1464755453378905,True,0.08225083351135254,-1.7432372570037842,-0.347231924533844,-0.7730732560157776,0.1464755453378905,0.11580174322622483,0.17283957668861447
1759494858.155527,1,-1.7414397246657551,-0.34888545861963455,-0.778340759434327,0.1464755453378905,True,0.09171223640441895,-1.7432372570037842,-0.347231924533844,-0.7730732560157776,0.1464755453378905,0.048708724976680884,0.12567039595260474
1759494858.2340865,1,-1.739423247896433,-0.3509518729928077,-0.7865669188166873,0.1464755453378905,True,0.07855939865112305,-1.7432372570037842,-0.347231924533844,-0.7730732560157776,0.1464755453378905,0.011330095633933723,0.17605657222035478
1759494858.3187497,1,-1.7204793245274472,-0.3698485140678227,-0.7954805198531645,0.15322414515175486,True,0.08466315269470215,-1.7144291400909424,-0.3758467733860016,-0.7851054668426514,0.15322414515175486,0.011330095633933723,0.17605657222035478
1759494858.3963668,1,-1.7135615741416454,-0.3768010481812005,-0.8000293409515749,0.15322414515175486,True,0.07761716842651367,-1.7144291400909424,-0.3758467733860016,-0.7851054668426514,0.15322414515175486,-0.013119388941412069,0.1299853192127657
1759494858.48509,1,-1.7104801214072263,-0.3799363656022524,-0.8027569041516216,0.15322414515175486,True,0.08872318267822266,-1.7144291400909424,-0.3758467733860016,-0.7851054668426514,0.15322414515175486,-0.03979393926744201,0.1795249154037573
1759494858.5772805,1,-1.690604018678031,-0.39983693362162803,-0.8020061911112109,0.1667713431494674,True,0.09219050407409668,-1.684923529624939,-0.4053037166595459,-0.7818132638931274,0.1667713431494674,-0.03979393926744201,0.1795249154037573
1759494858.6589317,1,-1.683474981691606,-0.4069520380089173,-0.7996131800225807,0.1667713431494674,True,0.08165121078491211,-1.684923529624939,-0.4053037166595459,-0.7818132638931274,0.1667713431494674,-0.056832120709749745,0.1804043153473036
1759494858.7548902,1,-1.6801073003974407,-0.4103141749337318,-0.797521281598442,0.1667713431494674,True,0.09595847129821777,-1.684923529624939,-0.4053037166595459,-0.7818132638931274,0.1667713431494674,-0.056832120709749745,0.1804043153473036
1759494858.840923,1,-1.6579437037118858,-0.4320449932981335,-0.7902872682314381,0.17912621091718053,True,0.08603286743164062,-1.6509060859680176,-0.4386669397354126,-0.7693943381309509,0.17912621091718053,-0.07339849350916694,0.23057584794001734
1759494858.9206982,1,-1.6497502468166296,-0.4400126447101628,-0.7841333796863559,0.17912621091718053,True,0.07977509498596191,-1.6509060859680176,-0.4386669397354126,-0.7693943381309509,0.17912621091718053,-0.05242487098337634,0.1755230933798679
1759494859.008578,1,-1.6462044319132194,-0.44342409439101926,-0.7797390880552584,0.17912621091718053,True,0.08787989616394043,-1.6509060859680176,-0.4386669397354126,-0.7693943381309509,0.17912621091718053,-0.05242487098337634,0.1755230933798679
1759494859.0933907,1,-1.6226776111875219,-0.4658087157886605,-0.7710554678140475,0.19586055066661534,True,0.08481264114379883,-1.6154465675354004,-0.4724338948726654,-0.7545406818389893,0.19586055066661534,-0.06667985357092121,0.2233119836731542
1759494859.1824584,1,-1.6134256159344813,-0.47454263308853883,-0.7641678250820654,0.19586055066661534,True,0.08906769752502441,-1.6154465675354004,-0.4724338948726654,-0.7545406818389893,0.19586055066661534,-0.040201231477905,0.16548779621852688
1759494859.2678068,1,-1.6100612911609835,-0.4776537099847558,-0.7596500340874925,0.19586055066661534,True,0.08534836769104004,-1.6154465675354004,-0.4724338948726654,-0.7545406818389893,0.19586055066661534,-0.05731024607210422,0.22120241811056016
1759494859.369047,1,-1.5819714477434588,-0.5035796247817614,-0.7503476901055368,0.2022992879175262,True,0.1,-1.5736876726150513,-0.5110042691230774,-0.738544762134552,0.2022992879175262,-0.05731024607210422,0.22120241811056016
1759494859.4604583,1,-1.5716803608957626,-0.5129796723116024,-0.743673835147213,0.2022992879175262,True,0.09141135215759277,-1.5736876726150513,-0.5110042691230774,-0.738544762134552,0.2022992879175262,-0.052481651809994645,0.20827269139232016
1759494859.5405753,1,-1.568361620494097,-0.5159466488643648,-0.7396732414022544,0.2022992879175262,True,0.08011698722839355,-1.5736876726150513,-0.5110042691230774,-0.738544762134552,0.2022992879175262,-0.052481651809994645,0.20827269139232016
1759494859.6437335,1,-1.538458686126003,-0.5426891455319597,-0.7312132551378063,0.22017861973153668,True,0.1,-1.5300445556640625,-0.550061047077179,-0.7223557233810425,0.22017861973153668,-0.09532799120539615,0.2630140337544585
1759494859.7307875,1,-1.5278032904264773,-0.5521281294502953,-0.7249969750108924,0.22017861973153668,True,0.08705401420593262,-1.5300445556640625,-0.550061047077179,-0.7223557233810425,0.22017861973153668,-0.06862534336204718,0.19519420808195956
1759494859.8262398,1,-1.5231722657365574,-0.5561654871142283,-0.721642710044101,0.22017861973153668,True,0.09545230865478516,-1.5300445556640625,-0.550061047077179,-0.7223557233810425,0.22017861973153668,-0.12299244650313845,0.24622451427431633
1759494859.9090445,1,-1.4929166399284965,-0.5820077292387202,-0.7086383886913676,0.23269418795250044,True,0.08280467987060547,-1.4831745624542236,-0.5901315808296204,-0.6925250291824341,0.23269418795250044,-0.12299244650313845,0.24622451427431633
1759494859.999985,1,-1.4807507830007343,-0.5922795945902559,-0.6985658183029848,0.23269418795250044,True,0.09094047546386719,-1.4831745624542236,-0.5901315808296204,-0.6925250291824341,0.23269418795250044,-0.0705707005575622,0.1770203230829796
1759494860.085233,1,-1.4764384398041666,-0.5958152339219778,-0.6931076124537814,0.23269418795250044,True,0.08524799346923828,-1.4831745624542236,-0.5901315808296204,-0.6925250291824341,0.23269418795250044,-0.1382365119152471,0.23257178810349813
1759494860.1738346,1,-1.4467675802564668,-0.6195455975775861,-0.6770122484181851,0.21912562931402144,True,0.08860158920288086,-1.4376801252365112,-0.6265689134597778,-0.6590027213096619,0.21912562931402144,-0.1382365119152471,0.23257178810349813
1759494860.2590213,1,-1.4355840395408448,-0.6283408809323093,-0.665660220899909,0.21912562931402144,True,0.08518671989440918,-1.4376801252365112,-0.6265689134597778,-0.6590027213096619,0.21912562931402144,-0.14564209036100628,0.2290170224168517
1759494860.3502402,1,-1.4308655763919904,-0.6319494354294288,-0.6582643739683665,0.21912562931402144,True,0.09121894836425781,-1.4376801252365112,-0.6265689134597778,-0.6590027213096619,0.21912562931402144,-0.14564209036100628,0.2290170224168517
1759494860.4451935,1,-1.397883378306542,-0.6562605781152504,-0.6369760299254406,0.22072682621301357,True,0.09495329856872559,-1.3877711296081543,-0.6633941531181335,-0.614537239074707,0.22072682621301357,-0.14564209036100628,0.2290170224168517
1759494860.5277088,1,-1.3860313341031878,-0.6647939791210521,-0.62239227952095,0.22072682621301357,True,0.08251523971557617,-1.3877711296081543,-0.6633941531181335,-0.614537239074707,0.22072682621301357,-0.13468210429132732,0.22074321743240732
1759494860.618773,1,-1.3808576589401522,-0.6683894998762641,-0.6134296013431602,0.22072682621301357,True,0.0910642147064209,-1.3877711296081543,-0.6633941531181335,-0.614537239074707,0.22072682621301357,-0.1900060983756262,0.2715301128471094
1759494860.711078,1,-1.3451189207481402,-0.6922363000932359,-0.5885954541657625,0.24158656066969256,True,0.09230494499206543,-1.3343321084976196,-0.6990855932235718,-0.5628712177276611,0.24158656066969256,-0.1900060983756262,0.2715301128471094
1759494860.8094084,1,-1.330892068989049,-0.7014869938032595,-0.5695036623742276,0.24158656066969256,True,0.09833049774169922,-1.3343321084976196,-0.6990855932235718,-0.5628712177276611,0.24158656066969256,-0.09791958544139234,0.19645659329234388
1759494860.8956268,1,-1.3263075938291196,-0.7042769461337318,-0.5596600590631127,0.24158656066969256,True,0.08621835708618164,-1.3343321084976196,-0.6990855932235718,-0.5628712177276611,0.24158656066969256,-0.16591997360535515,0.2612945849613227
1759494860.9910789,1,-1.2871811260424073,-0.7273265842076406,-0.5329284803982048,0.24420959924084437,True,0.09545207023620605,-1.2752388715744019,-0.733972430229187,-0.5087211728096008,0.24420959924084437,-0.16591997360535515,0.2612945849613227
1759494861.0813103,1,-1.2725386123444211,-0.735689437317513,-0.5141411011117469,0.24420959924084437,True,0.09023141860961914,-1.2752388715744019,-0.733972430229187,-0.5087211728096008,0.24420959924084437,-0.12746661752399113,0.24578261959624972
1759494861.168487,1,-1.2671183982941614,-0.7386122757624474,-0.5031677546113684,0.24420959924084437,True,0.08717679977416992,-1.2752388715744019,-0.733972430229187,-0.5087211728096008,0.24420959924084437,-0.12746661752399113,0.24578261959624972
1759494861.2605138,1,-1.2269931466083634,-0.7595384194566661,-0.4792370605270406,0.2557357793390443,True,0.0920267105102539,-1.214964509010315,-0.7655081152915955,-0.4602859914302826,0.2557357793390443,-0.18288056166504063,0.3042865715607248
1759494861.3526008,1,-1.211566580403435,-0.7673554228652754,-0.461452843503217,0.2557357793390443,True,0.0920870304107666,-1.214964509010315,-0.7655081152915955,-0.4602859914302826,0.2557357793390443,-0.096870511658107,0.2275197068158413
1759494861.4393334,1,-1.2060719530682211,-0.7699688103476695,-0.45222231954939396,0.2557357793390443,True,0.08673262596130371,-1.214964509010315,-0.7655081152915955,-0.4602859914302826,0.2557357793390443,-0.1507307490880514,0.2867168425732067
1759494861.5269458,1,-1.1622046282855218,-0.7900554061493053,-0.42712263093390135,0.2757689115102494,True,0.08761239051818848,-1.1485488414764404,-0.7959952354431152,-0.40633222460746765,0.2757689115102494,-0.1507307490880514,0.2867168425732067
1759494861.6133919,1,-1.1454691193009867,-0.7974808016824351,-0.40859440034801864,0.2757689115102494,True,0.08644604682922363,-1.1485488414764404,-0.7959952354431152,-0.40633222460746765,0.2757689115102494,-0.051239618191029734,0.2012249679000625
1759494861.7016635,1,-1.1388327337393909,-0.8002405071719881,-0.398198506271612,0.2757689115102494,True,0.0882716178894043,-1.1485488414764404,-0.7959952354431152,-0.40633222460746765,0.2757689115102494,-0.097225957888039,0.2538359666916195
1759494861.8002994,1,-1.0978989963585353,-0.8167667773282498,-0.3782084975716451,0.2391714449380485,True,0.09863591194152832,-1.0860552787780762,-0.8213638067245483,-0.3711976110935211,0.2391714449380485,-0.097225957888039,0.2538359666916195
1759494861.881046,1,-1.0837190275556488,-0.8223196302715118,-0.3665434017732192,0.2391714449380485,True,0.08074665069580078,-1.0860552787780762,-0.8213638067245483,-0.3711976110935211,0.2391714449380485,-0.0890048083756323,0.2618145036112169
1759494861.9653194,1,-1.0779717378354006,-0.8244782739378341,-0.359773646434979,0.2391714449380485,True,0.0842733383178711,-1.0860552787780762,-0.8213638067245483,-0.3711976110935211,0.2391714449380485,-0.0890048083756323,0.2618145036112169
1759494862.0573726,1,-1.0349315928250589,-0.8403597685689562,-0.34474195627471715,0.27010184013387645,True,0.09205317497253418,-1.0227288007736206,-0.844804048538208,-0.3396669626235962,0.27010184013387645,-0.1313604916928135,0.3212421528272548
1759494862.1475267,1,-1.018630454374936,-0.846234633911425,-0.33401854583375723,0.27010184013387645,True,0.09015417098999023,-1.0227288007736206,-0.844804048538208,-0.3396669626235962,0.27010184013387645,-0.07645165968840573,0.23775321725698823
1759494862.2307894,1,-1.0130435588696733,-0.8481540941452874,-0.3291594630878656,0.27010184013387645,True,0.08326268196105957,-1.0227288007736206,-0.844804048538208,-0.3396669626235962,0.27010184013387645,-0.11532228031527048,0.298022920437028
1759494862.320688,1,-0.9657350707305314,-0.863662781838178,-0.3111131856489493,0.2832616154462555,True,0.08989858627319336,-0.9514044523239136,-0.8682025671005249,-0.29821446537971497,0.2832616154462555,-0.11532228031527048,0.298022920437028
1759494862.4115465,1,-0.9475147898617229,-0.8694627748882728,-0.29756727316132725,0.2832616154462555,True,0.09085845947265625,-0.9514044523239136,-0.8682025671005249,-0.29821446537971497,0.2832616154462555,-0.03906881423967512,0.21194392007430007
1759494862.4987605,1,-0.9408931914698283,-0.8714375352064472,-0.29063805471194826,0.2832616154462555,True,0.08721399307250977,-0.9514044523239136,-0.8682025671005249,-0.29821446537971497,0.2832616154462555,-0.07862979248858792,0.27908329344130045
1759494862.5874598,1,-0.8973269839444314,-0.8839907382386492,-0.2761783868713703,0.26293950179975706,True,0.0886993408203125,-0.8842197060585022,-0.8876468539237976,-0.269867867231369,0.26293950179975706,-0.07862979248858792,0.27908329344130045
1759494862.672284,1,-0.8810266105787038,-0.88856191841779,-0.2665843010462581,0.26293950179975706,True,0.0848240852355957,-0.8842197060585022,-0.8876468539237976,-0.269867867231369,0.26293950179975706,-0.05820399515367747,0.2697236741376295
1759494862.7797716,1,-0.8733082592952761,-0.8906306043260813,-0.2603855978587788,0.26293950179975706,True,0.1,-0.8842197060585022,-0.8876468539237976,-0.269867867231369,0.26293950179975706,-0.05820399515367747,0.2697236741376295
1759494862.870908,1,-0.8242481855079193,-0.9034051876367722,-0.24862323698165945,0.2767034460706911,True,0.09113645553588867,-0.8089955449104309,-0.907318115234375,-0.24445925652980804,0.2767034460706911,-0.090392068933415,0.33503148525705795
1759494862.9593534,1,-0.8057582939936121,-0.9081129079827993,-0.2404078988363132,0.2767034460706911,True,0.08844542503356934,-0.8089955449104309,-0.907318115234375,-0.24445925652980804,0.2767034460706911,-0.04551543233156785,0.2455362404562437
1759494863.0484333,1,-0.7986121803380871,-0.9098526210954786,-0.23635388908863497,0.2767034460706911,True,0.0890798568725586,-0.8089955449104309,-0.907318115234375,-0.24445925652980804,0.2767034460706911,-0.07722000819886965,0.308539641104631
1759494863.1392593,1,-0.7472215434532201,-0.9217922695937718,-0.2234902418017075,0.2981815969405924,True,0.09082603454589844,-0.7317409515380859,-0.9252848625183105,-0.21546007692813873,0.2981815969405924,-0.07722000819886965,0.308539641104631
1759494863.2218392,1,-0.7284803035968627,-0.9260258485951612,-0.21446244072869192,0.2981815969405924,True,0.0825798511505127,-0.7317409515380859,-0.9252848625183105,-0.21546007692813873,0.2981815969405924,-0.02376449220510679,0.2146491667210494
1759494863.3151593,1,-0.7201078390266017,-0.9278187727397821,-0.20924331244904693,0.2981815969405924,True,0.09332013130187988,-0.7317409515380859,-0.9252848625183105,-0.21546007692813873,0.2981815969405924,-0.051768022930717805,0.27220415684547966
1759494863.4070199,1,-0.6757112463275493,-0.9369968991788129,-0.19960279318085128,0.2649679295547095,True,0.09186053276062012,-0.6629918813705444,-0.9395650029182434,-0.19724901020526886,0.2649679295547095,-0.051768022930717805,0.27220415684547966
1759494863.4929268,1,-0.6593266048507388,-0.9402994890441623,-0.19360736708091153,0.2649679295547095,True,0.085906982421875,-0.6629918813705444,-0.9395650029182434,-0.19724901020526886,0.2649679295547095,-0.04859652482176635,0.276907781883709
1759494863.585785,1,-0.6523679197917394,-0.9416461493690497,-0.19007763874591532,0.2649679295547095,True,0.09285807609558105,-0.6629918813705444,-0.9395650029182434,-0.19724901020526886,0.2649679295547095,-0.04859652482176635,0.276907781883709
1759494863.6778238,1,-0.6041172471764465,-0.9507599266889736,-0.1816016113327592,0.2663967222509999,True,0.09203886985778809,-0.5891814231872559,-0.953551173210144,-0.17834784090518951,0.2663967222509999,-0.06760547466394762,0.33697341080448273
1759494863.7732747,1,-0.5853319551314763,-0.9542304176939501,-0.17539518361772366,0.2663967222509999,True,0.09545087814331055,-0.5891814231872559,-0.953551173210144,-0.17834784090518951,0.2663967222509999,-0.03419448935189884,0.2541606739815078
1759494863.863464,1,-0.5786733630374029,-0.9554046255304459,-0.17251557513326432,0.2663967222509999,True,0.09018945693969727,-0.5891814231872559,-0.953551173210144,-0.17834784090518951,0.2663967222509999,-0.05435363928321735,0.3201091851635627
1759494863.94703,1,-0.5253485750435943,-0.9643275516056625,-0.16318009706161263,0.3099700969780894,True,0.08356595039367676,-0.5081672072410583,-0.9671164751052856,-0.15618225932121277,0.3099700969780894,-0.05435363928321735,0.3201091851635627
1759494864.0422204,1,-0.5036073883474055,-0.9678706664599267,-0.155959321320303,0.3099700969780894,True,0.09519028663635254,-0.5081672072410583,-0.9671164751052856,-0.15618225932121277,0.3099700969780894,-0.032075207896223645,0.27788145622232485
1759494864.1268215,1,-0.49652938252456547,-0.9689534978955892,-0.15214036441603263,0.3099700969780894,True,0.08460116386413574,-0.5081672072410583,-0.9671164751052856,-0.15618225932121277,0.3099700969780894,-0.032075207896223645,0.27788145622232485
1759494864.2135315,1,-0.4465407307065643,-0.9763208634353483,-0.14431796070803138,0.2926832015443921,True,0.08670997619628906,-0.4311521351337433,-0.9785130620002747,-0.14058682322502136,0.2926832015443921,-0.032075207896223645,0.27788145622232485
1759494864.2989051,1,-0.42758395522629705,-0.9790416837152511,-0.1389970909417091,0.2926832015443921,True,0.0853736400604248,-0.4311521351337433,-0.9785130620002747,-0.14058682322502136,0.2926832015443921,-0.02264181453159786,0.26614488217270343
1759494864.385657,1,-0.42018361964803086,-0.9800537468005368,-0.13592630682260776,0.2926832015443921,True,0.08675193786621094,-0.4311521351337433,-0.9785130620002747,-0.14058682322502136,0.2926832015443921,-0.02264181453159786,0.26614488217270343
1759494864.4790564,1,-0.3733317081793928,-0.9864008259724224,-0.13086712516694554,0.2713666773257529,True,0.0933992862701416,-0.3598974049091339,-0.9882147908210754,-0.13109266757965088,0.2713666773257529,-0.04156726835033275,0.3327224191273386
1759494864.5597918,1,-0.3567313918674192,-0.9886097078091963,-0.12776929199523224,0.2713666773257529,True,0.08073544502258301,-0.3598974049091339,-0.9882147908210754,-0.13109266757965088,0.2713666773257529,-0.025298631321390985,0.2607984234421589
1759494864.6531725,1,-0.3490872830647148,-0.9895947986041634,-0.12593621087194506,0.2713666773257529,True,0.09338068962097168,-0.3598974049091339,-0.9882147908210754,-0.13109266757965088,0.2713666773257529,-0.025298631321390985,0.2607984234421589
1759494864.7475967,1,-0.2985324730623279,-0.9958913692104131,-0.12085309715472903,0.28773575850191174,True,0.09442424774169922,-0.2839483916759491,-0.997689425945282,-0.1190502941608429,0.28773575850191174,-0.04242006099883788,0.3226781842360662
1759494864.8400679,1,-0.27942920548770506,-0.9982207025519181,-0.11733355368637532,0.28773575850191174,True,0.09247112274169922,-0.2839483916759491,-0.997689425945282,-0.1190502941608429,0.28773575850191174,-0.03517502798395711,0.29385134262371565
1759494864.926851,1,-0.272749267039837,-0.9990038216777414,-0.11554555612665496,0.28773575850191174,True,0.08678317070007324,-0.2839483916759491,-0.997689425945282,-0.1190502941608429,0.28773575850191174,-0.03517502798395711,0.29385134262371565
1759494865.0184028,1,-0.21884480498950357,-1.0049879480934771,-0.10891697919208454,0.3069945536293042,True,0.0915517807006836,-0.20278659462928772,-1.0067009925842285,-0.10368321090936661,0.3069945536293042,-0.03517502798395711,0.29385134262371565
1759494865.104709,1,-0.19885914773749455,-1.0071401473134518,-0.10422573393905665,0.3069945536293042,True,0.08630609512329102,-0.20278659462928772,-1.0067009925842285,-0.10368321090936661,0.3069945536293042,-0.021803682398635615,0.2701960373457273
1759494865.1956825,1,-0.19067606540525828,-1.0079731695051226,-0.10138829194836951,0.3069945536293042,True,0.0909736156463623,-0.20278659462928772,-1.0067009925842285,-0.10368321090936661,0.3069945536293042,-0.021803682398635615,0.2701960373457273
1759494865.280971,1,-0.14371417865476113,-1.0125625007721963,-0.09641239752875919,0.2786330086687972,True,0.08528852462768555,-0.1293029487133026,-1.0139236450195312,-0.09383776783943176,0.2786330086687972,-0.03293488366649733,0.330352633577218
1759494865.3740065,1,-0.12495145212251035,-1.0143520311474488,-0.0926752439466032,0.2786330086687972,True,0.09303545951843262,-0.1293029487133026,-1.0139236450195312,-0.09383776783943176,0.2786330086687972,-0.015182006464714348,0.2585659532015081
1759494865.4617298,1,-0.11834431495250146,-1.0149476853883603,-0.09078987021707796,0.2786330086687972,True,0.0877232551574707,-0.1293029487133026,-1.0139236450195312,-0.09383776783943176,0.2786330086687972,-0.020939427856655257,0.32850810643042194
1759494865.5510364,1,-0.06424980676291599,-1.0197136779653677,-0.08622007148753852,0.293219693671892,True,0.08930659294128418,-0.046935953199863434,-1.0212020874023438,-0.08411983400583267,0.293219693671892,-0.020939427856655257,0.32850810643042194
1759494865.6375065,1,-0.04390032453614326,-1.0214645766967405,-0.08299333982809642,0.293219693671892,True,0.08647012710571289,-0.046935953199863434,-1.0212020874023438,-0.08411983400583267,0.293219693671892,-0.0024883977131153756,0.23280412567394237
1759494865.7400835,1,-0.03461491235730899,-1.0222297480519091,-0.08087698140166921,0.293219693671892,True,0.1,-0.046935953199863434,-1.0212020874023438,-0.08411983400583267,0.293219693671892,0.006932646520294128,0.29063694640373533
1759494865.8275259,1,0.01527331726078747,-1.0262943627017225,-0.07933042987020755,0.292601046729497,True,0.08744239807128906,0.030344698578119278,-1.0275298357009888,-0.08191083371639252,0.292601046729497,0.006932646520294128,0.29063694640373533
1759494865.9155257,1,0.03439190407561988,-1.0278409702893048,-0.07814318427729816,0.292601046729497,True,0.08799982070922852,0.030344698578119278,-1.0275298357009888,-0.08191083371639252,0.292601046729497,0.0423860350912193,0.2770955701713651
1759494866.009523,1,0.042363624037746406,-1.0284736991321985,-0.07774525273540789,0.292601046729497,True,0.09399724006652832,0.030344698578119278,-1.0275298357009888,-0.08191083371639252,0.292601046729497,0.0423860350912193,0.2770955701713651
1759494866.1047273,1,0.0934071356039231,-1.0329076303006577,-0.0823641508968116,0.27941757656226335,True,0.09520435333251953,0.10856424272060394,-1.0343502759933472,-0.09477429836988449,0.27941757656226335,0.07483014272863642,0.3409247476913264
1759494866.1947875,1,0.11235333650076655,-1.0345993902779578,-0.08666721975797387,0.27941757656226335,True,0.09006023406982422,0.10856424272060394,-1.0343502759933472,-0.09477429836988449,0.27941757656226335,0.055233461222712776,0.25903522255420536
1759494866.2828443,1,0.1193734966497443,-1.0352693592013202,-0.08933092177122859,0.27941757656226335,True,0.08805680274963379,0.10856424272060394,-1.0343502759933472,-0.09477429836988449,0.27941757656226335,0.08261178744582764,0.3175302389801048
1759494866.3692915,1,0.1722489902093575,-1.041080688693067,-0.10209261743273856,0.30340890376494456,True,0.08644723892211914,0.1887851059436798,-1.0431931018829346,-0.12385870516300201,0.30340890376494456,0.08261178744582764,0.3175302389801048
1759494866.457544,1,0.19264208388848483,-1.0434412074779833,-0.11241611779747807,0.30340890376494456,True,0.08825254440307617,0.1887851059436798,-1.0431931018829346,-0.12385870516300201,0.30340890376494456,0.02969873396398981,0.22118376933838124
1759494866.5454245,1,0.20037738140506148,-1.0444418883397768,-0.11881196006188866,0.30340890376494456,True,0.08788037300109863,0.1887851059436798,-1.0431931018829346,-0.12385870516300201,0.30340890376494456,0.05037913272912675,0.28783398931833076
1759494866.646984,1,0.2503668450805666,-1.0513560780114,-0.13152034277908342,0.2722001299730714,True,0.1,0.26456111669540405,-1.0536068677902222,-0.14534863829612732,0.2722001299730714,0.05037913272912675,0.28783398931833076
1759494866.7396064,1,0.26868504257113274,-1.0540193404521851,-0.1406996894976782,0.2722001299730714,True,0.09262228012084961,0.26456111669540405,-1.0536068677902222,-0.14534863829612732,0.2722001299730714,0.016039866801595082,0.2802320112160315
1759494866.8290005,1,0.2753380506894425,-1.055073703178626,-0.1461004349403474,0.2722001299730714,True,0.08939409255981445,0.26456111669540405,-1.0536068677902222,-0.14534863829612732,0.2722001299730714,0.016039866801595082,0.2802320112160315
1759494866.9132178,1,0.3238936388550823,-1.0625956801069816,-0.15299363196564286,0.2841591772924502,True,0.08421730995178223,0.3392714858055115,-1.065081000328064,-0.15581655502319336,0.2841591772924502,0.010373571498419665,0.3409518394753893
1759494867.0004606,1,0.34275589360944364,-1.0655775980326887,-0.1578138138715115,0.2841591772924502,True,0.08724284172058105,0.3392714858055115,-1.065081000328064,-0.15581655502319336,0.2841591772924502,-0.01088922094038125,0.255244639623327
1759494867.0899117,1,0.35019073318585214,-1.0667963513840175,-0.16068069832065213,0.2841591772924502,True,0.08945107460021973,0.3392714858055115,-1.065081000328064,-0.15581655502319336,0.2841591772924502,-0.024314618490011597,0.3172875762487862
1759494867.179994,1,0.4036902694648807,-1.0752391535999573,-0.16070901883370325,0.3067971582716152,True,0.09008240699768066,0.41989341378211975,-1.0777292251586914,-0.15233491361141205,0.3067971582716152,-0.024314618490011597,0.3172875762487862
1759494867.2671745,1,0.42378952617501403,-1.0784099235082536,-0.15994022471304348,0.3067971582716152,True,0.08718037605285645,0.41989341378211975,-1.0777292251586914,-0.15233491361141205,0.3067971582716152,-0.019667824901960174,0.22206828406002718
1759494867.3542585,1,0.4314571843097698,-1.0796095335057532,-0.1592092180755671,0.3067971582716152,True,0.08708405494689941,0.41989341378211975,-1.0777292251586914,-0.15233491361141205,0.3067971582716152,-0.03685617182594214,0.2816291872841242
1759494867.442695,1,0.4765747762991352,-1.0863188973488638,-0.1545598696822701,0.2675369899786542,True,0.08843636512756348,0.49001941084861755,-1.0881586074829102,-0.1425434947013855,0.2675369899786542,-0.03685617182594214,0.2816291872841242
1759494867.5266263,1,0.4933596854388939,-1.088770171591443,-0.15080109377749906,0.2675369899786542,True,0.08393144607543945,0.49001941084861755,-1.0881586074829102,-0.1425434947013855,0.2675369899786542,-0.040419069840188726,0.27833059850378494
1759494867.6100075,1,0.49972011375497916,-1.089666965386543,-0.14804536593571527,0.2675369899786542,True,0.08338117599487305,0.49001941084861755,-1.0881586074829102,-0.1425434947013855,0.2675369899786542,-0.040419069840188726,0.27833059850378494
1759494867.7025828,1,0.5496978678326352,-1.0964543511255567,-0.1406589998436374,0.2975919615704756,True,0.0925753116607666,0.56374192237854,-1.098161220550537,-0.1272222101688385,0.2975919615704756,-0.06401687378007459,0.3353952016261411
1759494867.7882102,1,0.5680159947198316,-1.0988647012506971,-0.13454999806780066,0.2975919615704756,True,0.08562731742858887,0.56374192237854,-1.098161220550537,-0.1272222101688385,0.2975919615704756,-0.037420977602421246,0.2466230732235701
1759494867.867692,1,0.5743287373729342,-1.0996328819129597,-0.13098051054709714,0.2975919615704756,True,0.07948184013366699,0.56374192237854,-1.098161220550537,-0.1272222101688385,0.2975919615704756,-0.06748937915404873,0.3056147962415389
1759494867.94901,1,0.6218111279873528,-1.1051423078979532,-0.12074584718410719,0.2931848033950397,True,0.08131790161132812,0.6365453600883484,-1.1066460609436035,-0.1059468612074852,0.2931848033950397,-0.06748937915404873,0.3056147962415389
1759494868.02011,1,0.6388225534361723,-1.1070234178459626,-0.11308080349402339,0.2931848033950397,True,0.07109999656677246,0.6365453600883484,-1.1066460609436035,-0.1059468612074852,0.2931848033950397,-0.028648579467153823,0.2297789483327884
1759494868.103579,1,0.6467040832082295,-1.1078345571550399,-0.10832872833227292,0.2931848033950397,True,0.08346915245056152,0.6365453600883484,-1.1066460609436035,-0.1059468612074852,0.2931848033950397,-0.06715231358857565,0.28651425733963615
1759494868.1918979,1,0.6897614075923089,-1.111961945719682,-0.09815674165407096,0.2633566856005475,True,0.0883188247680664,0.7020790576934814,-1.1129809617996216,-0.08757432550191879,0.2633566856005475,-0.06715231358857565,0.28651425733963615
1759494868.274878,1,0.7056823344222658,-1.1133983019043976,-0.09121376086186572,0.2633566856005475,True,0.08298015594482422,0.7020790576934814,-1.1129809617996216,-0.08757432550191879,0.2633566856005475,-0.08150997402461613,0.2835922379689354
1759494868.3558924,1,0.7115718578614344,-1.1138734892539666,-0.08686559755881618,0.2633566856005475,True,0.08101439476013184,0.7020790576934814,-1.1129809617996216,-0.08757432550191879,0.2633566856005475,-0.08150997402461613,0.2835922379689354
1759494868.4311967,1,0.7559480062125639,-1.1171531295416943,-0.07509986913114375,0.2895907469635883,True,0.07530426979064941,0.769944965839386,-1.118034839630127,-0.06150670722126961,0.2895907469635883,-0.08150997402461613,0.2835922379689354
1759494868.515844,1,0.7739365776209604,-1.118384798813262,-0.06632890332001473,0.2895907469635883,True,0.08464741706848145,0.769944965839386,-1.118034839630127,-0.06150670722126961,0.2895907469635883,-0.08772023523860639,0.25828082982919753
1759494868.600353,1,0.7807978083427658,-1.1187748111766078,-0.06066800980230269,0.2895907469635883,True,0.08450889587402344,0.769944965839386,-1.118034839630127,-0.06150670722126961,0.2895907469635883,-0.08772023523860639,0.25828082982919753
1759494868.674748,1,0.8224320361318623,-1.1206767472059613,-0.04780366306585648,0.27970772530008153,True,0.07439494132995605,0.8353245854377747,-1.1211037635803223,-0.033001046627759933,0.27970772530008153,-0.1440625465903782,0.3115569117298278
1759494868.7591035,1,0.8394030349949606,-1.1213545886706706,-0.03752287584478253,0.27970772530008153,True,0.08435559272766113,0.8353245854377747,-1.1211037635803223,-0.033001046627759933,0.27970772530008153,-0.09495652610470806,0.2475966769631357
1759494868.83837,1,0.845345664664611,-1.1215050018967374,-0.0313964051257436,0.27970772530008153,True,0.07926654815673828,0.8353245854377747,-1.1211037635803223,-0.033001046627759933,0.27970772530008153,-0.09495652610470806,0.2475966769631357
1759494868.9295242,1,0.8906839756370164,-1.1219525086518105,-0.013281935179854543,0.25870321691784953,True,0.09115409851074219,0.9041359424591064,-1.1218172311782837,0.006405434105545282,0.25870321691784953,-0.15221211018164027,0.2972999189617393
1759494869.0029242,1,0.9062503774427942,-1.121952064225452,-0.00022600520271254254,0.25870321691784953,True,0.07340002059936523,0.9041359424591064,-1.1218172311782837,0.006405434105545282,0.25870321691784953,-0.08122102518462704,0.23375824028032102
1759494869.0733364,1,0.9119014295020698,-1.1218578471799612,0.006879748373261663,0.25870321691784953,True,0.07041215896606445,0.9041359424591064,-1.1218172311782837,0.006405434105545282,0.25870321691784953,-0.14728830175289076,0.28659598867430597
1759494869.1463013,1,0.9509602972754018,-1.1207856175656112,0.025063285752429998,0.26981035636403067,True,0.07296490669250488,0.9629334807395935,-1.1202411651611328,0.044867873191833496,0.26981035636403067,-0.14728830175289076,0.28659598867430597
1759494869.228139,1,0.966791128786716,-1.1202210387436828,0.03950625629976123,0.26981035636403067,True,0.08183765411376953,0.9629334807395935,-1.1202411651611328,0.044867873191833496,0.26981035636403067,-0.07699325314967709,0.22292530604245978
1759494869.304835,1,0.9723043729555233,-1.1199055834127831,0.04746849081387339,0.26981035636403067,True,0.07669615745544434,0.9629334807395935,-1.1202411651611328,0.044867873191833496,0.26981035636403067,-0.14335038034767145,0.2722799183814061
1759494869.3904276,1,1.0146664401806906,-1.1170458883319723,0.06765360739134252,0.2711833318100949,True,0.08559250831604004,1.0265206098556519,-1.1160049438476562,0.0853804498910904,0.2711833318100949,-0.14335038034767145,0.2722799183814061
1759494869.4766564,1,1.0309029109604009,-1.115780812145461,0.08277033205301176,0.2711833318100949,True,0.08622884750366211,1.0265206098556519,-1.1160049438476562,0.0853804498910904,0.2711833318100949,-0.06910701420767928,0.20698334251460312
1759494869.5592966,1,1.0367238433744652,-1.1151939977132936,0.0906393207703271,0.2711833318100949,True,0.08264017105102539,1.0265206098556519,-1.1160049438476562,0.0853804498910904,0.2711833318100949,-0.14115513892227582,0.2567903090576288
1759494869.6308274,1,1.0731623294725376,-1.1112813277959137,0.1077311010534352,0.23632982078993195,True,0.07153081893920898,1.0852800607681274,-1.1098353862762451,0.12115849554538727,0.23632982078993195,-0.14115513892227582,0.2567903090576288
1759494869.732723,1,1.0896235332562847,-1.1093926771069558,0.1213824255851943,0.23632982078993195,True,0.1,1.0852800607681274,-1.1098353862762451,0.12115849554538727,0.23632982078993195,-0.15107272587396814,0.2567099295957775
1759494869.8030229,1,1.093237105564936,-1.1088872776828793,0.1279109234438387,0.23632982078993195,True,0.07029986381530762,1.0852800607681274,-1.1098353862762451,0.12115849554538727,0.23632982078993195,-0.15107272587396814,0.2567099295957775
1759494869.8790941,1,1.1349534142495046,-1.1027215133863362,0.14806951552387737,0.25669833132730313,True,0.07607126235961914,1.1487711668014526,-1.1004942655563354,0.1691834032535553,0.25669833132730313,-0.22480110520068486,0.30324895972014176
1759494869.9510746,1,1.1504711624145132,-1.100286582578602,0.16341533114725415,0.25669833132730313,True,0.07198047637939453,1.1487711668014526,-1.1004942655563354,0.1691834032535553,0.25669833132730313,-0.14007798874584232,0.23265078577520984
1759494870.0221715,1,1.1562965174420499,-1.0992676158093788,0.17268631993903938,0.25669833132730313,True,0.07109689712524414,1.1487711668014526,-1.1004942655563354,0.1691834032535553,0.25669833132730313,-0.14007798874584232,0.23265078577520984
1759494870.1121757,1,1.196768274997721,-1.0911451099928684,0.19713187917089225,0.271952743037331,True,0.09000420570373535,1.2068901062011719,-1.0887902975082397,0.22016972303390503,0.271952743037331,-0.21630634852613895,0.2775083388726116
1759494870.1966918,1,1.2116282302712817,-1.08794565484433,0.21574782519535862,0.271952743037331,True,0.08451604843139648,1.2068901062011719,-1.0887902975082397,0.22016972303390503,0.271952743037331,-0.12379675389793476,0.2134202792218286
1759494870.2708275,1,1.2162191236663116,-1.0868042726842515,0.22577462221815647,0.271952743037331,True,0.07413578033447266,1.2068901062011719,-1.0887902975082397,0.22016972303390503,0.271952743037331,-0.12379675389793476,0.2134202792218286
1759494870.3604865,1,1.2532860159837016,-1.0773249616030158,0.2494362594262336,0.2339087381246347,True,0.08965897560119629,1.2635737657546997,-1.0744186639785767,0.26764002442359924,0.2339087381246347,-0.21266892850960417,0.26024662235126006
1759494870.4533346,1,1.2676773584301821,-1.0734587784656942,0.26740740645634187,0.2339087381246347,True,0.09284806251525879,1.2635737657546997,-1.0744186639785767,0.26764002442359924,0.2339087381246347,-0.12711343126134977,0.21463100389654205
1759494870.5401955,1,1.2726202575213552,-1.0719804690961026,0.27625968073904694,0.2339087381246347,True,0.08686089515686035,1.2635737657546997,-1.0744186639785767,0.26764002442359924,0.2339087381246347,-0.22602421702198328,0.262397497719838
1759494870.6216989,1,1.3121721442659937,-1.0596778195715733,0.3037623852741147,0.2414430479024101,True,0.08150339126586914,1.324930191040039,-1.0554425716400146,0.32946130633354187,0.2414430479024101,-0.22602421702198328,0.262397497719838
1759494870.733546,1,1.328845887801766,-1.0542658047030198,0.32492918753793365,0.2414430479024101,True,0.1,1.324930191040039,-1.0554425716400146,0.32946130633354187,0.2414430479024101,-0.2142086416302451,0.24293700936944768
1759494870.816826,1,1.3336971729906242,-1.0525199565526253,0.3365077455710086,0.2414430479024101,True,0.08328008651733398,1.324930191040039,-1.0554425716400146,0.32946130633354187,0.2414430479024101,-0.2142086416302451,0.24293700936944768
1759494870.9079394,1,1.377992359626195,-1.0352058126825416,0.3718850944321206,0.25551269981991276,True,0.09111332893371582,1.3918168544769287,-1.029341220855713,0.408801794052124,0.25551269981991276,-0.3100733083312033,0.29015245717193183
1759494870.9843152,1,1.3934709440365969,-1.028847090447358,0.3975359110272523,0.25551269981991276,True,0.07637572288513184,1.3918168544769287,-1.029341220855713,0.408801794052124,0.25551269981991276,-0.16853883766457223,0.21448148173734588
1759494871.0683637,1,1.3999995415477784,-1.0259473061305913,0.41254333933389553,0.25551269981991276,True,0.08404850959777832,1.3918168544769287,-1.029341220855713,0.408801794052124,0.25551269981991276,-0.272461247670412,0.2664637507789061
1759494871.158421,1,1.4384429141416557,-1.0072238310211041,0.45232933899308136,0.2553134784679368,True,0.090057373046875,1.4492194652557373,-1.001430630683899,0.48978129029273987,0.2553134784679368,-0.272461247670412,0.2664637507789061
1759494871.245216,1,1.4527024755393314,-0.999915515547384,0.48166124925232356,0.2553134784679368,True,0.08679485321044922,1.4492194652557373,-1.001430630683899,0.48978129029273987,0.2553134784679368,-0.12344531831917571,0.20251943712198467
1759494871.3212276,1,1.457107946763213,-0.9973963122117508,0.4966201906572305,0.2553134784679368,True,0.07601165771484375,1.4492194652557373,-1.001430630683899,0.48978129029273987,0.2553134784679368,-0.23099962444551636,0.25950889715369896
1759494871.4062297,1,1.4918400404509558,-0.9770682887280168,0.5312428388029922,0.24448934460708477,True,0.08500218391418457,1.502044439315796,-0.9706822633743286,0.5573604106903076,0.24448934460708477,-0.23099962444551636,0.25950889715369896
1759494871.4929295,1,1.5051110164103003,-0.9689917568677642,0.5559479206899303,0.24448934460708477,True,0.0866997241973877,1.502044439315796,-0.9706822633743286,0.5573604106903076,0.24448934460708477,-0.200291924766125,0.2534216027543684
1759494871.5794845,1,1.510068190951584,-0.9657491887559685,0.5706072174109442,0.24448934460708477,True,0.08655500411987305,1.502044439315796,-0.9706822633743286,0.5573604106903076,0.24448934460708477,-0.200291924766125,0.2534216027543684
1759494871.6996276,1,1.5511999219686061,-0.9375484194482514,0.6094034841338809,0.25112514175976103,True,0.1,1.5636056661605835,-0.9285750985145569,0.6353960037231445,0.25112514175976103,-0.200291924766125,0.2534216027543684
1759494871.7873683,1,1.5657507858471835,-0.9271602064871869,0.635010242288021,0.25112514175976103,True,0.08774065971374512,1.5636056661605835,-0.9285750985145569,0.6353960037231445,0.25112514175976103,-0.14600630271669068,0.22825448826634323
1759494871.8778968,1,1.5713975112137273,-0.9228586606243213,0.6491042915533622,0.25112514175976103,True,0.09052848815917969,1.5636056661605835,-0.9285750985145569,0.6353960037231445,0.25112514175976103,-0.23464204652250764,0.28503845574687564
1759494871.9713554,1,1.6079268509136748,-0.8937908218411651,0.6833906026618903,0.26313825045610095,True,0.09345865249633789,1.618445873260498,-0.8850800395011902,0.7050467133522034,0.26313825045610095,-0.23464204652250764,0.28503845574687564
1759494872.0636573,1,1.6216027016565393,-0.8825257658060394,0.7079557694052419,0.26313825045610095,True,0.09230184555053711,1.618445873260498,-0.8850800395011902,0.7050467133522034,0.26313825045610095,-0.10853791848548511,0.20921916357057999
1759494872.1541998,1,1.6265464055490904,-0.8781645613810292,0.7203593857158523,0.26313825045610095,True,0.09054255485534668,1.618445873260498,-0.8850800395011902,0.7050467133522034,0.26313825045610095,-0.20072595414858085,0.2693241509789766
1759494872.2497652,1,1.6605729624215593,-0.8469035654117174,0.7526206925432479,0.2511598743624773,True,0.0955653190612793,1.670501708984375,-0.8374234437942505,0.7712275981903076,0.2511598743624773,-0.20072595414858085,0.2693241509789766
1759494872.3490798,1,1.673638658694905,-0.8345052034517628,0.7751886863161346,0.2511598743624773,True,0.09931468963623047,1.670501708984375,-0.8374234437942505,0.7712275981903076,0.2511598743624773,-0.17148034573896886,0.2598370988160656
1759494872.436754,1,1.6776921339711781,-0.8304063426859113,0.7866900497461717,0.2511598743624773,True,0.08767414093017578,1.670501708984375,-0.8374234437942505,0.7712275981903076,0.2511598743624773,-0.17148034573896886,0.2598370988160656
1759494872.5323315,1,1.712054001223654,-0.7943405378050339,0.8181459167528127,0.26654491014389964,True,0.09557747840881348,1.7222341299057007,-0.7832604050636292,0.8404427170753479,0.26654491014389964,-0.25494804367545854,0.31761664448397864
1759494872.6226223,1,1.724606818538422,-0.7807618499084645,0.8411234238358647,0.26654491014389964,True,0.09029078483581543,1.7222341299057007,-0.7832604050636292,0.8404427170753479,0.26654491014389964,-0.132168737065939,0.234635713583579
1759494872.7271862,1,1.729900112420627,-0.7746926743882906,0.8539596050737277,0.26654491014389964,True,0.1,1.7222341299057007,-0.7832604050636292,0.8404427170753479,0.26654491014389964,-0.21285049637172548,0.2917589735161178
1759494872.8231616,1,1.763549873481378,-0.733381774138926,0.8921550422799882,0.2741980012660541,True,0.09597539901733398,1.7737317085266113,-0.7201735377311707,0.9233964681625366,0.2741980012660541,-0.21285049637172548,0.2917589735161178
1759494872.910832,1,1.7755790352981293,-0.718048825333137,0.9182836339158511,0.2741980012660541,True,0.08767032623291016,1.7737317085266113,-0.7201735377311707,0.9233964681625366,0.2741980012660541,-0.1497923300594337,0.2697575300568767
1759494873.0012379,1,1.7801641624906166,-0.7118214760048347,0.93390320493479,0.2741980012660541,True,0.09040594100952148,1.7737317085266113,-0.7201735377311707,0.9233964681625366,0.2741980012660541,-0.1497923300594337,0.2697575300568767
1759494873.1008053,1,1.8097094011242205,-0.6693912246719638,0.967981054258896,0.274984326154194,True,0.09956741333007812,1.8179823160171509,-0.6568282246589661,0.9905772805213928,0.274984326154194,-0.22044954296143082,0.329578280352072
1759494873.1956887,1,1.8204460231574309,-0.6533989723009969,0.9924884835569623,0.274984326154194,True,0.09488344192504883,1.8179823160171509,-0.6568282246589661,0.9905772805213928,0.274984326154194,-0.0992708813488914,0.2472664406775737
1759494873.2829673,1,1.823917871015414,-0.6478310620906498,1.0051272496509718,0.274984326154194,True,0.08727860450744629,1.8179823160171509,-0.6568282246589661,0.9905772805213928,0.274984326154194,-0.0992708813488914,0.2472664406775737
1759494873.3797274,1,1.8503155471566455,-0.6040958265377554,1.0333674114744555,0.2733427843838682,True,0.09676003456115723,1.85792875289917,-0.5909038782119751,1.0477826595306396,0.2733427843838682,-0.16380753812268978,0.30721669377180905
1759494873.4710655,1,1.859883397959753,-0.5877391744370136,1.0532899831404805,0.2733427843838682,True,0.0913381576538086,1.85792875289917,-0.5909038782119751,1.0477826595306396,0.2733427843838682,-0.058094611758225057,0.22513895207745646
1759494873.573239,1,1.863818649019085,-0.5806089737221151,1.0641587793104073,0.2733427843838682,True,0.1,1.85792875289917,-0.5909038782119751,1.0477826595306396,0.2733427843838682,-0.1242528165741632,0.2919760851452301
1759494873.6690195,1,1.888518801007566,-0.5347945641379994,1.0872371639191734,0.28240818033300497,True,0.0957803726196289,1.8957231044769287,-0.5211251378059387,1.0950756072998047,0.28240818033300497,-0.1242528165741632,0.2919760851452301
1759494873.7732801,1,1.897962393867988,-0.5167834301672771,1.103069929827571,0.28240818033300497,True,0.1,1.8957231044769287,-0.5211251378059387,1.0950756072998047,0.28240818033300497,-0.0946140983953434,0.2662205661944792
1759494873.8592708,1,1.9007469428126782,-0.51118030657031,1.110377780016968,0.28240818033300497,True,0.08599066734313965,1.8957231044769287,-0.5211251378059387,1.0950756072998047,0.28240818033300497,-0.0946140983953434,0.2662205661944792
1759494873.9647145,1,1.9242950148789164,-0.46249761943760914,1.1306109826076582,0.27491848767034777,True,0.1,1.9313524961471558,-0.44765815138816833,1.138749122619629,0.27491848767034777,-0.14724017337709405,0.3308346234099737
1759494874.0593276,1,1.9328720635518857,-0.44432956281302055,1.1448741451180844,0.27491848767034777,True,0.09461307525634766,1.9313524961471558,-0.44765815138816833,1.138749122619629,0.27491848767034777,-0.06962140893868884,0.24522073992789203
1759494874.1512597,1,1.9359047974465586,-0.43758791359143395,1.1515937698990673,0.27491848767034777,True,0.09193205833435059,1.9313524961471558,-0.44765815138816833,1.138749122619629,0.27491848767034777,-0.11919753971091218,0.3084441088617499
1759494874.2455447,1,1.957475285139383,-0.3872959133380192,1.172872360208121,0.2935507287357465,True,0.0942850112915039,1.9638952016830444,-0.3718610405921936,1.1863075494766235,0.2935507287357465,-0.11919753971091218,0.3084441088617499
1759494874.33956,1,1.9655058184616099,-0.3680293592342404,1.1879383324791313,0.2935507287357465,True,0.09401535987854004,1.9638952016830444,-0.3718610405921936,1.1863075494766235,0.2935507287357465,-0.08097034573349227,0.2778109585640761
1759494874.4309988,1,1.9683246748494923,-0.36088065907189887,1.1962706293670893,0.2935507287357465,True,0.09143877029418945,1.9638952016830444,-0.3718610405921936,1.1863075494766235,0.2935507287357465,-0.08097034573349227,0.2778109585640761
1759494874.5356739,1,1.987891914853195,-0.30902015963419066,1.2156378912884334,0.28295223325660884,True,0.1,1.9936403036117554,-0.2932645082473755,1.226158618927002,0.28295223325660884,-0.12631026535200895,0.34275892296313815
1759494874.6315427,1,1.9950297172560947,-0.28956127885478344,1.2294697631189297,0.28295223325660884,True,0.09586882591247559,1.9936403036117554,-0.2932645082473755,1.226158618927002,0.28295223325660884,-0.05477478965995353,0.2549781825730219
1759494874.7426665,1,2.010126101009494,-0.24518688161754987,1.2474980654803538,0.30133649354623976,True,0.1,2.013272285461426,-0.23532907664775848,1.2545722723007202,0.30133649354623976,-0.09932864758328108,0.3199273037687025
1759494874.8344176,1,2.015409507047002,-0.22907555546746777,1.2594592395455555,0.30133649354623976,True,0.0917510986328125,2.013272285461426,-0.23532907664775848,1.2545722723007202,0.30133649354623976,-0.047188546152826305,0.24723403801027655
1759494874.9266849,1,2.017325805997148,-0.22282583406781536,1.265327750737237,0.30133649354623976,True,0.09226727485656738,2.013272285461426,-0.23532907664775848,1.2545722723007202,0.30133649354623976,-0.08942852554234904,0.3127803162871349
1759494875.0239635,1,2.033085128127516,-0.17127268852499294,1.2813025975571426,0.29422812425035044,True,0.09727859497070312,2.0375471115112305,-0.15629489719867706,1.2882527112960815,0.29422812425035044,-0.08942852554234904,0.3127803162871349
1759494875.1190598,1,2.0388760376459505,-0.1517679383481577,1.2921334805570082,0.29422812425035044,True,0.09509634971618652,2.0375471115112305,-0.15629489719867706,1.2882527112960815,0.29422812425035044,-0.06451747019788456,0.2875187706507979
1759494875.212036,1,2.0409162303796475,-0.14451605804348466,1.2979056859078355,0.29422812425035044,True,0.09297609329223633,2.0375471115112305,-0.15629489719867706,1.2882527112960815,0.29422812425035044,-0.06451747019788456,0.2875187706507979
1759494875.3089073,1,2.0555981240123877,-0.0909593025911769,1.312407839948106,0.29866444431954525,True,0.09687137603759766,2.0598955154418945,-0.0750906765460968,1.3199889659881592,0.29866444431954525,-0.0974587685660726,0.35439771499635053
1759494875.3991017,1,2.060869578055663,-0.07120055983099856,1.3226717753144719,0.29866444431954525,True,0.0901944637298584,2.0598955154418945,-0.0750906765460968,1.3199889659881592,0.29866444431954525,-0.040997903760953136,0.2609362623909275
1759494875.4958925,1,2.0629683908444814,-0.06289831448793456,1.3285308016319828,0.29866444431954525,True,0.09679079055786133,2.0598955154418945,-0.0750906765460968,1.3199889659881592,0.29866444431954525,-0.040997903760953136,0.2609362623909275
