timestamp,observer_vehicle_id,vehicle_0_x,vehicle_0_y,vehicle_0_theta,vehicle_0_velocity,vehicle_1_x,vehicle_1_y,vehicle_1_theta,vehicle_1_velocity,vehicle_2_x,vehicle_2_y,vehicle_2_theta,vehicle_2_velocity
1759837107.3195221,2,0.0,0.0,0.0,0.0,0.0,0.0,0.0,0.0,16.0,6.0,-0.05483113549895436,0.0
1759837107.3295646,2,0.0,0.0,0.0,0.0,0.0,0.0,0.0,0.0,16.0,6.0,-0.05483113549895436,0.0
1759837107.3401825,2,-3.63982303547137e-07,1.1926964806256366,0.6244946417631241,0.0,0.0,0.0,0.0,0.0,16.0,6.0,-0.05483113549895436,0.0
1759837107.3516383,2,-6.522498690872546e-07,2.1372910599434,1.1190833850056654,0.0,1.5744020431520767,1.1808012039182358,0.6182659923888423,0.0,16.0,6.0,-0.05483113549895436,0.0
1759837107.36241,2,-8.813356869431355e-07,2.887959007410166,1.512132344696074,0.0,2.825118408238155,2.1188382168130593,1.1094209664441044,0.0,16.0,6.0,-0.05483113549895436,0.0
1759837107.3727317,2,-1.06394104281234e-06,3.486319870468959,1.825433472762589,0.0,3.821705352482745,2.8662782170922885,1.5007795897164375,0.0,16.0,6.0,-0.05483113549895436,0.0
1759837107.3840759,2,-1.2096958537793645e-06,3.9639289420652433,2.0755090879039058,0.0,4.6168881505731525,3.462665149772055,1.8130470209804437,0.0,16.0,6.0,-0.05483113549895436,0.0
1759837107.3948417,2,-1.3264187538887956e-06,4.346406306520153,2.275773839731194,0.0,5.2534531709500625,3.9400887822569417,2.06302542119606,0.0,16.0,6.0,-0.05483113549895436,0.0
1759837107.4056969,2,-1.4253777785228436e-06,4.670675039524337,2.445560612428138,0.0,5.764279532496588,4.323208446850166,2.2636263850563676,0.0,16.0,6.0,-0.05483113549895436,0.0
1759837107.4171956,2,-1.5039980024412068e-06,4.92829763122621,2.58045153457671,0.0,6.174956480923204,4.63121607249625,2.424898781884474,0.0,16.0,6.0,-0.05483113549895436,0.0
1759837107.4274294,2,-1.5667122062465643e-06,5.133799408194337,2.688052052121691,0.0,6.526214657733609,4.894659631825897,2.5628374908787706,0.0,16.0,6.0,-0.05483113549895436,0.0
1759837107.4374435,2,-1.61687132395997e-06,5.298160704293225,2.774111456500209,0.0,6.806916022506973,5.105185596847059,2.673068615521527,0.0,16.0,6.0,-0.05483113549895436,0.0
1759837107.4486122,2,-1.6570342919458185e-06,5.429766637058026,2.8430201865676814,0.0,7.031489192471128,5.273615427470567,2.7612582583104905,0.0,16.0,6.0,-0.05483113549895436,0.0
1759837107.4593732,2,-1.6892915019195608e-06,5.53546699786005,2.898364785990552,0.0,7.2117067463916875,5.408778555314679,2.832029498290279,0.0,16.0,6.0,-0.05483113549895436,0.0
1759837107.4701476,2,-1.7152638858813535e-06,5.620573253419193,2.942926333241306,0.0,7.356691322110681,5.517516956857789,2.8889647855492533,0.0,16.0,6.0,-0.05483113549895436,0.0
1759837107.4810152,2,-1.737483052399276e-06,5.69338097360257,2.9810483801091374,0.0,7.473611812046082,5.6052072999178275,2.9348793364448897,0.0,16.0,6.0,-0.05483113549895436,0.0
1759837107.491178,2,-1.7552483777448772e-06,5.7515943559851115,3.011528846822459,0.0,7.568212270445408,5.676157623982131,2.972028834914544,0.0,16.0,6.0,-0.05483113549895436,0.0
1759837107.502381,2,-1.7694709598314668e-06,5.798198884377761,3.0359309296120722,0.0,7.649487829384782,5.73711427623126,3.00394565966917,0.0,16.0,6.0,-0.05483113549895436,0.0
1759837107.5130544,2,-1.780893676685388e-06,5.835628820003987,3.055529205132979,0.0,7.714716669291374,5.78603589255341,3.029560955084108,0.0,16.000034046173095,6.000001891454061,-2.8798601758457227,0.0
1759837107.5239093,2,-1.7900887765658497e-06,5.865759304809295,3.0713054957654204,0.0,7.7671873797483135,5.825388914449873,3.0501661467586936,0.0,16.00003423664231,6.000001902035684,-3.1211442579440334,0.0
1759837107.5350497,2,-1.7975070309351039e-06,5.8900674258151,3.0840332027437216,0.0,7.80948872707612,5.85711491612098,3.066777840448223,0.0,16.000034296400493,6.000001905355583,3.1392812268708052,0.0
1759837107.5462697,2,-1.8035066790983655e-06,5.9097270608566355,3.0943269672864138,0.0,7.843676570704454,5.882755791710092,3.0802033699439724,0.0,16.000034318608083,6.000001906589338,3.1363092445000067,0.0
1759837107.5563984,2,-1.8086795996165707e-06,5.926677676412648,3.1032022920327096,0.0,7.871412655907897,5.903557849826476,3.091095300831559,0.0,16.000034327056927,6.000001907058718,3.136147108729011,0.0
1759837107.5664082,2,-1.8128363622376e-06,5.940298547813765,3.1103341661887227,0.0,7.895392800816812,5.921542953505515,3.100512277997096,0.0,16.000034330282226,6.000001907237901,3.136543820500304,0.0
1759837107.577688,2,-1.8161797953738345e-06,5.9512543027939735,3.116070588147494,0.0,7.914664949719298,5.9359970611618955,3.1080804301844536,0.0,16.000034331514076,6.000001907306338,3.1369609202145945,0.0
1759837107.5887842,2,-1.8188766281848675e-06,5.960091279128287,3.120697619802078,0.0,7.930197174087232,5.9476462261975716,3.114179918021512,0.0,16.000034331984594,6.000001907332478,3.1374891430860803,0.0
1759837107.5991054,2,-1.821059382959045e-06,5.967243725584776,3.1244426333576074,0.0,7.9427582476464185,5.9570670287465175,3.1191126381251975,0.0,16.000034332164315,6.000001907342462,3.1380417362209343,0.0
1759837107.6093524,2,-1.8228304224481645e-06,5.973047064222772,3.12748125545689,0.0,7.952941663885139,5.964704588801132,3.123111654751304,0.0,16.000034332232964,6.000001907346276,3.1384984605132527,0.0
1759837107.6207032,2,-1.824268984799102e-06,5.977760942442683,3.1299494372098144,0.0,7.961206628478553,5.970903310521987,3.126357297475557,0.0,16.000034332259187,6.000001907347732,3.13881273449703,0.0
1759837107.6312141,2,-1.825522124798209e-06,5.981867229072831,3.132099484635733,0.0,7.9683709585414,5.976276556574526,3.1291707222010734,0.0,16.000034332269202,6.000001907348289,3.1391326542773257,0.0
1759837107.6418543,2,-1.826532068187697e-06,5.985176609541427,3.1338322728209635,0.0,7.974144908612613,5.980607017923396,3.1314381461963032,0.0,16.000034332273028,6.000001907348501,3.139392864789702,0.0
1759837107.6530268,2,-1.8273475440500458e-06,5.98784875920799,3.135231407618345,0.0,7.978807067860832,5.984103636386959,3.133268971128736,0.0,16.00003433227449,6.000001907348582,3.139590861851749,0.0
1759837107.6643233,2,-1.8280076042362762e-06,5.990011643099448,3.1363638913834206,0.0,7.9825806997286755,5.986933859500601,3.134750872312636,0.0,16.000034332275046,6.000001907348613,3.1397619894152378,0.0
1759837107.6755064,2,-1.828543323792999e-06,5.991767087866074,3.1372830404447924,0.0,7.985643463448787,5.9892309316517425,3.1359536163379653,0.0,16.00003433227526,6.000001907348626,3.139918980756324,0.0
1759837107.6862073,2,-1.8289794804428666e-06,5.993196285099645,3.138031366635811,0.0,7.9881370158060525,5.991101095399495,3.1369328316720937,0.0,16.00003433227534,6.00000190734863,3.1400708592616997,0.0
1759837107.6963634,2,-1.8293571077750027e-06,5.994433693582524,3.138679272435637,0.0,7.990173399412931,5.992628382679831,3.137732517328668,0.0,16.000034332275373,6.000001907348632,3.140213519211475,0.0
1759837107.7065299,2,-1.8296625649858404e-06,5.9954346151569995,3.1392033539351964,0.0,7.991840266117796,5.9938785323607435,3.13838709409446,0.0,16.000034332275384,6.000001907348633,3.1403299309521593,0.0
1759837107.7185862,2,-1.829909701167194e-06,5.996244430499292,3.139627372409548,0.0,7.993293265977751,5.994968281952591,3.1389576855798205,0.0,16.000034332275387,6.000001907348633,3.1403827630475707,0.0
1759837107.7299123,2,-1.8301103697259997e-06,5.996901980829424,3.1399716650812612,0.0,7.994472366738495,5.995852607277169,3.1394207171829227,0.0,16.00003433227539,6.000001907348633,3.1404556658906664,0.0
1759837107.7410963,2,-1.8302737560078911e-06,5.997437364669504,3.140251991505333,0.0,7.9954318347331474,5.996572208072998,3.139797499234534,0.0,16.00003433227539,6.000001907348633,3.1405285119055915,0.0
1759837107.7523756,2,-1.830407110310508e-06,5.997874339780265,3.1404807912206727,0.0,7.996214482894317,5.997159194030602,3.1401048443273334,0.0,16.00003433227539,6.000001907348633,3.1405932555265625,0.0
1759837107.7635298,2,-1.8305162468755375e-06,5.998231958257178,3.1406680398847344,0.0,7.996854623613473,5.997639299436425,3.1403562269006216,0.0,16.00003433227539,6.000001907348633,3.1406547923333505,0.0
1759837107.7742693,2,-1.8306117557560727e-06,5.9985449215649345,3.1408319071484825,0.0,7.9973797841047,5.998033169695289,3.140562456861821,0.0,16.00003433227539,6.000001907348633,3.140717443189434,0.0
1759837107.785515,2,-1.8306893258075386e-06,5.9987991029536545,3.140964996260315,0.0,7.997840485198409,5.998378695419462,3.140743373686806,0.0,16.00003433227539,6.000001907348633,3.1407640473521123,0.0
1759837107.7966769,2,-1.8307524943351874e-06,5.999006093458079,3.141073376274014,0.0,7.998215389761591,5.998659873763638,3.140890598306347,0.0,16.00003433227539,6.000001907348633,3.140808170224094,0.0
1759837107.8078418,2,-1.8308040655345313e-06,5.999175081860426,3.1411618584264307,0.0,7.998521250271868,5.998889269082539,3.1410107094004234,0.0,16.00003433227539,6.000001907348633,3.1408489832184046,0.0
1759837107.8179996,2,-1.8308463255146497e-06,5.999313559278332,3.141234365059,0.0,7.998771711892013,5.999077115245397,3.1411090654098097,0.0,16.00003433227539,6.000001907348633,3.1409004390771926,0.0
1759837107.8291304,2,-1.8308809946790504e-06,5.999427163126552,3.1412938479162484,0.0,7.998977042698423,5.999231113307368,3.1411896985970853,0.0,16.00003433227539,6.000001907348633,3.140931417390025,0.0
1759837107.8398447,2,-1.8309113779559082e-06,5.9995267229870874,3.141345977356092,0.0,7.999145881241384,5.999357742179367,3.141256001311676,0.0,16.00003433227539,6.000001907348633,3.140965221643075,0.0
1759837107.8501701,2,-1.830936149312849e-06,5.999607893719718,3.1413884782676136,0.0,7.999294828425869,5.999469452536657,3.141314492711144,0.0,16.00003433227539,6.000001907348633,3.141000662791928,0.0
1759837107.8607757,2,-1.8309563863190471e-06,5.999674206300951,3.1414231994664554,0.0,7.999416332358789,5.999560580460999,3.141362207175179,0.0,16.00003433227539,6.000001907348633,3.1410284487624196,0.0
1759837107.872052,2,-1.8309729456404451e-06,5.999728467852022,3.1414516107583874,0.0,7.999515610477887,5.999635039029611,3.1414011935859842,0.0,16.00003433227539,6.000001907348633,3.1410462048918717,0.0
1759837107.882679,2,-1.8309865406524843e-06,5.9997730159601455,3.141474936101654,0.0,7.999596998021271,5.999696079670171,3.1414331543869105,0.0,16.00003433227539,6.000001907348633,3.1410713194447375,0.0
1759837107.8940516,2,-1.8309977185505455e-06,5.999809643674044,3.141494114334709,0.0,7.999663818827542,5.9997461952609346,3.1414593948458083,0.0,16.00003433227539,6.000001907348633,3.1410873089297784,0.0
1759837107.9047117,2,-1.83100694050131e-06,5.999839862143773,3.141509936694156,0.0,7.999718867607369,5.99978748183432,3.141481012442557,0.0,16.00003433227539,6.000001907348633,3.1411106954857715,0.0
1759837107.916782,2,-1.831015068660446e-06,5.999866496479291,3.141523882404644,0.0,7.99976424682763,5.99982151624005,3.1414988328136437,0.0,16.00003433227539,6.000001907348633,3.1411195039835498,0.0
1759837107.9274833,2,-1.8310217272360963e-06,5.999888315286597,3.141535306709548,0.0,7.999804358766028,5.99985160018548,3.1415145847287964,0.0,16.00003433227539,6.000001907348633,3.1411427734848036,0.0
1759837107.9384,2,-1.8310271937008812e-06,5.999906227787417,3.1415446856764215,0.0,7.999837244169862,5.999876264231495,3.141527498791583,0.0,16.00003433227539,6.000001907348633,3.141162551488428,0.0
1759837107.949648,2,-1.8310316906672088e-06,5.999920963437639,3.1415524012476137,0.0,7.999864260392598,5.999896526392911,3.1415381080332523,0.0,16.00003433227539,6.000001907348633,3.141177938702601,0.0
1759837107.960948,2,-1.8310353991192515e-06,5.999933115285838,3.1415587639427427,0.0,7.999886509323789,5.999913213086664,3.1415468451646493,0.0,16.00003433227539,6.000001907348633,3.1411924968589506,0.0
1759837107.9719205,2,-1.831038466244365e-06,5.999943165635245,3.1415640262952813,0.0,7.999904885751565,5.999926995403663,3.1415540615681117,0.0,16.00003433227539,6.000001907348633,3.141209335090119,0.0
1759837107.9830163,2,-1.8310411863832303e-06,5.999952078980811,3.1415686933137863,0.0,7.999920098271165,5.999938404790189,3.1415600355082294,0.0,16.00003433227539,6.000001907348633,3.141224213306902,0.0
1759837107.993211,2,-1.8310434217840848e-06,5.999959403937837,3.1415725286536977,0.0,7.999933599697578,5.999948530857182,3.1415653375038897,0.0,16.00003433227539,6.000001907348633,3.1412444337537284,0.0
1759837108.0044649,2,-1.831045260676381e-06,5.999965429616417,3.1415756836927597,0.0,7.999944695025792,5.999956852351027,3.141569694627369,0.0,16.00003433227539,6.000001907348633,3.1412549168262967,0.0
1759837108.0157473,2,-1.8310467771344026e-06,5.999970398743014,3.1415782855222987,0.0,7.999953835655848,5.999963707821664,3.141573284142981,0.0,16.00003433227539,6.000001907348633,3.141264977488502,0.0
1759837108.0271277,2,-1.8310480306702109e-06,5.99997450632663,3.1415804362488253,0.0,7.999961383916339,5.9999693690154565,3.1415762483367735,0.0,16.00003433227539,6.000001907348633,3.141274737153797,0.0
1759837108.0378602,2,-1.8310490703273145e-06,5.999977913072938,3.141582220017663,0.0,7.999967638017087,5.9999740595897135,3.1415787043154246,0.0,16.00003433227539,6.000001907348633,3.141288610428383,0.0
1759837108.049035,2,-1.831049994962397e-06,5.999980942915317,3.141583806439994,0.0,7.999972829181385,5.999977952961855,3.1415807428800724,0.0,16.00003433227539,6.000001907348633,3.1412988561946342,0.0
1759837108.060252,2,-1.8310507558421537e-06,5.999983436164575,3.1415851119027227,0.0,7.999977458098503,5.999981424648727,3.1415825606508556,0.0,16.00003433227539,6.000001907348633,3.141308471516691,0.0
1759837108.0709026,2,-1.8310513839744655e-06,5.999985494427272,3.1415861896069384,0.0,7.999981275108928,5.9999842874057485,3.1415840595867524,0.0,16.00003433227539,6.000001907348633,3.1413209109939118,0.0
1759837108.0822835,2,-1.8310519032727677e-06,5.999987196062905,3.1415870805815933,0.0,7.999984427228969,5.999986651495122,3.1415852974209093,0.0,16.00003433227539,6.000001907348633,3.141328519286539,0.0
1759837108.0933979,2,-1.8310523338178617e-06,5.999988606872204,3.1415878192798807,0.0,7.999987037705062,5.9999886093516475,3.141586322552069,0.0,16.00003433227539,6.000001907348633,3.1413374753309746,0.0
1759837108.1041641,2,-1.8310526918114408e-06,5.999989779944845,3.1415884334995003,0.0,7.999989205872252,5.999990235476587,3.1415871739889965,0.0,16.00003433227539,6.000001907348633,3.1413478607369765,0.0
1759837108.1149182,2,-1.8310529901865023e-06,5.9999907576596465,3.141588945429958,0.0,7.999991010962345,5.9999915892937805,3.1415878828459385,0.0,16.00003433227539,6.000001907348633,3.1413574529741197,0.0
1759837108.1249998,2,-1.8310532590583725e-06,5.99999163869845,3.1415894067409633,0.0,7.999992518646604,5.99999272005666,3.1415884749119285,0.0,16.00003433227539,6.000001907348633,3.141369149284703,0.0
1759837108.1358628,2,-1.8310534812712511e-06,5.999992366845164,3.141589787997828,0.0,7.999993869531203,5.999993733219827,3.1415890054028606,0.0,16.00003433227539,6.000001907348633,3.141375942599625,0.0
1759837108.1473951,2,-1.8310536652086215e-06,5.999992969570768,3.1415901035843308,0.0,7.999994987729943,5.9999945718686485,3.141589444518306,0.0,16.00003433227539,6.000001907348633,3.141379625543408,0.0
1759837108.1576502,2,-1.831053818099544e-06,5.999993470563436,3.1415903659035727,0.0,7.999995917189991,5.999995268963491,3.1415898095162693,0.0,16.00003433227539,6.000001907348633,3.1413891090247077,0.0
1759837108.1684206,2,-1.8310539453863502e-06,5.9999938876565855,3.141590584293114,0.0,7.999996690996563,5.999995849318259,3.1415901133892796,0.0,16.00003433227539,6.000001907348633,3.1413957699718367,0.0
1759837108.1790564,2,-1.83105405162524e-06,5.999994235779966,3.1415907665701557,0.0,7.99999733684788,5.99999633370661,3.1415903670143983,0.0,16.00003433227539,6.000001907348633,3.1414024732056287,0.0
1759837108.1903603,2,-1.8310541467911883e-06,5.999994547619554,3.1415909298490408,0.0,7.999997876667442,5.999996738571169,3.141590579000961,0.0,16.00003433227539,6.000001907348633,3.141406414402793,0.0
1759837108.2009523,2,-1.8310542256759522e-06,5.99999480610899,3.141591065193842,0.0,7.999998329399387,5.999997078120033,3.1415907567883097,0.0,16.00003433227539,6.000001907348633,3.1414131664412146,0.0
1759837108.2116067,2,-1.8310542912127798e-06,5.999995020859935,3.141591177637214,0.0,7.999998738833687,5.999997385195673,3.14159091757272,0.0,16.00003433227539,6.000001907348633,3.1414193451877903,0.0
1759837108.2230427,2,-1.831054345732247e-06,5.9999951995092164,3.1415912711777922,0.0,7.999999079323063,5.999997640562634,3.141591051282532,0.0,16.00003433227539,6.000001907348633,3.1414226026290386,0.0
1759837108.234382,2,-1.8310543912050584e-06,5.9999953485144335,3.1415913491967697,0.0,7.999999363217986,5.999997853483768,3.1415911627677633,0.0,16.00003433227539,6.000001907348633,3.14142659326623,0.0
1759837108.2455,2,-1.8310544292366933e-06,5.999995473136418,3.141591414448712,0.0,7.9999996005767295,5.999998031502776,3.141591255978287,0.0,16.00003433227539,6.000001907348633,3.1414315970960143,0.0
1759837108.2563858,2,-1.8310544611311461e-06,5.999995577648097,3.141591469170918,0.0,7.999999799566311,5.99999818074492,3.1415913341212818,0.0,16.00003433227539,6.000001907348633,3.1414372380452313,0.0
1759837108.2670238,2,-1.8310544879504854e-06,5.999995665529654,3.14159151518561,0.0,7.999999979359729,5.999998315589946,3.141591404725964,0.0,16.00003433227539,6.000001907348633,3.1414432222384434,0.0
1759837108.2779677,2,-1.831054512346272e-06,5.999995745469718,3.1415915570421453,0.0,8.000000129011362,5.999998427828639,3.141591463493999,0.0,16.00003433227539,6.000001907348633,3.1414478358933007,0.0
1759837108.2894218,2,-1.8310545326825465e-06,5.999995812107581,3.141591591933661,0.0,8.000000253787823,5.999998521410959,3.1415915124935814,0.0,16.00003433227539,6.000001907348633,3.141450905912187,0.0
1759837108.3001692,2,-1.8310545496929237e-06,5.999995867847152,3.141591621118842,0.0,8.00000035818046,5.999998599705414,3.1415915534884573,0.0,16.00003433227539,6.000001907348633,3.1414559874266814,0.0
1759837108.3104901,2,-1.8310545639626927e-06,5.999995914606302,3.141591645601885,0.0,8.000000445773045,5.999998665399835,3.1415915878859724,0.0,16.00003433227539,6.000001907348633,3.141461789827858,0.0
1759837108.3232858,2,-1.8310545759192067e-06,5.999995953785383,3.1415916661160113,0.0,8.000000519181643,5.9999987204562695,3.1415916167134506,0.0,16.00003433227539,6.000001907348633,3.1414611990108945,0.0
1759837108.3345244,2,-1.831054586729842e-06,5.999995989209651,3.1415916846641214,0.0,8.000000581003647,5.999998766822759,3.141591640990885,0.0,16.00003433227539,6.000001907348633,3.141465239988605,0.0
1759837108.3456964,2,-1.831054595752638e-06,5.99999601877553,3.1415917001447853,0.0,8.000000637346355,5.999998809079779,3.141591663116606,0.0,16.00003433227539,6.000001907348633,3.1414695648040833,0.0
1759837108.3571332,2,-1.8310546032987814e-06,5.999996043502717,3.141591713091915,0.0,8.000000684447267,5.999998844405453,3.1415916816130838,0.0,16.00003433227539,6.000001907348633,3.141473104935077,0.0
1759837108.3671734,2,-1.8310546096375212e-06,5.999996064273488,3.1415917239674687,0.0,8.000000723994278,5.999998874065703,3.1415916971431526,0.0,16.00003433227539,6.000001907348633,3.1414793354475297,0.0
1759837108.3774674,2,-1.8310546149717247e-06,5.999996081752596,3.1415917331195113,0.0,8.000000757259329,5.999998899014484,3.1415917102063022,0.0,16.00003433227539,6.000001907348633,3.1414841679474605,0.0
1759837108.3877375,2,-1.8310546194706506e-06,5.999996096494668,3.1415917408384444,0.0,8.00000078530309,5.999998920047299,3.141591721219057,0.0,16.00003433227539,6.000001907348633,3.141488308783636,0.0
1759837108.3981366,2,-1.8310546232727126e-06,5.9999961089532565,3.141591747361749,0.0,8.000000808992633,5.999998937814452,3.1415917305219154,0.0,16.00003433227539,6.000001907348633,3.141491689441107,0.0
1759837108.4093344,2,-1.831054626759868e-06,5.9999961203799606,3.1415917533447595,0.0,8.000000829025076,5.999998952838779,3.141591738388634,0.0,16.00003433227539,6.000001907348633,3.141493356519849,0.0
1759837108.4194314,2,-1.8310546296851147e-06,5.999996129965403,3.141591758363687,0.0,8.000000846032133,5.999998965594069,3.141591745067287,0.0,16.00003433227539,6.000001907348633,3.1414970785188654,0.0
1759837108.4305649,2,-1.8310546321408636e-06,5.9999961380123965,3.141591762577084,0.0,8.000000861685145,5.999998977333824,3.1415917512142073,0.0,16.00003433227539,6.000001907348633,3.141498773096904,0.0
1759837108.441153,2,-1.831054634208943e-06,5.999996144789075,3.1415917661253463,0.0,8.00000087486714,5.999998987220319,3.1415917563907634,0.0,16.00003433227539,6.000001907348633,3.1415014435833744,0.0
1759837108.45194,2,-1.8310546359539942e-06,5.999996150507256,3.1415917691193798,0.0,8.000000885990147,5.999998995562571,3.1415917607587556,0.0,16.00003433227539,6.000001907348633,3.141503733648719,0.0
1759837108.4621422,2,-1.8310546374310784e-06,5.999996155347363,3.1415917716536543,0.0,8.000000895405122,5.999999002623801,3.141591764456007,0.0,16.00003433227539,6.000001907348633,3.1415068407503277,0.0
1759837108.472428,2,-1.831054638683892e-06,5.9999961594525795,3.141591773803142,0.0,8.00000090339059,5.9999990086129005,3.141591767591892,0.0,16.00003433227539,6.000001907348633,3.141509531709927,0.0
1759837108.4827836,2,-1.8310546398338068e-06,5.999996163220618,3.141591775776083,0.0,8.000000910177553,5.99999901370312,3.1415917702571243,0.0,16.00003433227539,6.000001907348633,3.1415118668601743,0.0
1759837108.4937932,2,-1.831054640801266e-06,5.999996166390786,3.1415917774359796,0.0,8.000000916435269,5.999999018396406,3.1415917727145226,0.0,16.00003433227539,6.000001907348633,3.1415131614672447,0.0
1759837108.5046365,2,-1.8310546416173179e-06,5.999996169064823,3.1415917788361027,0.0,8.000000921711953,5.999999022353918,3.1415917747866704,0.0,16.00003433227539,6.000001907348633,3.141514816427698,0.0
1759837108.5183895,2,-1.8310546423043545e-06,5.999996171316103,3.141591780014871,0.0,8.000000926153028,5.999999025684723,3.141591776530676,0.0,16.00003433227539,6.000001907348633,3.1415129637514845,0.0
1759837108.5250134,2,-1.8310546428904831e-06,5.999996173236728,3.1415917810205087,0.0,8.000000929940569,5.9999990285253775,3.141591778018039,0.0,16.00003433227539,6.000001907348633,3.1415208119402926,0.0
1759837108.5352788,2,-1.8310546433885656e-06,5.999996174868844,3.1415917818750825,0.0,8.000000933158132,5.999999030938549,3.141591779281573,0.0,16.00003433227539,6.000001907348633,3.1415228610457273,0.0
1759837108.5459962,2,-1.8310546438124495e-06,5.999996176257826,3.141591782602352,0.0,8.00000093589552,5.999999032991588,3.1415917803565416,0.0,16.00003433227539,6.000001907348633,3.141523903298081,0.0
1759837108.5572822,2,-1.8310546442042679e-06,5.999996177541735,3.1415917832746056,0.0,8.000000938227537,5.999999034740601,3.141591781272323,0.0,16.00003433227539,6.000001907348633,3.141524421504826,0.0
1759837108.5676332,2,-1.831054644535565e-06,5.999996178627329,3.1415917838430216,0.0,8.000000940221689,5.999999036236215,3.1415917820554244,0.0,16.00003433227539,6.000001907348633,3.1415262462250073,0.0
1759837108.5777612,2,-1.8310546448163946e-06,5.9999961795475505,3.1415917843248486,0.0,8.000000942077637,5.999999037628176,3.1415917827842534,0.0,16.00003433227539,6.000001907348633,3.141528257801408,0.0
1759837108.5887015,2,-1.8310546450546682e-06,5.999996180328324,3.1415917847336607,0.0,8.00000094365216,5.999999038809069,3.1415917834025673,0.0,16.00003433227539,6.000001907348633,3.141529271241435,0.0
1759837108.6001847,2,-1.8310546452571298e-06,5.999996180991751,3.14159178508103,0.0,8.000000944989889,5.999999039812365,3.141591783927892,0.0,16.00003433227539,6.000001907348633,3.141529841756837,0.0
1759837108.611524,2,-1.831054645429606e-06,5.999996181556921,3.141591785376952,0.0,8.000000946129367,5.999999040666973,3.1415917843753633,0.0,16.00003433227539,6.000001907348633,3.141530813547945,0.0
1759837108.622752,2,-1.8310546455769036e-06,5.9999961820395855,3.1415917856296747,0.0,8.000000947102391,5.99999904139674,3.141591784757469,0.0,16.00003433227539,6.000001907348633,3.14153206326643,0.0
1759837108.634095,2,-1.8310546457138627e-06,5.999996182488372,3.141591785864659,0.0,8.000000947935023,5.999999042021213,3.141591785084442,0.0,16.00003433227539,6.000001907348633,3.1415332841302277,0.0
1759837108.6453197,2,-1.8310546458300574e-06,5.999996182869118,3.141591786064018,0.0,8.000000948713232,5.99999904260487,3.141591785390044,0.0,16.00003433227539,6.000001907348633,3.1415346566798323,0.0
1759837108.6562078,2,-1.831054645928915e-06,5.999996183193056,3.1415917862336307,0.0,8.000000949375119,5.999999043101284,3.1415917856499664,0.0,16.00003433227539,6.000001907348633,3.14153629416494,0.0
1759837108.6675305,2,-1.8310546460131558e-06,5.999996183469096,3.1415917863781653,0.0,8.000000949938963,5.999999043524167,3.1415917858713875,0.0,16.00003433227539,6.000001907348633,3.1415374898100925,0.0
1759837108.678789,2,-1.8310546460851143e-06,5.999996183704889,3.141591786501626,0.0,8.000000950420448,5.999999043885281,3.141591786060466,0.0,16.00003433227539,6.000001907348633,3.1415387260655603,0.0
1759837108.690128,2,-1.8310546461467135e-06,5.999996183906736,3.141591786607314,0.0,8.000000950832492,5.999999044194313,3.141591786222275,0.0,16.00003433227539,6.000001907348633,3.1415398972048063,0.0
1759837108.701483,2,-1.8310546462040913e-06,5.999996184094751,3.141591786705759,0.0,8.000000951185903,5.999999044459371,3.141591786361059,0.0,16.00003433227539,6.000001907348633,3.1415410550952974,0.0
1759837108.71271,2,-1.8310546462529136e-06,5.999996184254732,3.141591786789524,0.0,8.000000951516741,5.9999990447075,3.1415917864909786,0.0,16.00003433227539,6.000001907348633,3.14154229028615,0.0
1759837108.723773,2,-1.8310546462945622e-06,5.999996184391207,3.141591786860982,0.0,8.000000951798821,5.999999044919059,3.141591786601751,0.0,16.00003433227539,6.000001907348633,3.1415435858048184,0.0
1759837108.7348614,2,-1.8310546463301704e-06,5.9999961845078875,3.1415917869220764,0.0,8.000000952039862,5.999999045099841,3.141591786696407,0.0,16.00003433227539,6.000001907348633,3.1415447829444982,0.0
1759837108.7461216,2,-1.8310546463606744e-06,5.999996184607842,3.1415917869744128,0.0,8.000000952246245,5.9999990452546275,3.141591786777453,0.0,16.00003433227539,6.000001907348633,3.1415458051620906,0.0
1759837108.7564635,2,-1.8310546463869036e-06,5.99999618469379,3.141591787019415,0.0,8.000000952423612,5.9999990453876535,3.1415917868471053,0.0,16.00003433227539,6.000001907348633,3.1415473237204843,0.0
1759837108.7677727,2,-1.8310546464094684e-06,5.99999618476773,3.14159178705813,0.0,8.000000952576121,5.999999045502036,3.141591786906996,0.0,16.00003433227539,6.000001907348633,3.1415481205286824,0.0
1759837108.7791488,2,-1.8310546464289218e-06,5.999996184831475,3.1415917870915067,0.0,8.00000095271986,5.999999045609841,3.1415917869634424,0.0,16.00003433227539,6.000001907348633,3.1415488679182175,0.0
1759837108.7905123,2,-1.8310546464474188e-06,5.999996184892086,3.141591787123242,0.0,8.000000952842617,5.99999904570191,3.141591787011649,0.0,16.00003433227539,6.000001907348633,3.141549655987415,0.0
1759837108.8012094,2,-1.8310546464632687e-06,5.999996184944023,3.1415917871504364,0.0,8.000000952947808,5.999999045780802,3.141591787052957,0.0,16.00003433227539,6.000001907348633,3.1415507926659316,0.0
1759837108.8124263,2,-1.8310546464768685e-06,5.999996184988587,3.1415917871737693,0.0,8.000000953038064,5.999999045848494,3.1415917870884007,0.0,16.00003433227539,6.000001907348633,3.1415515797605558,0.0
1759837108.8230286,2,-1.8310546464885753e-06,5.999996185026948,3.141591787193855,0.0,8.000000953115759,5.9999990459067645,3.141591787118911,0.0,16.00003433227539,6.000001907348633,3.1415526235064526,0.0
1759837108.8338058,2,-1.8310546464986711e-06,5.999996185060031,3.1415917872111767,0.0,8.000000953182761,5.999999045957016,3.141591787145223,0.0,16.00003433227539,6.000001907348633,3.141553491525171,0.0
1759837108.8450556,2,-1.8310546465073892e-06,5.999996185088598,3.141591787226135,0.0,8.000000953245817,5.999999046004307,3.1415917871699843,0.0,16.00003433227539,6.000001907348633,3.141554082745568,0.0
1759837108.8557122,2,-1.8310546465156327e-06,5.999996185115611,3.1415917872402788,0.0,8.00000095329987,5.999999046044848,3.1415917871912113,0.0,16.00003433227539,6.000001907348633,3.1415549327743513,0.0
1759837108.8666544,2,-1.8310546465227114e-06,5.999996185138806,3.141591787252424,0.0,8.000000953346285,5.999999046079659,3.141591787209439,0.0,16.00003433227539,6.000001907348633,3.1415556088156773,0.0
1759837108.877373,2,-1.8310546465288054e-06,5.999996185158775,3.14159178726288,0.0,8.000000953386245,5.999999046109628,3.141591787225131,0.0,16.00003433227539,6.000001907348633,3.141556341410979,0.0
1759837108.8882267,2,-1.8310546465340616e-06,5.999996185175998,3.141591787271898,0.0,8.00000095342071,5.9999990461354775,3.141591787238666,0.0,16.00003433227539,6.000001907348633,3.1415569766079177,0.0
1759837108.899412,2,-1.8310546465386026e-06,5.999996185190878,3.141591787279689,0.0,8.000000953450485,5.999999046157809,3.1415917872503583,0.0,16.00003433227539,6.000001907348633,3.14155746236489,0.0
1759837108.9102771,2,-1.831054646542925e-06,5.999996185205042,3.1415917872871053,0.0,8.000000953476277,5.9999990461771535,3.141591787260487,0.0,16.00003433227539,6.000001907348633,3.1415580762355404,0.0
1759837108.9254835,2,-1.8310546465466096e-06,5.999996185217115,3.141591787293427,0.0,8.000000953500875,5.999999046195602,3.1415917872701464,0.0,16.00003433227539,6.000001907348633,3.141557214724365,0.0
1759837108.9368224,2,-1.8310546465497794e-06,5.999996185227502,3.1415917872988657,0.0,8.000000953522024,5.999999046211464,3.1415917872784513,0.0,16.00003433227539,6.000001907348633,3.141558044304997,0.0
1759837108.9479513,2,-1.8310546465525136e-06,5.999996185236461,3.1415917873035566,0.0,8.000000953540255,5.999999046225137,3.1415917872856105,0.0,16.00003433227539,6.000001907348633,3.1415589509110458,0.0
1759837108.9582732,2,-1.8310546465548804e-06,5.999996185244218,3.141591787307618,0.0,8.000000953556027,5.999999046236967,3.141591787291804,0.0,16.00003433227539,6.000001907348633,3.1415599826795226,0.0
1759837108.9690032,2,-1.831054646556932e-06,5.999996185250939,3.1415917873111376,0.0,8.000000953569689,5.999999046247214,3.1415917872971693,0.0,16.00003433227539,6.000001907348633,3.14156072207615,0.0
1759837108.9804404,2,-1.8310546465588778e-06,5.9999961852573165,3.1415917873144763,0.0,8.000000953581534,5.9999990462560975,3.1415917873018206,0.0,16.00003433227539,6.000001907348633,3.1415611548949602,0.0
1759837108.9912536,2,-1.8310546465605543e-06,5.99999618526281,3.1415917873173527,0.0,8.000000953592783,5.999999046264536,3.141591787306239,0.0,16.00003433227539,6.000001907348633,3.1415617454321296,0.0
1759837109.0019243,2,-1.8310546465620019e-06,5.999996185267554,3.1415917873198365,0.0,8.000000953602497,5.999999046271821,3.141591787310053,0.0,16.00003433227539,6.000001907348633,3.141562325892666,0.0
1759837109.0132985,2,-1.8310546465632531e-06,5.9999961852716535,3.141591787321983,0.0,8.000000953610888,5.9999990462781145,3.1415917873133488,0.0,16.00003433227539,6.000001907348633,3.1415626682612245,0.0
1759837109.024571,2,-1.8310546465643371e-06,5.999996185275205,3.141591787323843,0.0,8.000000953618157,5.999999046283566,3.1415917873162034,0.0,16.00003433227539,6.000001907348633,3.141563040154482,0.0
1759837109.0359128,2,-1.8310546465652782e-06,5.999996185278289,3.1415917873254577,0.0,8.000000953624467,5.9999990462882975,3.1415917873186805,0.0,16.00003433227539,6.000001907348633,3.141563401917285,0.0
1759837109.0464182,2,-1.8310546465660987e-06,5.999996185280978,3.1415917873268655,0.0,8.00000095362996,5.999999046292418,3.1415917873208383,0.0,16.00003433227539,6.000001907348633,3.14156395673589,0.0
1759837109.0578134,2,-1.8310546465668858e-06,5.999996185283557,3.1415917873282155,0.0,8.00000095363484,5.999999046296077,3.141591787322754,0.0,16.00003433227539,6.000001907348633,3.141564258443836,0.0
1759837109.0689027,2,-1.8310546465675666e-06,5.999996185285787,3.1415917873293835,0.0,8.000000953639432,5.9999990462995205,3.1415917873245576,0.0,16.00003433227539,6.000001907348633,3.1415646252453566,0.0
1759837109.0795908,2,-1.831054646568157e-06,5.999996185287722,3.1415917873303965,0.0,8.000000953643415,5.999999046302508,3.1415917873261217,0.0,16.00003433227539,6.000001907348633,3.141565065318863,0.0
1759837109.0903656,2,-1.8310546465686703e-06,5.999996185289404,3.141591787331277,0.0,8.000000953646877,5.9999990463051045,3.1415917873274815,0.0,16.00003433227539,6.000001907348633,3.141565449461913,0.0
1759837109.1015272,2,-1.8310546465691178e-06,5.99999618529087,3.141591787332045,0.0,8.000000953649895,5.9999990463073685,3.1415917873286667,0.0,16.00003433227539,6.000001907348633,3.1415657281356317,0.0
1759837109.1124816,2,-1.831054646569516e-06,5.999996185292176,3.1415917873327284,0.0,8.000000953652581,5.999999046309383,3.141591787329722,0.0,16.00003433227539,6.000001907348633,3.1415660435169066,0.0
1759837109.1238294,2,-1.83105464656989e-06,5.999996185293401,3.14159178733337,0.0,8.000000953654972,5.999999046311176,3.1415917873306607,0.0,16.000034298767552,6.000002128618956,3.141566279721884,2.3374370500184867e-06
1759837109.1346962,2,-1.8310546465702145e-06,5.9999961852944645,3.1415917873339265,0.0,8.000000953657182,5.999999046312833,3.141591787331529,0.0,16.000034295327023,6.000002241185012,3.141566607868132,2.3374370500184867e-06
1759837109.1460037,2,-1.8310546465704961e-06,5.999996185295387,3.1415917873344097,0.0,8.000000953659102,5.999999046314273,3.1415917873322825,0.0,16.000034293619493,6.000002284181422,3.141566846958078,2.3374370500184867e-06
1759837109.1568463,2,-1.8310546465707428e-06,5.999996185296196,3.141591787334833,0.0,8.000000953660777,5.999999046315528,3.1415917873329398,0.0,16.000034293382377,6.0000023006045655,3.1415671624403494,2.3374370500184867e-06
1759837109.1675956,2,-1.8310546465709622e-06,5.999996185296915,3.1415917873352095,0.0,8.000000953662266,5.999999046316645,3.1415917873335246,0.0,16.00003429337505,6.000002306877635,3.1415674735066332,2.3374370500184867e-06
1759837109.178346,2,-1.8310546465711576e-06,5.999996185297555,3.141591787335545,0.0,8.00000095366359,5.999999046317639,3.1415917873340455,0.0,16.00003429337141,6.0000023092737225,3.1415677586646744,2.3374370500184867e-06
1759837109.189579,2,-1.8310546465713317e-06,5.999996185298125,3.141591787335843,0.0,8.00000095366477,5.999999046318525,3.1415917873345087,0.0,16.000034292938977,6.000002310188951,3.141567952480562,2.3374370500184867e-06
1759837109.2008505,2,-1.8310546465714863e-06,5.999996185298632,3.1415917873361088,0.0,8.00000095366582,5.999999046319313,3.141591787334921,0.0,16.00003429273954,6.000002310538531,3.141568145214533,2.3374370500184867e-06
1759837109.2116249,2,-1.8310546465714863e-06,5.999996185298632,3.1415917873361088,0.0,8.00000095366582,5.999999046319313,3.141591787334921,0.0,16.0000342931072,6.000002310672037,3.1415684127419645,2.3374370500184867e-06
1759837109.2226505,2,-1.8310546465714863e-06,5.999996185298632,3.1415917873361088,0.0,8.00000095366582,5.999999046319313,3.141591787334921,0.0,16.00003429302328,6.000002310723028,3.1415686311625457,2.3374370500184867e-06
1759837109.2333405,2,-1.8310546465714863e-06,5.999996185298632,3.1415917873361088,0.0,8.00000095366582,5.999999046319313,3.141591787334921,0.0,16.000034293290955,6.000002310742488,3.141568882650496,2.3374370500184867e-06
1759837109.2440999,2,-1.8310546465714863e-06,5.999996185298632,3.1415917873361088,0.0,8.00000095366582,5.999999046319313,3.141591787334921,0.0,16.00003429333126,6.000002310749915,3.1415691066977054,2.3374370500184867e-06
1759837109.2553003,2,-1.8310546465714863e-06,5.999996185298632,3.1415917873361088,0.0,8.00000095366582,5.999999046319313,3.141591787334921,0.0,16.000034292952865,6.0000023107527545,3.1415692633408767,2.3374370500184867e-06
1759837109.2661545,2,-1.831054646571624e-06,5.999996185299083,3.141591787336345,0.0,8.00000095366582,5.999999046319313,3.141591787334921,0.0,16.00003429311742,6.000002310753824,3.1415694628263484,2.3374370500184867e-06
1759837109.2768583,2,-1.8310546465717465e-06,5.9999961852994845,3.1415917873365555,0.0,8.000000953666754,5.9999990463200135,3.1415917873352877,0.0,16.0000342933146,6.000002310754222,3.1415696716870993,2.3374370500184867e-06
1759837109.2870638,2,-1.8310546465718556e-06,5.9999961852998425,3.1415917873367425,0.0,8.000000953667588,5.999999046320637,3.1415917873356145,0.0,16.000034293834815,6.000002310754352,3.141569918608795,2.3374370500184867e-06
1759837109.2972314,2,-1.8310546465719528e-06,5.999996185300161,3.141591787336909,0.0,8.000000953668328,5.999999046321192,3.1415917873359054,0.0,16.000034294067376,6.000002310754393,3.1415701399417433,2.3374370500184867e-06
1759837109.308493,2,-1.8310546465720392e-06,5.999996185300445,3.1415917873370574,0.0,8.000000953668987,5.999999046321687,3.1415917873361643,0.0,16.000034293179578,6.00000231075443,3.1415702250621766,2.3374370500184867e-06
1759837109.3220956,2,-1.8310546465720392e-06,5.999996185300445,3.1415917873370574,0.0,8.000000953668987,5.999999046321687,3.1415917873361643,0.0,15.994307878695984,5.998722517101003,-3.131614884889445,0.04071202832413743
1759837109.3335242,2,-1.8310546465720392e-06,5.999996185300445,3.1415917873370574,0.0,8.000000953668987,5.999999046321687,3.1415917873361643,0.0,15.992309900593671,5.9987221803437,-3.131900917294186,0.04071202832413743
1759837109.3450387,2,-1.8310546465720392e-06,5.999996185300445,3.1415917873370574,0.0,8.000000953668987,5.999999046321687,3.1415917873361643,0.0,15.991545406283958,5.998722051628194,-3.131900749092346,0.04071202832413743
1759837109.3564703,2,-1.8310546465720392e-06,5.999996185300445,3.1415917873370574,0.0,8.000000953668987,5.999999046321687,3.1415917873361643,0.0,15.991254682098926,5.998722002318175,-3.1319005787992684,0.04071202832413743
1759837109.3677855,2,-1.8310546465720392e-06,5.999996185300445,3.1415917873370574,0.0,8.000000953668987,5.999999046321687,3.1415917873361643,0.0,15.991145448472164,5.998721983326352,-3.131900407127921,0.04071202832413743
1759837109.380062,2,-1.8310546465720392e-06,5.999996185300445,3.1415917873370574,0.0,8.000000953668987,5.999999046321687,3.1415917873361643,0.0,15.991088772397417,5.998721976353984,-3.1319003215078536,0.04071202832413743
1759837109.3913915,2,-1.8310546465720392e-06,5.999996185300445,3.1415917873370574,0.0,8.000000953668987,5.999999046321687,3.1415917873361643,0.0,15.991081854354602,5.998721973239485,-3.1319001504212687,0.04071202832413743
1759837109.4021175,2,-1.8310546465720392e-06,5.999996185300445,3.1415917873370574,0.0,8.000000953668987,5.999999046321687,3.1415917873361643,0.0,15.991088595898143,5.998721971701768,-3.1318999442713165,0.04071202832413743
1759837109.4127388,2,-1.8310546465720392e-06,5.999996185300445,3.1415917873370574,0.0,8.000000953668987,5.999999046321687,3.1415917873361643,0.0,15.991092798693066,5.998721970957645,-3.131899757659625,0.04071202832413743
1759837109.423972,2,-1.8310546465720392e-06,5.999996185300445,3.1415917873370574,0.0,8.000000953668987,5.999999046321687,3.1415917873361643,0.0,15.99108489049365,5.998721970806716,-3.1318996387939078,0.04071202832413743
1759837109.4342563,2,-1.8310546465720392e-06,5.999996185300445,3.1415917873370574,0.0,8.000000953668987,5.999999046321687,3.1415917873361643,0.0,15.991096622354357,5.998721970311567,-3.1318994648814606,0.04071202832413743
1759837109.4455035,2,-1.8310546465720392e-06,5.999996185300445,3.1415917873370574,0.0,8.000000953668987,5.999999046321687,3.1415917873361643,0.0,15.991086132452029,5.998721970389366,-3.1318993741467414,0.04071202832413743
1759837109.4558058,2,-1.8310546465720392e-06,5.999996185300445,3.1415917873370574,0.0,8.000000953668987,5.999999046321687,3.1415917873361643,0.0,15.99109681884784,5.998721970005104,-3.1318992276007838,0.04071202832413743
1759837109.4671385,2,-1.8310546465720392e-06,5.999996185300445,3.1415917873370574,0.0,8.000000953668987,5.999999046321687,3.1415917873361643,0.0,15.991084876654298,5.998721970156468,-3.131899157993946,0.04071202832413743
1759837109.4782515,2,-1.8310546465720392e-06,5.999996185300445,3.1415917873370574,0.0,8.000000953668987,5.999999046321687,3.1415917873361643,0.0,15.991083733582231,5.9987219700837615,-3.1318990730570264,0.04071202832413743
1759837109.4890308,2,-1.8310546465720392e-06,5.999996185300445,3.1415917873370574,0.0,8.000000953668987,5.999999046321687,3.1415917873361643,0.0,15.991088483929522,5.998721969875208,-3.1318989678272016,0.04071202832413743
1759837109.5002613,2,-1.8310546465720392e-06,5.999996185300445,3.1415917873370574,0.0,8.000000953668987,5.999999046321687,3.1415917873361643,0.0,15.991083283752037,5.998721969893307,-3.13189889276071,0.04071202832413743
1759837109.5114112,2,-1.8310546465720392e-06,5.999996185300445,3.1415917873370574,0.0,8.000000953668987,5.999999046321687,3.1415917873361643,0.0,15.991082550680236,5.998721969819627,-3.1318988126422806,0.04071202832413743
1759837109.5288997,2,-1.8310546465720392e-06,5.999996185300445,3.1415917873370574,0.0,8.000000953668987,5.999999046321687,3.1415917873361643,0.0,15.850933475342499,5.968887139426594,-3.1319009543530965,0.9900642769315935
1759837109.5401874,2,-1.8310546465720392e-06,5.999996185300445,3.1415917873370574,0.0,8.000000953668987,5.999999046321687,3.1415917873361643,0.0,15.803372667376042,5.968883125488529,-3.13865891753524,0.9900642769315935
1759837109.551156,2,-1.8310546465720392e-06,5.999996185300445,3.1415917873370574,0.0,8.000000953668987,5.999999046321687,3.1415917873361643,0.0,15.785326680394652,5.96888160334661,-3.1386598568979966,0.9900642769315935
1759837109.5615647,2,-1.8310546465720392e-06,5.999996185300445,3.1415917873370574,0.0,8.000000953668987,5.999999046321687,3.1415917873361643,0.0,15.778645511186207,5.968881025797619,-3.1386604843898134,0.9900642769315935
1759837109.5728328,2,-1.8310546465720392e-06,5.999996185300445,3.1415917873370574,0.0,8.000000953668987,5.999999046321687,3.1415917873361643,0.0,15.775768486610115,5.968880820659922,-3.1386609658132993,0.9900642769315935
1759837109.584091,2,-1.8310546465720392e-06,5.999996185300445,3.1415917873370574,0.0,8.000000953668987,5.999999046321687,3.1415917873361643,0.0,15.774673343236673,5.968880747142865,-3.1386612981302644,0.9900642769315935
1759837109.5947556,2,-1.8310546465720392e-06,5.999996185300445,3.1415917873370574,0.0,8.000000953668987,5.999999046321687,3.1415917873361643,0.0,15.774479449325586,5.968880715816212,-3.138661489222031,0.9900642769315935
1759837109.6062016,2,-1.8310546465720392e-06,5.999996185300445,3.1415917873370574,0.0,8.000000953668987,5.999999046321687,3.1415917873361643,0.0,15.77410992175994,5.968880714080784,-3.138661646821303,0.9900642769315935
1759837109.6169193,2,-1.8310546465720392e-06,5.999996185300445,3.1415917873370574,0.0,8.000000953668987,5.999999046321687,3.1415917873361643,0.0,15.774244222609838,5.968880706787722,-3.138661708655496,0.9900642769315935
1759837109.6277268,2,-1.8310546465720392e-06,5.999996185300445,3.1415917873370574,0.0,8.000000953668987,5.999999046321687,3.1415917873361643,0.0,15.77426152934709,5.968880705261908,-3.1386617381669435,0.9900642769315935
1759837109.6389182,2,-1.8310546465720392e-06,5.999996185300445,3.1415917873370574,0.0,8.000000953668987,5.999999046321687,3.1415917873361643,0.0,15.774122977220522,5.968880708872712,-3.138661760096296,0.9900642769315935
1759837109.6491416,2,-1.8310546465720392e-06,5.999996185300445,3.1415917873370574,0.0,8.000000953668987,5.999999046321687,3.1415917873361643,0.0,15.774436118278595,5.968880699546664,-3.1386617168369,0.9900642769315935
1759837109.6608589,2,-1.8310546465720392e-06,5.999996185300445,3.1415917873370574,0.0,8.000000953668987,5.999999046321687,3.1415917873361643,0.0,15.773990765382116,5.968880711484042,-3.1386617315650174,0.9900642769315935
1759837109.6720693,2,-1.8310546465720392e-06,5.999996185300445,3.1415917873370574,0.0,8.000000953668987,5.999999046321687,3.1415917873361643,0.0,15.774012343144099,5.968880710381993,-3.1386617063637967,0.9900642769315935
1759837109.6833177,2,-1.8310546465720392e-06,5.999996185300445,3.1415917873370574,0.0,8.000000953668987,5.999999046321687,3.1415917873361643,0.0,15.774006250012587,5.96888070971651,-3.1386616707297392,0.9900642769315935
1759837109.693944,2,-1.8310546465720392e-06,5.999996185300445,3.1415917873370574,0.0,8.000000953668987,5.999999046321687,3.1415917873361643,0.0,15.774239159470527,5.968880702010055,-3.1386616043813707,0.9900642769315935
1759837109.705354,2,-1.8310546465720392e-06,5.999996185300445,3.1415917873370574,0.0,8.000000953668987,5.999999046321687,3.1415917873361643,0.0,15.774031757583787,5.968880706471069,-3.138661569502979,0.9900642769315935
1759837109.716486,2,-1.8310546465720392e-06,5.999996185300445,3.1415917873370574,0.0,8.000000953668987,5.999999046321687,3.1415917873361643,0.0,15.774057668256424,5.968880704524296,-3.1386615201104586,0.9900642769315935
1759837109.7338617,2,-1.8310546465720392e-06,5.999996185300445,3.1415917873370574,0.0,8.000000953668987,5.999999046321687,3.1415917873361643,0.0,15.741473925664556,5.989660384135925,-3.138661678318007,0.3286793905535908
1759837109.7432606,2,-1.8310546465720392e-06,5.999996185300445,3.1415917873370574,0.0,8.000000953668987,5.999999046321687,3.1415917873361643,0.0,15.727503009316099,5.989661124034315,-3.1360218054533755,0.3286793905535908
1759837109.7534661,2,-1.8310546465720392e-06,5.999996185300445,3.1415917873370574,0.0,8.000000953668987,5.999999046321687,3.1415917873361643,0.0,15.722065334410596,5.9896614087450795,-3.1360216830084484,0.3286793905535908
1759837109.7645621,2,-1.8310546465720392e-06,5.999996185300445,3.1415917873370574,0.0,8.000000953668987,5.999999046321687,3.1415917873361643,0.0,15.719876531229128,5.98966152013258,-3.1360216137720043,0.3286793905535908
1759837109.7767372,2,-1.8310546465720392e-06,5.999996185300445,3.1415917873370574,0.0,8.000000953668987,5.999999046321687,3.1415917873361643,0.0,15.718905010110525,5.989661566125221,-3.13602158559089,0.3286793905535908
1759837109.788012,2,-1.8310546465720392e-06,5.999996185300445,3.1415917873370574,0.0,8.000000953668987,5.999999046321687,3.1415917873361643,0.0,15.718646946191962,5.989661580374642,-3.136021527152537,0.3286793905535908
1759837109.7993238,2,-1.8310546465720392e-06,5.999996185300445,3.1415917873370574,0.0,8.000000953668987,5.999999046321687,3.1415917873361643,0.0,15.718543735409412,5.989661585640028,-3.136021471937233,0.3286793905535908
1759837109.8100014,2,-1.8310546465720392e-06,5.999996185300445,3.1415917873370574,0.0,8.000000953668987,5.999999046321687,3.1415917873361643,0.0,15.718583932288455,5.989661585187633,-3.1360214038188508,0.3286793905535908
1759837109.8211474,2,-1.8310546465720392e-06,5.999996185300445,3.1415917873370574,0.0,8.000000953668987,5.999999046321687,3.1415917873361643,0.0,15.718540469767717,5.989661586309363,-3.136021355738918,0.3286793905535908
1759837109.8319764,2,-1.8310546465720392e-06,5.999996185300445,3.1415917873370574,0.0,8.000000953668987,5.999999046321687,3.1415917873361643,0.0,15.718563678611504,5.989661585416314,3.1415667616587566,0.3286793905535908
1759837109.8425543,2,-1.8310546465720392e-06,5.999996185300445,3.1415917873370574,0.0,8.000000953668987,5.999999046321687,3.1415917873361643,0.0,15.718604062455485,5.989661583968186,3.141566815021589,0.3286793905535908
1759837109.8527498,2,-1.8310546465720392e-06,5.999996185300445,3.1415917873370574,0.0,8.000000953668987,5.999999046321687,3.1415917873361643,0.0,15.718667499180587,5.989661581868106,3.1415668712199114,0.3286793905535908
1759837109.8638728,2,-1.8310546465720392e-06,5.999996185300445,3.1415917873370574,0.0,8.000000953668987,5.999999046321687,3.1415917873361643,0.0,15.718575294025142,5.989661583955836,3.14156689923162,0.3286793905535908
1759837109.8757582,2,-1.8310546465720392e-06,5.999996185300445,3.1415917873370574,0.0,8.000000953668987,5.999999046321687,3.1415917873361643,0.0,15.718444351921837,5.989661587174925,3.1415669109037587,0.3286793905535908
1759837109.8869522,2,-1.8310546465720392e-06,5.999996185300445,3.1415917873370574,0.0,8.000000953668987,5.999999046321687,3.1415917873361643,0.0,15.71848113988655,5.989661585967023,3.141566943212588,0.3286793905535908
1759837109.8977325,2,-1.8310546465720392e-06,5.999996185300445,3.1415917873370574,0.0,8.000000953668987,5.999999046321687,3.1415917873361643,0.0,15.718547124146982,5.989661583931313,3.1415669848788,0.3286793905535908
1759837109.909041,2,-1.8310546465720392e-06,5.999996185300445,3.1415917873370574,0.0,8.000000953668987,5.999999046321687,3.1415917873361643,0.0,15.718506028403294,5.9896615847188635,3.141567013225341,0.3286793905535908
1759837109.9202414,2,-1.8310546465720392e-06,5.999996185300445,3.1415917873370574,0.0,8.000000953668987,5.999999046321687,3.1415917873361643,0.0,15.718503890670648,5.989661584504101,3.141567043443505,0.3286793905535908
1759837109.933683,2,-1.8310546465720392e-06,5.999996185300445,3.1415917873370574,0.0,8.000000953668987,5.999999046321687,3.1415917873361643,0.0,15.689452351249589,5.992445213651818,3.1415670337070143,0.24000647089169894
1759837109.944978,2,-1.8310546465720392e-06,5.999996185300445,3.1415917873370574,0.0,8.000000953668987,5.999999046321687,3.1415917873361643,0.0,15.678213700582575,5.992444418750772,3.1415670727654703,0.24000647089169894
1759837109.9551868,2,-1.8310546465720392e-06,5.999996185300445,3.1415917873370574,0.0,8.000000953668987,5.999999046321687,3.1415917873361643,0.0,15.674020498182028,5.9924441123373,3.141567129262235,0.24000647089169894
1759837109.9668572,2,-1.8310546465720392e-06,5.999996185300445,3.1415917873370574,0.0,8.000000953668987,5.999999046321687,3.1415917873361643,0.0,15.67228485485561,5.992443998654873,3.141567153392373,0.24000647089169894
1759837109.978116,2,-1.8310546465720392e-06,5.999996185300445,3.1415917873370574,0.0,8.000000953668987,5.999999046321687,3.1415917873361643,0.0,15.671659623190044,5.9924439541465455,3.141567182878969,0.24000647089169894
1759837109.989108,2,-1.8310546465720392e-06,5.999996185300445,3.1415917873370574,0.0,8.000000953668987,5.999999046321687,3.1415917873361643,0.0,15.67144526392936,5.992443936391306,3.141567215182775,0.24000647089169894
1759837109.9997394,2,-1.8310546465720392e-06,5.999996185300445,3.1415917873370574,0.0,8.000000953668987,5.999999046321687,3.1415917873361643,0.0,15.67139645557569,5.9924439286277265,3.1415672499741163,0.24000647089169894
1759837110.0107555,2,-1.8310546465720392e-06,5.999996185300445,3.1415917873370574,0.0,8.000000953668987,5.999999046321687,3.1415917873361643,0.0,15.6713425355631,5.992443926467195,3.1415672753635633,0.24000647089169894
1759837110.0209217,2,-1.8310546465720392e-06,5.999996185300445,3.1415917873370574,0.0,8.000000953668987,5.999999046321687,3.1415917873361643,0.0,15.671399859846392,5.992443923517027,3.1415673103104425,0.24000647089169894
1759837110.0326557,2,-1.8310546465720392e-06,5.999996185300445,3.1415917873370574,0.0,8.000000953668987,5.999999046321687,3.1415917873361643,0.0,15.671278025039259,5.992443926018129,3.1415673203207355,0.24000647089169894
1759837110.0427969,2,-1.8310546465720392e-06,5.999996185300445,3.1415917873370574,0.0,8.000000953668987,5.999999046321687,3.1415917873361643,0.0,15.671377514176234,5.992443923126621,3.1415673522895773,0.24000647089169894
1759837110.0540137,2,-1.8310546465720392e-06,5.999996185300445,3.1415917873370574,0.0,8.000000953668987,5.999999046321687,3.1415917873361643,0.0,15.671316897519066,5.992443924472726,3.1415673678526055,0.24000647089169894
1759837110.066015,2,-1.8310546465720392e-06,5.999996185300445,3.1415917873370574,0.0,8.000000953668987,5.999999046321687,3.1415917873361643,0.0,15.671221834951131,5.9924439267877485,3.1415673742530785,0.24000647089169894
1759837110.0773644,2,-1.8310546465720392e-06,5.999996185300445,3.1415917873370574,0.0,8.000000953668987,5.999999046321687,3.1415917873361643,0.0,15.671245281048725,5.992443926081517,3.1415673916710354,0.24000647089169894
1759837110.0885174,2,-1.8310546465720392e-06,5.999996185300445,3.1415917873370574,0.0,8.000000953668987,5.999999046321687,3.1415917873361643,0.0,15.671272246817395,5.992443925272315,3.1415674120975403,0.24000647089169894
1759837110.0989175,2,-1.8310546465720392e-06,5.999996185300445,3.1415917873370574,0.0,8.000000953668987,5.999999046321687,3.1415917873361643,0.0,15.671351570936148,5.99244392310505,3.141567439598015,0.24000647089169894
1759837110.1102638,2,-1.8310546465720392e-06,5.999996185300445,3.1415917873370574,0.0,8.000000953668987,5.999999046321687,3.1415917873361643,0.0,15.671295120206855,5.99244392442028,3.1415674540639458,0.24000647089169894
1759837110.121343,2,-1.8310546465720392e-06,5.999996185300445,3.1415917873370574,0.0,8.000000953668987,5.999999046321687,3.1415917873361643,0.0,15.671298059572148,5.992443924235624,3.1415674709159926,0.24000647089169894
1759837110.1381164,2,-1.8310546465720392e-06,5.999996185300445,3.1415917873370574,0.0,8.000000953668987,5.999999046321687,3.1415917873361643,0.0,15.674715103262221,5.999983803378456,3.141567434469305,0.0
1759837110.1483428,2,-1.8310546465720392e-06,5.999996185300445,3.1415917873370574,0.0,8.000000953668987,5.999999046321687,3.1415917873361643,0.0,15.675103482141106,5.99998379358766,3.1415674731369734,0.0
1759837110.1586118,2,-1.8310546465720392e-06,5.999996185300445,3.1415917873370574,0.0,8.000000953668987,5.999999046321687,3.1415917873361643,0.0,15.675251829672327,5.999983789847912,3.1415675079365517,0.0
1759837110.1693203,2,-1.8310546465720392e-06,5.999996185300445,3.1415917873370574,0.0,8.000000953668987,5.999999046321687,3.1415917873361643,0.0,15.675308493387107,5.999983788419455,3.141567532101636,0.0
1759837110.1805718,2,-1.8310546465720392e-06,5.999996185300445,3.1415917873370574,0.0,8.000000953668987,5.999999046321687,3.1415917873361643,0.0,15.675330137000223,5.999983787873834,3.1415675477716043,0.0
1759837110.191264,2,-1.8310546465720392e-06,5.999996185300445,3.1415917873370574,0.0,8.000000953668987,5.999999046321687,3.1415917873361643,0.0,15.675338404124796,5.999983787665425,3.1415675664537037,0.0
1759837110.2013986,2,-1.8310546465720392e-06,5.999996185300445,3.1415917873370574,0.0,8.000000953668987,5.999999046321687,3.1415917873361643,0.0,15.675341561885393,5.99998378758582,3.1415675873187805,0.0
1759837110.2116778,2,-1.8310546465720392e-06,5.999996185300445,3.1415917873370574,0.0,8.000000953668987,5.999999046321687,3.1415917873361643,0.0,15.675342768042611,5.999983787555413,3.141567604002775,0.0
1759837110.2228394,2,-1.8310546465720392e-06,5.999996185300445,3.1415917873370574,0.0,8.000000953668987,5.999999046321687,3.1415917873361643,0.0,15.675343228753674,5.999983787543799,3.14156761211483,0.0
1759837110.2329276,2,-1.8310546465720392e-06,5.999996185300445,3.1415917873370574,0.0,8.000000953668987,5.999999046321687,3.1415917873361643,0.0,15.67534340472964,5.999983787539363,3.1415676278375564,0.0
1759837110.243645,2,-1.8310546465720392e-06,5.999996185300445,3.1415917873370574,0.0,8.000000953668987,5.999999046321687,3.1415917873361643,0.0,15.675343471946478,5.999983787537668,3.1415676377536332,0.0
1759837110.2548332,2,-1.8310546465720392e-06,5.999996185300445,3.1415917873370574,0.0,8.000000953668987,5.999999046321687,3.1415917873361643,0.0,15.675343497621027,5.999983787537021,3.141567644128461,0.0
1759837110.2657528,2,-1.8310546465720392e-06,5.999996185300445,3.1415917873370574,0.0,8.000000953668987,5.999999046321687,3.1415917873361643,0.0,15.675343507427831,5.999983787536774,3.1415676529574217,0.0
1759837110.276944,2,-1.8310546465720392e-06,5.999996185300445,3.1415917873370574,0.0,8.000000953668987,5.999999046321687,3.1415917873361643,0.0,15.675343511173697,5.99998378753668,3.141567660386727,0.0
1759837110.2883363,2,-1.8310546465720392e-06,5.999996185300445,3.1415917873370574,0.0,8.000000953668987,5.999999046321687,3.1415917873361643,0.0,15.67534351260449,5.999983787536643,3.1415676671135557,0.0
1759837110.2985773,2,-1.8310546465720392e-06,5.999996185300445,3.1415917873370574,0.0,8.000000953668987,5.999999046321687,3.1415917873361643,0.0,15.675343513151004,5.99998378753663,3.1415676809729263,0.0
1759837110.3099663,2,-1.8310546465720392e-06,5.999996185300445,3.1415917873370574,0.0,8.000000953668987,5.999999046321687,3.1415917873361643,0.0,15.675343513359755,5.999983787536625,3.141567687153959,0.0
1759837110.3218246,2,-1.8310546465720392e-06,5.999996185300445,3.1415917873370574,0.0,8.000000953668987,5.999999046321687,3.1415917873361643,0.0,15.67534351343949,5.999983787536623,3.1415676911903887,0.0
1759837110.3374717,2,-1.8310546465720392e-06,5.999996185300445,3.1415917873370574,0.0,8.000000953668987,5.999999046321687,3.1415917873361643,0.0,15.675343513469945,5.999983787536622,3.1415676779537467,0.0
1759837110.3470862,2,-1.8310546465720392e-06,5.999996185300445,3.1415917873370574,0.0,8.000000953668987,5.999999046321687,3.1415917873361643,0.0,15.675343513481579,5.999983787536621,3.1415677005196425,0.0
1759837110.3584619,2,-1.8310546465720392e-06,5.999996185300445,3.1415917873370574,0.0,8.000000953668987,5.999999046321687,3.1415917873361643,0.0,15.675343513486023,5.999983787536621,3.141567712115151,0.0
1759837110.3697994,2,-1.8310546465720392e-06,5.999996185300445,3.1415917873370574,0.0,8.000000953668987,5.999999046321687,3.1415917873361643,0.0,15.67534351348772,5.999983787536621,3.1415677220874336,0.0
1759837110.3800366,2,-1.8310546465720392e-06,5.999996185300445,3.1415917873370574,0.0,8.000000953668987,5.999999046321687,3.1415917873361643,0.0,15.675343513488368,5.999983787536621,3.141567735860546,0.0
1759837110.3915231,2,-1.8310546465720392e-06,5.999996185300445,3.1415917873370574,0.0,8.000000953668987,5.999999046321687,3.1415917873361643,0.0,15.675343513488617,5.999983787536621,3.141567742340648,0.0
1759837110.402864,2,-1.8310546465720392e-06,5.999996185300445,3.1415917873370574,0.0,8.000000953668987,5.999999046321687,3.1415917873361643,0.0,15.675343513488711,5.999983787536621,3.141567749079794,0.0
1759837110.41298,2,-1.8310546465720392e-06,5.999996185300445,3.1415917873370574,0.0,8.000000953668987,5.999999046321687,3.1415917873361643,0.0,15.675343513488746,5.999983787536621,3.141567760450842,0.0
1759837110.4242656,2,-1.8310546465720392e-06,5.999996185300445,3.1415917873370574,0.0,8.000000953668987,5.999999046321687,3.1415917873361643,0.0,15.67534351348876,5.999983787536621,3.1415677658683663,0.0
1759837110.4353375,2,-1.8310546465720392e-06,5.999996185300445,3.1415917873370574,0.0,8.000000953668987,5.999999046321687,3.1415917873361643,0.0,15.675343513488766,5.999983787536621,3.1415677718434907,0.0
1759837110.4464257,2,-1.8310546465720392e-06,5.999996185300445,3.1415917873370574,0.0,8.000000953668987,5.999999046321687,3.1415917873361643,0.0,15.675343513488768,5.999983787536621,3.1415677776530497,0.0
1759837110.4576178,2,-1.8310546465720392e-06,5.999996185300445,3.1415917873370574,0.0,8.000000953668987,5.999999046321687,3.1415917873361643,0.0,15.67534351348877,5.999983787536621,3.1415677829633104,0.0
1759837110.469058,2,-1.8310546465720392e-06,5.999996185300445,3.1415917873370574,0.0,8.000000953668987,5.999999046321687,3.1415917873361643,0.0,15.67534351348877,5.999983787536621,3.1415677874237,0.0
1759837110.4792433,2,-1.8310546465720392e-06,5.999996185300445,3.1415917873370574,0.0,8.000000953668987,5.999999046321687,3.1415917873361643,0.0,15.67534351348877,5.999983787536621,3.141567795992456,0.0
1759837110.490554,2,-1.8310546465720392e-06,5.999996185300445,3.1415917873370574,0.0,8.000000953668987,5.999999046321687,3.1415917873361643,0.0,15.67534351348877,5.999983787536621,3.141567800088353,0.0
1759837110.5017328,2,-1.8310546465720392e-06,5.999996185300445,3.1415917873370574,0.0,8.000000953668987,5.999999046321687,3.1415917873361643,0.0,15.67534351348877,5.999983787536621,3.141567804514601,0.0
1759837110.5120163,2,-1.8310546465720392e-06,5.999996185300445,3.1415917873370574,0.0,8.000000953668987,5.999999046321687,3.1415917873361643,0.0,15.67534351348877,5.999983787536621,3.141567811516852,0.0
