timestamp,vehicle_id,x,y,theta,velocity,gps_available,dt,gps_x,gps_y,gps_theta,gps_velocity,control_steering,control_acceleration
1759837107.3195221,2,16.0,6.0,-0.05483113549895435,0.0,False,0.01,nan,nan,nan,nan,0.0,0.0
1759837107.3295646,2,16.0,6.0,-0.05483113549895435,0.0,False,0.010042428970336914,nan,nan,nan,nan,0.0,0.0
1759837107.3401825,2,16.0,6.0,-0.05483113549895435,0.0,False,0.010617971420288086,nan,nan,nan,nan,0.0,0.0
1759837107.3516383,2,16.0,6.0,-0.05483113549895435,0.0,False,0.011455774307250977,nan,nan,nan,nan,0.0,0.0
1759837107.36241,2,16.0,6.0,-0.05483113549895435,0.0,False,0.010771751403808594,nan,nan,nan,nan,0.0,0.0
1759837107.3727317,2,16.0,6.0,-0.05483113549895435,0.0,False,0.010321617126464844,nan,nan,nan,nan,0.0,0.0
1759837107.3840759,2,16.0,6.0,-0.05483113549895435,0.0,False,0.011344194412231445,nan,nan,nan,nan,0.0,0.0
1759837107.3948417,2,16.0,6.0,-0.05483113549895435,0.0,False,0.010765790939331055,nan,nan,nan,nan,0.0,0.0
1759837107.4056969,2,16.0,6.0,-0.05483113549895435,0.0,False,0.01085519790649414,nan,nan,nan,nan,0.0,0.0
1759837107.4171956,2,16.0,6.0,-0.05483113549895435,0.0,False,0.011498689651489258,nan,nan,nan,nan,0.0,0.0
1759837107.4274294,2,16.0,6.0,-0.05483113549895435,0.0,False,0.010233879089355469,nan,nan,nan,nan,0.0,0.0
1759837107.4374435,2,16.0,6.0,-0.05483113549895435,0.0,False,0.010014057159423828,nan,nan,nan,nan,0.0,0.0
1759837107.4486122,2,16.0,6.0,-0.05483113549895435,0.0,False,0.011168718338012695,nan,nan,nan,nan,0.0,0.0
1759837107.4593732,2,16.0,6.0,-0.05483113549895435,0.0,False,0.010761022567749023,nan,nan,nan,nan,0.0,0.0
1759837107.4701476,2,16.0,6.0,-0.05483113549895435,0.0,False,0.010774374008178711,nan,nan,nan,nan,0.0,0.0
1759837107.4810152,2,16.0,6.0,-0.05483113549895435,0.0,False,0.010867595672607422,nan,nan,nan,nan,0.0,0.0
1759837107.491178,2,16.0,6.0,-0.05483113549895435,0.0,False,0.010162830352783203,nan,nan,nan,nan,0.0,0.0
1759837107.502381,2,16.0,6.0,-0.05483113549895435,0.0,False,0.01120305061340332,nan,nan,nan,nan,0.0,0.0
1759837107.5130544,2,16.000034046173095,6.000001891454061,-2.8798601758457227,0.0,True,0.010673284530639648,16.00003433227539,6.000001907348633,3.1415748596191406,0.0,0.0,0.0
1759837107.5239093,2,16.00003423664231,6.000001902035684,-3.1211442579440334,0.0,True,0.010854959487915039,16.00003433227539,6.000001907348633,3.1415748596191406,0.0,0.0,0.0
1759837107.5350497,2,16.000034296400493,6.000001905355583,3.1392812268708052,0.0,True,0.01114034652709961,16.00003433227539,6.000001907348633,3.1415748596191406,0.0,0.0,0.0
1759837107.5462697,2,16.000034318608083,6.000001906589338,3.1363092445000067,0.0,True,0.011219978332519531,16.00003433227539,6.000001907348633,3.1415748596191406,0.0,0.0,0.0
1759837107.5563984,2,16.000034327056927,6.000001907058718,3.136147108729011,0.0,True,0.01012873649597168,16.00003433227539,6.000001907348633,3.1415748596191406,0.0,0.0,0.0
1759837107.5664082,2,16.000034330282226,6.000001907237901,3.136543820500304,0.0,True,0.010009765625,16.00003433227539,6.000001907348633,3.1415748596191406,0.0,0.0,0.0
1759837107.577688,2,16.000034331514076,6.000001907306338,3.1369609202145945,0.0,True,0.011279821395874023,16.00003433227539,6.000001907348633,3.1415748596191406,0.0,0.0,0.0
1759837107.5887842,2,16.000034331984594,6.000001907332478,3.1374891430860803,0.0,True,0.01109623908996582,16.00003433227539,6.000001907348633,3.1415748596191406,0.0,0.0,0.0
1759837107.5991054,2,16.000034332164315,6.000001907342462,3.1380417362209343,0.0,True,0.01032114028930664,16.00003433227539,6.000001907348633,3.1415748596191406,0.0,0.0,0.0
1759837107.6093524,2,16.000034332232964,6.000001907346276,3.1384984605132527,0.0,True,0.010246992111206055,16.00003433227539,6.000001907348633,3.1415748596191406,0.0,0.0,0.0
1759837107.6207032,2,16.000034332259187,6.000001907347732,3.13881273449703,0.0,True,0.011350870132446289,16.00003433227539,6.000001907348633,3.1415748596191406,0.0,0.0,0.0
1759837107.6312141,2,16.000034332269202,6.000001907348289,3.1391326542773257,0.0,True,0.010510921478271484,16.00003433227539,6.000001907348633,3.1415748596191406,0.0,0.0,0.0
1759837107.6418543,2,16.000034332273028,6.000001907348501,3.139392864789702,0.0,True,0.010640144348144531,16.00003433227539,6.000001907348633,3.1415748596191406,0.0,0.0,0.0
1759837107.6530268,2,16.00003433227449,6.000001907348582,3.139590861851749,0.0,True,0.01117253303527832,16.00003433227539,6.000001907348633,3.1415748596191406,0.0,0.0,0.0
1759837107.6643233,2,16.000034332275046,6.000001907348613,3.1397619894152378,0.0,True,0.011296510696411133,16.00003433227539,6.000001907348633,3.1415748596191406,0.0,0.0,0.0
1759837107.6755064,2,16.00003433227526,6.000001907348626,3.139918980756324,0.0,True,0.011183023452758789,16.00003433227539,6.000001907348633,3.1415748596191406,0.0,0.0,0.0
1759837107.6862073,2,16.00003433227534,6.00000190734863,3.1400708592616997,0.0,True,0.01070094108581543,16.00003433227539,6.000001907348633,3.1415748596191406,0.0,0.0,0.0
1759837107.6963634,2,16.000034332275373,6.000001907348632,3.140213519211475,0.0,True,0.01015615463256836,16.00003433227539,6.000001907348633,3.1415748596191406,0.0,0.0,0.0
1759837107.7065299,2,16.000034332275384,6.000001907348633,3.1403299309521593,0.0,True,0.010166406631469727,16.00003433227539,6.000001907348633,3.1415748596191406,0.0,0.0,0.0
1759837107.7185862,2,16.000034332275387,6.000001907348633,3.1403827630475707,0.0,True,0.012056350708007812,16.00003433227539,6.000001907348633,3.1415748596191406,0.0,0.0,0.0
1759837107.7299123,2,16.00003433227539,6.000001907348633,3.1404556658906664,0.0,True,0.011326074600219727,16.00003433227539,6.000001907348633,3.1415748596191406,0.0,0.0,0.0
1759837107.7410963,2,16.00003433227539,6.000001907348633,3.1405285119055915,0.0,True,0.011183977127075195,16.00003433227539,6.000001907348633,3.1415748596191406,0.0,0.0,0.0
1759837107.7523756,2,16.00003433227539,6.000001907348633,3.1405932555265625,0.0,True,0.01127934455871582,16.00003433227539,6.000001907348633,3.1415748596191406,0.0,0.0,0.0
1759837107.7635298,2,16.00003433227539,6.000001907348633,3.1406547923333505,0.0,True,0.0111541748046875,16.00003433227539,6.000001907348633,3.1415748596191406,0.0,0.0,0.0
1759837107.7742693,2,16.00003433227539,6.000001907348633,3.140717443189434,0.0,True,0.010739564895629883,16.00003433227539,6.000001907348633,3.1415748596191406,0.0,0.0,0.0
1759837107.785515,2,16.00003433227539,6.000001907348633,3.1407640473521123,0.0,True,0.0112457275390625,16.00003433227539,6.000001907348633,3.1415748596191406,0.0,0.0,0.0
1759837107.7966769,2,16.00003433227539,6.000001907348633,3.140808170224094,0.0,True,0.01116180419921875,16.00003433227539,6.000001907348633,3.1415748596191406,0.0,0.0,0.0
1759837107.8078418,2,16.00003433227539,6.000001907348633,3.1408489832184046,0.0,True,0.01116490364074707,16.00003433227539,6.000001907348633,3.1415748596191406,0.0,0.0,0.0
1759837107.8179996,2,16.00003433227539,6.000001907348633,3.1409004390771926,0.0,True,0.01015782356262207,16.00003433227539,6.000001907348633,3.1415748596191406,0.0,0.0,0.0
1759837107.8291304,2,16.00003433227539,6.000001907348633,3.140931417390025,0.0,True,0.011130809783935547,16.00003433227539,6.000001907348633,3.1415748596191406,0.0,0.0,0.0
1759837107.8398447,2,16.00003433227539,6.000001907348633,3.140965221643075,0.0,True,0.010714292526245117,16.00003433227539,6.000001907348633,3.1415748596191406,0.0,0.0,0.0
1759837107.8501701,2,16.00003433227539,6.000001907348633,3.141000662791928,0.0,True,0.010325431823730469,16.00003433227539,6.000001907348633,3.1415748596191406,0.0,0.0,0.0
1759837107.8607757,2,16.00003433227539,6.000001907348633,3.1410284487624196,0.0,True,0.010605573654174805,16.00003433227539,6.000001907348633,3.1415748596191406,0.0,0.0,0.0
1759837107.872052,2,16.00003433227539,6.000001907348633,3.1410462048918717,0.0,True,0.0112762451171875,16.00003433227539,6.000001907348633,3.1415748596191406,0.0,0.0,0.0
1759837107.882679,2,16.00003433227539,6.000001907348633,3.1410713194447375,0.0,True,0.010627031326293945,16.00003433227539,6.000001907348633,3.1415748596191406,0.0,0.0,0.0
1759837107.8940516,2,16.00003433227539,6.000001907348633,3.1410873089297784,0.0,True,0.011372566223144531,16.00003433227539,6.000001907348633,3.1415748596191406,0.0,0.0,0.0
1759837107.9047117,2,16.00003433227539,6.000001907348633,3.1411106954857715,0.0,True,0.010660171508789062,16.00003433227539,6.000001907348633,3.1415748596191406,0.0,0.0,0.0
1759837107.916782,2,16.00003433227539,6.000001907348633,3.1411195039835498,0.0,True,0.012070178985595703,16.00003433227539,6.000001907348633,3.1415748596191406,0.0,0.0,0.0
1759837107.9274833,2,16.00003433227539,6.000001907348633,3.1411427734848036,0.0,True,0.010701417922973633,16.00003433227539,6.000001907348633,3.1415748596191406,0.0,0.0,0.0
1759837107.9384,2,16.00003433227539,6.000001907348633,3.141162551488428,0.0,True,0.010916709899902344,16.00003433227539,6.000001907348633,3.1415748596191406,0.0,0.0,0.0
1759837107.949648,2,16.00003433227539,6.000001907348633,3.141177938702601,0.0,True,0.011247873306274414,16.00003433227539,6.000001907348633,3.1415748596191406,0.0,0.0,0.0
1759837107.960948,2,16.00003433227539,6.000001907348633,3.1411924968589506,0.0,True,0.011300086975097656,16.00003433227539,6.000001907348633,3.1415748596191406,0.0,0.0,0.0
1759837107.9719205,2,16.00003433227539,6.000001907348633,3.141209335090119,0.0,True,0.01097249984741211,16.00003433227539,6.000001907348633,3.1415748596191406,0.0,0.0,0.0
1759837107.9830163,2,16.00003433227539,6.000001907348633,3.141224213306902,0.0,True,0.011095762252807617,16.00003433227539,6.000001907348633,3.1415748596191406,0.0,0.0,0.0
1759837107.993211,2,16.00003433227539,6.000001907348633,3.1412444337537284,0.0,True,0.010194778442382812,16.00003433227539,6.000001907348633,3.1415748596191406,0.0,0.0,0.0
1759837108.0044649,2,16.00003433227539,6.000001907348633,3.1412549168262967,0.0,True,0.011253833770751953,16.00003433227539,6.000001907348633,3.1415748596191406,0.0,0.0,0.0
1759837108.0157473,2,16.00003433227539,6.000001907348633,3.141264977488502,0.0,True,0.01128244400024414,16.00003433227539,6.000001907348633,3.1415748596191406,0.0,0.0,0.0
1759837108.0271277,2,16.00003433227539,6.000001907348633,3.141274737153797,0.0,True,0.011380434036254883,16.00003433227539,6.000001907348633,3.1415748596191406,0.0,0.0,0.0
1759837108.0378602,2,16.00003433227539,6.000001907348633,3.141288610428383,0.0,True,0.010732412338256836,16.00003433227539,6.000001907348633,3.1415748596191406,0.0,0.0,0.0
1759837108.049035,2,16.00003433227539,6.000001907348633,3.1412988561946342,0.0,True,0.011174917221069336,16.00003433227539,6.000001907348633,3.1415748596191406,0.0,0.0,0.0
1759837108.060252,2,16.00003433227539,6.000001907348633,3.141308471516691,0.0,True,0.011216878890991211,16.00003433227539,6.000001907348633,3.1415748596191406,0.0,0.0,0.0
1759837108.0709026,2,16.00003433227539,6.000001907348633,3.1413209109939118,0.0,True,0.010650634765625,16.00003433227539,6.000001907348633,3.1415748596191406,0.0,0.0,0.0
1759837108.0822835,2,16.00003433227539,6.000001907348633,3.141328519286539,0.0,True,0.011380910873413086,16.00003433227539,6.000001907348633,3.1415748596191406,0.0,0.0,0.0
1759837108.0933979,2,16.00003433227539,6.000001907348633,3.1413374753309746,0.0,True,0.011114358901977539,16.00003433227539,6.000001907348633,3.1415748596191406,0.0,0.0,0.0
1759837108.1041641,2,16.00003433227539,6.000001907348633,3.1413478607369765,0.0,True,0.010766267776489258,16.00003433227539,6.000001907348633,3.1415748596191406,0.0,0.0,0.0
1759837108.1149182,2,16.00003433227539,6.000001907348633,3.1413574529741197,0.0,True,0.010754108428955078,16.00003433227539,6.000001907348633,3.1415748596191406,0.0,0.0,0.0
1759837108.1249998,2,16.00003433227539,6.000001907348633,3.141369149284703,0.0,True,0.01008152961730957,16.00003433227539,6.000001907348633,3.1415748596191406,0.0,0.0,0.0
1759837108.1358628,2,16.00003433227539,6.000001907348633,3.141375942599625,0.0,True,0.010863065719604492,16.00003433227539,6.000001907348633,3.1415748596191406,0.0,0.0,0.0
1759837108.1473951,2,16.00003433227539,6.000001907348633,3.141379625543408,0.0,True,0.011532306671142578,16.00003433227539,6.000001907348633,3.1415748596191406,0.0,0.0,0.0
1759837108.1576502,2,16.00003433227539,6.000001907348633,3.1413891090247077,0.0,True,0.010255098342895508,16.00003433227539,6.000001907348633,3.1415748596191406,0.0,0.0,0.0
1759837108.1684206,2,16.00003433227539,6.000001907348633,3.1413957699718367,0.0,True,0.010770320892333984,16.00003433227539,6.000001907348633,3.1415748596191406,0.0,0.0,0.0
1759837108.1790564,2,16.00003433227539,6.000001907348633,3.1414024732056287,0.0,True,0.010635852813720703,16.00003433227539,6.000001907348633,3.1415748596191406,0.0,0.0,0.0
1759837108.1903603,2,16.00003433227539,6.000001907348633,3.141406414402793,0.0,True,0.011303901672363281,16.00003433227539,6.000001907348633,3.1415748596191406,0.0,0.0,0.0
1759837108.2009523,2,16.00003433227539,6.000001907348633,3.1414131664412146,0.0,True,0.010591983795166016,16.00003433227539,6.000001907348633,3.1415748596191406,0.0,0.0,0.0
1759837108.2116067,2,16.00003433227539,6.000001907348633,3.1414193451877903,0.0,True,0.010654449462890625,16.00003433227539,6.000001907348633,3.1415748596191406,0.0,0.0,0.0
1759837108.2230427,2,16.00003433227539,6.000001907348633,3.1414226026290386,0.0,True,0.011435985565185547,16.00003433227539,6.000001907348633,3.1415748596191406,0.0,0.0,0.0
1759837108.234382,2,16.00003433227539,6.000001907348633,3.14142659326623,0.0,True,0.011339187622070312,16.00003433227539,6.000001907348633,3.1415748596191406,0.0,0.0,0.0
1759837108.2455,2,16.00003433227539,6.000001907348633,3.1414315970960143,0.0,True,0.011118173599243164,16.00003433227539,6.000001907348633,3.1415748596191406,0.0,0.0,0.0
1759837108.2563858,2,16.00003433227539,6.000001907348633,3.1414372380452313,0.0,True,0.01088571548461914,16.00003433227539,6.000001907348633,3.1415748596191406,0.0,0.0,0.0
1759837108.2670238,2,16.00003433227539,6.000001907348633,3.1414432222384434,0.0,True,0.010637998580932617,16.00003433227539,6.000001907348633,3.1415748596191406,0.0,0.0,0.0
1759837108.2779677,2,16.00003433227539,6.000001907348633,3.1414478358933007,0.0,True,0.010943889617919922,16.00003433227539,6.000001907348633,3.1415748596191406,0.0,0.0,0.0
1759837108.2894218,2,16.00003433227539,6.000001907348633,3.141450905912187,0.0,True,0.011454105377197266,16.00003433227539,6.000001907348633,3.1415748596191406,0.0,0.0,0.0
1759837108.3001692,2,16.00003433227539,6.000001907348633,3.1414559874266814,0.0,True,0.010747432708740234,16.00003433227539,6.000001907348633,3.1415748596191406,0.0,0.0,0.0
1759837108.3104901,2,16.00003433227539,6.000001907348633,3.141461789827858,0.0,True,0.010320901870727539,16.00003433227539,6.000001907348633,3.1415748596191406,0.0,0.0,0.0
1759837108.3232858,2,16.00003433227539,6.000001907348633,3.1414611990108945,0.0,True,0.012795686721801758,16.00003433227539,6.000001907348633,3.1415748596191406,0.0,0.0,0.0
1759837108.3345244,2,16.00003433227539,6.000001907348633,3.141465239988605,0.0,True,0.011238574981689453,16.00003433227539,6.000001907348633,3.1415748596191406,0.0,0.0,0.0
1759837108.3456964,2,16.00003433227539,6.000001907348633,3.1414695648040833,0.0,True,0.011172056198120117,16.00003433227539,6.000001907348633,3.1415748596191406,0.0,0.0,0.0
1759837108.3571332,2,16.00003433227539,6.000001907348633,3.141473104935077,0.0,True,0.011436700820922852,16.00003433227539,6.000001907348633,3.1415748596191406,0.0,0.0,0.0
1759837108.3671734,2,16.00003433227539,6.000001907348633,3.1414793354475297,0.0,True,0.010040283203125,16.00003433227539,6.000001907348633,3.1415748596191406,0.0,0.0,0.0
1759837108.3774674,2,16.00003433227539,6.000001907348633,3.1414841679474605,0.0,True,0.010293960571289062,16.00003433227539,6.000001907348633,3.1415748596191406,0.0,0.0,0.0
1759837108.3877375,2,16.00003433227539,6.000001907348633,3.141488308783636,0.0,True,0.010270118713378906,16.00003433227539,6.000001907348633,3.1415748596191406,0.0,0.0,0.0
1759837108.3981366,2,16.00003433227539,6.000001907348633,3.141491689441107,0.0,True,0.010399103164672852,16.00003433227539,6.000001907348633,3.1415748596191406,0.0,0.0,0.0
1759837108.4093344,2,16.00003433227539,6.000001907348633,3.141493356519849,0.0,True,0.011197805404663086,16.00003433227539,6.000001907348633,3.1415748596191406,0.0,0.0,0.0
1759837108.4194314,2,16.00003433227539,6.000001907348633,3.1414970785188654,0.0,True,0.010097026824951172,16.00003433227539,6.000001907348633,3.1415748596191406,0.0,0.0,0.0
1759837108.4305649,2,16.00003433227539,6.000001907348633,3.141498773096904,0.0,True,0.011133432388305664,16.00003433227539,6.000001907348633,3.1415748596191406,0.0,0.0,0.0
1759837108.441153,2,16.00003433227539,6.000001907348633,3.1415014435833744,0.0,True,0.01058816909790039,16.00003433227539,6.000001907348633,3.1415748596191406,0.0,0.0,0.0
1759837108.45194,2,16.00003433227539,6.000001907348633,3.141503733648719,0.0,True,0.010787010192871094,16.00003433227539,6.000001907348633,3.1415748596191406,0.0,0.0,0.0
1759837108.4621422,2,16.00003433227539,6.000001907348633,3.1415068407503277,0.0,True,0.010202169418334961,16.00003433227539,6.000001907348633,3.1415748596191406,0.0,0.0,0.0
1759837108.472428,2,16.00003433227539,6.000001907348633,3.141509531709927,0.0,True,0.01028585433959961,16.00003433227539,6.000001907348633,3.1415748596191406,0.0,0.0,0.0
1759837108.4827836,2,16.00003433227539,6.000001907348633,3.1415118668601743,0.0,True,0.010355472564697266,16.00003433227539,6.000001907348633,3.1415748596191406,0.0,0.0,0.0
1759837108.4937932,2,16.00003433227539,6.000001907348633,3.1415131614672447,0.0,True,0.011009693145751953,16.00003433227539,6.000001907348633,3.1415748596191406,0.0,0.0,0.0
1759837108.5046365,2,16.00003433227539,6.000001907348633,3.141514816427698,0.0,True,0.010843276977539062,16.00003433227539,6.000001907348633,3.1415748596191406,0.0,0.0,0.0
1759837108.5183895,2,16.00003433227539,6.000001907348633,3.1415129637514845,0.0,True,0.013752937316894531,16.00003433227539,6.000001907348633,3.1415748596191406,0.0,0.0,0.0
1759837108.5250134,2,16.00003433227539,6.000001907348633,3.1415208119402926,0.0,True,0.006623983383178711,16.00003433227539,6.000001907348633,3.1415748596191406,0.0,0.0,0.0
1759837108.5352788,2,16.00003433227539,6.000001907348633,3.1415228610457273,0.0,True,0.010265350341796875,16.00003433227539,6.000001907348633,3.1415748596191406,0.0,0.0,0.0
1759837108.5459962,2,16.00003433227539,6.000001907348633,3.141523903298081,0.0,True,0.010717391967773438,16.00003433227539,6.000001907348633,3.1415748596191406,0.0,0.0,0.0
1759837108.5572822,2,16.00003433227539,6.000001907348633,3.141524421504826,0.0,True,0.011286020278930664,16.00003433227539,6.000001907348633,3.1415748596191406,0.0,0.0,0.0
1759837108.5676332,2,16.00003433227539,6.000001907348633,3.1415262462250073,0.0,True,0.010350942611694336,16.00003433227539,6.000001907348633,3.1415748596191406,0.0,0.0,0.0
1759837108.5777612,2,16.00003433227539,6.000001907348633,3.141528257801408,0.0,True,0.010128021240234375,16.00003433227539,6.000001907348633,3.1415748596191406,0.0,0.0,0.0
1759837108.5887015,2,16.00003433227539,6.000001907348633,3.141529271241435,0.0,True,0.010940313339233398,16.00003433227539,6.000001907348633,3.1415748596191406,0.0,0.0,0.0
1759837108.6001847,2,16.00003433227539,6.000001907348633,3.141529841756837,0.0,True,0.011483192443847656,16.00003433227539,6.000001907348633,3.1415748596191406,0.0,0.0,0.0
1759837108.611524,2,16.00003433227539,6.000001907348633,3.141530813547945,0.0,True,0.011339426040649414,16.00003433227539,6.000001907348633,3.1415748596191406,0.0,0.0,0.0
1759837108.622752,2,16.00003433227539,6.000001907348633,3.14153206326643,0.0,True,0.011227846145629883,16.00003433227539,6.000001907348633,3.1415748596191406,0.0,0.0,0.0
1759837108.634095,2,16.00003433227539,6.000001907348633,3.1415332841302277,0.0,True,0.011343002319335938,16.00003433227539,6.000001907348633,3.1415748596191406,0.0,0.0,0.0
1759837108.6453197,2,16.00003433227539,6.000001907348633,3.1415346566798323,0.0,True,0.011224746704101562,16.00003433227539,6.000001907348633,3.1415748596191406,0.0,0.0,0.0
1759837108.6562078,2,16.00003433227539,6.000001907348633,3.14153629416494,0.0,True,0.010888099670410156,16.00003433227539,6.000001907348633,3.1415748596191406,0.0,0.0,0.0
1759837108.6675305,2,16.00003433227539,6.000001907348633,3.1415374898100925,0.0,True,0.011322736740112305,16.00003433227539,6.000001907348633,3.1415748596191406,0.0,0.0,0.0
1759837108.678789,2,16.00003433227539,6.000001907348633,3.1415387260655603,0.0,True,0.011258363723754883,16.00003433227539,6.000001907348633,3.1415748596191406,0.0,0.0,0.0
1759837108.690128,2,16.00003433227539,6.000001907348633,3.1415398972048063,0.0,True,0.011339187622070312,16.00003433227539,6.000001907348633,3.1415748596191406,0.0,0.0,0.0
1759837108.701483,2,16.00003433227539,6.000001907348633,3.1415410550952974,0.0,True,0.011354923248291016,16.00003433227539,6.000001907348633,3.1415748596191406,0.0,0.0,0.0
1759837108.71271,2,16.00003433227539,6.000001907348633,3.14154229028615,0.0,True,0.011226892471313477,16.00003433227539,6.000001907348633,3.1415748596191406,0.0,0.0,0.0
1759837108.723773,2,16.00003433227539,6.000001907348633,3.1415435858048184,0.0,True,0.011063098907470703,16.00003433227539,6.000001907348633,3.1415748596191406,0.0,0.0,0.0
1759837108.7348614,2,16.00003433227539,6.000001907348633,3.1415447829444982,0.0,True,0.011088371276855469,16.00003433227539,6.000001907348633,3.1415748596191406,0.0,0.0,0.0
1759837108.7461216,2,16.00003433227539,6.000001907348633,3.1415458051620906,0.0,True,0.011260271072387695,16.00003433227539,6.000001907348633,3.1415748596191406,0.0,0.0,0.0
1759837108.7564635,2,16.00003433227539,6.000001907348633,3.1415473237204843,0.0,True,0.010341882705688477,16.00003433227539,6.000001907348633,3.1415748596191406,0.0,0.0,0.0
1759837108.7677727,2,16.00003433227539,6.000001907348633,3.1415481205286824,0.0,True,0.011309146881103516,16.00003433227539,6.000001907348633,3.1415748596191406,0.0,0.0,0.0
1759837108.7791488,2,16.00003433227539,6.000001907348633,3.1415488679182175,0.0,True,0.011376142501831055,16.00003433227539,6.000001907348633,3.1415748596191406,0.0,0.0,0.0
1759837108.7905123,2,16.00003433227539,6.000001907348633,3.141549655987415,0.0,True,0.011363506317138672,16.00003433227539,6.000001907348633,3.1415748596191406,0.0,0.0,0.0
1759837108.8012094,2,16.00003433227539,6.000001907348633,3.1415507926659316,0.0,True,0.010697126388549805,16.00003433227539,6.000001907348633,3.1415748596191406,0.0,0.0,0.0
1759837108.8124263,2,16.00003433227539,6.000001907348633,3.1415515797605558,0.0,True,0.011216878890991211,16.00003433227539,6.000001907348633,3.1415748596191406,0.0,0.0,0.0
1759837108.8230286,2,16.00003433227539,6.000001907348633,3.1415526235064526,0.0,True,0.010602235794067383,16.00003433227539,6.000001907348633,3.1415748596191406,0.0,0.0,0.0
1759837108.8338058,2,16.00003433227539,6.000001907348633,3.141553491525171,0.0,True,0.01077723503112793,16.00003433227539,6.000001907348633,3.1415748596191406,0.0,0.0,0.0
1759837108.8450556,2,16.00003433227539,6.000001907348633,3.141554082745568,0.0,True,0.011249780654907227,16.00003433227539,6.000001907348633,3.1415748596191406,0.0,0.0,0.0
1759837108.8557122,2,16.00003433227539,6.000001907348633,3.1415549327743513,0.0,True,0.010656595230102539,16.00003433227539,6.000001907348633,3.1415748596191406,0.0,0.0,0.0
1759837108.8666544,2,16.00003433227539,6.000001907348633,3.1415556088156773,0.0,True,0.010942220687866211,16.00003433227539,6.000001907348633,3.1415748596191406,0.0,0.0,0.0
1759837108.877373,2,16.00003433227539,6.000001907348633,3.141556341410979,0.0,True,0.010718584060668945,16.00003433227539,6.000001907348633,3.1415748596191406,0.0,0.0,0.0
1759837108.8882267,2,16.00003433227539,6.000001907348633,3.1415569766079177,0.0,True,0.010853767395019531,16.00003433227539,6.000001907348633,3.1415748596191406,0.0,0.0,0.0
1759837108.899412,2,16.00003433227539,6.000001907348633,3.14155746236489,0.0,True,0.011185169219970703,16.00003433227539,6.000001907348633,3.1415748596191406,0.0,0.0,0.0
1759837108.9102771,2,16.00003433227539,6.000001907348633,3.1415580762355404,0.0,True,0.010865211486816406,16.00003433227539,6.000001907348633,3.1415748596191406,0.0,0.0,0.0
1759837108.9254835,2,16.00003433227539,6.000001907348633,3.141557214724365,0.0,True,0.015206336975097656,16.00003433227539,6.000001907348633,3.1415748596191406,0.0,0.0,0.0
1759837108.9368224,2,16.00003433227539,6.000001907348633,3.141558044304997,0.0,True,0.011338949203491211,16.00003433227539,6.000001907348633,3.1415748596191406,0.0,0.0,0.0
1759837108.9479513,2,16.00003433227539,6.000001907348633,3.1415589509110458,0.0,True,0.011128902435302734,16.00003433227539,6.000001907348633,3.1415748596191406,0.0,0.0,0.0
1759837108.9582732,2,16.00003433227539,6.000001907348633,3.1415599826795226,0.0,True,0.010321855545043945,16.00003433227539,6.000001907348633,3.1415748596191406,0.0,0.0,0.0
1759837108.9690032,2,16.00003433227539,6.000001907348633,3.14156072207615,0.0,True,0.01073002815246582,16.00003433227539,6.000001907348633,3.1415748596191406,0.0,0.0,0.0
1759837108.9804404,2,16.00003433227539,6.000001907348633,3.1415611548949602,0.0,True,0.011437177658081055,16.00003433227539,6.000001907348633,3.1415748596191406,0.0,0.0,0.0
1759837108.9912536,2,16.00003433227539,6.000001907348633,3.1415617454321296,0.0,True,0.010813236236572266,16.00003433227539,6.000001907348633,3.1415748596191406,0.0,0.0,0.0
1759837109.0019243,2,16.00003433227539,6.000001907348633,3.141562325892666,0.0,True,0.010670661926269531,16.00003433227539,6.000001907348633,3.1415748596191406,0.0,0.0,0.0
1759837109.0132985,2,16.00003433227539,6.000001907348633,3.1415626682612245,0.0,True,0.011374235153198242,16.00003433227539,6.000001907348633,3.1415748596191406,0.0,0.0,0.0
1759837109.024571,2,16.00003433227539,6.000001907348633,3.141563040154482,0.0,True,0.011272430419921875,16.00003433227539,6.000001907348633,3.1415748596191406,0.0,0.0,0.0
1759837109.0359128,2,16.00003433227539,6.000001907348633,3.141563401917285,0.0,True,0.01134181022644043,16.00003433227539,6.000001907348633,3.1415748596191406,0.0,0.0,0.0
1759837109.0464182,2,16.00003433227539,6.000001907348633,3.14156395673589,0.0,True,0.010505437850952148,16.00003433227539,6.000001907348633,3.1415748596191406,0.0,0.0,0.0
1759837109.0578134,2,16.00003433227539,6.000001907348633,3.141564258443836,0.0,True,0.01139521598815918,16.00003433227539,6.000001907348633,3.1415748596191406,0.0,0.0,0.0
1759837109.0689027,2,16.00003433227539,6.000001907348633,3.1415646252453566,0.0,True,0.011089324951171875,16.00003433227539,6.000001907348633,3.1415748596191406,0.0,0.0,0.0
1759837109.0795908,2,16.00003433227539,6.000001907348633,3.141565065318863,0.0,True,0.010688066482543945,16.00003433227539,6.000001907348633,3.1415748596191406,0.0,0.0,0.0
1759837109.0903656,2,16.00003433227539,6.000001907348633,3.141565449461913,0.0,True,0.010774850845336914,16.00003433227539,6.000001907348633,3.1415748596191406,0.0,0.0,0.0
1759837109.1015272,2,16.00003433227539,6.000001907348633,3.1415657281356317,0.0,True,0.011161565780639648,16.00003433227539,6.000001907348633,3.1415748596191406,0.0,0.0,0.0
1759837109.1124816,2,16.00003433227539,6.000001907348633,3.1415660435169066,0.0,True,0.01095438003540039,16.00003433227539,6.000001907348633,3.1415748596191406,0.0,0.0,0.0
1759837109.1238294,2,16.000034322143858,6.0000022020504735,3.141566279721884,2.3374370500184867e-06,True,0.011347770690917969,16.00003433227539,6.000002384185791,3.1415748596191406,2.3374370500184867e-06,0.0,0.0
1759837109.1346962,2,16.000034318703303,6.0000023146165455,3.141566607868132,2.3374370500184867e-06,True,0.010866880416870117,16.00003433227539,6.000002384185791,3.1415748596191406,2.3374370500184867e-06,0.0,0.0
1759837109.1460037,2,16.000034316995755,6.000002357612966,3.141566846958078,2.3374370500184867e-06,True,0.011307477951049805,16.00003433227539,6.000002384185791,3.1415748596191406,2.3374370500184867e-06,0.0,0.0
1759837109.1568463,2,16.00003431675862,6.000002374036124,3.1415671624403494,2.3374370500184867e-06,True,0.010842561721801758,16.00003433227539,6.000002384185791,3.1415748596191406,2.3374370500184867e-06,0.0,0.0
1759837109.1675956,2,16.000034316751268,6.0000023803092075,3.1415674735066332,2.3374370500184867e-06,True,0.010749340057373047,16.00003433227539,6.000002384185791,3.1415748596191406,2.3374370500184867e-06,0.0,0.0
1759837109.178346,2,16.00003431674761,6.0000023827053095,3.1415677586646744,2.3374370500184867e-06,True,0.010750293731689453,16.00003433227539,6.000002384185791,3.1415748596191406,2.3374370500184867e-06,0.0,0.0
1759837109.189579,2,16.000034316315162,6.000002383620547,3.141567952480562,2.3374370500184867e-06,True,0.011233091354370117,16.00003433227539,6.000002384185791,3.1415748596191406,2.3374370500184867e-06,0.0,0.0
1759837109.2008505,2,16.00003431611571,6.000002383970136,3.141568145214533,2.3374370500184867e-06,True,0.011271476745605469,16.00003433227539,6.000002384185791,3.1415748596191406,2.3374370500184867e-06,0.0,0.0
1759837109.2116249,2,16.000034316483347,6.000002384103654,3.1415684127419645,2.3374370500184867e-06,True,0.010774374008178711,16.00003433227539,6.000002384185791,3.1415748596191406,2.3374370500184867e-06,0.0,0.0
1759837109.2226505,2,16.000034316399415,6.000002384154656,3.1415686311625457,2.3374370500184867e-06,True,0.011025667190551758,16.00003433227539,6.000002384185791,3.1415748596191406,2.3374370500184867e-06,0.0,0.0
1759837109.2333405,2,16.00003431666707,6.0000023841741275,3.141568882650496,2.3374370500184867e-06,True,0.010689973831176758,16.00003433227539,6.000002384185791,3.1415748596191406,2.3374370500184867e-06,0.0,0.0
1759837109.2440999,2,16.00003431670736,6.000002384181564,3.1415691066977054,2.3374370500184867e-06,True,0.010759353637695312,16.00003433227539,6.000002384185791,3.1415748596191406,2.3374370500184867e-06,0.0,0.0
1759837109.2553003,2,16.00003431632895,6.000002384184412,3.1415692633408767,2.3374370500184867e-06,True,0.011200428009033203,16.00003433227539,6.000002384185791,3.1415748596191406,2.3374370500184867e-06,0.0,0.0
1759837109.2661545,2,16.00003431649349,6.000002384185491,3.1415694628263484,2.3374370500184867e-06,True,0.010854244232177734,16.00003433227539,6.000002384185791,3.1415748596191406,2.3374370500184867e-06,0.0,0.0
1759837109.2768583,2,16.000034316690655,6.000002384185898,3.1415696716870993,2.3374370500184867e-06,True,0.010703802108764648,16.00003433227539,6.000002384185791,3.1415748596191406,2.3374370500184867e-06,0.0,0.0
1759837109.2870638,2,16.000034317210854,6.000002384186041,3.141569918608795,2.3374370500184867e-06,True,0.010205507278442383,16.00003433227539,6.000002384185791,3.1415748596191406,2.3374370500184867e-06,0.0,0.0
1759837109.2972314,2,16.000034317443397,6.000002384186092,3.1415701399417433,2.3374370500184867e-06,True,0.010167598724365234,16.00003433227539,6.000002384185791,3.1415748596191406,2.3374370500184867e-06,0.0,0.0
1759837109.308493,2,16.000034316555595,6.000002384186132,3.1415702250621766,2.3374370500184867e-06,True,0.011261463165283203,16.00003433227539,6.000002384185791,3.1415748596191406,2.3374370500184867e-06,0.0,0.0
1759837109.3220956,2,15.99471502782485,6.000001504827744,3.1415701001913092,0.04071202832413743,True,0.013602733612060547,15.991769790649414,6.000000953674316,3.1415748596191406,0.04071202832413743,0.0,1.000032209883246
1759837109.3335242,2,15.992717049516024,6.000001168201917,3.141570261657268,0.04071202832413743,True,0.011428594589233398,15.991769790649414,6.000000953674316,3.1415748596191406,0.04071202832413743,0.0,0.9714128228132566
1759837109.3450387,2,15.991952554991185,6.000001039623374,3.141570429859108,0.04071202832413743,True,0.011514425277709961,15.991769790649414,6.000000953674316,3.1415748596191406,0.04071202832413743,0.0,0.9714128228132566
1759837109.3564703,2,15.991661830588352,6.000000990452018,3.1415706001521855,0.04071202832413743,True,0.011431694030761719,15.991769790649414,6.000000953674316,3.1415748596191406,0.04071202832413743,0.0,0.9714128228132566
1759837109.3677855,2,15.991552596742025,6.000000971599982,3.141570771823533,0.04071202832413743,True,0.011315107345581055,15.991769790649414,6.000000953674316,3.1415748596191406,0.04071202832413743,0.0,0.9714128228132566
1759837109.380062,2,15.991495920557771,6.000000964697333,3.1415708574436003,0.04071202832413743,True,0.012276649475097656,15.991769790649414,6.000000953674316,3.1415748596191406,0.04071202832413743,0.0,0.9714128228132566
1759837109.3913915,2,15.991489002296142,6.000000961722144,3.141571028530185,0.04071202832413743,True,0.011329412460327148,15.991769790649414,6.000000953674316,3.1415748596191406,0.04071202832413743,0.0,0.9714128228132566
1759837109.4021175,2,15.991495743576019,6.0000009603522875,3.1415712346801374,0.04071202832413743,True,0.010725975036621094,15.991769790649414,6.000000953674316,3.1415748596191406,0.04071202832413743,0.0,0.9714128228132566
1759837109.4127388,2,15.99149994613227,6.000000959760117,3.141571421291829,0.04071202832413743,True,0.010621309280395508,15.991769790649414,6.000000953674316,3.1415748596191406,0.04071202832413743,0.0,0.9714128228132566
1759837109.423972,2,15.991492037780828,6.000000959705976,3.141571540157546,0.04071202832413743,True,0.011233091354370117,15.991769790649414,6.000000953674316,3.1415748596191406,0.04071202832413743,0.0,0.9714128228132566
1759837109.4342563,2,15.991503769419104,6.000000959352438,3.1415717140699932,0.04071202832413743,True,0.010284423828125,15.991769790649414,6.000000953674316,3.1415748596191406,0.04071202832413743,0.0,0.9714128228132566
1759837109.4455035,2,15.991493279400729,6.00000095950412,3.1415718048047125,0.04071202832413743,True,0.01124715805053711,15.991769790649414,6.000000953674316,3.1415748596191406,0.04071202832413743,0.0,0.9714128228132566
1759837109.4558058,2,15.991503965609109,6.000000959239186,3.14157195135067,0.04071202832413743,True,0.010302305221557617,15.991769790649414,6.000000953674316,3.1415748596191406,0.04071202832413743,0.0,0.9714128228132566
1759837109.4671385,2,15.991492023326542,6.0000009594472274,3.1415720209575078,0.04071202832413743,True,0.01133275032043457,15.991769790649414,6.000000953674316,3.1415748596191406,0.04071202832413743,0.0,0.9714128228132566
1759837109.4782515,2,15.991490880145841,6.000000959443683,3.1415721058944275,0.04071202832413743,True,0.01111292839050293,15.991769790649414,6.000000953674316,3.1415748596191406,0.04071202832413743,0.0,0.9714128228132566
1759837109.4890308,2,15.991495630358546,6.000000959320815,3.1415722111242523,0.04071202832413743,True,0.010779380798339844,15.991769790649414,6.000000953674316,3.1415748596191406,0.04071202832413743,0.0,0.9714128228132566
1759837109.5002613,2,15.991490430085053,6.000000959400038,3.141572286190744,0.04071202832413743,True,0.01123046875,15.991769790649414,6.000000953674316,3.1415748596191406,0.04071202832413743,0.0,0.9714128228132566
1759837109.5114112,2,15.991489696910781,6.000000959391595,3.1415723663091732,0.04071202832413743,True,0.011149883270263672,15.991769790649414,6.000000953674316,3.1415748596191406,0.04071202832413743,0.0,0.9714128228132566
1759837109.5288997,2,15.860834815730907,5.999990481885807,3.1415702245983574,0.9900642769315935,True,0.017488479614257812,15.790786743164062,5.999983787536621,3.1415679454803467,0.9900642769315935,0.0,0.9714128228132566
1759837109.5401874,2,15.813274050421244,5.999986440789997,3.1415688531339576,0.9900642769315935,True,0.011287689208984375,15.790786743164062,5.999983787536621,3.1415679454803467,0.9900642769315935,0.0,0.2957536510388916
1759837109.551156,2,15.795228092656917,5.999984900046779,3.141567913771201,0.9900642769315935,True,0.010968685150146484,15.790786743164062,5.999983787536621,3.1415679454803467,0.9900642769315935,0.0,0.2957536510388916
1759837109.5615647,2,15.788546942965375,5.999984310072154,3.1415672862793844,0.9900642769315935,True,0.010408639907836914,15.790786743164062,5.999983787536621,3.1415679454803467,0.9900642769315935,0.0,0.2957536510388916
1759837109.5728328,2,15.78566993336301,5.9999840954012695,3.1415668048558985,0.9900642769315935,True,0.011268138885498047,15.790786743164062,5.999983787536621,3.1415679454803467,0.9900642769315935,0.0,0.2957536510388916
1759837109.584091,2,15.784574800325627,5.9999840153036414,3.1415664725389334,0.9900642769315935,True,0.011258125305175781,15.790786743164062,5.999983787536621,3.1415679454803467,0.9900642769315935,0.0,0.2957536510388916
1759837109.5947556,2,15.784380912358069,5.99998398019297,3.141566281447167,0.9900642769315935,True,0.010664701461791992,15.790786743164062,5.999983787536621,3.1415679454803467,0.9900642769315935,0.0,0.2957536510388916
1759837109.6062016,2,15.784011389694234,5.999983975336744,3.1415661238478947,0.9900642769315935,True,0.011445999145507812,15.790786743164062,5.999983787536621,3.1415679454803467,0.9900642769315935,0.0,0.2957536510388916
1759837109.6169193,2,15.78414569246736,5.999983966819234,3.141566062013702,0.9900642769315935,True,0.010717630386352539,15.790786743164062,5.999983787536621,3.1415679454803467,0.9900642769315935,0.0,0.2957536510388916
1759837109.6277268,2,15.784163000122508,5.999983964709031,3.1415660325022543,0.9900642769315935,True,0.010807514190673828,15.790786743164062,5.999983787536621,3.1415679454803467,0.9900642769315935,0.0,0.2957536510388916
1759837109.6389182,2,15.784024448678007,5.999983967885587,3.1415660105729017,0.9900642769315935,True,0.011191368103027344,15.790786743164062,5.999983787536621,3.1415679454803467,0.9900642769315935,0.0,0.2957536510388916
1759837109.6491416,2,15.784337588390585,5.999983959416167,3.141566053832298,0.9900642769315935,True,0.010223388671875,15.790786743164062,5.999983787536621,3.1415679454803467,0.9900642769315935,0.0,0.2957536510388916
1759837109.6608589,2,15.783892235952193,5.999983971061897,3.1415660391041804,0.9900642769315935,True,0.01171731948852539,15.790786743164062,5.999983787536621,3.1415679454803467,0.9900642769315935,0.0,0.2957536510388916
1759837109.6720693,2,15.783913812930342,5.999983970458885,3.141566064305401,0.9900642769315935,True,0.011210441589355469,15.790786743164062,5.999983787536621,3.1415679454803467,0.9900642769315935,0.0,0.2957536510388916
1759837109.6833177,2,15.783907718690505,5.999983970499032,3.1415660999394586,0.9900642769315935,True,0.011248350143432617,15.790786743164062,5.999983787536621,3.1415679454803467,0.9900642769315935,0.0,0.2957536510388916
1759837109.693944,2,15.784140626084811,5.9999839641064145,3.141566166287827,0.9900642769315935,True,0.01062631607055664,15.790786743164062,5.999983787536621,3.1415679454803467,0.9900642769315935,0.0,0.2957536510388916
1759837109.705354,2,15.783933223113248,5.999983969258094,3.141566201166219,0.9900642769315935,True,0.011409997940063477,15.790786743164062,5.999983787536621,3.1415679454803467,0.9900642769315935,0.0,0.2957536510388916
1759837109.716486,2,15.78395913224963,5.999983968289397,3.141566250558739,0.9900642769315935,True,0.011132001876831055,15.790786743164062,5.999983787536621,3.1415679454803467,0.9900642769315935,0.0,0.2957536510388916
1759837109.7338617,2,15.74476099383179,5.999985977117143,3.1415660923511908,0.3286793905535908,True,0.017375707626342773,15.724064826965332,5.9999871253967285,3.1415679454803467,0.3286793905535908,0.0,0.2957536510388916
1759837109.7432606,2,15.73079007575283,5.999986718117279,3.141566259945977,0.3286793905535908,True,0.009398937225341797,15.724064826965332,5.9999871253967285,3.1415679454803467,0.3286793905535908,0.0,0.5597241780234192
1759837109.7534661,2,15.725352399583022,5.999987003632978,3.141566382390904,0.3286793905535908,True,0.010205507278442383,15.724064826965332,5.9999871253967285,3.1415679454803467,0.3286793905535908,0.0,0.5597241780234192
1759837109.7645621,2,15.723163595686653,5.99998711547563,3.141566451627348,0.3286793905535908,True,0.011096000671386719,15.724064826965332,5.9999871253967285,3.1415679454803467,0.3286793905535908,0.0,0.5597241780234192
1759837109.7767372,2,15.722192074277066,5.99998716165353,3.1415664798084624,0.3286793905535908,True,0.01217508316040039,15.724064826965332,5.9999871253967285,3.1415679454803467,0.3286793905535908,0.0,0.5597241780234192
1759837109.788012,2,15.721934009755097,5.9999871762871155,3.141566538246815,0.3286793905535908,True,0.01127481460571289,15.724064826965332,5.9999871253967285,3.1415679454803467,0.3286793905535908,0.0,0.5597241780234192
1759837109.7993238,2,15.721830798402422,5.99998718191548,3.1415665934621195,0.3286793905535908,True,0.011311769485473633,15.724064826965332,5.9999871253967285,3.1415679454803467,0.3286793905535908,0.0,0.5597241780234192
1759837109.8100014,2,15.721870994578108,5.999987181910885,3.1415666615805016,0.3286793905535908,True,0.010677576065063477,15.724064826965332,5.9999871253967285,3.1415679454803467,0.3286793905535908,0.0,0.5597241780234192
1759837109.8211474,2,15.721827531560919,5.999987183348685,3.1415667096604345,0.3286793905535908,True,0.011146068572998047,15.724064826965332,5.9999871253967285,3.1415679454803467,0.3286793905535908,0.0,0.5597241780234192
1759837109.8319764,2,15.721850739867797,5.999987182797466,3.1415667616587566,0.3286793905535908,True,0.010828971862792969,15.724064826965332,5.9999871253967285,3.1415679454803467,0.3286793905535908,0.0,0.0
1759837109.8425543,2,15.721891123160779,5.999987181700138,3.141566815021589,0.3286793905535908,True,0.010577917098999023,15.724064826965332,5.9999871253967285,3.1415679454803467,0.3286793905535908,0.0,0.0
1759837109.8527498,2,15.721954559305605,5.999987179969496,3.1415668712199114,0.3286793905535908,True,0.010195493698120117,15.724064826965332,5.9999871253967285,3.1415679454803467,0.3286793905535908,0.0,0.0
1759837109.8638728,2,15.721862353860924,5.999987182241372,3.14156689923162,0.3286793905535908,True,0.011122941970825195,15.724064826965332,5.9999871253967285,3.1415679454803467,0.3286793905535908,0.0,0.0
1759837109.8757582,2,15.7217314116371,5.999987185537192,3.1415669109037587,0.3286793905535908,True,0.011885404586791992,15.724064826965332,5.9999871253967285,3.1415679454803467,0.3286793905535908,0.0,0.0
1759837109.8869522,2,15.721768199268205,5.999987184541684,3.141566943212588,0.3286793905535908,True,0.011193990707397461,15.724064826965332,5.9999871253967285,3.1415679454803467,0.3286793905535908,0.0,0.0
1759837109.8977325,2,15.721834183098412,5.999987182779881,3.1415669848788,0.3286793905535908,True,0.01078033447265625,15.724064826965332,5.9999871253967285,3.1415679454803467,0.3286793905535908,0.0,0.0
1759837109.909041,2,15.721793087062032,5.9999871837537775,3.141567013225341,0.3286793905535908,True,0.011308431625366211,15.724064826965332,5.9999871253967285,3.1415679454803467,0.3286793905535908,0.0,0.0
1759837109.9202414,2,15.721790949017368,5.999987183737664,3.141567043443505,0.3286793905535908,True,0.011200428009033203,15.724064826965332,5.9999871253967285,3.1415679454803467,0.3286793905535908,0.0,0.0
1759837109.933683,2,15.691852609130716,5.999985116328265,3.1415670337070143,0.24000647089169894,True,0.01344156265258789,15.67534351348877,5.999983787536621,3.1415679454803467,0.24000647089169894,0.0,0.0
1759837109.944978,2,15.680613958169207,5.999984321614711,3.1415670727654703,0.24000647089169894,True,0.011295080184936523,15.67534351348877,5.999983787536621,3.1415679454803467,0.24000647089169894,0.0,0.0
1759837109.9551868,2,15.676420755342685,5.999984015472442,3.141567129262235,0.24000647089169894,True,0.010208845138549805,15.67534351348877,5.999983787536621,3.1415679454803467,0.24000647089169894,0.0,0.0
1759837109.9668572,2,15.674685111834329,5.999983901905847,3.141567153392373,0.24000647089169894,True,0.011670351028442383,15.67534351348877,5.999983787536621,3.1415679454803467,0.24000647089169894,0.0,0.0
1759837109.978116,2,15.674059879946439,5.999983857539065,3.141567182878969,0.24000647089169894,True,0.011258840560913086,15.67534351348877,5.999983787536621,3.1415679454803467,0.24000647089169894,0.0,0.0
1759837109.989108,2,15.673845520442189,5.999983839938894,3.141567215182775,0.24000647089169894,True,0.010992050170898438,15.67534351348877,5.999983787536621,3.1415679454803467,0.24000647089169894,0.0,0.0
1759837109.9997394,2,15.6737967118262,5.999983832342324,3.1415672499741163,0.24000647089169894,True,0.010631322860717773,15.67534351348877,5.999983787536621,3.1415679454803467,0.24000647089169894,0.0,0.0
1759837110.0107555,2,15.673742791622177,5.9999838303036706,3.1415672753635633,0.24000647089169894,True,0.011016130447387695,15.67534351348877,5.999983787536621,3.1415679454803467,0.24000647089169894,0.0,0.0
1759837110.0209217,2,15.673800115641974,5.999983827521259,3.1415673103104425,0.24000647089169894,True,0.010166168212890625,15.67534351348877,5.999983787536621,3.1415679454803467,0.24000647089169894,0.0,0.0
1759837110.0326557,2,15.673678280759363,5.999983830070413,3.1415673203207355,0.24000647089169894,True,0.0117340087890625,15.67534351348877,5.999983787536621,3.1415679454803467,0.24000647089169894,0.0,0.0
1759837110.0427969,2,15.673777769655297,5.9999838273323665,3.1415673522895773,0.24000647089169894,True,0.010141134262084961,15.67534351348877,5.999983787536621,3.1415679454803467,0.24000647089169894,0.0,0.0
1759837110.0540137,2,15.673717152880789,5.999983828753178,3.1415673678526055,0.24000647089169894,True,0.011216878890991211,15.67534351348877,5.999983787536621,3.1415679454803467,0.24000647089169894,0.0,0.0
1759837110.066015,2,15.673622090264594,5.999983831098925,3.1415673742530785,0.24000647089169894,True,0.012001276016235352,15.67534351348877,5.999983787536621,3.1415679454803467,0.24000647089169894,0.0,0.0
1759837110.0773644,2,15.67364553623086,5.999983830476306,3.1415673916710354,0.24000647089169894,True,0.01134943962097168,15.67534351348877,5.999983787536621,3.1415679454803467,0.24000647089169894,0.0,0.0
1759837110.0885174,2,15.673672501845518,5.999983829765157,3.1415674120975403,0.24000647089169894,True,0.011152982711791992,15.67534351348877,5.999983787536621,3.1415679454803467,0.24000647089169894,0.0,0.0
1759837110.0989175,2,15.67375182575692,5.999983827729904,3.141567439598015,0.24000647089169894,True,0.010400056838989258,15.67534351348877,5.999983787536621,3.1415679454803467,0.24000647089169894,0.0,0.0
1759837110.1102638,2,15.673695374918557,5.999983829114574,3.1415674540639458,0.24000647089169894,True,0.01134634017944336,15.67534351348877,5.999983787536621,3.1415679454803467,0.24000647089169894,0.0,0.0
1759837110.121343,2,15.67369831415679,5.999983829010813,3.1415674709159926,0.24000647089169894,True,0.011079072952270508,15.67534351348877,5.999983787536621,3.1415679454803467,0.24000647089169894,0.0,0.0
1759837110.1381164,2,15.674715103262221,5.999983803378456,3.141567434469305,0.0,True,0.016773462295532227,15.67534351348877,5.999983787536621,3.1415679454803467,0.0,0.0,0.0
1759837110.1483428,2,15.675103482141106,5.99998379358766,3.1415674731369734,0.0,True,0.01022648811340332,15.67534351348877,5.999983787536621,3.1415679454803467,0.0,0.0,0.0
1759837110.1586118,2,15.675251829672327,5.999983789847912,3.1415675079365517,0.0,True,0.010268926620483398,15.67534351348877,5.999983787536621,3.1415679454803467,0.0,0.0,0.0
1759837110.1693203,2,15.675308493387107,5.999983788419455,3.141567532101636,0.0,True,0.01070857048034668,15.67534351348877,5.999983787536621,3.1415679454803467,0.0,0.0,0.0
1759837110.1805718,2,15.675330137000223,5.999983787873834,3.1415675477716043,0.0,True,0.011251449584960938,15.67534351348877,5.999983787536621,3.1415679454803467,0.0,0.0,0.0
1759837110.191264,2,15.675338404124796,5.999983787665425,3.1415675664537037,0.0,True,0.010692119598388672,15.67534351348877,5.999983787536621,3.1415679454803467,0.0,0.0,0.0
1759837110.2013986,2,15.675341561885393,5.99998378758582,3.1415675873187805,0.0,True,0.010134696960449219,15.67534351348877,5.999983787536621,3.1415679454803467,0.0,0.0,0.0
1759837110.2116778,2,15.675342768042611,5.999983787555413,3.141567604002775,0.0,True,0.010279178619384766,15.67534351348877,5.999983787536621,3.1415679454803467,0.0,0.0,0.0
1759837110.2228394,2,15.675343228753674,5.999983787543799,3.14156761211483,0.0,True,0.011161565780639648,15.67534351348877,5.999983787536621,3.1415679454803467,0.0,0.0,0.0
1759837110.2329276,2,15.67534340472964,5.999983787539363,3.1415676278375564,0.0,True,0.010088205337524414,15.67534351348877,5.999983787536621,3.1415679454803467,0.0,0.0,0.0
1759837110.243645,2,15.675343471946478,5.999983787537668,3.1415676377536332,0.0,True,0.010717391967773438,15.67534351348877,5.999983787536621,3.1415679454803467,0.0,0.0,0.0
1759837110.2548332,2,15.675343497621027,5.999983787537021,3.141567644128461,0.0,True,0.011188268661499023,15.67534351348877,5.999983787536621,3.1415679454803467,0.0,0.0,0.0
1759837110.2657528,2,15.675343507427831,5.999983787536774,3.1415676529574217,0.0,True,0.010919570922851562,15.67534351348877,5.999983787536621,3.1415679454803467,0.0,0.0,0.0
1759837110.276944,2,15.675343511173697,5.99998378753668,3.141567660386727,0.0,True,0.011191129684448242,15.67534351348877,5.999983787536621,3.1415679454803467,0.0,0.0,0.0
1759837110.2883363,2,15.67534351260449,5.999983787536643,3.1415676671135557,0.0,True,0.011392354965209961,15.67534351348877,5.999983787536621,3.1415679454803467,0.0,0.0,0.0
1759837110.2985773,2,15.675343513151004,5.99998378753663,3.1415676809729263,0.0,True,0.010241031646728516,15.67534351348877,5.999983787536621,3.1415679454803467,0.0,0.0,0.0
1759837110.3099663,2,15.675343513359755,5.999983787536625,3.141567687153959,0.0,True,0.011389017105102539,15.67534351348877,5.999983787536621,3.1415679454803467,0.0,0.0,0.0
1759837110.3218246,2,15.67534351343949,5.999983787536623,3.1415676911903887,0.0,True,0.011858224868774414,15.67534351348877,5.999983787536621,3.1415679454803467,0.0,0.0,0.0
1759837110.3374717,2,15.675343513469945,5.999983787536622,3.1415676779537467,0.0,True,0.015647172927856445,15.67534351348877,5.999983787536621,3.1415679454803467,0.0,0.0,0.0
1759837110.3470862,2,15.675343513481579,5.999983787536621,3.1415677005196425,0.0,True,0.00961446762084961,15.67534351348877,5.999983787536621,3.1415679454803467,0.0,0.0,0.0
1759837110.3584619,2,15.675343513486023,5.999983787536621,3.141567712115151,0.0,True,0.011375665664672852,15.67534351348877,5.999983787536621,3.1415679454803467,0.0,0.0,0.0
1759837110.3697994,2,15.67534351348772,5.999983787536621,3.1415677220874336,0.0,True,0.011337518692016602,15.67534351348877,5.999983787536621,3.1415679454803467,0.0,0.0,0.0
1759837110.3800366,2,15.675343513488368,5.999983787536621,3.141567735860546,0.0,True,0.01023721694946289,15.67534351348877,5.999983787536621,3.1415679454803467,0.0,0.0,0.0
1759837110.3915231,2,15.675343513488617,5.999983787536621,3.141567742340648,0.0,True,0.011486530303955078,15.67534351348877,5.999983787536621,3.1415679454803467,0.0,0.0,0.0
1759837110.402864,2,15.675343513488711,5.999983787536621,3.141567749079794,0.0,True,0.011340856552124023,15.67534351348877,5.999983787536621,3.1415679454803467,0.0,0.0,0.0
1759837110.41298,2,15.675343513488746,5.999983787536621,3.141567760450842,0.0,True,0.010116100311279297,15.67534351348877,5.999983787536621,3.1415679454803467,0.0,0.0,0.0
1759837110.4242656,2,15.67534351348876,5.999983787536621,3.1415677658683663,0.0,True,0.011285543441772461,15.67534351348877,5.999983787536621,3.1415679454803467,0.0,0.0,0.0
1759837110.4353375,2,15.675343513488766,5.999983787536621,3.1415677718434907,0.0,True,0.011071920394897461,15.67534351348877,5.999983787536621,3.1415679454803467,0.0,0.0,0.0
1759837110.4464257,2,15.675343513488768,5.999983787536621,3.1415677776530497,0.0,True,0.011088132858276367,15.67534351348877,5.999983787536621,3.1415679454803467,0.0,0.0,0.0
1759837110.4576178,2,15.67534351348877,5.999983787536621,3.1415677829633104,0.0,True,0.011192083358764648,15.67534351348877,5.999983787536621,3.1415679454803467,0.0,0.0,0.0
1759837110.469058,2,15.67534351348877,5.999983787536621,3.1415677874237,0.0,True,0.011440277099609375,15.67534351348877,5.999983787536621,3.1415679454803467,0.0,0.0,0.0
1759837110.4792433,2,15.67534351348877,5.999983787536621,3.141567795992456,0.0,True,0.01018524169921875,15.67534351348877,5.999983787536621,3.1415679454803467,0.0,0.0,0.0
1759837110.490554,2,15.67534351348877,5.999983787536621,3.141567800088353,0.0,True,0.011310815811157227,15.67534351348877,5.999983787536621,3.1415679454803467,0.0,0.0,0.0
1759837110.5017328,2,15.67534351348877,5.999983787536621,3.141567804514601,0.0,True,0.011178731918334961,15.67534351348877,5.999983787536621,3.1415679454803467,0.0,0.0,0.0
1759837110.5120163,2,15.67534351348877,5.999983787536621,3.141567811516852,0.0,True,0.010283470153808594,15.67534351348877,5.999983787536621,3.1415679454803467,0.0,0.0,0.0
1759837110.5233648,2,15.67534351348877,5.999983787536621,3.141567814811877,0.0,True,0.011348485946655273,15.67534351348877,5.999983787536621,3.1415679454803467,0.0,0.0,0.0
1759837110.5334945,2,15.67534351348877,5.999983787536621,3.141567821409275,0.0,True,0.010129690170288086,15.67534351348877,5.999983787536621,3.1415679454803467,0.0,0.0,0.0
1759837110.5519404,2,15.67534351348877,5.999983787536621,3.1415678064246535,0.0,True,0.018445968627929688,15.67534351348877,5.999983787536621,3.1415679454803467,0.0,0.0,0.0
1759837110.5618846,2,15.67534351348877,5.999983787536621,3.1415678177994426,0.0,True,0.00994420051574707,15.67534351348877,5.999983787536621,3.1415679454803467,0.0,0.0,0.0
1759837110.5725954,2,15.67534351348877,5.999983787536621,3.1415678264702382,0.0,True,0.010710716247558594,15.67534351348877,5.999983787536621,3.1415679454803467,0.0,0.0,0.0
1759837110.5838358,2,15.67534351348877,5.999983787536621,3.1415678322719387,0.0,True,0.011240482330322266,15.67534351348877,5.999983787536621,3.1415679454803467,0.0,0.0,0.0
1759837110.5950243,2,15.67534351348877,5.999983787536621,3.141567837375092,0.0,True,0.011188507080078125,15.67534351348877,5.999983787536621,3.1415679454803467,0.0,0.0,0.0
1759837110.6059072,2,15.67534351348877,5.999983787536621,3.1415678425778246,0.0,True,0.010882854461669922,15.67534351348877,5.999983787536621,3.1415679454803467,0.0,0.0,0.0
1759837110.6162379,2,15.67534351348877,5.999983787536621,3.141567848282236,0.0,True,0.010330677032470703,15.67534351348877,5.999983787536621,3.1415679454803467,0.0,0.0,0.0
1759837110.6279297,2,15.67534351348877,5.999983787536621,3.1415678504975055,0.0,True,0.011691808700561523,15.67534351348877,5.999983787536621,3.1415679454803467,0.0,0.0,0.0
1759837110.6393363,2,15.67534351348877,5.999983787536621,3.1415678533557507,0.0,True,0.011406660079956055,15.67534351348877,5.999983787536621,3.1415679454803467,0.0,0.0,0.0
1759837110.65066,2,15.67534351348877,5.999983787536621,3.1415678564541505,0.0,True,0.011323690414428711,15.67534351348877,5.999983787536621,3.1415679454803467,0.0,0.0,0.0
1759837110.6608422,2,15.67534351348877,5.999983787536621,3.1415678614959006,0.0,True,0.01018214225769043,15.67534351348877,5.999983787536621,3.1415679454803467,0.0,0.0,0.0
1759837110.6723406,2,15.67534351348877,5.999983787536621,3.1415678636230737,0.0,True,0.011498451232910156,15.67534351348877,5.999983787536621,3.1415679454803467,0.0,0.0,0.0
1759837110.6825097,2,15.67534351348877,5.999983787536621,3.141567867929565,0.0,True,0.010169029235839844,15.67534351348877,5.999983787536621,3.1415679454803467,0.0,0.0,0.0
1759837110.6942,2,15.67534351348877,5.999983787536621,3.1415678693221736,0.0,True,0.011690378189086914,15.67534351348877,5.999983787536621,3.1415679454803467,0.0,0.0,0.0
1759837110.7051303,2,15.67534351348877,5.999983787536621,3.1415678720665987,0.0,True,0.010930299758911133,15.67534351348877,5.999983787536621,3.1415679454803467,0.0,0.0,0.0
1759837110.7152898,2,15.67534351348877,5.999983787536621,3.141567875883485,0.0,True,0.010159492492675781,15.67534351348877,5.999983787536621,3.1415679454803467,0.0,0.0,0.0
1759837110.727024,2,15.67534351348877,5.999983787536621,3.1415678769611706,0.0,True,0.011734247207641602,15.67534351348877,5.999983787536621,3.1415679454803467,0.0,0.0,0.0
1759837110.7383707,2,15.67534351348877,5.999983787536621,3.1415678787995454,0.0,True,0.011346578598022461,15.67534351348877,5.999983787536621,3.1415679454803467,0.0,0.0,0.0
1759837110.7522411,2,15.67534351348877,5.999983787536621,3.1415678774807656,0.0,True,0.013870477676391602,15.67534351348877,5.999983787536621,3.1415679454803467,0.0,0.0,0.0
1759837110.763035,2,15.67534351348877,5.999983787536621,3.1415678811604355,0.0,True,0.010793924331665039,15.67534351348877,5.999983787536621,3.1415679454803467,0.0,0.0,0.0
1759837110.7743256,2,15.67534351348877,5.999983787536621,3.1415678840011036,0.0,True,0.011290550231933594,15.67534351348877,5.999983787536621,3.1415679454803467,0.0,0.0,0.0
1759837110.7849262,2,15.67534351348877,5.999983787536621,3.1415678873517336,0.0,True,0.010600566864013672,15.67534351348877,5.999983787536621,3.1415679454803467,0.0,0.0,0.0
1759837110.7962153,2,15.67534351348877,5.999983787536621,3.1415678894620527,0.0,True,0.011289119720458984,15.67534351348877,5.999983787536621,3.1415679454803467,0.0,0.0,0.0
1759837110.8074226,2,15.67534351348877,5.999983787536621,3.1415678915053498,0.0,True,0.011207342147827148,15.67534351348877,5.999983787536621,3.1415679454803467,0.0,0.0,0.0
1759837110.8181443,2,15.67534351348877,5.999983787536621,3.1415678939667586,0.0,True,0.010721683502197266,15.67534351348877,5.999983787536621,3.1415679454803467,0.0,0.0,0.0
1759837110.829396,2,15.67534351348877,5.999983787536621,3.1415678956385253,0.0,True,0.011251688003540039,15.67534351348877,5.999983787536621,3.1415679454803467,0.0,0.0,0.0
1759837110.840356,2,15.67534351348877,5.999983787536621,3.141567897535957,0.0,True,0.010960102081298828,15.67534351348877,5.999983787536621,3.1415679454803467,0.0,0.0,0.0
1759837110.8510299,2,15.67534351348877,5.999983787536621,3.1415678995991136,0.0,True,0.010673761367797852,15.67534351348877,5.999983787536621,3.1415679454803467,0.0,0.0,0.0
1759837110.8622882,2,15.67534351348877,5.999983787536621,3.141567900927104,0.0,True,0.011258363723754883,15.67534351348877,5.999983787536621,3.1415679454803467,0.0,0.0,0.0
1759837110.873673,2,15.67534351348877,5.999983787536621,3.1415679021363783,0.0,True,0.011384725570678711,15.67534351348877,5.999983787536621,3.1415679454803467,0.0,0.0,0.0
1759837110.8843458,2,15.67534351348877,5.999983787536621,3.1415679040169078,0.0,True,0.010672807693481445,15.67534351348877,5.999983787536621,3.1415679454803467,0.0,0.0,0.0
1759837110.8955069,2,15.67534351348877,5.999983787536621,3.1415679053402847,0.0,True,0.011161088943481445,15.67534351348877,5.999983787536621,3.1415679454803467,0.0,0.0,0.0
1759837110.9071412,2,15.67534351348877,5.999983787536621,3.141567906242914,0.0,True,0.011634349822998047,15.67534351348877,5.999983787536621,3.1415679454803467,0.0,0.0,0.0
1759837110.9175012,2,15.67534351348877,5.999983787536621,3.141567908237448,0.0,True,0.010360002517700195,15.67534351348877,5.999983787536621,3.1415679454803467,0.0,0.0,0.0
1759837110.9286516,2,15.67534351348877,5.999983787536621,3.1415679094270033,0.0,True,0.011150360107421875,15.67534351348877,5.999983787536621,3.1415679454803467,0.0,0.0,0.0
1759837110.9397082,2,15.67534351348877,5.999983787536621,3.141567910628684,0.0,True,0.011056661605834961,15.67534351348877,5.999983787536621,3.1415679454803467,0.0,0.0,0.0
1759837110.9567332,2,15.67534351348877,5.999983787536621,3.1415679077085414,0.0,True,0.017024993896484375,15.67534351348877,5.999983787536621,3.1415679454803467,0.0,0.0,0.0
1759837110.9669216,2,15.67534351348877,5.999983787536621,3.1415679105950023,0.0,True,0.01018834114074707,15.67534351348877,5.999983787536621,3.1415679454803467,0.0,0.0,0.0
1759837110.9782197,2,15.67534351348877,5.999983787536621,3.1415679125236284,0.0,True,0.011298179626464844,15.67534351348877,5.999983787536621,3.1415679454803467,0.0,0.0,0.0
1759837110.9896386,2,15.67534351348877,5.999983787536621,3.141567914065261,0.0,True,0.011418819427490234,15.67534351348877,5.999983787536621,3.1415679454803467,0.0,0.0,0.0
