timestamp,observer_vehicle_id,vehicle_0_x,vehicle_0_y,vehicle_0_theta,vehicle_0_velocity,vehicle_1_x,vehicle_1_y,vehicle_1_theta,vehicle_1_velocity,vehicle_2_x,vehicle_2_y,vehicle_2_theta,vehicle_2_velocity
1759839621.4096284,2,-0.23946006323049007,-0.16493922535069033,-0.14262343923614937,0.0,0.0,0.0,0.0,0.0,-1.95,0.197,-0.8848819307611251,0.0
1759839621.4203095,2,-0.4292715100630248,-0.2956806633211523,-0.2556759499071589,0.0,-0.3433845174214355,-0.06927063610410898,-0.14204513494576362,0.0,-1.95,0.197,-0.8848819307611251,0.0
1759839621.4312577,2,-0.5800701502710194,-0.3995502212102404,-0.34549226586585424,0.0,-0.6157605537775176,-0.12421679803238678,-0.2547167577979613,0.0,-1.95,0.197,-0.8848819307611251,0.0
1759839621.442286,2,-0.7001757253264844,-0.48227850684875023,-0.41702766076532727,0.0,-0.8323567126857053,-0.16791053768595052,-0.3443143635720387,0.0,-1.95,0.197,-0.8848819307611251,0.0
1759839621.4530303,2,-0.7961133440132665,-0.5483599915636216,-0.4741685173434229,0.0,-1.0050973327940147,-0.2027573406978497,-0.4157705983439329,0.0,-1.95,0.197,-0.8848819307611251,0.0
1759839621.4642344,2,-0.8729025828486224,-0.6012521415025517,-0.5199045168720077,0.0,-1.1431446666690241,-0.23060549967078914,-0.47287553806697974,0.0,-1.95,0.197,-0.8848819307611251,0.0
1759839621.4746292,2,-0.9345803171176656,-0.6437355417592772,-0.5566400395603027,0.0,-1.2538524964679696,-0.25293848617077874,-0.5186711631622252,0.0,-1.95,0.197,-0.8848819307611251,0.0
1759839621.4848616,2,-0.9872637959101089,-0.6800237313787756,-0.5880185451655173,0.0,-1.3428675146615332,-0.2708954021650992,-0.5554932958735442,0.0,-1.95,0.197,-0.8848819307611251,0.0
1759839621.496099,2,-1.029194053767135,-0.7089051413157458,-0.6129923863269614,0.0,-1.4189836207768922,-0.28625023274386907,-0.5869796384899552,0.0,-1.95,0.197,-0.8848819307611251,0.0
1759839621.5063932,2,-1.0626876852541185,-0.7319754335269656,-0.6329413366894432,0.0,-1.479674336271174,-0.29849331376415494,-0.6120850827804438,0.0,-1.95,0.197,-0.8848819307611251,0.0
1759839621.5164063,2,-1.0895152805550221,-0.7504541841263659,-0.6489199673497363,0.0,-1.5281981157763218,-0.3082819702176776,-0.6321575276875272,0.0,-1.95,0.197,-0.8848819307611251,0.0
1759839621.527754,2,-1.1110234438254498,-0.7652689291852355,-0.6617303215102477,0.0,-1.5670307593172221,-0.31611564291754746,-0.6482211176638282,0.0,-1.95,0.197,-0.8848819307611251,0.0
1759839621.5389826,2,-1.1283148222732706,-0.7771791681117324,-0.6720291405704776,0.0,-1.598194306415915,-0.32240223599692447,-0.6611122936733443,0.0,-1.95,0.197,-0.8848819307611251,0.0
1759839621.5492048,2,-1.1422678593258058,-0.7867899695609888,-0.6803396291979967,0.0,-1.6232963427461073,-0.32746604620350644,-0.6714960528617633,0.0,-1.95,0.197,-0.8848819307611251,0.0
1759839621.5598266,2,-1.1542174406874597,-0.7950207979774965,-0.6874568510354888,0.0,-1.6435551816945875,-0.3315528427522559,-0.6798763652121584,0.0,-1.95,0.197,-0.8848819307611251,0.0
1759839621.5703967,2,-1.163783435094269,-0.801609820321692,-0.6931543982740848,0.0,-1.660940857377093,-0.33506003877457635,-0.6870681590268282,0.0,-1.95,0.197,-0.8848819307611251,0.0
1759839621.5816226,2,-1.1714549219409365,-0.8068939127114924,-0.6977235686959327,0.0,-1.674854848600822,-0.33786689515252943,-0.6928238488169508,0.0,-1.95,0.197,-0.8848819307611251,0.0
1759839621.5923088,2,-1.1776268433391428,-0.8111451098447932,-0.7013995915142348,0.0,-1.6860261727728196,-0.3401204758827571,-0.6974450013996305,0.0,-1.95,0.197,-0.8848819307611251,0.0
1759839621.603769,2,-1.1826004527105598,-0.8145709139887135,-0.7043618945571679,0.0,-1.6950102837157288,-0.3419328321430757,-0.7011613869281225,0.0,-1.949999810854594,0.19700008558829626,-0.47270544603464165,0.0
1759839621.6138723,2,-1.1866251065965139,-0.8173430810269178,-0.7067589956487073,0.0,-1.7022654726446869,-0.34339641458976944,-0.7041625830746746,0.0,-1.9499998097964315,0.1970000860671147,-0.4375268330414172,0.0
1759839621.6249268,2,-1.189885997070289,-0.8195891705895861,-0.7087011959808541,0.0,-1.708131999255295,-0.34457986349157227,-0.7065893423541095,0.0,-1.9499998094644417,0.19700008621734014,-0.4341928268308237,0.0
1759839621.635209,2,-1.1927044198434325,-0.8215304900006044,-0.7103798606554739,0.0,-1.7128918952253867,-0.34554007283389676,-0.7085583305614889,0.0,-1.9499998093410662,0.19700008627316754,-0.43376972733318553,0.0
1759839621.6459563,2,-1.1949708349669577,-0.8230915885393513,-0.7117297472098044,0.0,-1.7170011297802081,-0.34636902486018784,-0.7102581648500192,0.0,-1.9499998092941282,0.197000086294407,-0.4337094840210227,0.0
1759839621.6571074,2,-1.1967971137653348,-0.8243495227694478,-0.7128174866838306,0.0,-1.7203064321055717,-0.3470358003930909,-0.7116254429042788,0.0,-1.9499998092762099,0.19700008630251503,-0.43374951875773604,0.0
1759839621.6673722,2,-1.1982739866502767,-0.8253667874702814,-0.713697118499355,0.0,-1.7229745779643324,-0.3475740429505678,-0.712729153524107,0.0,-1.9499998092693662,0.19700008630561178,-0.4338401868079629,0.0
1759839621.6774879,2,-1.1994713452897543,-0.8261915237699302,-0.714410270433158,0.0,-1.7251338900899345,-0.3480096389570826,-0.7136223789513174,0.0,-1.9499998092667523,0.1970000863067946,-0.4339277940953217,0.0
1759839621.6877034,2,-1.2004442498442034,-0.8268616569077326,-0.7149897365526107,0.0,-1.7268853069615882,-0.3483629506372188,-0.7143468736016543,0.0,-1.9499998092657538,0.1970000863072464,-0.43400141146755544,0.0
1759839621.6983647,2,-1.2012362278610047,-0.8274071685008714,-0.7154614420513556,0.0,-1.7283085056424534,-0.3486500511700744,-0.7149355968504374,0.0,-1.9499998092653723,0.19700008630741897,-0.4340596577322362,0.0
1759839621.70982,2,-1.201921412073366,-0.8278791209078187,-0.7158695407027922,0.0,-1.72946675906187,-0.34888370454424295,-0.7154147223057663,0.0,-1.9499998092652266,0.1970000863074849,-0.4341046893219058,0.0
1759839621.720451,2,-1.2024753086028659,-0.8282606428337201,-0.7161994438480287,0.0,-1.7304726432273443,-0.34908662061195816,-0.7158308183869103,0.0,-1.9499998092651711,0.19700008630751006,-0.4341519877437978,0.0
1759839621.731627,2,-1.2029238995933353,-0.8285696306852606,-0.7164666265632088,0.0,-1.7312855420471627,-0.34925060592719587,-0.7161670837591101,0.0,-1.9499998092651498,0.1970000863075197,-0.43418846225473473,0.0
1759839621.7423508,2,-1.2032883257547282,-0.8288206461069838,-0.7166836803457239,0.0,-1.731944509357683,-0.349383538783675,-0.7164396735114105,0.0,-1.9499998092651418,0.19700008630752336,-0.43422257956882504,0.0
1759839621.7536063,2,-1.2035849240074576,-0.8290249419105745,-0.716860335535341,0.0,-1.7324796871149974,-0.3494914996898811,-0.7166610562264162,0.0,-1.9499998092651387,0.19700008630752477,-0.43424865324937656,0.0
1759839621.7643363,2,-1.203827085617091,-0.8291917419513151,-0.717004568027185,0.0,-1.7329157119861653,-0.34957945857751477,-0.7168414231577205,0.0,-1.9499998092651374,0.1970000863075253,-0.43427394750628423,0.0
1759839621.774461,2,-1.204025425761852,-0.8293283579255677,-0.7171227002668695,0.0,-1.7332720758903526,-0.34965134753311755,-0.7169888373720834,0.0,-1.949999809265137,0.1970000863075255,-0.43429791273862683,0.0
1759839621.7854722,2,-1.204198639113024,-0.8294476666552879,-0.7172258668806777,0.0,-1.7335636986681002,-0.3497101763221052,-0.7171094706409606,0.0,-1.9499998092651367,0.19700008630752558,-0.4343139850892399,0.0
1759839621.7967374,2,-1.204339255604435,-0.8295445227859176,-0.7173096186652042,0.0,-1.7338183739471347,-0.3497615517268881,-0.7172148201326893,0.0,-1.9499998092651367,0.1970000863075256,-0.4343273062343975,0.0
1759839621.8085952,2,-1.204453625276827,-0.82962330020255,-0.7173777377319112,0.0,-1.7340250831203365,-0.34980325097420356,-0.7173003278679316,0.0,-1.9499998092651367,0.19700008630752563,-0.43433775299036986,0.0
1759839621.818965,2,-1.2045470598453722,-0.8296876575953819,-0.7174333877611049,0.0,-1.7341936030467466,-0.34983724634064084,-0.717370038162,0.0,-1.9499998092651367,0.19700008630752563,-0.434352843468897,0.0
1759839621.8291144,2,-1.204623591590954,-0.8297403723848992,-0.7174789703965487,0.0,-1.734331350200913,-0.34986503394464313,-0.7174270189287768,0.0,-1.9499998092651367,0.19700008630752563,-0.4343663260900996,0.0
1759839621.8398097,2,-1.2046863817099231,-0.8297836219917136,-0.7175163684603286,0.0,-1.734444131321963,-0.34988778517423935,-0.7174736721957299,0.0,-1.9499998092651367,0.19700008630752563,-0.4343759159054912,0.0
1759839621.8510282,2,-1.2047379888974572,-0.8298191688358075,-0.7175471059222506,0.0,-1.7345366365750783,-0.3499064461720455,-0.7175119381060879,0.0,-1.9499998092651367,0.19700008630752563,-0.4343829331204674,0.0
1759839621.861935,2,-1.204783385630401,-0.8298504379412451,-0.7175741444108203,0.0,-1.734612731032307,-0.3499217966354148,-0.7175434154933821,0.0,-1.9499998092651367,0.19700008630752563,-0.4343904532545029,0.0
1759839621.873046,2,-1.2048204300056689,-0.8298759539729283,-0.7175962081993861,0.0,-1.734679740066254,-0.34993531430488073,-0.7175711345860805,0.0,-1.9499998092651367,0.19700008630752563,-0.4343969511213146,0.0
1759839621.8843312,2,-1.2048507286432573,-0.8298968235648995,-0.7176142541976989,0.0,-1.7347344254929973,-0.34994634594464297,-0.7175937558704635,0.0,-1.9499998092651367,0.19700008630752563,-0.43440268212449595,0.0
1759839621.8947432,2,-1.2048755990199207,-0.8299139541903813,-0.7176290671005562,0.0,-1.7347792141015599,-0.3499553811085713,-0.7176122832169936,0.0,-1.9499998092651367,0.19700008630752563,-0.4344100653159124,0.0
1759839621.9048488,2,-1.2048960692285473,-0.8299280539960361,-0.7176412592444854,0.0,-1.7348159970390935,-0.34996280129600393,-0.7176274989214315,0.0,-1.9499998092651367,0.19700008630752563,-0.4344171480970864,0.0
1759839621.9151077,2,-1.2049129529156948,-0.8299396834186695,-0.7176513152408609,0.0,-1.7348462686371318,-0.3499689079570373,-0.7176400211319861,0.0,-1.9499998092651367,0.19700008630752563,-0.4344228406209645,0.0
1759839621.9258041,2,-1.2049269028570266,-0.8299492920877976,-0.7176596238856638,0.0,-1.7348712255769452,-0.3499739424970598,-0.7176503448702556,0.0,-1.9499998092651367,0.19700008630752563,-0.4344269513315773,0.0
1759839621.936018,2,-1.2049384632631088,-0.8299572548536893,-0.717666509313038,0.0,-1.7348918624624183,-0.3499781055565789,-0.717658881566097,0.0,-1.9499998092651367,0.19700008630752563,-0.43443165073963635,0.0
1759839621.9468553,2,-1.2049487128977299,-0.8299643147649401,-0.7176726140393161,0.0,-1.7349089524972188,-0.3499815531132438,-0.7176659510645057,0.0,-1.9499998092651367,0.19700008630752563,-0.4344348027867149,0.0
1759839621.957297,2,-1.2049571432020845,-0.8299701215280846,-0.7176776351646956,0.0,-1.7349241052445725,-0.3499846098627321,-0.7176722191806656,0.0,-1.9499998092651367,0.19700008630752563,-0.4344385250000258,0.0
1759839621.96802,2,-1.204964090984434,-0.8299749071354346,-0.7176817732936194,0.0,-1.7349365676640405,-0.3499871238949035,-0.7176773744103433,0.0,-1.9499998092651367,0.19700008630752563,-0.43444155873787693,0.0
1759839621.9793034,2,-1.2049698266628772,-0.8299788578499986,-0.7176851894882654,0.0,-1.7349468349704742,-0.34998919510898463,-0.7176816216051174,0.0,-1.9499998092651367,0.19700008630752563,-0.4344436368321425,0.0
1759839621.990087,2,-1.2049745765229436,-0.8299821295364306,-0.717688018525264,0.0,-1.7349553203146868,-0.349990906849501,-0.71768513166979,0.0,-1.9499998092651367,0.19700008630752563,-0.43444663380050486,0.0
1759839622.0012264,2,-1.2049785175830559,-0.8299848441243798,-0.7176903658375459,0.0,-1.7349623465904505,-0.34999232425350996,-0.717688038173253,0.0,-1.9499998092651367,0.19700008630752563,-0.43444905630255454,0.0
1759839622.0118985,2,-1.2049820267276627,-0.8299872612104913,-0.717692455899103,0.0,-1.7349681824620684,-0.3499935015184089,-0.7176904522517261,0.0,-1.9499998092651367,0.19700008630752563,-0.43445210720439137,0.0
1759839622.023272,2,-1.204984916951133,-0.8299892519859627,-0.7176941773285804,0.0,-1.7349733633885585,-0.3499945466618425,-0.7176925954042711,0.0,-1.9499998092651367,0.19700008630752563,-0.43445406320997293,0.0
1759839622.0339248,2,-1.2049873055773392,-0.8299908972630532,-0.717695600004579,0.0,-1.7349776384345903,-0.3499954090628623,-0.7176943638284711,0.0,-1.9499998092651367,0.19700008630752563,-0.43445696802432465,0.0
1759839622.044617,2,-1.2049892842333967,-0.829992260154188,-0.7176967785006011,0.0,-1.7349811741955075,-0.3499961223285904,-0.7176958264384932,0.0,-1.9499998092651367,0.19700008630752563,-0.4344596160708108,0.0
1759839622.0558481,2,-1.20499092602499,-0.8299933910142987,-0.7176977563587057,0.0,-1.7349841034461437,-0.34999671324356935,-0.7176970381582441,0.0,-1.9499998092651367,0.19700008630752563,-0.4344614305290584,0.0
1759839622.0667648,2,-1.2049922922139578,-0.8299943320403177,-0.717698570066706,0.0,-1.7349865372027165,-0.34999720420299635,-0.7176980449109172,0.0,-1.9499998092651367,0.19700008630752563,-0.434463597906257,0.0
1759839622.0772572,2,-1.2049934324141625,-0.8299951174060943,-0.7176992491748313,0.0,-1.7349885652429096,-0.34999761331763923,-0.7176988838341308,0.0,-1.9499998092651367,0.19700008630752563,-0.43446612379198335,0.0
1759839622.0881717,2,-1.204994451973145,-0.8299958196746334,-0.7176998564285281,0.0,-1.734990258134815,-0.3499979548231329,-0.7176995841192251,0.0,-1.9499998092651367,0.19700008630752563,-0.43446797686307903,0.0
1759839622.0990953,2,-1.2049952967047763,-0.8299964015227256,-0.7177003595543056,0.0,-1.734991778203388,-0.34999826146513807,-0.7177002129138695,0.0,-1.9499998092651367,0.19700008630752563,-0.4344697244635931,0.0
1759839622.1093793,2,-1.2049959988498584,-0.8299968851577182,-0.7177007777549236,0.0,-1.7349930390541044,-0.3499985158153686,-0.7177007344799307,0.0,-1.9499998092651367,0.19700008630752563,-0.43447201017861836,0.0
1759839622.1206307,2,-1.2049965830632376,-0.8299972875617805,-0.7177011257149144,0.0,-1.734994085969362,-0.34999872700859996,-0.7177011675490165,0.0,-1.9499998092651367,0.19700008630752563,-0.43447318662771295,0.0
1759839622.131518,2,-1.204997070578269,-0.8299976233603708,-0.7177014160809552,0.0,-1.7349949578028099,-0.3499989028827424,-0.7177015281934063,0.0,-1.9499998092651367,0.19700008630752563,-0.4344747174547692,0.0
1759839622.1423206,2,-1.2049974784085407,-0.8299979042723865,-0.7177016589864115,0.0,-1.7349956856405009,-0.349999049708756,-0.7177018292722196,0.0,-1.9499998092651367,0.19700008630752563,-0.43447629505635277,0.0
1759839622.1529872,2,-1.2049978486077655,-0.8299981592642736,-0.7177018794786554,0.0,-1.734996294802506,-0.34999917259443497,-0.7177020812594083,0.0,-1.9499998092651367,0.19700008630752563,-0.4344779039122528,0.0
1759839622.1636648,2,-1.2049981557125895,-0.8299983707969655,-0.7177020623916038,0.0,-1.734996805807858,-0.3499992756790646,-0.717702292642917,0.0,-1.9499998092651367,0.19700008630752563,-0.43447939203060315,0.0
1759839622.174525,2,-1.2049984110159797,-0.8299985466490171,-0.7177022144513964,0.0,-1.7349972702745262,-0.3499993693754892,-0.7177024847751396,0.0,-1.9499998092651367,0.19700008630752563,-0.4344806450274401,0.0
1759839622.1847305,2,-1.2049986239430828,-0.8299986933124353,-0.7177023412716906,0.0,-1.734997656992787,-0.34999944738780064,-0.7177026447457988,0.0,-1.9499998092651367,0.19700008630752563,-0.43448232603866194,0.0
1759839622.1961148,2,-1.2049988016464859,-0.8299988157138967,-0.7177024471125988,0.0,-1.7349979792002241,-0.3499995123864042,-0.7177027780307799,0.0,-1.9499998092651367,0.19700008630752563,-0.43448301480392715,0.0
1759839622.2073066,2,-1.204998950356251,-0.829998918144645,-0.7177025356847718,0.0,-1.7349982483898658,-0.3499995666897777,-0.7177028893843123,0.0,-1.9499998092651367,0.19700008630752563,-0.4344839166103398,0.0
1759839622.217114,2,-1.2049990753389048,-0.8299990042322449,-0.7177026101249757,0.0,-1.734998474251864,-0.3499996122527064,-0.7177029828148439,0.0,-1.9499998092651367,0.19700008630752563,-0.4344857751208036,0.0
1759839622.2278166,2,-1.2049991804726141,-0.8299990766479635,-0.7177026727430631,0.0,-1.734998663930792,-0.34999965051645837,-0.7177030612778135,0.0,-1.9499998092651367,0.19700008630752563,-0.43448682790059223,0.0
1759839622.238067,2,-1.2049992758261152,-0.82999914232711,-0.7177027295360168,0.0,-1.7349988236894354,-0.34999968274441945,-0.7177031273638976,0.0,-1.9499998092651367,0.19700008630752563,-0.4344880675728007,0.0
1759839622.2484417,2,-1.2049993555122336,-0.8299991972146201,-0.7177027769974103,0.0,-1.73499896866004,-0.3499997119892033,-0.7177031873327315,0.0,-1.9499998092651367,0.19700008630752563,-0.43448912262525674,0.0
1759839622.2586138,2,-1.2049994222738993,-0.8299992431998139,-0.7177028167609443,0.0,-1.7349990899168415,-0.349999736450224,-0.7177032374920657,0.0,-1.9499998092651367,0.19700008630752563,-0.43449020768418123,0.0
1759839622.2698524,2,-1.2049994782493245,-0.8299992817554842,-0.7177028501001471,0.0,-1.7349991914172973,-0.3499997569258156,-0.7177032794789497,0.0,-1.9499998092651367,0.19700008630752563,-0.43449061665157984,0.0
1759839622.2803102,2,-1.2049995253449484,-0.8299993141947797,-0.7177028781505025,0.0,-1.7349992766766504,-0.34999977412510486,-0.7177033147475064,0.0,-1.9499998092651367,0.19700008630752563,-0.43449152978069355,0.0
1759839622.2917442,2,-1.2049995650036898,-0.8299993415115772,-0.7177029017714187,0.0,-1.7349993483572086,-0.3499997885851565,-0.7177033443990313,0.0,-1.9499998092651367,0.19700008630752563,-0.4344919279833963,0.0
1759839622.3027332,2,-1.204999598501809,-0.8299993645849605,-0.717702921723042,0.0,-1.7349994088056777,-0.3499998007793694,-0.7177033694042674,0.0,-1.9499998092651367,0.19700008630752563,-0.43449264397747106,0.0
1759839622.3129125,2,-1.2049996290606795,-0.8299993856337999,-0.7177029399240361,0.0,-1.7349994599600003,-0.3499998110986828,-0.717703390564868,0.0,-1.9499998092651367,0.19700008630752563,-0.4344937712369976,0.0
1759839622.3242025,2,-1.2049996546900756,-0.8299994032872354,-0.7177029551890143,0.0,-1.734999506802966,-0.3499998205482702,-0.717703409942024,0.0,-1.9499998092651367,0.19700008630752563,-0.4344942737435993,0.0
1759839622.3344054,2,-1.2049996762695903,-0.8299994181511271,-0.7177029680418656,0.0,-1.7349995461513594,-0.3499998284859847,-0.7177034262189602,0.0,-1.9499998092651367,0.19700008630752563,-0.43449528530730674,0.0
1759839622.3448505,2,-1.2049996944727264,-0.8299994306893813,-0.7177029788837314,0.0,-1.7349995792658708,-0.34999983516614397,-0.7177034399171761,0.0,-1.9499998092651367,0.19700008630752563,-0.43449610037714237,0.0
1759839622.356173,2,-1.2049997098425949,-0.8299994412760912,-0.7177029880380908,0.0,-1.7349996071619394,-0.3499998407935917,-0.7177034514567204,0.0,-1.9499998092651367,0.19700008630752563,-0.4344964801872599,0.0
1759839622.367495,2,-1.2049997228510259,-0.8299994502362513,-0.7177029957859681,0.0,-1.7349996307181201,-0.34999984554555785,-0.7177034612010178,0.0,-1.9499998092651367,0.19700008630752563,-0.4344969192957677,0.0
1759839622.3788493,2,-1.2049997338862888,-0.8299994578373006,-0.717703002358618,0.0,-1.7349996506558925,-0.34999984956758595,-0.7177034694485172,0.0,-1.9499998092651367,0.19700008630752563,-0.43449741122788055,0.0
1759839622.3896542,2,-1.204999744011242,-0.8299994648113317,-0.7177030083890834,0.0,-1.7349996675847437,-0.3499998529826272,-0.71770347645134,0.0,-1.9499998092651367,0.19700008630752563,-0.43449814761659944,0.0
1759839622.4003074,2,-1.2049997525554879,-0.8299994706965773,-0.7177030134780729,0.0,-1.7349996831951682,-0.3499998561317035,-0.7177034829087799,0.0,-1.9499998092651367,0.19700008630752563,-0.4344988980373863,0.0
1759839622.4182112,2,-1.2049997597067756,-0.8299994756223584,-0.7177030177374105,0.0,-1.7349996962236287,-0.3499998587599226,-0.7177034882981593,0.0,-1.9499998092651367,0.19700008630752563,-0.4344971614836659,0.0
1759839622.4284327,2,-1.2049997657819083,-0.8299994798068878,-0.7177030213557856,0.0,-1.734999707257988,-0.3499998609858735,-0.7177034928626546,0.0,-1.9499998092651367,0.19700008630752563,-0.43449862476756707,0.0
1759839622.439748,2,-1.2049997709454203,-0.8299994833634962,-0.7177030244311954,0.0,-1.7349997166086322,-0.34999986287217016,-0.717703496730661,0.0,-1.9499998092651367,0.19700008630752563,-0.43449963438513,0.0
1759839622.4499202,2,-1.204999775716802,-0.8299994866500067,-0.7177030272730508,0.0,-1.7349997245646538,-0.34999986447713094,-0.7177035000217651,0.0,-1.9499998092651367,0.19700008630752563,-0.43450081158158227,0.0
1759839622.4606173,2,-1.2049997797480667,-0.8299994894267272,-0.7177030296740894,0.0,-1.7349997313430539,-0.3499998658445312,-0.7177035028257317,0.0,-1.9499998092651367,0.19700008630752563,-0.4345016210166648,0.0
1759839622.47194,2,-1.2049997831586197,-0.8299994917759038,-0.7177030317054294,0.0,-1.7349997371253176,-0.34999986701098185,-0.7177035052176346,0.0,-1.9499998092651367,0.19700008630752563,-0.43450212356664514,0.0
1759839622.483021,2,-1.2049997860518837,-0.8299994937687737,-0.71770303342867,0.0,-1.734999742487657,-0.34999986809272154,-0.7177035074358308,0.0,-1.9499998092651367,0.19700008630752563,-0.4345026581005484,0.0
1759839622.493749,2,-1.204999788513272,-0.829999495464169,-0.7177030348946833,0.0,-1.7349997470364953,-0.34999986901035435,-0.7177035093175121,0.0,-1.9499998092651367,0.19700008630752563,-0.4345032510984819,0.0
1759839622.504948,2,-1.2049997906103989,-0.8299994969086625,-0.7177030361437412,0.0,-1.7349997509011754,-0.34999986978997266,-0.7177035109161836,0.0,-1.9499998092651367,0.19700008630752563,-0.4345036674992606,0.0
1759839622.5152106,2,-1.2049997924038682,-0.8299994981439976,-0.7177030372119393,0.0,-1.734999754196869,-0.3499998704548098,-0.7177035122794868,0.0,-1.9499998092651367,0.19700008630752563,-0.4345042918009625,0.0
1759839622.5264733,2,-1.2049997940751314,-0.8299994992951576,-0.7177030382073507,0.0,-1.7349997570089875,-0.34999987102209584,-0.7177035134427535,0.0,-1.9499998092651367,0.19700008630752563,-0.43450460732416474,0.0
1759839622.5371408,2,-1.204999795493188,-0.8299995002719097,-0.717703039051951,0.0,-1.7349997594162323,-0.34999987150770706,-0.7177035144385394,0.0,-1.9499998092651367,0.19700008630752563,-0.4345050537474684,0.0
1759839622.5473456,2,-1.2049997966999155,-0.8299995011030994,-0.7177030397706832,0.0,-1.7349997616589448,-0.3499998719601274,-0.7177035153662643,0.0,-1.9499998092651367,0.19700008630752563,-0.4345055717525952,0.0
1759839622.5574338,2,-1.204999797729177,-0.8299995018120511,-0.7177030403837158,0.0,-1.7349997635675676,-0.3499998723451521,-0.7177035161557892,0.0,-1.9499998092651367,0.19700008630752563,-0.4345060504980509,0.0
1759839622.5685992,2,-1.2049997986074534,-0.8299995024170046,-0.7177030409068209,0.0,-1.7349997651926408,-0.34999987267297655,-0.7177035168280202,0.0,-1.9499998092651367,0.19700008630752563,-0.43450624552811057,0.0
1759839622.5790412,2,-1.2049997993594506,-0.8299995029349775,-0.7177030413547136,0.0,-1.7349997665810069,-0.34999987295305035,-0.7177035174023346,0.0,-1.9499998092651367,0.19700008630752563,-0.43450660050663714,0.0
1759839622.5899665,2,-1.204999800004201,-0.8299995033790792,-0.7177030417387298,0.0,-1.7349997677687914,-0.34999987319266096,-0.7177035178936759,0.0,-1.9499998092651367,0.19700008630752563,-0.4345068469965305,0.0
1759839622.60076,2,-1.204999800558335,-0.8299995037607648,-0.7177030420687746,0.0,-1.7349997687874399,-0.349999873398152,-0.7177035183150522,0.0,-1.9499998092651367,0.19700008630752563,-0.43450712167333627,0.0
1759839622.6138902,2,-1.2049998010765135,-0.8299995041176843,-0.7177030423774039,0.0,-1.7349997696596218,-0.3499998735740964,-0.7177035186758407,0.0,-1.9499998092651367,0.19700008630752563,-0.4345069824927492,0.0
1759839622.6249533,2,-1.2049998015189476,-0.8299995044224313,-0.7177030426409196,0.0,-1.734999770478142,-0.3499998737392157,-0.7177035190144313,0.0,-1.9499998092651367,0.19700008630752563,-0.43450732195476327,0.0
1759839622.635564,2,-1.2049998018978303,-0.8299995046834044,-0.7177030428665837,0.0,-1.734999771177591,-0.3499998738803149,-0.7177035193037669,0.0,-1.9499998092651367,0.19700008630752563,-0.43450774206133147,0.0
1759839622.6465867,2,-1.2049998022227764,-0.8299995049072262,-0.717703043060123,0.0,-1.7349997717762018,-0.34999987400107213,-0.7177035195513894,0.0,-1.9499998092651367,0.19700008630752563,-0.43450804802338894,0.0
1759839622.657266,2,-1.2049998025022375,-0.829999505099718,-0.7177030432265713,0.0,-1.7349997722899368,-0.34999987410470745,-0.7177035197639021,0.0,-1.9499998092651367,0.19700008630752563,-0.4345083820081932,0.0
1759839622.6679397,2,-1.2049998027430964,-0.8299995052656207,-0.7177030433700279,0.0,-1.7349997727317843,-0.34999987419384093,-0.7177035199466777,0.0,-1.9499998092651367,0.19700008630752563,-0.4345086855721121,0.0
1759839622.6790528,2,-1.204999802969467,-0.829999505421544,-0.7177030435048551,0.0,-1.7349997731123383,-0.3499998742706097,-0.7177035201040983,0.0,-1.9499998092651367,0.19700008630752563,-0.4345088979938492,0.0
1759839622.6896045,2,-1.2049998031633937,-0.82999950555512,-0.7177030436203587,0.0,-1.734999773441132,-0.3499998743369369,-0.7177035202401078,0.0,-1.9499998092651367,0.19700008630752563,-0.43450918539680217,0.0
1759839622.7002866,2,-1.2049998033298481,-0.8299995056697732,-0.7177030437194997,0.0,-1.7349997737526854,-0.3499998743997863,-0.7177035203689855,0.0,-1.9499998092651367,0.19700008630752563,-0.4345094324163803,0.0
1759839622.7111118,2,-1.2049998034729965,-0.8299995057683732,-0.7177030438047595,0.0,-1.7349997740199259,-0.34999987445369646,-0.7177035204795328,0.0,-1.9499998092651367,0.19700008630752563,-0.43450964230448363,0.0
1759839622.721725,2,-1.2049998035964113,-0.829999505853381,-0.7177030438782659,0.0,-1.7349997742497354,-0.3499998745000557,-0.7177035205745964,0.0,-1.9499998092651367,0.19700008630752563,-0.43450987053272355,0.0
1759839622.7325335,2,-1.2049998037030023,-0.8299995059268005,-0.7177030439417519,0.0,-1.7349997744477132,-0.34999987453999365,-0.7177035206564923,0.0,-1.9499998092651367,0.19700008630752563,-0.4345100610239853,0.0
1759839622.744003,2,-1.2049998038036607,-0.8299995059961336,-0.7177030440017045,0.0,-1.7349997746184445,-0.3499998745744351,-0.7177035207271173,0.0,-1.9499998092651367,0.19700008630752563,-0.43451016800813846,0.0
1759839622.7546604,2,-1.2049998038900773,-0.829999506055657,-0.7177030440531744,0.0,-1.7349997747662138,-0.3499998746042445,-0.7177035207882438,0.0,-1.9499998092651367,0.19700008630752563,-0.43451038621297755,0.0
1759839622.765532,2,-1.2049998039644003,-0.8299995061068504,-0.7177030440974413,0.0,-1.7349997748943278,-0.34999987463008875,-0.7177035208412398,0.0,-1.9499998092651367,0.19700008630752563,-0.43451057094617695,0.0
1759839622.7763078,2,-1.2049998040284708,-0.829999506150982,-0.717703044135602,0.0,-1.7349997750162156,-0.349999874654677,-0.7177035208916601,0.0,-1.9499998092651367,0.19700008630752563,-0.4345107571113989,0.0
1759839622.7864676,2,-1.204999804083879,-0.8299995061891469,-0.7177030441686033,0.0,-1.7349997751213615,-0.34999987467588806,-0.717703520935155,0.0,-1.9499998092651367,0.19700008630752563,-0.4345109965848657,0.0
1759839622.797655,2,-1.2049998041318073,-0.8299995062221598,-0.7177030441971497,0.0,-1.7349997752120925,-0.34999987469419114,-0.7177035209726869,0.0,-1.9499998092651367,0.19700008630752563,-0.43451110656562975,0.0
1759839622.808995,2,-1.2049998041733443,-0.8299995062507703,-0.7177030442218894,0.0,-1.7349997752905353,-0.34999987471001537,-0.7177035210051357,0.0,-1.9499998092651367,0.19700008630752563,-0.43451120717605995,0.0
1759839622.8203175,2,-1.2049998042129326,-0.8299995062780385,-0.7177030442454684,0.0,-1.734999775358505,-0.3499998747237268,-0.7177035210332522,0.0,-1.9499998092651367,0.19700008630752563,-0.43451132413938964,0.0
1759839622.831047,2,-1.204999804247066,-0.8299995063015495,-0.7177030442657983,0.0,-1.73499977541759,-0.349999874735646,-0.7177035210576934,0.0,-1.9499998092651367,0.19700008630752563,-0.4345115035037903,0.0
1759839622.841833,2,-1.204999804276556,-0.829999506321862,-0.7177030442833627,0.0,-1.734999775469174,-0.349999874746052,-0.7177035210790318,0.0,-1.9499998092651367,0.19700008630752563,-0.43451166698927146,0.0
1759839622.8529384,2,-1.2049998043020738,-0.8299995063394388,-0.7177030442985614,0.0,-1.7349997755184403,-0.3499998747559904,-0.7177035210994114,0.0,-1.9499998092651367,0.19700008630752563,-0.43451179217609237,0.0
1759839622.8633525,2,-1.2049998043242292,-0.8299995063546993,-0.7177030443117571,0.0,-1.7349997755611244,-0.3499998747646011,-0.7177035211170681,0.0,-1.9499998092651367,0.19700008630752563,-0.43451197105865447,0.0
1759839622.8740249,2,-1.204999804343495,-0.8299995063679696,-0.7177030443232321,0.0,-1.7349997755981643,-0.3499998747720731,-0.7177035211323901,0.0,-1.9499998092651367,0.19700008630752563,-0.4345121128428602,0.0
1759839622.8844287,2,-1.204999804360355,-0.8299995063795825,-0.7177030443332738,0.0,-1.734999775630388,-0.3499998747785736,-0.7177035211457199,0.0,-1.9499998092651367,0.19700008630752563,-0.4345122633160621,0.0
1759839622.8952866,2,-1.20499980437536,-0.829999506389918,-0.7177030443422109,0.0,-1.7349997756585644,-0.34999987478425754,-0.7177035211573753,0.0,-1.9499998092651367,0.19700008630752563,-0.43451236714076025,0.0
1759839622.905632,2,-1.2049998043895238,-0.8299995063996739,-0.7177030443506469,0.0,-1.7349997756836413,-0.34999987478931627,-0.7177035211677487,0.0,-1.9499998092651367,0.19700008630752563,-0.4345125046557694,0.0
1759839622.9157324,2,-1.2049998044018184,-0.8299995064081425,-0.7177030443579696,0.0,-1.7349997757072142,-0.3499998747940715,-0.7177035211774998,0.0,-1.9499998092651367,0.19700008630752563,-0.43451264793159444,0.0
1759839622.9272041,2,-1.2049998044124857,-0.82999950641549,-0.7177030443643231,0.0,-1.7349997757276368,-0.34999987479819133,-0.7177035211859478,0.0,-1.9499998092651367,0.19700008630752563,-0.43451268501476115,0.0
1759839622.9377458,2,-1.2049998044217767,-0.8299995064218897,-0.717703044369857,0.0,-1.7349997757453985,-0.3499998748017744,-0.7177035211932952,0.0,-1.9499998092651367,0.19700008630752563,-0.43451279473857873,0.0
1759839622.9490492,2,-1.2049998044300254,-0.8299995064275714,-0.71770304437477,0.0,-1.7349997757609237,-0.3499998748049063,-0.7177035211997173,0.0,-1.9499998092651367,0.19700008630752563,-0.4345128558293929,0.0
1759839622.959266,2,-1.2049998044373669,-0.8299995064326281,-0.7177030443791425,0.0,-1.734999775774741,-0.3499998748076937,-0.717703521205433,0.0,-1.9499998092651367,0.19700008630752563,-0.43451298872310673,0.0
1759839622.9695468,2,-1.2049998044439008,-0.8299995064371285,-0.7177030443830341,0.0,-1.7349997757870386,-0.34999987481017447,-0.71770352121052,0.0,-1.9499998092651367,0.19700008630752563,-0.43451310606674554,0.0
1759839622.9798622,2,-1.2049998044498342,-0.8299995064412156,-0.7177030443865682,0.0,-1.7349997757979834,-0.34999987481238237,-0.7177035212150473,0.0,-1.9499998092651367,0.19700008630752563,-0.4345132084786698,0.0
1759839622.9906042,2,-1.204999804455001,-0.8299995064447744,-0.7177030443896455,0.0,-1.7349997758079214,-0.34999987481438716,-0.7177035212191584,0.0,-1.9499998092651367,0.19700008630752563,-0.43451327869413525,0.0
1759839623.001856,2,-1.204999804459595,-0.8299995064479387,-0.7177030443923818,0.0,-1.734999775816569,-0.34999987481613165,-0.7177035212227356,0.0,-1.9499998092651367,0.19700008630752563,-0.43451332250314684,0.0
1759839623.0127144,2,-1.2049998044636838,-0.829999506450755,-0.717703044394817,0.0,-1.7349997758242652,-0.34999987481768424,-0.7177035212259193,0.0,-1.9499998092651367,0.19700008630752563,-0.43451339537687694,0.0
1759839623.024104,2,-1.204999804467323,-0.8299995064532615,-0.7177030443969844,0.0,-1.7349997758311149,-0.349999874819066,-0.7177035212287528,0.0,-1.9499998092651367,0.19700008630752563,-0.4345134446960408,0.0
1759839623.0346882,2,-1.2049998044705617,-0.8299995064554923,-0.7177030443989133,0.0,-1.734999775837211,-0.3499998748202958,-0.7177035212312747,0.0,-1.9499998092651367,0.19700008630752563,-0.4345135386292061,0.0
1759839623.0448732,2,-1.2049998044705617,-0.8299995064554923,-0.7177030443989133,0.0,-1.7349997758426368,-0.34999987482139033,-0.7177035212335191,0.0,-1.9499998092651367,0.19700008630752563,-0.43451364500645084,0.0
1759839623.0560083,2,-1.204999804473444,-0.8299995064574777,-0.7177030444006303,0.0,-1.7349997758426368,-0.34999987482139033,-0.7177035212335191,0.0,-1.9499998092651367,0.19700008630752563,-0.43451369697432796,0.0
1759839623.066423,2,-1.2049998044760093,-0.8299995064592447,-0.7177030444021582,0.0,-1.7349997758426368,-0.34999987482139033,-0.7177035212335191,0.0,-1.9499998092651367,0.19700008630752563,-0.43451378058189855,0.0
1759839623.0770366,2,-1.2049998044782926,-0.8299995064608173,-0.717703044403518,0.0,-1.7349997758474656,-0.34999987482236444,-0.7177035212355167,0.0,-1.9499998092651367,0.19700008630752563,-0.4345138503180728,0.0
1759839623.0881948,2,-1.2049998044803245,-0.829999506462217,-0.7177030444047282,0.0,-1.7349997758517635,-0.3499998748232314,-0.7177035212372945,0.0,-1.9499998092651367,0.19700008630752563,-0.43451389428539144,0.0
1759839623.0985374,2,-1.2049998044803245,-0.829999506462217,-0.7177030444047282,0.0,-1.7349997758555884,-0.349999874824003,-0.7177035212388768,0.0,-1.9499998092651367,0.19700008630752563,-0.4345139727298317,0.0
1759839623.1092014,2,-1.2049998044803245,-0.829999506462217,-0.7177030444047282,0.0,-1.7349997758555884,-0.349999874824003,-0.7177035212388768,0.0,-1.9499998092651367,0.19700008630752563,-0.4345140334480835,0.0
1759839623.120146,2,-1.2049998044803245,-0.829999506462217,-0.7177030444047282,0.0,-1.7349997758555884,-0.349999874824003,-0.7177035212388768,0.0,-1.9499998092651367,0.19700008630752563,-0.4345140807538037,0.0
1759839623.1304843,2,-1.2049998044821328,-0.8299995064634627,-0.7177030444058053,0.0,-1.7349997758555884,-0.349999874824003,-0.7177035212388768,0.0,-1.9499998092651367,0.19700008630752563,-0.43451414981833736,0.0
1759839623.1417882,2,-1.2049998044837424,-0.8299995064645713,-0.7177030444067641,0.0,-1.7349997758555884,-0.349999874824003,-0.7177035212388768,0.0,-1.9499998092651367,0.19700008630752563,-0.43451418145245313,0.0
1759839623.1526268,2,-1.2049998044837424,-0.8299995064645713,-0.7177030444067641,0.0,-1.7349997758589926,-0.34999987482468975,-0.717703521240285,0.0,-1.9499998092651367,0.19700008630752563,-0.4345142320281177,0.0
1759839623.162936,2,-1.2049998044837424,-0.8299995064645713,-0.7177030444067641,0.0,-1.7349997758589926,-0.34999987482468975,-0.717703521240285,0.0,-1.9499998092651367,0.19700008630752563,-0.43451429916688156,0.0
1759839623.1731696,2,-1.2049998044837424,-0.8299995064645713,-0.7177030444067641,0.0,-1.7349997758589926,-0.34999987482468975,-0.717703521240285,0.0,-1.9499998092651367,0.19700008630752563,-0.43451436210638406,0.0
1759839623.1844118,2,-1.2049998044837424,-0.8299995064645713,-0.7177030444067641,0.0,-1.7349997758589926,-0.34999987482468975,-0.717703521240285,0.0,-1.9499998092651367,0.19700008630752563,-0.43451438872732595,0.0
1759839623.1946914,2,-1.2049998044837424,-0.8299995064645713,-0.7177030444067641,0.0,-1.7349997758589926,-0.34999987482468975,-0.717703521240285,0.0,-1.9499998092651367,0.19700008630752563,-0.4345144456921872,0.0
1759839623.2058628,2,-1.2049998044837424,-0.8299995064645713,-0.7177030444067641,0.0,-1.7349997758589926,-0.34999987482468975,-0.717703521240285,0.0,-1.9499998092651367,0.19700008630752563,-0.43451447453993985,0.0
1759839623.217228,2,-1.2049998044837424,-0.8299995064645713,-0.7177030444067641,0.0,-1.7349997758589926,-0.34999987482468975,-0.717703521240285,0.0,-1.9499998092651367,0.19700008630752563,-0.43451450062538477,0.0
1759839623.228597,2,-1.2049998044837424,-0.8299995064645713,-0.7177030444067641,0.0,-1.7349997758589926,-0.34999987482468975,-0.717703521240285,0.0,-1.9499998092651367,0.19700008630752563,-0.4345145312632379,0.0
1759839623.2388191,2,-1.2049998044837424,-0.8299995064645713,-0.7177030444067641,0.0,-1.7349997758589926,-0.34999987482468975,-0.717703521240285,0.0,-1.9499998092651367,0.19700008630752563,-0.4345145930712597,0.0
1759839623.2500868,2,-1.2049998044837424,-0.8299995064645713,-0.7177030444067641,0.0,-1.7349997758589926,-0.34999987482468975,-0.717703521240285,0.0,-1.9499998092651367,0.19700008630752563,-0.43451462358847337,0.0
1759839623.2602382,2,-1.2049998044837424,-0.8299995064645713,-0.7177030444067641,0.0,-1.7349997758589926,-0.34999987482468975,-0.717703521240285,0.0,-1.9499998092651367,0.19700008630752563,-0.4345146796431542,0.0
1759839623.2710073,2,-1.2049998044837424,-0.8299995064645713,-0.7177030444067641,0.0,-1.7349997758589926,-0.34999987482468975,-0.717703521240285,0.0,-1.9499998092651367,0.19700008630752563,-0.43451471594252666,0.0
1759839623.2817194,2,-1.2049998044837424,-0.8299995064645713,-0.7177030444067641,0.0,-1.7349997758589926,-0.34999987482468975,-0.717703521240285,0.0,-1.9499998092651367,0.19700008630752563,-0.4345147510459739,0.0
1759839623.2925339,2,-1.2049998044837424,-0.8299995064645713,-0.7177030444067641,0.0,-1.7349997758589926,-0.34999987482468975,-0.717703521240285,0.0,-1.9499998092651367,0.19700008630752563,-0.43451478266641885,0.0
1759839623.3040001,2,-1.2049998044837424,-0.8299995064645713,-0.7177030444067641,0.0,-1.7349997758589926,-0.34999987482468975,-0.717703521240285,0.0,-1.9499998092651367,0.19700008630752563,-0.43451480076942056,0.0
1759839623.3142178,2,-1.2049998044837424,-0.8299995064645713,-0.7177030444067641,0.0,-1.7349997758589926,-0.34999987482468975,-0.717703521240285,0.0,-1.9499998092651367,0.19700008630752563,-0.43451484614309166,0.0
1759839623.3243067,2,-1.2049998044837424,-0.8299995064645713,-0.7177030444067641,0.0,-1.7349997758589926,-0.34999987482468975,-0.717703521240285,0.0,-1.9499998092651367,0.19700008630752563,-0.4345148896499502,0.0
1759839623.3347316,2,-1.2049998044837424,-0.8299995064645713,-0.7177030444067641,0.0,-1.7349997758589926,-0.34999987482468975,-0.717703521240285,0.0,-1.9499998092651367,0.19700008630752563,-0.43451492127752545,0.0
1759839623.3453407,2,-1.2049998044837424,-0.8299995064645713,-0.7177030444067641,0.0,-1.7349997758589926,-0.34999987482468975,-0.717703521240285,0.0,-1.9499998092651367,0.19700008630752563,-0.43451494688141423,0.0
1759839623.3561037,2,-1.2049998044837424,-0.8299995064645713,-0.7177030444067641,0.0,-1.7349997758589926,-0.34999987482468975,-0.717703521240285,0.0,-1.9499998092651367,0.19700008630752563,-0.43451496916546084,0.0
1759839623.367241,2,-1.2049998044837424,-0.8299995064645713,-0.7177030444067641,0.0,-1.7349997758589926,-0.34999987482468975,-0.717703521240285,0.0,-1.9499998092651367,0.19700008630752563,-0.4345149857486241,0.0
1759839623.3777235,2,-1.2049998044837424,-0.8299995064645713,-0.7177030444067641,0.0,-1.7349997758589926,-0.34999987482468975,-0.717703521240285,0.0,-1.9499998092651367,0.19700008630752563,-0.434515014716009,0.0
1759839623.3886766,2,-1.2049998044837424,-0.8299995064645713,-0.7177030444067641,0.0,-1.7349997758589926,-0.34999987482468975,-0.717703521240285,0.0,-1.9499998092651367,0.19700008630752563,-0.43451503515778356,0.0
1759839623.3998768,2,-1.2049998044837424,-0.8299995064645713,-0.7177030444067641,0.0,-1.7349997758589926,-0.34999987482468975,-0.717703521240285,0.0,-1.9499998092651367,0.19700008630752563,-0.43451505218923003,0.0
1759839623.4104826,2,-1.2049998044837424,-0.8299995064645713,-0.7177030444067641,0.0,-1.7349997758589926,-0.34999987482468975,-0.717703521240285,0.0,-1.9499998092651367,0.19700008630752563,-0.43451507914945786,0.006
1759839623.4210923,2,-1.2049998044837424,-0.8299995064645713,-0.7177030444067641,0.0,-1.7349997758589926,-0.34999987482468975,-0.717703521240285,0.0,-1.9499998092651367,0.19700008630752563,-0.4345151046338458,0.006
1759839623.4407318,2,-1.2049998044837424,-0.8299995064645713,-0.7177030444067641,0.0,-1.7349997758589926,-0.34999987482468975,-0.717703521240285,0.0,-1.9499998092651367,0.19700008630752563,-0.4345150123269246,0.006
1759839623.449345,2,-1.2049998044837424,-0.8299995064645713,-0.7177030444067641,0.0,-1.7349997758589926,-0.34999987482468975,-0.717703521240285,0.0,-1.9499998092651367,0.19700008630752563,-0.4345150923140437,0.006
1759839623.4604015,2,-1.2049998044837424,-0.8299995064645713,-0.7177030444067641,0.0,-1.7349997758589926,-0.34999987482468975,-0.717703521240285,0.0,-1.9499998092651367,0.19700008630752563,-0.43451513297763716,0.006
1759839623.472773,2,-1.2049998044837424,-0.8299995064645713,-0.7177030444067641,0.0,-1.7349997758589926,-0.34999987482468975,-0.717703521240285,0.0,-1.9499998092651367,0.19700008630752563,-0.43451515010018227,0.006
1759839623.483288,2,-1.2049998044837424,-0.8299995064645713,-0.7177030444067641,0.0,-1.7349997758589926,-0.34999987482468975,-0.717703521240285,0.0,-1.9499998092651367,0.19700008630752563,-0.43451518778048914,0.006
1759839623.495353,2,-1.2049998044837424,-0.8299995064645713,-0.7177030444067641,0.0,-1.7349997758589926,-0.34999987482468975,-0.717703521240285,0.0,-1.9499998092651367,0.19700008630752563,-0.43451520385644926,0.006
1759839623.5062568,2,-1.2049998044837424,-0.8299995064645713,-0.7177030444067641,0.0,-1.7349997758589926,-0.34999987482468975,-0.717703521240285,0.0,-1.9499998092651367,0.19700008630752563,-0.4345152315557605,0.006
1759839623.5171475,2,-1.2049998044837424,-0.8299995064645713,-0.7177030444067641,0.0,-1.7349997758589926,-0.34999987482468975,-0.717703521240285,0.0,-1.9499998092651367,0.19700008630752563,-0.43451525650765177,0.006
1759839623.5274546,2,-1.2049998044837424,-0.8299995064645713,-0.7177030444067641,0.0,-1.7349997758589926,-0.34999987482468975,-0.717703521240285,0.0,-1.9499998092651367,0.19700008630752563,-0.43451528390889743,0.006
1759839623.5379298,2,-1.2049998044837424,-0.8299995064645713,-0.7177030444067641,0.0,-1.7349997758589926,-0.34999987482468975,-0.717703521240285,0.0,-1.9499998092651367,0.19700008630752563,-0.43451530565522134,0.006
1759839623.5492115,2,-1.2049998044837424,-0.8299995064645713,-0.7177030444067641,0.0,-1.7349997758589926,-0.34999987482468975,-0.717703521240285,0.0,-1.9499998092651367,0.19700008630752563,-0.4345153172391676,0.006
1759839623.5608425,2,-1.2049998044837424,-0.8299995064645713,-0.7177030444067641,0.0,-1.7349997758589926,-0.34999987482468975,-0.717703521240285,0.0,-1.9499998092651367,0.19700008630752563,-0.4345153259591896,0.006
1759839623.572273,2,-1.2049998044837424,-0.8299995064645713,-0.7177030444067641,0.0,-1.7349997758589926,-0.34999987482468975,-0.717703521240285,0.0,-1.9499998092651367,0.19700008630752563,-0.43451533785648166,0.006
1759839623.5825922,2,-1.2049998044837424,-0.8299995064645713,-0.7177030444067641,0.0,-1.7349997758589926,-0.34999987482468975,-0.717703521240285,0.0,-1.9499998092651367,0.19700008630752563,-0.43451535930642393,0.006
1759839623.592763,2,-1.2049998044837424,-0.8299995064645713,-0.7177030444067641,0.0,-1.7349997758589926,-0.34999987482468975,-0.717703521240285,0.0,-1.9499998092651367,0.19700008630752563,-0.43451537935199624,0.006
1759839623.6041653,2,-1.2049998044837424,-0.8299995064645713,-0.7177030444067641,0.0,-1.7349997758589926,-0.34999987482468975,-0.717703521240285,0.0,-1.9499998092651367,0.19700008630752563,-0.4345153871630742,0.006
1759839623.6155264,2,-1.2049998044837424,-0.8299995064645713,-0.7177030444067641,0.0,-1.7349997758589926,-0.34999987482468975,-0.717703521240285,0.0,-1.9499998092651367,0.19700008630752563,-0.4345153957893082,0.006
1759839623.6267102,2,-1.2049998044837424,-0.8299995064645713,-0.7177030444067641,0.0,-1.7349997758589926,-0.34999987482468975,-0.717703521240285,0.0,-1.9499998092651367,0.19700008630752563,-0.4345154065708332,0.006
1759839623.639557,2,-1.2049998044837424,-0.8299995064645713,-0.7177030444067641,0.0,-1.7349997758589926,-0.34999987482468975,-0.717703521240285,0.0,-1.9499998092651367,0.19700008630752563,-0.43451540640242037,0.006
1759839623.6499503,2,-1.2049998044837424,-0.8299995064645713,-0.7177030444067641,0.0,-1.7349997758589926,-0.34999987482468975,-0.717703521240285,0.0,-1.9499998092651367,0.19700008630752563,-0.4345154254917851,0.006
1759839623.6616569,2,-1.2049998044837424,-0.8299995064645713,-0.7177030444067641,0.0,-1.7349997758589926,-0.34999987482468975,-0.717703521240285,0.0,-1.9499998092651367,0.19700008630752563,-0.4345154345471442,0.006
1759839623.6719615,2,-1.2049998044837424,-0.8299995064645713,-0.7177030444067641,0.0,-1.7349997758589926,-0.34999987482468975,-0.717703521240285,0.0,-1.9499998092651367,0.19700008630752563,-0.43451545194383456,0.006
1759839623.683246,2,-1.2049998044837424,-0.8299995064645713,-0.7177030444067641,0.0,-1.7349997758589926,-0.34999987482468975,-0.717703521240285,0.0,-1.9499998092651367,0.19700008630752563,-0.4345154614193731,0.006
1759839623.6938868,2,-1.2049998044837424,-0.8299995064645713,-0.7177030444067641,0.0,-1.7349997758589926,-0.34999987482468975,-0.717703521240285,0.0,-1.9499998092651367,0.19700008630752563,-0.4345154739886681,0.006
1759839623.7062213,2,-1.2049998044837424,-0.8299995064645713,-0.7177030444067641,0.0,-1.7349997758589926,-0.34999987482468975,-0.717703521240285,0.0,-1.9499998092651367,0.19700008630752563,-0.43451547623985576,0.006
1759839623.717176,2,-1.2049998044837424,-0.8299995064645713,-0.7177030444067641,0.0,-1.7349997758589926,-0.34999987482468975,-0.717703521240285,0.0,-1.9499998092651367,0.19700008630752563,-0.4345154874147479,0.006
1759839623.728593,2,-1.2049998044837424,-0.8299995064645713,-0.7177030444067641,0.0,-1.7349997758589926,-0.34999987482468975,-0.717703521240285,0.0,-1.9499998092651367,0.19700008630752563,-0.43451549583694066,0.006
1759839623.7398677,2,-1.2049998044837424,-0.8299995064645713,-0.7177030444067641,0.0,-1.7349997758589926,-0.34999987482468975,-0.717703521240285,0.0,-1.9499998092651367,0.19700008630752563,-0.4345155047510669,0.006
1759839623.7514374,2,-1.2049998044837424,-0.8299995064645713,-0.7177030444067641,0.0,-1.7349997758589926,-0.34999987482468975,-0.717703521240285,0.0,-1.9499998092651367,0.19700008630752563,-0.4345155119927284,0.006
1759839623.762311,2,-1.2049998044837424,-0.8299995064645713,-0.7177030444067641,0.0,-1.7349997758589926,-0.34999987482468975,-0.717703521240285,0.0,-1.9499998092651367,0.19700008630752563,-0.4345155224648991,0.006
1759839623.7729447,2,-1.2049998044837424,-0.8299995064645713,-0.7177030444067641,0.0,-1.7349997758589926,-0.34999987482468975,-0.717703521240285,0.0,-1.9499998092651367,0.19700008630752563,-0.4345155330835446,0.006
1759839623.7849388,2,-1.2049998044837424,-0.8299995064645713,-0.7177030444067641,0.0,-1.7349997758589926,-0.34999987482468975,-0.717703521240285,0.0,-1.9499998092651367,0.19700008630752563,-0.4345155367101903,0.006
1759839623.7961526,2,-1.2049998044837424,-0.8299995064645713,-0.7177030444067641,0.0,-1.7349997758589926,-0.34999987482468975,-0.717703521240285,0.0,-1.9499998092651367,0.19700008630752563,-0.43451554423547206,0.006
1759839623.8073628,2,-1.2049998044837424,-0.8299995064645713,-0.7177030444067641,0.0,-1.7349997758589926,-0.34999987482468975,-0.717703521240285,0.0,-1.9499998092651367,0.19700008630752563,-0.43451555168248035,0.006
1759839623.817384,2,-1.2049998044837424,-0.8299995064645713,-0.7177030444067641,0.0,-1.7349997758589926,-0.34999987482468975,-0.717703521240285,0.0,-1.9499998092651367,0.19700008630752563,-0.43451556324787793,0.006
1759839623.8281214,2,-1.2049998044837424,-0.8299995064645713,-0.7177030444067641,0.0,-1.7349997758589926,-0.34999987482468975,-0.717703521240285,0.0,-1.9499998092651367,0.19700008630752563,-0.4345155704577408,0.006
1759839623.8410969,2,-1.2049998044837424,-0.8299995064645713,-0.7177030444067641,0.0,-1.7349997758589926,-0.34999987482468975,-0.717703521240285,0.0,-1.9499998092651367,0.19700008630752563,-0.43451556896119925,0.006
1759839623.8512287,2,-1.2049998044837424,-0.8299995064645713,-0.7177030444067641,0.0,-1.7349997758589926,-0.34999987482468975,-0.717703521240285,0.0,-1.9499998092651367,0.19700008630752563,-0.4345155791582229,0.006
1759839623.8621073,2,-1.2049998044837424,-0.8299995064645713,-0.7177030444067641,0.0,-1.7349997758589926,-0.34999987482468975,-0.717703521240285,0.0,-1.9499998092651367,0.19700008630752563,-0.43451558589503847,0.006
1759839623.8722389,2,-1.2049998044837424,-0.8299995064645713,-0.7177030444067641,0.0,-1.7349997758589926,-0.34999987482468975,-0.717703521240285,0.0,-1.9499998092651367,0.19700008630752563,-0.4345155942638179,0.006
1759839623.8829536,2,-1.2049998044837424,-0.8299995064645713,-0.7177030444067641,0.0,-1.7349997758589926,-0.34999987482468975,-0.717703521240285,0.0,-1.9499998092651367,0.19700008630752563,-0.4345155996837313,0.006
1759839623.8942587,2,-1.2049998044837424,-0.8299995064645713,-0.7177030444067641,0.0,-1.7349997758589926,-0.34999987482468975,-0.717703521240285,0.0,-1.9499998092651367,0.19700008630752563,-0.434515602868073,0.006
1759839623.9050395,2,-1.2049998044837424,-0.8299995064645713,-0.7177030444067641,0.0,-1.7349997758589926,-0.34999987482468975,-0.717703521240285,0.0,-1.9499998092651367,0.19700008630752563,-0.4345156078663202,0.006
1759839623.9156241,2,-1.2049998044837424,-0.8299995064645713,-0.7177030444067641,0.0,-1.7349997758589926,-0.34999987482468975,-0.717703521240285,0.0,-1.9499998092651367,0.19700008630752563,-0.43451561327039023,0.006
1759839623.92577,2,-1.2049998044837424,-0.8299995064645713,-0.7177030444067641,0.0,-1.7349997758589926,-0.34999987482468975,-0.717703521240285,0.0,-1.9499998092651367,0.19700008630752563,-0.434515619436814,0.006
1759839623.9370158,2,-1.2049998044837424,-0.8299995064645713,-0.7177030444067641,0.0,-1.7349997758589926,-0.34999987482468975,-0.717703521240285,0.0,-1.9499998092651367,0.19700008630752563,-0.4345156219855699,0.006
1759839623.948523,2,-1.2049998044837424,-0.8299995064645713,-0.7177030444067641,0.0,-1.7349997758589926,-0.34999987482468975,-0.717703521240285,0.0,-1.9499998092651367,0.19700008630752563,-0.4345156241036819,0.006
1759839623.9597747,2,-1.2049998044837424,-0.8299995064645713,-0.7177030444067641,0.0,-1.7349997758589926,-0.34999987482468975,-0.717703521240285,0.0,-1.9499998092651367,0.19700008630752563,-0.43451562740214555,0.006
1759839623.9707055,2,-1.2049998044837424,-0.8299995064645713,-0.7177030444067641,0.0,-1.7349997758589926,-0.34999987482468975,-0.717703521240285,0.0,-1.9499998092651367,0.19700008630752563,-0.43451563167941387,0.006
1759839623.9809072,2,-1.2049998044837424,-0.8299995064645713,-0.7177030444067641,0.0,-1.7349997758589926,-0.34999987482468975,-0.717703521240285,0.0,-1.9499998092651367,0.19700008630752563,-0.4345156374420505,0.006
1759839623.992153,2,-1.2049998044837424,-0.8299995064645713,-0.7177030444067641,0.0,-1.7349997758589926,-0.34999987482468975,-0.717703521240285,0.0,-1.9499998092651367,0.19700008630752563,-0.4345156401898702,0.006
1759839624.002918,2,-1.2049998044837424,-0.8299995064645713,-0.7177030444067641,0.0,-1.7349997758589926,-0.34999987482468975,-0.717703521240285,0.0,-1.9499998092651367,0.19700008630752563,-0.4345156439804896,0.006
1759839624.0135806,2,-1.2049998044837424,-0.8299995064645713,-0.7177030444067641,0.0,-1.7349997758589926,-0.34999987482468975,-0.717703521240285,0.0,-1.9499998092651367,0.19700008630752563,-0.43451564783005914,0.006
1759839624.0248907,2,-1.2049998044837424,-0.8299995064645713,-0.7177030444067641,0.0,-1.7349997758589926,-0.34999987482468975,-0.717703521240285,0.0,-1.9499998092651367,0.19700008630752563,-0.4345156501298337,0.006
1759839624.040367,2,-1.2049998044837424,-0.8299995064645713,-0.7177030444067641,0.0,-1.7349997758589926,-0.34999987482468975,-0.717703521240285,0.0,-1.9499998092651367,0.19700008630752563,-0.4345156447627705,0.006
1759839624.0486045,2,-1.2049998044837424,-0.8299995064645713,-0.7177030444067641,0.0,-1.7349997758589926,-0.34999987482468975,-0.717703521240285,0.0,-1.9499998092651367,0.19700008630752563,-0.43451565520429014,0.006
1759839624.0586157,2,-1.2049998044837424,-0.8299995064645713,-0.7177030444067641,0.0,-1.7349997758589926,-0.34999987482468975,-0.717703521240285,0.0,-1.9499998092651367,0.19700008630752563,-0.4345156608388852,0.006
1759839624.069764,2,-1.2049998044837424,-0.8299995064645713,-0.7177030444067641,0.0,-1.7349997758589926,-0.34999987482468975,-0.717703521240285,0.0,-1.9499998092651367,0.19700008630752563,-0.43451566326578117,0.006
1759839624.0805686,2,-1.2049998044837424,-0.8299995064645713,-0.7177030444067641,0.0,-1.7349997758589926,-0.34999987482468975,-0.717703521240285,0.0,-1.9499998092651367,0.19700008630752563,-0.4345156661329419,0.006
1759839624.0917635,2,-1.2049998044837424,-0.8299995064645713,-0.7177030444067641,0.0,-1.7349997758589926,-0.34999987482468975,-0.717703521240285,0.0,-1.9499998092651367,0.19700008630752563,-0.4345156682687126,0.006
1759839624.1021698,2,-1.2049998044837424,-0.8299995064645713,-0.7177030444067641,0.0,-1.7349997758589926,-0.34999987482468975,-0.717703521240285,0.0,-1.9499998092651367,0.19700008630752563,-0.4345156716774774,0.006
1759839624.1132026,2,-1.2049998044837424,-0.8299995064645713,-0.7177030444067641,0.0,-1.7349997758589926,-0.34999987482468975,-0.717703521240285,0.0,-1.9499998092651367,0.19700008630752563,-0.4345156738433822,0.006
1759839624.1238954,2,-1.2049998044837424,-0.8299995064645713,-0.7177030444067641,0.0,-1.7349997758589926,-0.34999987482468975,-0.717703521240285,0.0,-1.9499998092651367,0.19700008630752563,-0.4345156764518485,0.006
1759839624.1351366,2,-1.2049998044837424,-0.8299995064645713,-0.7177030444067641,0.0,-1.7349997758589926,-0.34999987482468975,-0.717703521240285,0.0,-1.9499998092651367,0.19700008630752563,-0.43451567816272885,0.006
1759839624.1454532,2,-1.2049998044837424,-0.8299995064645713,-0.7177030444067641,0.0,-1.7349997758589926,-0.34999987482468975,-0.717703521240285,0.0,-1.9499998092651367,0.19700008630752563,-0.4345156812011002,0.006
1759839624.1568928,2,-1.2049998044837424,-0.8299995064645713,-0.7177030444067641,0.0,-1.7349997758589926,-0.34999987482468975,-0.717703521240285,0.0,-1.9499998092651367,0.19700008630752563,-0.4345156824960163,0.006
1759839624.1681752,2,-1.2049998044837424,-0.8299995064645713,-0.7177030444067641,0.0,-1.7349997758589926,-0.34999987482468975,-0.717703521240285,0.0,-1.9499998092651367,0.19700008630752563,-0.43451568412517355,0.006
1759839624.180198,2,-1.2049998044837424,-0.8299995064645713,-0.7177030444067641,0.0,-1.7349997758589926,-0.34999987482468975,-0.717703521240285,0.0,-1.9499998092651367,0.19700008630752563,-0.43451568499289905,0.006
1759839624.1914678,2,-1.2049998044837424,-0.8299995064645713,-0.7177030444067641,0.0,-1.7349997758589926,-0.34999987482468975,-0.717703521240285,0.0,-1.9499998092651367,0.19700008630752563,-0.4345156870775551,0.006
1759839624.2021666,2,-1.2049998044837424,-0.8299995064645713,-0.7177030444067641,0.0,-1.7349997758589926,-0.34999987482468975,-0.717703521240285,0.0,-1.9499998092651367,0.19700008630752563,-0.43451568981057065,0.006
1759839624.2122798,2,-1.2049998044837424,-0.8299995064645713,-0.7177030444067641,0.0,-1.7349997758589926,-0.34999987482468975,-0.717703521240285,0.0,-1.9499998092651367,0.19700008630752563,-0.43451569289443803,0.006
1759839624.2236335,2,-1.2049998044837424,-0.8299995064645713,-0.7177030444067641,0.0,-1.7349997758589926,-0.34999987482468975,-0.717703521240285,0.0,-1.9499998092651367,0.19700008630752563,-0.4345156942092583,0.006
1759839624.233847,2,-1.2049998044837424,-0.8299995064645713,-0.7177030444067641,0.0,-1.7349997758589926,-0.34999987482468975,-0.717703521240285,0.0,-1.9499998092651367,0.19700008630752563,-0.434515696682535,0.006
1759839624.2512012,2,-1.2049998044837424,-0.8299995064645713,-0.7177030444067641,0.0,-1.7349997758589926,-0.34999987482468975,-0.717703521240285,0.0,-1.9499998092651367,0.19700008630752563,-0.43451569200582085,0.006
1759839624.2623582,2,-1.2049998044837424,-0.8299995064645713,-0.7177030444067641,0.0,-1.7349997758589926,-0.34999987482468975,-0.717703521240285,0.0,-1.9499998092651367,0.19700008630752563,-0.43451569500626164,0.006
1759839624.2732122,2,-1.2049998044837424,-0.8299995064645713,-0.7177030444067641,0.0,-1.7349997758589926,-0.34999987482468975,-0.717703521240285,0.0,-1.9499998092651367,0.19700008630752563,-0.434515698272218,0.006
1759839624.2836397,2,-1.2049998044837424,-0.8299995064645713,-0.7177030444067641,0.0,-1.7349997758589926,-0.34999987482468975,-0.717703521240285,0.0,-1.9499998092651367,0.19700008630752563,-0.4345157013575829,0.006
1759839624.2937517,2,-1.2049998044837424,-0.8299995064645713,-0.7177030444067641,0.0,-1.7349997758589926,-0.34999987482468975,-0.717703521240285,0.0,-1.9499998092651367,0.19700008630752563,-0.43451570414193874,0.006
1759839624.3053484,2,-1.2049998044837424,-0.8299995064645713,-0.7177030444067641,0.0,-1.7349997758589926,-0.34999987482468975,-0.717703521240285,0.0,-1.9499998092651367,0.19700008630752563,-0.43451570522280214,0.006
1759839624.316238,2,-1.2049998044837424,-0.8299995064645713,-0.7177030444067641,0.0,-1.7349997758589926,-0.34999987482468975,-0.717703521240285,0.0,-1.9499998092651367,0.19700008630752563,-0.43451570682647045,0.006
1759839624.3264766,2,-1.2049998044837424,-0.8299995064645713,-0.7177030444067641,0.0,-1.7349997758589926,-0.34999987482468975,-0.717703521240285,0.0,-1.9499998092651367,0.19700008630752563,-0.4345157088142084,0.006
1759839624.3374696,2,-1.2049998044837424,-0.8299995064645713,-0.7177030444067641,0.0,-1.7349997758589926,-0.34999987482468975,-0.717703521240285,0.0,-1.9499998092651367,0.19700008630752563,-0.4345157099858259,0.006
1759839624.3483117,2,-1.2049998044837424,-0.8299995064645713,-0.7177030444067641,0.0,-1.7349997758589926,-0.34999987482468975,-0.717703521240285,0.0,-1.9499998092651367,0.19700008630752563,-0.4345157111892206,0.006
1759839624.3592882,2,-1.2049998044837424,-0.8299995064645713,-0.7177030444067641,0.0,-1.7349997758589926,-0.34999987482468975,-0.717703521240285,0.0,-1.9499998092651367,0.19700008630752563,-0.43451571224975893,0.006
1759839624.3693964,2,-1.2049998044837424,-0.8299995064645713,-0.7177030444067641,0.0,-1.7349997758589926,-0.34999987482468975,-0.717703521240285,0.0,-1.9499998092651367,0.19700008630752563,-0.4345157138546867,0.006
1759839624.3800457,2,-1.2049998044837424,-0.8299995064645713,-0.7177030444067641,0.0,-1.7349997758589926,-0.34999987482468975,-0.717703521240285,0.0,-1.9499998092651367,0.19700008630752563,-0.4345157149235277,0.006
1759839624.392169,2,-1.2049998044837424,-0.8299995064645713,-0.7177030444067641,0.0,-1.7349997758589926,-0.34999987482468975,-0.717703521240285,0.0,-1.9499998092651367,0.19700008630752563,-0.4345157150060377,0.006
1759839624.403475,2,-1.2049998044837424,-0.8299995064645713,-0.7177030444067641,0.0,-1.7349997758589926,-0.34999987482468975,-0.717703521240285,0.0,-1.9499998092651367,0.19700008630752563,-0.4345157158094235,0.006
1759839624.4147203,2,-1.2049998044837424,-0.8299995064645713,-0.7177030444067641,0.0,-1.7349997758589926,-0.34999987482468975,-0.717703521240285,0.0,-1.9499998092651367,0.19700008630752563,-0.4345157167301324,0.006
1759839624.426356,2,-1.2049998044837424,-0.8299995064645713,-0.7177030444067641,0.0,-1.7349997758589926,-0.34999987482468975,-0.717703521240285,0.0,-1.9499998092651367,0.19700008630752563,-0.43451571743990774,0.006
1759839624.440062,2,-1.2049998044837424,-0.8299995064645713,-0.7177030444067641,0.0,-1.7349997758589926,-0.34999987482468975,-0.717703521240285,0.0,-1.9499998092651367,0.19700008630752563,-0.43451571712381204,0.006
1759839624.455487,2,-1.2049998044837424,-0.8299995064645713,-0.7177030444067641,0.0,-1.7349997758589926,-0.34999987482468975,-0.717703521240285,0.0,-1.9499998092651367,0.19700008630752563,-0.43451571637479347,0.006
1759839624.4668648,2,-1.2049998044837424,-0.8299995064645713,-0.7177030444067641,0.0,-1.7349997758589926,-0.34999987482468975,-0.717703521240285,0.0,-1.9499998092651367,0.19700008630752563,-0.4345157181864181,0.006
1759839624.4769573,2,-1.2049998044837424,-0.8299995064645713,-0.7177030444067641,0.0,-1.7349997758589926,-0.34999987482468975,-0.717703521240285,0.0,-1.9499998092651367,0.19700008630752563,-0.4345157204338737,0.006
1759839624.4883478,2,-1.2049998044837424,-0.8299995064645713,-0.7177030444067641,0.0,-1.7349997758589926,-0.34999987482468975,-0.717703521240285,0.0,-1.9499998092651367,0.19700008630752563,-0.43451572165085933,0.006
