timestamp,vehicle_id,x,y,theta,velocity,gps_available,dt,gps_x,gps_y,gps_theta,gps_velocity,control_steering,control_acceleration
1759839621.4096284,2,-1.95,0.197,-0.8848819307611251,0.0,False,0.01,nan,nan,nan,nan,0.0,0.0
1759839621.4203095,2,-1.95,0.197,-0.8848819307611251,0.0,False,0.01068115234375,nan,nan,nan,nan,0.0,0.0
1759839621.4312577,2,-1.95,0.197,-0.8848819307611251,0.0,False,0.01094818115234375,nan,nan,nan,nan,0.0,0.0
1759839621.442286,2,-1.95,0.197,-0.8848819307611251,0.0,False,0.011028289794921875,nan,nan,nan,nan,0.0,0.0
1759839621.4530303,2,-1.95,0.197,-0.8848819307611251,0.0,False,0.010744333267211914,nan,nan,nan,nan,0.0,0.0
1759839621.4642344,2,-1.95,0.197,-0.8848819307611251,0.0,False,0.011204004287719727,nan,nan,nan,nan,0.0,0.0
1759839621.4746292,2,-1.95,0.197,-0.8848819307611251,0.0,False,0.010394811630249023,nan,nan,nan,nan,0.0,0.0
1759839621.4848616,2,-1.95,0.197,-0.8848819307611251,0.0,False,0.01023244857788086,nan,nan,nan,nan,0.0,0.0
1759839621.496099,2,-1.95,0.197,-0.8848819307611251,0.0,False,0.011237382888793945,nan,nan,nan,nan,0.0,0.0
1759839621.5063932,2,-1.95,0.197,-0.8848819307611251,0.0,False,0.010294198989868164,nan,nan,nan,nan,0.0,0.0
1759839621.5164063,2,-1.95,0.197,-0.8848819307611251,0.0,False,0.010013103485107422,nan,nan,nan,nan,0.0,0.0
1759839621.527754,2,-1.95,0.197,-0.8848819307611251,0.0,False,0.011347770690917969,nan,nan,nan,nan,0.0,0.0
1759839621.5389826,2,-1.95,0.197,-0.8848819307611251,0.0,False,0.011228561401367188,nan,nan,nan,nan,0.0,0.0
1759839621.5492048,2,-1.95,0.197,-0.8848819307611251,0.0,False,0.010222196578979492,nan,nan,nan,nan,0.0,0.0
1759839621.5598266,2,-1.95,0.197,-0.8848819307611251,0.0,False,0.010621786117553711,nan,nan,nan,nan,0.0,0.0
1759839621.5703967,2,-1.95,0.197,-0.8848819307611251,0.0,False,0.010570049285888672,nan,nan,nan,nan,0.0,0.0
1759839621.5816226,2,-1.95,0.197,-0.8848819307611251,0.0,False,0.01122593879699707,nan,nan,nan,nan,0.0,0.0
1759839621.5923088,2,-1.95,0.197,-0.8848819307611251,0.0,False,0.010686159133911133,nan,nan,nan,nan,0.0,0.0
1759839621.603769,2,-1.949999810854594,0.19700008558829626,-0.4727054460346416,0.0,True,0.011460304260253906,-1.9499998092651367,0.19700008630752563,-0.43451574444770813,0.0,0.0,0.0
1759839621.6138723,2,-1.9499998097964315,0.1970000860671147,-0.43752683304141726,0.0,True,0.010103225708007812,-1.9499998092651367,0.19700008630752563,-0.43451574444770813,0.0,0.0,0.0
1759839621.6249268,2,-1.9499998094644417,0.19700008621734014,-0.4341928268308237,0.0,True,0.011054515838623047,-1.9499998092651367,0.19700008630752563,-0.43451574444770813,0.0,0.0,0.0
1759839621.635209,2,-1.9499998093410662,0.19700008627316754,-0.43376972733318553,0.0,True,0.010282278060913086,-1.9499998092651367,0.19700008630752563,-0.43451574444770813,0.0,0.0,0.0
1759839621.6459563,2,-1.9499998092941282,0.197000086294407,-0.4337094840210227,0.0,True,0.010747194290161133,-1.9499998092651367,0.19700008630752563,-0.43451574444770813,0.0,0.0,0.0
1759839621.6571074,2,-1.9499998092762099,0.19700008630251503,-0.43374951875773604,0.0,True,0.01115107536315918,-1.9499998092651367,0.19700008630752563,-0.43451574444770813,0.0,0.0,0.0
1759839621.6673722,2,-1.9499998092693662,0.19700008630561178,-0.4338401868079629,0.0,True,0.010264873504638672,-1.9499998092651367,0.19700008630752563,-0.43451574444770813,0.0,0.0,0.0
1759839621.6774879,2,-1.9499998092667523,0.1970000863067946,-0.4339277940953217,0.0,True,0.010115623474121094,-1.9499998092651367,0.19700008630752563,-0.43451574444770813,0.0,0.0,0.0
1759839621.6877034,2,-1.9499998092657538,0.1970000863072464,-0.43400141146755544,0.0,True,0.010215520858764648,-1.9499998092651367,0.19700008630752563,-0.43451574444770813,0.0,0.0,0.0
1759839621.6983647,2,-1.9499998092653723,0.19700008630741897,-0.4340596577322362,0.0,True,0.01066136360168457,-1.9499998092651367,0.19700008630752563,-0.43451574444770813,0.0,0.0,0.0
1759839621.70982,2,-1.9499998092652266,0.1970000863074849,-0.4341046893219058,0.0,True,0.011455297470092773,-1.9499998092651367,0.19700008630752563,-0.43451574444770813,0.0,0.0,0.0
1759839621.720451,2,-1.9499998092651711,0.19700008630751006,-0.4341519877437978,0.0,True,0.010631084442138672,-1.9499998092651367,0.19700008630752563,-0.43451574444770813,0.0,0.0,0.0
1759839621.731627,2,-1.9499998092651498,0.1970000863075197,-0.43418846225473473,0.0,True,0.011175870895385742,-1.9499998092651367,0.19700008630752563,-0.43451574444770813,0.0,0.0,0.0
1759839621.7423508,2,-1.9499998092651418,0.19700008630752336,-0.43422257956882504,0.0,True,0.01072382926940918,-1.9499998092651367,0.19700008630752563,-0.43451574444770813,0.0,0.0,0.0
1759839621.7536063,2,-1.9499998092651387,0.19700008630752477,-0.43424865324937656,0.0,True,0.011255502700805664,-1.9499998092651367,0.19700008630752563,-0.43451574444770813,0.0,0.0,0.0
1759839621.7643363,2,-1.9499998092651374,0.1970000863075253,-0.43427394750628423,0.0,True,0.01073002815246582,-1.9499998092651367,0.19700008630752563,-0.43451574444770813,0.0,0.0,0.0
1759839621.774461,2,-1.949999809265137,0.1970000863075255,-0.43429791273862683,0.0,True,0.010124683380126953,-1.9499998092651367,0.19700008630752563,-0.43451574444770813,0.0,0.0,0.0
1759839621.7854722,2,-1.9499998092651367,0.19700008630752558,-0.4343139850892399,0.0,True,0.011011123657226562,-1.9499998092651367,0.19700008630752563,-0.43451574444770813,0.0,0.0,0.0
1759839621.7967374,2,-1.9499998092651367,0.1970000863075256,-0.4343273062343975,0.0,True,0.011265277862548828,-1.9499998092651367,0.19700008630752563,-0.43451574444770813,0.0,0.0,0.0
1759839621.8085952,2,-1.9499998092651367,0.19700008630752563,-0.4343377529903698,0.0,True,0.011857748031616211,-1.9499998092651367,0.19700008630752563,-0.43451574444770813,0.0,0.0,0.0
1759839621.818965,2,-1.9499998092651367,0.19700008630752563,-0.434352843468897,0.0,True,0.01036977767944336,-1.9499998092651367,0.19700008630752563,-0.43451574444770813,0.0,0.0,0.0
1759839621.8291144,2,-1.9499998092651367,0.19700008630752563,-0.4343663260900996,0.0,True,0.010149478912353516,-1.9499998092651367,0.19700008630752563,-0.43451574444770813,0.0,0.0,0.0
1759839621.8398097,2,-1.9499998092651367,0.19700008630752563,-0.4343759159054912,0.0,True,0.010695219039916992,-1.9499998092651367,0.19700008630752563,-0.43451574444770813,0.0,0.0,0.0
1759839621.8510282,2,-1.9499998092651367,0.19700008630752563,-0.4343829331204674,0.0,True,0.011218547821044922,-1.9499998092651367,0.19700008630752563,-0.43451574444770813,0.0,0.0,0.0
1759839621.861935,2,-1.9499998092651367,0.19700008630752563,-0.4343904532545029,0.0,True,0.010906696319580078,-1.9499998092651367,0.19700008630752563,-0.43451574444770813,0.0,0.0,0.0
1759839621.873046,2,-1.9499998092651367,0.19700008630752563,-0.4343969511213146,0.0,True,0.011111021041870117,-1.9499998092651367,0.19700008630752563,-0.43451574444770813,0.0,0.0,0.0
1759839621.8843312,2,-1.9499998092651367,0.19700008630752563,-0.43440268212449595,0.0,True,0.01128530502319336,-1.9499998092651367,0.19700008630752563,-0.43451574444770813,0.0,0.0,0.0
1759839621.8947432,2,-1.9499998092651367,0.19700008630752563,-0.4344100653159124,0.0,True,0.010411977767944336,-1.9499998092651367,0.19700008630752563,-0.43451574444770813,0.0,0.0,0.0
1759839621.9048488,2,-1.9499998092651367,0.19700008630752563,-0.4344171480970864,0.0,True,0.010105609893798828,-1.9499998092651367,0.19700008630752563,-0.43451574444770813,0.0,0.0,0.0
1759839621.9151077,2,-1.9499998092651367,0.19700008630752563,-0.4344228406209645,0.0,True,0.010258913040161133,-1.9499998092651367,0.19700008630752563,-0.43451574444770813,0.0,0.0,0.0
1759839621.9258041,2,-1.9499998092651367,0.19700008630752563,-0.43442695133157727,0.0,True,0.0106964111328125,-1.9499998092651367,0.19700008630752563,-0.43451574444770813,0.0,0.0,0.0
1759839621.936018,2,-1.9499998092651367,0.19700008630752563,-0.4344316507396364,0.0,True,0.010213851928710938,-1.9499998092651367,0.19700008630752563,-0.43451574444770813,0.0,0.0,0.0
1759839621.9468553,2,-1.9499998092651367,0.19700008630752563,-0.43443480278671487,0.0,True,0.010837316513061523,-1.9499998092651367,0.19700008630752563,-0.43451574444770813,0.0,0.0,0.0
1759839621.957297,2,-1.9499998092651367,0.19700008630752563,-0.4344385250000258,0.0,True,0.010441780090332031,-1.9499998092651367,0.19700008630752563,-0.43451574444770813,0.0,0.0,0.0
1759839621.96802,2,-1.9499998092651367,0.19700008630752563,-0.43444155873787693,0.0,True,0.010722875595092773,-1.9499998092651367,0.19700008630752563,-0.43451574444770813,0.0,0.0,0.0
1759839621.9793034,2,-1.9499998092651367,0.19700008630752563,-0.4344436368321425,0.0,True,0.011283397674560547,-1.9499998092651367,0.19700008630752563,-0.43451574444770813,0.0,0.0,0.0
1759839621.990087,2,-1.9499998092651367,0.19700008630752563,-0.43444663380050486,0.0,True,0.010783672332763672,-1.9499998092651367,0.19700008630752563,-0.43451574444770813,0.0,0.0,0.0
1759839622.0012264,2,-1.9499998092651367,0.19700008630752563,-0.4344490563025545,0.0,True,0.011139392852783203,-1.9499998092651367,0.19700008630752563,-0.43451574444770813,0.0,0.0,0.0
1759839622.0118985,2,-1.9499998092651367,0.19700008630752563,-0.4344521072043914,0.0,True,0.01067209243774414,-1.9499998092651367,0.19700008630752563,-0.43451574444770813,0.0,0.0,0.0
1759839622.023272,2,-1.9499998092651367,0.19700008630752563,-0.43445406320997293,0.0,True,0.011373519897460938,-1.9499998092651367,0.19700008630752563,-0.43451574444770813,0.0,0.0,0.0
1759839622.0339248,2,-1.9499998092651367,0.19700008630752563,-0.43445696802432465,0.0,True,0.010652780532836914,-1.9499998092651367,0.19700008630752563,-0.43451574444770813,0.0,0.0,0.0
1759839622.044617,2,-1.9499998092651367,0.19700008630752563,-0.43445961607081074,0.0,True,0.010692119598388672,-1.9499998092651367,0.19700008630752563,-0.43451574444770813,0.0,0.0,0.0
1759839622.0558481,2,-1.9499998092651367,0.19700008630752563,-0.4344614305290584,0.0,True,0.011231184005737305,-1.9499998092651367,0.19700008630752563,-0.43451574444770813,0.0,0.0,0.0
1759839622.0667648,2,-1.9499998092651367,0.19700008630752563,-0.434463597906257,0.0,True,0.010916709899902344,-1.9499998092651367,0.19700008630752563,-0.43451574444770813,0.0,0.0,0.0
1759839622.0772572,2,-1.9499998092651367,0.19700008630752563,-0.43446612379198335,0.0,True,0.010492324829101562,-1.9499998092651367,0.19700008630752563,-0.43451574444770813,0.0,0.0,0.0
1759839622.0881717,2,-1.9499998092651367,0.19700008630752563,-0.43446797686307903,0.0,True,0.01091456413269043,-1.9499998092651367,0.19700008630752563,-0.43451574444770813,0.0,0.0,0.0
1759839622.0990953,2,-1.9499998092651367,0.19700008630752563,-0.4344697244635931,0.0,True,0.010923624038696289,-1.9499998092651367,0.19700008630752563,-0.43451574444770813,0.0,0.0,0.0
1759839622.1093793,2,-1.9499998092651367,0.19700008630752563,-0.43447201017861836,0.0,True,0.010283946990966797,-1.9499998092651367,0.19700008630752563,-0.43451574444770813,0.0,0.0,0.0
1759839622.1206307,2,-1.9499998092651367,0.19700008630752563,-0.43447318662771295,0.0,True,0.011251449584960938,-1.9499998092651367,0.19700008630752563,-0.43451574444770813,0.0,0.0,0.0
1759839622.131518,2,-1.9499998092651367,0.19700008630752563,-0.4344747174547692,0.0,True,0.01088714599609375,-1.9499998092651367,0.19700008630752563,-0.43451574444770813,0.0,0.0,0.0
1759839622.1423206,2,-1.9499998092651367,0.19700008630752563,-0.43447629505635277,0.0,True,0.010802745819091797,-1.9499998092651367,0.19700008630752563,-0.43451574444770813,0.0,0.0,0.0
1759839622.1529872,2,-1.9499998092651367,0.19700008630752563,-0.4344779039122528,0.0,True,0.010666608810424805,-1.9499998092651367,0.19700008630752563,-0.43451574444770813,0.0,0.0,0.0
1759839622.1636648,2,-1.9499998092651367,0.19700008630752563,-0.43447939203060315,0.0,True,0.010677576065063477,-1.9499998092651367,0.19700008630752563,-0.43451574444770813,0.0,0.0,0.0
1759839622.174525,2,-1.9499998092651367,0.19700008630752563,-0.4344806450274401,0.0,True,0.010860204696655273,-1.9499998092651367,0.19700008630752563,-0.43451574444770813,0.0,0.0,0.0
1759839622.1847305,2,-1.9499998092651367,0.19700008630752563,-0.4344823260386619,0.0,True,0.010205507278442383,-1.9499998092651367,0.19700008630752563,-0.43451574444770813,0.0,0.0,0.0
1759839622.1961148,2,-1.9499998092651367,0.19700008630752563,-0.43448301480392715,0.0,True,0.011384248733520508,-1.9499998092651367,0.19700008630752563,-0.43451574444770813,0.0,0.0,0.0
1759839622.2073066,2,-1.9499998092651367,0.19700008630752563,-0.4344839166103398,0.0,True,0.011191844940185547,-1.9499998092651367,0.19700008630752563,-0.43451574444770813,0.0,0.0,0.0
1759839622.217114,2,-1.9499998092651367,0.19700008630752563,-0.43448577512080355,0.0,True,0.009807348251342773,-1.9499998092651367,0.19700008630752563,-0.43451574444770813,0.0,0.0,0.0
1759839622.2278166,2,-1.9499998092651367,0.19700008630752563,-0.43448682790059223,0.0,True,0.01070261001586914,-1.9499998092651367,0.19700008630752563,-0.43451574444770813,0.0,0.0,0.0
1759839622.238067,2,-1.9499998092651367,0.19700008630752563,-0.4344880675728007,0.0,True,0.010250329971313477,-1.9499998092651367,0.19700008630752563,-0.43451574444770813,0.0,0.0,0.0
1759839622.2484417,2,-1.9499998092651367,0.19700008630752563,-0.43448912262525674,0.0,True,0.010374784469604492,-1.9499998092651367,0.19700008630752563,-0.43451574444770813,0.0,0.0,0.0
1759839622.2586138,2,-1.9499998092651367,0.19700008630752563,-0.43449020768418123,0.0,True,0.010172128677368164,-1.9499998092651367,0.19700008630752563,-0.43451574444770813,0.0,0.0,0.0
1759839622.2698524,2,-1.9499998092651367,0.19700008630752563,-0.43449061665157984,0.0,True,0.011238574981689453,-1.9499998092651367,0.19700008630752563,-0.43451574444770813,0.0,0.0,0.0
1759839622.2803102,2,-1.9499998092651367,0.19700008630752563,-0.4344915297806935,0.0,True,0.010457754135131836,-1.9499998092651367,0.19700008630752563,-0.43451574444770813,0.0,0.0,0.0
1759839622.2917442,2,-1.9499998092651367,0.19700008630752563,-0.4344919279833963,0.0,True,0.011434078216552734,-1.9499998092651367,0.19700008630752563,-0.43451574444770813,0.0,0.0,0.0
1759839622.3027332,2,-1.9499998092651367,0.19700008630752563,-0.434492643977471,0.0,True,0.010988950729370117,-1.9499998092651367,0.19700008630752563,-0.43451574444770813,0.0,0.0,0.0
1759839622.3129125,2,-1.9499998092651367,0.19700008630752563,-0.4344937712369976,0.0,True,0.010179281234741211,-1.9499998092651367,0.19700008630752563,-0.43451574444770813,0.0,0.0,0.0
1759839622.3242025,2,-1.9499998092651367,0.19700008630752563,-0.4344942737435993,0.0,True,0.01129007339477539,-1.9499998092651367,0.19700008630752563,-0.43451574444770813,0.0,0.0,0.0
1759839622.3344054,2,-1.9499998092651367,0.19700008630752563,-0.43449528530730674,0.0,True,0.010202884674072266,-1.9499998092651367,0.19700008630752563,-0.43451574444770813,0.0,0.0,0.0
1759839622.3448505,2,-1.9499998092651367,0.19700008630752563,-0.43449610037714237,0.0,True,0.010445117950439453,-1.9499998092651367,0.19700008630752563,-0.43451574444770813,0.0,0.0,0.0
1759839622.356173,2,-1.9499998092651367,0.19700008630752563,-0.43449648018725995,0.0,True,0.011322498321533203,-1.9499998092651367,0.19700008630752563,-0.43451574444770813,0.0,0.0,0.0
1759839622.367495,2,-1.9499998092651367,0.19700008630752563,-0.4344969192957677,0.0,True,0.011322021484375,-1.9499998092651367,0.19700008630752563,-0.43451574444770813,0.0,0.0,0.0
1759839622.3788493,2,-1.9499998092651367,0.19700008630752563,-0.43449741122788055,0.0,True,0.011354207992553711,-1.9499998092651367,0.19700008630752563,-0.43451574444770813,0.0,0.0,0.0
1759839622.3896542,2,-1.9499998092651367,0.19700008630752563,-0.43449814761659944,0.0,True,0.010804891586303711,-1.9499998092651367,0.19700008630752563,-0.43451574444770813,0.0,0.0,0.0
1759839622.4003074,2,-1.9499998092651367,0.19700008630752563,-0.4344988980373863,0.0,True,0.010653257369995117,-1.9499998092651367,0.19700008630752563,-0.43451574444770813,0.0,0.0,0.0
1759839622.4182112,2,-1.9499998092651367,0.19700008630752563,-0.4344971614836659,0.0,True,0.017903804779052734,-1.9499998092651367,0.19700008630752563,-0.43451574444770813,0.0,0.0,0.0
1759839622.4284327,2,-1.9499998092651367,0.19700008630752563,-0.43449862476756707,0.0,True,0.010221481323242188,-1.9499998092651367,0.19700008630752563,-0.43451574444770813,0.0,0.0,0.0
1759839622.439748,2,-1.9499998092651367,0.19700008630752563,-0.43449963438512995,0.0,True,0.011315345764160156,-1.9499998092651367,0.19700008630752563,-0.43451574444770813,0.0,0.0,0.0
1759839622.4499202,2,-1.9499998092651367,0.19700008630752563,-0.43450081158158227,0.0,True,0.010172128677368164,-1.9499998092651367,0.19700008630752563,-0.43451574444770813,0.0,0.0,0.0
1759839622.4606173,2,-1.9499998092651367,0.19700008630752563,-0.4345016210166648,0.0,True,0.010697126388549805,-1.9499998092651367,0.19700008630752563,-0.43451574444770813,0.0,0.0,0.0
1759839622.47194,2,-1.9499998092651367,0.19700008630752563,-0.4345021235666451,0.0,True,0.011322736740112305,-1.9499998092651367,0.19700008630752563,-0.43451574444770813,0.0,0.0,0.0
1759839622.483021,2,-1.9499998092651367,0.19700008630752563,-0.43450265810054844,0.0,True,0.01108098030090332,-1.9499998092651367,0.19700008630752563,-0.43451574444770813,0.0,0.0,0.0
1759839622.493749,2,-1.9499998092651367,0.19700008630752563,-0.43450325109848187,0.0,True,0.010727882385253906,-1.9499998092651367,0.19700008630752563,-0.43451574444770813,0.0,0.0,0.0
1759839622.504948,2,-1.9499998092651367,0.19700008630752563,-0.4345036674992606,0.0,True,0.011198997497558594,-1.9499998092651367,0.19700008630752563,-0.43451574444770813,0.0,0.0,0.0
1759839622.5152106,2,-1.9499998092651367,0.19700008630752563,-0.4345042918009625,0.0,True,0.010262727737426758,-1.9499998092651367,0.19700008630752563,-0.43451574444770813,0.0,0.0,0.0
1759839622.5264733,2,-1.9499998092651367,0.19700008630752563,-0.43450460732416474,0.0,True,0.011262655258178711,-1.9499998092651367,0.19700008630752563,-0.43451574444770813,0.0,0.0,0.0
1759839622.5371408,2,-1.9499998092651367,0.19700008630752563,-0.4345050537474684,0.0,True,0.010667562484741211,-1.9499998092651367,0.19700008630752563,-0.43451574444770813,0.0,0.0,0.0
1759839622.5473456,2,-1.9499998092651367,0.19700008630752563,-0.4345055717525952,0.0,True,0.010204792022705078,-1.9499998092651367,0.19700008630752563,-0.43451574444770813,0.0,0.0,0.0
1759839622.5574338,2,-1.9499998092651367,0.19700008630752563,-0.4345060504980509,0.0,True,0.010088205337524414,-1.9499998092651367,0.19700008630752563,-0.43451574444770813,0.0,0.0,0.0
1759839622.5685992,2,-1.9499998092651367,0.19700008630752563,-0.43450624552811057,0.0,True,0.011165380477905273,-1.9499998092651367,0.19700008630752563,-0.43451574444770813,0.0,0.0,0.0
1759839622.5790412,2,-1.9499998092651367,0.19700008630752563,-0.43450660050663714,0.0,True,0.010442018508911133,-1.9499998092651367,0.19700008630752563,-0.43451574444770813,0.0,0.0,0.0
1759839622.5899665,2,-1.9499998092651367,0.19700008630752563,-0.4345068469965305,0.0,True,0.01092529296875,-1.9499998092651367,0.19700008630752563,-0.43451574444770813,0.0,0.0,0.0
1759839622.60076,2,-1.9499998092651367,0.19700008630752563,-0.43450712167333627,0.0,True,0.010793447494506836,-1.9499998092651367,0.19700008630752563,-0.43451574444770813,0.0,0.0,0.0
1759839622.6138902,2,-1.9499998092651367,0.19700008630752563,-0.4345069824927492,0.0,True,0.01313018798828125,-1.9499998092651367,0.19700008630752563,-0.43451574444770813,0.0,0.0,0.0
1759839622.6249533,2,-1.9499998092651367,0.19700008630752563,-0.43450732195476327,0.0,True,0.011063098907470703,-1.9499998092651367,0.19700008630752563,-0.43451574444770813,0.0,0.0,0.0
1759839622.635564,2,-1.9499998092651367,0.19700008630752563,-0.43450774206133147,0.0,True,0.010610818862915039,-1.9499998092651367,0.19700008630752563,-0.43451574444770813,0.0,0.0,0.0
1759839622.6465867,2,-1.9499998092651367,0.19700008630752563,-0.43450804802338894,0.0,True,0.011022567749023438,-1.9499998092651367,0.19700008630752563,-0.43451574444770813,0.0,0.0,0.0
1759839622.657266,2,-1.9499998092651367,0.19700008630752563,-0.4345083820081932,0.0,True,0.010679244995117188,-1.9499998092651367,0.19700008630752563,-0.43451574444770813,0.0,0.0,0.0
1759839622.6679397,2,-1.9499998092651367,0.19700008630752563,-0.4345086855721121,0.0,True,0.010673761367797852,-1.9499998092651367,0.19700008630752563,-0.43451574444770813,0.0,0.0,0.0
1759839622.6790528,2,-1.9499998092651367,0.19700008630752563,-0.4345088979938492,0.0,True,0.011113166809082031,-1.9499998092651367,0.19700008630752563,-0.43451574444770813,0.0,0.0,0.0
1759839622.6896045,2,-1.9499998092651367,0.19700008630752563,-0.43450918539680217,0.0,True,0.010551691055297852,-1.9499998092651367,0.19700008630752563,-0.43451574444770813,0.0,0.0,0.0
1759839622.7002866,2,-1.9499998092651367,0.19700008630752563,-0.4345094324163803,0.0,True,0.010682106018066406,-1.9499998092651367,0.19700008630752563,-0.43451574444770813,0.0,0.0,0.0
1759839622.7111118,2,-1.9499998092651367,0.19700008630752563,-0.43450964230448363,0.0,True,0.010825157165527344,-1.9499998092651367,0.19700008630752563,-0.43451574444770813,0.0,0.0,0.0
1759839622.721725,2,-1.9499998092651367,0.19700008630752563,-0.4345098705327235,0.0,True,0.010613203048706055,-1.9499998092651367,0.19700008630752563,-0.43451574444770813,0.0,0.0,0.0
1759839622.7325335,2,-1.9499998092651367,0.19700008630752563,-0.43451006102398537,0.0,True,0.010808467864990234,-1.9499998092651367,0.19700008630752563,-0.43451574444770813,0.0,0.0,0.0
1759839622.744003,2,-1.9499998092651367,0.19700008630752563,-0.43451016800813846,0.0,True,0.011469602584838867,-1.9499998092651367,0.19700008630752563,-0.43451574444770813,0.0,0.0,0.0
1759839622.7546604,2,-1.9499998092651367,0.19700008630752563,-0.43451038621297755,0.0,True,0.010657310485839844,-1.9499998092651367,0.19700008630752563,-0.43451574444770813,0.0,0.0,0.0
1759839622.765532,2,-1.9499998092651367,0.19700008630752563,-0.43451057094617695,0.0,True,0.010871648788452148,-1.9499998092651367,0.19700008630752563,-0.43451574444770813,0.0,0.0,0.0
1759839622.7763078,2,-1.9499998092651367,0.19700008630752563,-0.43451075711139886,0.0,True,0.01077580451965332,-1.9499998092651367,0.19700008630752563,-0.43451574444770813,0.0,0.0,0.0
1759839622.7864676,2,-1.9499998092651367,0.19700008630752563,-0.4345109965848657,0.0,True,0.010159730911254883,-1.9499998092651367,0.19700008630752563,-0.43451574444770813,0.0,0.0,0.0
1759839622.797655,2,-1.9499998092651367,0.19700008630752563,-0.43451110656562975,0.0,True,0.011187553405761719,-1.9499998092651367,0.19700008630752563,-0.43451574444770813,0.0,0.0,0.0
1759839622.808995,2,-1.9499998092651367,0.19700008630752563,-0.43451120717605995,0.0,True,0.011339902877807617,-1.9499998092651367,0.19700008630752563,-0.43451574444770813,0.0,0.0,0.0
1759839622.8203175,2,-1.9499998092651367,0.19700008630752563,-0.43451132413938964,0.0,True,0.011322498321533203,-1.9499998092651367,0.19700008630752563,-0.43451574444770813,0.0,0.0,0.0
1759839622.831047,2,-1.9499998092651367,0.19700008630752563,-0.4345115035037903,0.0,True,0.010729551315307617,-1.9499998092651367,0.19700008630752563,-0.43451574444770813,0.0,0.0,0.0
1759839622.841833,2,-1.9499998092651367,0.19700008630752563,-0.43451166698927146,0.0,True,0.010786056518554688,-1.9499998092651367,0.19700008630752563,-0.43451574444770813,0.0,0.0,0.0
1759839622.8529384,2,-1.9499998092651367,0.19700008630752563,-0.43451179217609237,0.0,True,0.01110529899597168,-1.9499998092651367,0.19700008630752563,-0.43451574444770813,0.0,0.0,0.0
1759839622.8633525,2,-1.9499998092651367,0.19700008630752563,-0.43451197105865447,0.0,True,0.01041412353515625,-1.9499998092651367,0.19700008630752563,-0.43451574444770813,0.0,0.0,0.0
1759839622.8740249,2,-1.9499998092651367,0.19700008630752563,-0.4345121128428602,0.0,True,0.010672330856323242,-1.9499998092651367,0.19700008630752563,-0.43451574444770813,0.0,0.0,0.0
1759839622.8844287,2,-1.9499998092651367,0.19700008630752563,-0.4345122633160621,0.0,True,0.010403871536254883,-1.9499998092651367,0.19700008630752563,-0.43451574444770813,0.0,0.0,0.0
1759839622.8952866,2,-1.9499998092651367,0.19700008630752563,-0.43451236714076025,0.0,True,0.010857820510864258,-1.9499998092651367,0.19700008630752563,-0.43451574444770813,0.0,0.0,0.0
1759839622.905632,2,-1.9499998092651367,0.19700008630752563,-0.4345125046557694,0.0,True,0.010345458984375,-1.9499998092651367,0.19700008630752563,-0.43451574444770813,0.0,0.0,0.0
1759839622.9157324,2,-1.9499998092651367,0.19700008630752563,-0.4345126479315944,0.0,True,0.010100364685058594,-1.9499998092651367,0.19700008630752563,-0.43451574444770813,0.0,0.0,0.0
1759839622.9272041,2,-1.9499998092651367,0.19700008630752563,-0.43451268501476115,0.0,True,0.011471748352050781,-1.9499998092651367,0.19700008630752563,-0.43451574444770813,0.0,0.0,0.0
1759839622.9377458,2,-1.9499998092651367,0.19700008630752563,-0.43451279473857873,0.0,True,0.010541677474975586,-1.9499998092651367,0.19700008630752563,-0.43451574444770813,0.0,0.0,0.0
1759839622.9490492,2,-1.9499998092651367,0.19700008630752563,-0.4345128558293929,0.0,True,0.011303424835205078,-1.9499998092651367,0.19700008630752563,-0.43451574444770813,0.0,0.0,0.0
1759839622.959266,2,-1.9499998092651367,0.19700008630752563,-0.43451298872310673,0.0,True,0.010216712951660156,-1.9499998092651367,0.19700008630752563,-0.43451574444770813,0.0,0.0,0.0
1759839622.9695468,2,-1.9499998092651367,0.19700008630752563,-0.43451310606674554,0.0,True,0.010280847549438477,-1.9499998092651367,0.19700008630752563,-0.43451574444770813,0.0,0.0,0.0
1759839622.9798622,2,-1.9499998092651367,0.19700008630752563,-0.4345132084786698,0.0,True,0.010315418243408203,-1.9499998092651367,0.19700008630752563,-0.43451574444770813,0.0,0.0,0.0
1759839622.9906042,2,-1.9499998092651367,0.19700008630752563,-0.43451327869413525,0.0,True,0.010741949081420898,-1.9499998092651367,0.19700008630752563,-0.43451574444770813,0.0,0.0,0.0
1759839623.001856,2,-1.9499998092651367,0.19700008630752563,-0.4345133225031468,0.0,True,0.01125192642211914,-1.9499998092651367,0.19700008630752563,-0.43451574444770813,0.0,0.0,0.0
1759839623.0127144,2,-1.9499998092651367,0.19700008630752563,-0.43451339537687694,0.0,True,0.010858297348022461,-1.9499998092651367,0.19700008630752563,-0.43451574444770813,0.0,0.0,0.0
1759839623.024104,2,-1.9499998092651367,0.19700008630752563,-0.4345134446960408,0.0,True,0.011389732360839844,-1.9499998092651367,0.19700008630752563,-0.43451574444770813,0.0,0.0,0.0
1759839623.0346882,2,-1.9499998092651367,0.19700008630752563,-0.43451353862920605,0.0,True,0.010584115982055664,-1.9499998092651367,0.19700008630752563,-0.43451574444770813,0.0,0.0,0.0
1759839623.0448732,2,-1.9499998092651367,0.19700008630752563,-0.43451364500645084,0.0,True,0.010185003280639648,-1.9499998092651367,0.19700008630752563,-0.43451574444770813,0.0,0.0,0.0
1759839623.0560083,2,-1.9499998092651367,0.19700008630752563,-0.43451369697432796,0.0,True,0.011135101318359375,-1.9499998092651367,0.19700008630752563,-0.43451574444770813,0.0,0.0,0.0
1759839623.066423,2,-1.9499998092651367,0.19700008630752563,-0.4345137805818986,0.0,True,0.010414600372314453,-1.9499998092651367,0.19700008630752563,-0.43451574444770813,0.0,0.0,0.0
1759839623.0770366,2,-1.9499998092651367,0.19700008630752563,-0.43451385031807277,0.0,True,0.010613679885864258,-1.9499998092651367,0.19700008630752563,-0.43451574444770813,0.0,0.0,0.0
1759839623.0881948,2,-1.9499998092651367,0.19700008630752563,-0.43451389428539144,0.0,True,0.011158227920532227,-1.9499998092651367,0.19700008630752563,-0.43451574444770813,0.0,0.0,0.0
1759839623.0985374,2,-1.9499998092651367,0.19700008630752563,-0.4345139727298317,0.0,True,0.010342597961425781,-1.9499998092651367,0.19700008630752563,-0.43451574444770813,0.0,0.0,0.0
1759839623.1092014,2,-1.9499998092651367,0.19700008630752563,-0.4345140334480835,0.0,True,0.010663986206054688,-1.9499998092651367,0.19700008630752563,-0.43451574444770813,0.0,0.0,0.0
1759839623.120146,2,-1.9499998092651367,0.19700008630752563,-0.4345140807538037,0.0,True,0.010944604873657227,-1.9499998092651367,0.19700008630752563,-0.43451574444770813,0.0,0.0,0.0
1759839623.1304843,2,-1.9499998092651367,0.19700008630752563,-0.43451414981833736,0.0,True,0.010338306427001953,-1.9499998092651367,0.19700008630752563,-0.43451574444770813,0.0,0.0,0.0
1759839623.1417882,2,-1.9499998092651367,0.19700008630752563,-0.43451418145245313,0.0,True,0.011303901672363281,-1.9499998092651367,0.19700008630752563,-0.43451574444770813,0.0,0.0,0.0
1759839623.1526268,2,-1.9499998092651367,0.19700008630752563,-0.4345142320281177,0.0,True,0.010838508605957031,-1.9499998092651367,0.19700008630752563,-0.43451574444770813,0.0,0.0,0.0
1759839623.162936,2,-1.9499998092651367,0.19700008630752563,-0.43451429916688156,0.0,True,0.010309219360351562,-1.9499998092651367,0.19700008630752563,-0.43451574444770813,0.0,0.0,0.0
1759839623.1731696,2,-1.9499998092651367,0.19700008630752563,-0.43451436210638406,0.0,True,0.010233640670776367,-1.9499998092651367,0.19700008630752563,-0.43451574444770813,0.0,0.0,0.0
1759839623.1844118,2,-1.9499998092651367,0.19700008630752563,-0.43451438872732595,0.0,True,0.011242151260375977,-1.9499998092651367,0.19700008630752563,-0.43451574444770813,0.0,0.0,0.0
1759839623.1946914,2,-1.9499998092651367,0.19700008630752563,-0.4345144456921872,0.0,True,0.010279655456542969,-1.9499998092651367,0.19700008630752563,-0.43451574444770813,0.0,0.0,0.0
1759839623.2058628,2,-1.9499998092651367,0.19700008630752563,-0.43451447453993985,0.0,True,0.011171340942382812,-1.9499998092651367,0.19700008630752563,-0.43451574444770813,0.0,0.0,0.0
1759839623.217228,2,-1.9499998092651367,0.19700008630752563,-0.43451450062538477,0.0,True,0.011365175247192383,-1.9499998092651367,0.19700008630752563,-0.43451574444770813,0.0,0.0,0.0
1759839623.228597,2,-1.9499998092651367,0.19700008630752563,-0.4345145312632379,0.0,True,0.011368989944458008,-1.9499998092651367,0.19700008630752563,-0.43451574444770813,0.0,0.0,0.0
1759839623.2388191,2,-1.9499998092651367,0.19700008630752563,-0.4345145930712597,0.0,True,0.010222196578979492,-1.9499998092651367,0.19700008630752563,-0.43451574444770813,0.0,0.0,0.0
1759839623.2500868,2,-1.9499998092651367,0.19700008630752563,-0.43451462358847337,0.0,True,0.011267662048339844,-1.9499998092651367,0.19700008630752563,-0.43451574444770813,0.0,0.0,0.0
1759839623.2602382,2,-1.9499998092651367,0.19700008630752563,-0.43451467964315427,0.0,True,0.010151386260986328,-1.9499998092651367,0.19700008630752563,-0.43451574444770813,0.0,0.0,0.0
1759839623.2710073,2,-1.9499998092651367,0.19700008630752563,-0.43451471594252666,0.0,True,0.010769128799438477,-1.9499998092651367,0.19700008630752563,-0.43451574444770813,0.0,0.0,0.0
1759839623.2817194,2,-1.9499998092651367,0.19700008630752563,-0.4345147510459739,0.0,True,0.010712146759033203,-1.9499998092651367,0.19700008630752563,-0.43451574444770813,0.0,0.0,0.0
1759839623.2925339,2,-1.9499998092651367,0.19700008630752563,-0.43451478266641885,0.0,True,0.010814428329467773,-1.9499998092651367,0.19700008630752563,-0.43451574444770813,0.0,0.0,0.0
1759839623.3040001,2,-1.9499998092651367,0.19700008630752563,-0.4345148007694206,0.0,True,0.011466264724731445,-1.9499998092651367,0.19700008630752563,-0.43451574444770813,0.0,0.0,0.0
1759839623.3142178,2,-1.9499998092651367,0.19700008630752563,-0.43451484614309166,0.0,True,0.010217666625976562,-1.9499998092651367,0.19700008630752563,-0.43451574444770813,0.0,0.0,0.0
1759839623.3243067,2,-1.9499998092651367,0.19700008630752563,-0.4345148896499502,0.0,True,0.010088920593261719,-1.9499998092651367,0.19700008630752563,-0.43451574444770813,0.0,0.0,0.0
1759839623.3347316,2,-1.9499998092651367,0.19700008630752563,-0.43451492127752545,0.0,True,0.01042485237121582,-1.9499998092651367,0.19700008630752563,-0.43451574444770813,0.0,0.0,0.0
1759839623.3453407,2,-1.9499998092651367,0.19700008630752563,-0.43451494688141423,0.0,True,0.010609149932861328,-1.9499998092651367,0.19700008630752563,-0.43451574444770813,0.0,0.0,0.0
1759839623.3561037,2,-1.9499998092651367,0.19700008630752563,-0.43451496916546084,0.0,True,0.010762929916381836,-1.9499998092651367,0.19700008630752563,-0.43451574444770813,0.0,0.0,0.0
1759839623.367241,2,-1.9499998092651367,0.19700008630752563,-0.4345149857486241,0.0,True,0.011137247085571289,-1.9499998092651367,0.19700008630752563,-0.43451574444770813,0.0,0.0,0.0
1759839623.3777235,2,-1.9499998092651367,0.19700008630752563,-0.43451501471600906,0.0,True,0.010482549667358398,-1.9499998092651367,0.19700008630752563,-0.43451574444770813,0.0,0.0,0.0
1759839623.3886766,2,-1.9499998092651367,0.19700008630752563,-0.43451503515778356,0.0,True,0.010953187942504883,-1.9499998092651367,0.19700008630752563,-0.43451574444770813,0.0,0.0,0.0
1759839623.3998768,2,-1.9499998092651367,0.19700008630752563,-0.43451505218923003,0.0,True,0.011200189590454102,-1.9499998092651367,0.19700008630752563,-0.43451574444770813,0.0,0.0,0.0
1759839623.4104826,2,-1.9499998092651367,0.19700008630752563,-0.43451507914945786,0.0,True,0.010605812072753906,-1.9499998092651367,0.19700008630752563,-0.43451574444770813,0.0,0.6,0.0
1759839623.4210923,2,-1.9499998092651367,0.19700008630752563,-0.4345151046338458,0.0,True,0.010609626770019531,-1.9499998092651367,0.19700008630752563,-0.43451574444770813,0.0,0.6,0.0
1759839623.4407318,2,-1.9499998092651367,0.19700008630752563,-0.4345150123269246,0.0,True,0.01963949203491211,-1.9499998092651367,0.19700008630752563,-0.43451574444770813,0.0,0.6,0.0
1759839623.449345,2,-1.9499998092651367,0.19700008630752563,-0.4345150923140437,0.0,True,0.008613348007202148,-1.9499998092651367,0.19700008630752563,-0.43451574444770813,0.0,0.6,0.0
1759839623.4604015,2,-1.9499998092651367,0.19700008630752563,-0.4345151329776371,0.0,True,0.01105642318725586,-1.9499998092651367,0.19700008630752563,-0.43451574444770813,0.0,0.6,0.0
1759839623.472773,2,-1.9499998092651367,0.19700008630752563,-0.43451515010018227,0.0,True,0.012371540069580078,-1.9499998092651367,0.19700008630752563,-0.43451574444770813,0.0,0.6,0.0
1759839623.483288,2,-1.9499998092651367,0.19700008630752563,-0.43451518778048914,0.0,True,0.010514974594116211,-1.9499998092651367,0.19700008630752563,-0.43451574444770813,0.0,0.6,0.0
1759839623.495353,2,-1.9499998092651367,0.19700008630752563,-0.43451520385644926,0.0,True,0.012064933776855469,-1.9499998092651367,0.19700008630752563,-0.43451574444770813,0.0,0.6,0.0
1759839623.5062568,2,-1.9499998092651367,0.19700008630752563,-0.43451523155576055,0.0,True,0.01090383529663086,-1.9499998092651367,0.19700008630752563,-0.43451574444770813,0.0,0.6,0.0
1759839623.5171475,2,-1.9499998092651367,0.19700008630752563,-0.43451525650765177,0.0,True,0.010890722274780273,-1.9499998092651367,0.19700008630752563,-0.43451574444770813,0.0,0.6,0.0
1759839623.5274546,2,-1.9499998092651367,0.19700008630752563,-0.4345152839088975,0.0,True,0.010307073593139648,-1.9499998092651367,0.19700008630752563,-0.43451574444770813,0.0,0.6,0.0
1759839623.5379298,2,-1.9499998092651367,0.19700008630752563,-0.43451530565522134,0.0,True,0.01047515869140625,-1.9499998092651367,0.19700008630752563,-0.43451574444770813,0.0,0.6,0.0
1759839623.5492115,2,-1.9499998092651367,0.19700008630752563,-0.4345153172391676,0.0,True,0.011281728744506836,-1.9499998092651367,0.19700008630752563,-0.43451574444770813,0.0,0.6,0.0
1759839623.5608425,2,-1.9499998092651367,0.19700008630752563,-0.4345153259591896,0.0,True,0.011631011962890625,-1.9499998092651367,0.19700008630752563,-0.43451574444770813,0.0,0.6,0.0
1759839623.572273,2,-1.9499998092651367,0.19700008630752563,-0.43451533785648166,0.0,True,0.011430501937866211,-1.9499998092651367,0.19700008630752563,-0.43451574444770813,0.0,0.6,0.0
1759839623.5825922,2,-1.9499998092651367,0.19700008630752563,-0.43451535930642393,0.0,True,0.010319232940673828,-1.9499998092651367,0.19700008630752563,-0.43451574444770813,0.0,0.6,0.0
1759839623.592763,2,-1.9499998092651367,0.19700008630752563,-0.43451537935199624,0.0,True,0.010170698165893555,-1.9499998092651367,0.19700008630752563,-0.43451574444770813,0.0,0.6,0.0
1759839623.6041653,2,-1.9499998092651367,0.19700008630752563,-0.43451538716307425,0.0,True,0.011402368545532227,-1.9499998092651367,0.19700008630752563,-0.43451574444770813,0.0,0.6,0.0
1759839623.6155264,2,-1.9499998092651367,0.19700008630752563,-0.4345153957893082,0.0,True,0.011361122131347656,-1.9499998092651367,0.19700008630752563,-0.43451574444770813,0.0,0.6,0.0
1759839623.6267102,2,-1.9499998092651367,0.19700008630752563,-0.4345154065708332,0.0,True,0.011183738708496094,-1.9499998092651367,0.19700008630752563,-0.43451574444770813,0.0,0.6,0.0
1759839623.639557,2,-1.9499998092651367,0.19700008630752563,-0.43451540640242037,0.0,True,0.012846708297729492,-1.9499998092651367,0.19700008630752563,-0.43451574444770813,0.0,0.6,0.0
1759839623.6499503,2,-1.9499998092651367,0.19700008630752563,-0.4345154254917851,0.0,True,0.010393381118774414,-1.9499998092651367,0.19700008630752563,-0.43451574444770813,0.0,0.6,0.0
1759839623.6616569,2,-1.9499998092651367,0.19700008630752563,-0.43451543454714425,0.0,True,0.01170659065246582,-1.9499998092651367,0.19700008630752563,-0.43451574444770813,0.0,0.6,0.0
1759839623.6719615,2,-1.9499998092651367,0.19700008630752563,-0.43451545194383456,0.0,True,0.010304689407348633,-1.9499998092651367,0.19700008630752563,-0.43451574444770813,0.0,0.6,0.0
1759839623.683246,2,-1.9499998092651367,0.19700008630752563,-0.43451546141937314,0.0,True,0.011284351348876953,-1.9499998092651367,0.19700008630752563,-0.43451574444770813,0.0,0.6,0.0
1759839623.6938868,2,-1.9499998092651367,0.19700008630752563,-0.4345154739886681,0.0,True,0.010640859603881836,-1.9499998092651367,0.19700008630752563,-0.43451574444770813,0.0,0.6,0.0
1759839623.7062213,2,-1.9499998092651367,0.19700008630752563,-0.43451547623985576,0.0,True,0.012334585189819336,-1.9499998092651367,0.19700008630752563,-0.43451574444770813,0.0,0.6,0.0
1759839623.717176,2,-1.9499998092651367,0.19700008630752563,-0.4345154874147479,0.0,True,0.010954618453979492,-1.9499998092651367,0.19700008630752563,-0.43451574444770813,0.0,0.6,0.0
1759839623.728593,2,-1.9499998092651367,0.19700008630752563,-0.4345154958369406,0.0,True,0.011417150497436523,-1.9499998092651367,0.19700008630752563,-0.43451574444770813,0.0,0.6,0.0
1759839623.7398677,2,-1.9499998092651367,0.19700008630752563,-0.4345155047510669,0.0,True,0.011274576187133789,-1.9499998092651367,0.19700008630752563,-0.43451574444770813,0.0,0.6,0.0
1759839623.7514374,2,-1.9499998092651367,0.19700008630752563,-0.4345155119927284,0.0,True,0.011569738388061523,-1.9499998092651367,0.19700008630752563,-0.43451574444770813,0.0,0.6,0.0
1759839623.762311,2,-1.9499998092651367,0.19700008630752563,-0.4345155224648991,0.0,True,0.010873556137084961,-1.9499998092651367,0.19700008630752563,-0.43451574444770813,0.0,0.6,0.0
1759839623.7729447,2,-1.9499998092651367,0.19700008630752563,-0.4345155330835446,0.0,True,0.010633707046508789,-1.9499998092651367,0.19700008630752563,-0.43451574444770813,0.0,0.6,0.0
1759839623.7849388,2,-1.9499998092651367,0.19700008630752563,-0.4345155367101903,0.0,True,0.011994123458862305,-1.9499998092651367,0.19700008630752563,-0.43451574444770813,0.0,0.6,0.0
1759839623.7961526,2,-1.9499998092651367,0.19700008630752563,-0.434515544235472,0.0,True,0.01121377944946289,-1.9499998092651367,0.19700008630752563,-0.43451574444770813,0.0,0.6,0.0
1759839623.8073628,2,-1.9499998092651367,0.19700008630752563,-0.43451555168248035,0.0,True,0.011210203170776367,-1.9499998092651367,0.19700008630752563,-0.43451574444770813,0.0,0.6,0.0
1759839623.817384,2,-1.9499998092651367,0.19700008630752563,-0.4345155632478779,0.0,True,0.010021209716796875,-1.9499998092651367,0.19700008630752563,-0.43451574444770813,0.0,0.6,0.0
1759839623.8281214,2,-1.9499998092651367,0.19700008630752563,-0.4345155704577408,0.0,True,0.010737419128417969,-1.9499998092651367,0.19700008630752563,-0.43451574444770813,0.0,0.6,0.0
1759839623.8410969,2,-1.9499998092651367,0.19700008630752563,-0.43451556896119925,0.0,True,0.012975454330444336,-1.9499998092651367,0.19700008630752563,-0.43451574444770813,0.0,0.6,0.0
1759839623.8512287,2,-1.9499998092651367,0.19700008630752563,-0.4345155791582229,0.0,True,0.0101318359375,-1.9499998092651367,0.19700008630752563,-0.43451574444770813,0.0,0.6,0.0
1759839623.8621073,2,-1.9499998092651367,0.19700008630752563,-0.43451558589503847,0.0,True,0.010878562927246094,-1.9499998092651367,0.19700008630752563,-0.43451574444770813,0.0,0.6,0.0
1759839623.8722389,2,-1.9499998092651367,0.19700008630752563,-0.4345155942638179,0.0,True,0.010131597518920898,-1.9499998092651367,0.19700008630752563,-0.43451574444770813,0.0,0.6,0.0
1759839623.8829536,2,-1.9499998092651367,0.19700008630752563,-0.4345155996837313,0.0,True,0.01071476936340332,-1.9499998092651367,0.19700008630752563,-0.43451574444770813,0.0,0.6,0.0
1759839623.8942587,2,-1.9499998092651367,0.19700008630752563,-0.434515602868073,0.0,True,0.011305093765258789,-1.9499998092651367,0.19700008630752563,-0.43451574444770813,0.0,0.6,0.0
1759839623.9050395,2,-1.9499998092651367,0.19700008630752563,-0.43451560786632015,0.0,True,0.010780811309814453,-1.9499998092651367,0.19700008630752563,-0.43451574444770813,0.0,0.6,0.0
1759839623.9156241,2,-1.9499998092651367,0.19700008630752563,-0.43451561327039023,0.0,True,0.010584592819213867,-1.9499998092651367,0.19700008630752563,-0.43451574444770813,0.0,0.6,0.0
1759839623.92577,2,-1.9499998092651367,0.19700008630752563,-0.43451561943681405,0.0,True,0.010145902633666992,-1.9499998092651367,0.19700008630752563,-0.43451574444770813,0.0,0.6,0.0
1759839623.9370158,2,-1.9499998092651367,0.19700008630752563,-0.4345156219855699,0.0,True,0.0112457275390625,-1.9499998092651367,0.19700008630752563,-0.43451574444770813,0.0,0.6,0.0
1759839623.948523,2,-1.9499998092651367,0.19700008630752563,-0.43451562410368183,0.0,True,0.011507272720336914,-1.9499998092651367,0.19700008630752563,-0.43451574444770813,0.0,0.6,0.0
1759839623.9597747,2,-1.9499998092651367,0.19700008630752563,-0.43451562740214555,0.0,True,0.011251688003540039,-1.9499998092651367,0.19700008630752563,-0.43451574444770813,0.0,0.6,0.0
1759839623.9707055,2,-1.9499998092651367,0.19700008630752563,-0.43451563167941387,0.0,True,0.010930776596069336,-1.9499998092651367,0.19700008630752563,-0.43451574444770813,0.0,0.6,0.0
1759839623.9809072,2,-1.9499998092651367,0.19700008630752563,-0.43451563744205046,0.0,True,0.010201692581176758,-1.9499998092651367,0.19700008630752563,-0.43451574444770813,0.0,0.6,0.0
1759839623.992153,2,-1.9499998092651367,0.19700008630752563,-0.4345156401898702,0.0,True,0.0112457275390625,-1.9499998092651367,0.19700008630752563,-0.43451574444770813,0.0,0.6,0.0
1759839624.002918,2,-1.9499998092651367,0.19700008630752563,-0.4345156439804896,0.0,True,0.01076507568359375,-1.9499998092651367,0.19700008630752563,-0.43451574444770813,0.0,0.6,0.0
1759839624.0135806,2,-1.9499998092651367,0.19700008630752563,-0.43451564783005914,0.0,True,0.010662555694580078,-1.9499998092651367,0.19700008630752563,-0.43451574444770813,0.0,0.6,0.0
1759839624.0248907,2,-1.9499998092651367,0.19700008630752563,-0.43451565012983373,0.0,True,0.011310100555419922,-1.9499998092651367,0.19700008630752563,-0.43451574444770813,0.0,0.6,0.0
1759839624.040367,2,-1.9499998092651367,0.19700008630752563,-0.4345156447627705,0.0,True,0.015476226806640625,-1.9499998092651367,0.19700008630752563,-0.43451574444770813,0.0,0.6,0.0
1759839624.0486045,2,-1.9499998092651367,0.19700008630752563,-0.43451565520429014,0.0,True,0.008237600326538086,-1.9499998092651367,0.19700008630752563,-0.43451574444770813,0.0,0.6,0.0
1759839624.0586157,2,-1.9499998092651367,0.19700008630752563,-0.43451566083888515,0.0,True,0.01001119613647461,-1.9499998092651367,0.19700008630752563,-0.43451574444770813,0.0,0.6,0.0
1759839624.069764,2,-1.9499998092651367,0.19700008630752563,-0.43451566326578117,0.0,True,0.011148214340209961,-1.9499998092651367,0.19700008630752563,-0.43451574444770813,0.0,0.6,0.0
1759839624.0805686,2,-1.9499998092651367,0.19700008630752563,-0.4345156661329419,0.0,True,0.01080465316772461,-1.9499998092651367,0.19700008630752563,-0.43451574444770813,0.0,0.6,0.0
1759839624.0917635,2,-1.9499998092651367,0.19700008630752563,-0.4345156682687126,0.0,True,0.011194944381713867,-1.9499998092651367,0.19700008630752563,-0.43451574444770813,0.0,0.6,0.0
1759839624.1021698,2,-1.9499998092651367,0.19700008630752563,-0.4345156716774774,0.0,True,0.010406255722045898,-1.9499998092651367,0.19700008630752563,-0.43451574444770813,0.0,0.6,0.0
1759839624.1132026,2,-1.9499998092651367,0.19700008630752563,-0.4345156738433822,0.0,True,0.011032819747924805,-1.9499998092651367,0.19700008630752563,-0.43451574444770813,0.0,0.6,0.0
1759839624.1238954,2,-1.9499998092651367,0.19700008630752563,-0.4345156764518485,0.0,True,0.010692834854125977,-1.9499998092651367,0.19700008630752563,-0.43451574444770813,0.0,0.6,0.0
1759839624.1351366,2,-1.9499998092651367,0.19700008630752563,-0.43451567816272885,0.0,True,0.01124119758605957,-1.9499998092651367,0.19700008630752563,-0.43451574444770813,0.0,0.6,0.0
1759839624.1454532,2,-1.9499998092651367,0.19700008630752563,-0.4345156812011002,0.0,True,0.010316610336303711,-1.9499998092651367,0.19700008630752563,-0.43451574444770813,0.0,0.6,0.0
1759839624.1568928,2,-1.9499998092651367,0.19700008630752563,-0.43451568249601635,0.0,True,0.01143956184387207,-1.9499998092651367,0.19700008630752563,-0.43451574444770813,0.0,0.6,0.0
1759839624.1681752,2,-1.9499998092651367,0.19700008630752563,-0.4345156841251736,0.0,True,0.01128244400024414,-1.9499998092651367,0.19700008630752563,-0.43451574444770813,0.0,0.6,0.0
1759839624.180198,2,-1.9499998092651367,0.19700008630752563,-0.43451568499289905,0.0,True,0.012022733688354492,-1.9499998092651367,0.19700008630752563,-0.43451574444770813,0.0,0.6,0.0
1759839624.1914678,2,-1.9499998092651367,0.19700008630752563,-0.43451568707755506,0.0,True,0.011269807815551758,-1.9499998092651367,0.19700008630752563,-0.43451574444770813,0.0,0.6,0.0
1759839624.2021666,2,-1.9499998092651367,0.19700008630752563,-0.43451568981057065,0.0,True,0.010698795318603516,-1.9499998092651367,0.19700008630752563,-0.43451574444770813,0.0,0.6,0.0
1759839624.2122798,2,-1.9499998092651367,0.19700008630752563,-0.43451569289443803,0.0,True,0.010113239288330078,-1.9499998092651367,0.19700008630752563,-0.43451574444770813,0.0,0.6,0.0
1759839624.2236335,2,-1.9499998092651367,0.19700008630752563,-0.4345156942092583,0.0,True,0.011353731155395508,-1.9499998092651367,0.19700008630752563,-0.43451574444770813,0.0,0.6,0.0
1759839624.233847,2,-1.9499998092651367,0.19700008630752563,-0.434515696682535,0.0,True,0.010213375091552734,-1.9499998092651367,0.19700008630752563,-0.43451574444770813,0.0,0.6,0.0
1759839624.2512012,2,-1.9499998092651367,0.19700008630752563,-0.43451569200582085,0.0,True,0.017354249954223633,-1.9499998092651367,0.19700008630752563,-0.43451574444770813,0.0,0.6,0.0
1759839624.2623582,2,-1.9499998092651367,0.19700008630752563,-0.43451569500626164,0.0,True,0.011157035827636719,-1.9499998092651367,0.19700008630752563,-0.43451574444770813,0.0,0.6,0.0
1759839624.2732122,2,-1.9499998092651367,0.19700008630752563,-0.43451569827221803,0.0,True,0.010854005813598633,-1.9499998092651367,0.19700008630752563,-0.43451574444770813,0.0,0.6,0.0
1759839624.2836397,2,-1.9499998092651367,0.19700008630752563,-0.4345157013575829,0.0,True,0.010427474975585938,-1.9499998092651367,0.19700008630752563,-0.43451574444770813,0.0,0.6,0.0
1759839624.2937517,2,-1.9499998092651367,0.19700008630752563,-0.43451570414193874,0.0,True,0.01011204719543457,-1.9499998092651367,0.19700008630752563,-0.43451574444770813,0.0,0.6,0.0
1759839624.3053484,2,-1.9499998092651367,0.19700008630752563,-0.43451570522280214,0.0,True,0.0115966796875,-1.9499998092651367,0.19700008630752563,-0.43451574444770813,0.0,0.6,0.0
1759839624.316238,2,-1.9499998092651367,0.19700008630752563,-0.43451570682647045,0.0,True,0.010889530181884766,-1.9499998092651367,0.19700008630752563,-0.43451574444770813,0.0,0.6,0.0
1759839624.3264766,2,-1.9499998092651367,0.19700008630752563,-0.4345157088142084,0.0,True,0.0102386474609375,-1.9499998092651367,0.19700008630752563,-0.43451574444770813,0.0,0.6,0.0
1759839624.3374696,2,-1.9499998092651367,0.19700008630752563,-0.4345157099858259,0.0,True,0.010993003845214844,-1.9499998092651367,0.19700008630752563,-0.43451574444770813,0.0,0.6,0.0
1759839624.3483117,2,-1.9499998092651367,0.19700008630752563,-0.4345157111892206,0.0,True,0.010842084884643555,-1.9499998092651367,0.19700008630752563,-0.43451574444770813,0.0,0.6,0.0
1759839624.3592882,2,-1.9499998092651367,0.19700008630752563,-0.43451571224975893,0.0,True,0.010976552963256836,-1.9499998092651367,0.19700008630752563,-0.43451574444770813,0.0,0.6,0.0
1759839624.3693964,2,-1.9499998092651367,0.19700008630752563,-0.4345157138546867,0.0,True,0.010108232498168945,-1.9499998092651367,0.19700008630752563,-0.43451574444770813,0.0,0.6,0.0
1759839624.3800457,2,-1.9499998092651367,0.19700008630752563,-0.4345157149235277,0.0,True,0.01064920425415039,-1.9499998092651367,0.19700008630752563,-0.43451574444770813,0.0,0.6,0.0
1759839624.392169,2,-1.9499998092651367,0.19700008630752563,-0.4345157150060377,0.0,True,0.012123346328735352,-1.9499998092651367,0.19700008630752563,-0.43451574444770813,0.0,0.6,0.0
1759839624.403475,2,-1.9499998092651367,0.19700008630752563,-0.4345157158094235,0.0,True,0.011306047439575195,-1.9499998092651367,0.19700008630752563,-0.43451574444770813,0.0,0.6,0.0
1759839624.4147203,2,-1.9499998092651367,0.19700008630752563,-0.43451571673013234,0.0,True,0.011245250701904297,-1.9499998092651367,0.19700008630752563,-0.43451574444770813,0.0,0.6,0.0
1759839624.426356,2,-1.9499998092651367,0.19700008630752563,-0.4345157174399077,0.0,True,0.011635780334472656,-1.9499998092651367,0.19700008630752563,-0.43451574444770813,0.0,0.6,0.0
1759839624.440062,2,-1.9499998092651367,0.19700008630752563,-0.4345157171238121,0.0,True,0.013705968856811523,-1.9499998092651367,0.19700008630752563,-0.43451574444770813,0.0,0.6,0.0
1759839624.455487,2,-1.9499998092651367,0.19700008630752563,-0.43451571637479347,0.0,True,0.015424966812133789,-1.9499998092651367,0.19700008630752563,-0.43451574444770813,0.0,0.6,0.0
1759839624.4668648,2,-1.9499998092651367,0.19700008630752563,-0.4345157181864181,0.0,True,0.011377811431884766,-1.9499998092651367,0.19700008630752563,-0.43451574444770813,0.0,0.6,0.0
1759839624.4769573,2,-1.9499998092651367,0.19700008630752563,-0.43451572043387365,0.0,True,0.010092496871948242,-1.9499998092651367,0.19700008630752563,-0.43451574444770813,0.0,0.6,0.0
1759839624.4883478,2,-1.9499998092651367,0.19700008630752563,-0.4345157216508593,0.0,True,0.011390447616577148,-1.9499998092651367,0.19700008630752563,-0.43451574444770813,0.0,0.6,0.0
1759839624.4994853,2,-1.9499998092651367,0.19700008630752563,-0.4345157227751386,0.0,True,0.01113748550415039,-1.9499998092651367,0.19700008630752563,-0.43451574444770813,0.0,0.6,0.0
1759839624.5106628,2,-1.9499998092651367,0.19700008630752563,-0.4345157237457471,0.0,True,0.011177539825439453,-1.9499998092651367,0.19700008630752563,-0.43451574444770813,0.0,0.6,0.0
1759839624.5228217,2,-1.9499998092651367,0.19700008630752563,-0.4345157242254416,0.0,True,0.012158870697021484,-1.9499998092651367,0.19700008630752563,-0.43451574444770813,0.0,0.6,0.0
1759839624.5337925,2,-1.9499998092651367,0.19700008630752563,-0.43451572520510773,0.0,True,0.010970830917358398,-1.9499998092651367,0.19700008630752563,-0.43451574444770813,0.0,0.6,0.0
1759839624.545892,2,-1.9499998092651367,0.19700008630752563,-0.43451572568253205,0.0,True,0.012099504470825195,-1.9499998092651367,0.19700008630752563,-0.43451574444770813,0.0,0.6,0.0
1759839624.556829,2,-1.9499998092651367,0.19700008630752563,-0.4345157266013473,0.0,True,0.010936975479125977,-1.9499998092651367,0.19700008630752563,-0.43451574444770813,0.0,0.6,0.0
1759839624.5688775,2,-1.9499998092651367,0.19700008630752563,-0.4345157270543183,0.0,True,0.012048482894897461,-1.9499998092651367,0.19700008630752563,-0.43451574444770813,0.0,0.6,0.0
1759839624.5795765,2,-1.9499998092651367,0.19700008630752563,-0.4345157279745866,0.0,True,0.010699033737182617,-1.9499998092651367,0.19700008630752563,-0.43451574444770813,0.0,0.6,0.0
1759839624.5907462,2,-1.9499998092651367,0.19700008630752563,-0.43451572864249144,0.0,True,0.011169672012329102,-1.9499998092651367,0.19700008630752563,-0.43451574444770813,0.0,0.6,0.0
1759839624.6021237,2,-1.9499998092651367,0.19700008630752563,-0.434515729182241,0.0,True,0.011377573013305664,-1.9499998092651367,0.19700008630752563,-0.43451574444770813,0.0,0.6,0.0
1759839624.6141825,2,-1.9499998092651367,0.19700008630752563,-0.4345157295005766,0.0,True,0.012058734893798828,-1.9499998092651367,0.19700008630752563,-0.43451574444770813,0.0,0.6,0.0
1759839624.6245844,2,-1.9499998092651367,0.19700008630752563,-0.43451573034342417,0.0,True,0.01040196418762207,-1.9499998092651367,0.19700008630752563,-0.43451574444770813,0.0,0.6,0.0
1759839624.6363232,2,-1.9499998092651367,0.19700008630752563,-0.43451573071487104,0.0,True,0.011738777160644531,-1.9499998092651367,0.19700008630752563,-0.43451574444770813,0.0,0.6,0.0
1759839624.6464477,2,-1.9499998092651367,0.19700008630752563,-0.43451573151953404,0.0,True,0.010124444961547852,-1.9499998092651367,0.19700008630752563,-0.43451574444770813,0.0,0.6,0.0
1759839624.6633286,2,-1.9499998092651367,0.19700008630752563,-0.4345157304901832,0.0,True,0.01688098907470703,-1.9499998092651367,0.19700008630752563,-0.43451574444770813,0.0,0.6,0.0
1759839624.6715238,2,-1.9499998092651367,0.19700008630752563,-0.4345157320270907,0.0,True,0.008195161819458008,-1.9499998092651367,0.19700008630752563,-0.43451574444770813,0.0,0.6,0.0
1759839624.6821702,2,-1.9499998092651367,0.19700008630752563,-0.4345157327386673,0.0,True,0.010646343231201172,-1.9499998092651367,0.19700008630752563,-0.43451574444770813,0.0,0.6,0.0
1759839624.6935754,2,-1.9499998092651367,0.19700008630752563,-0.4345157331194063,0.0,True,0.011405229568481445,-1.9499998092651367,0.19700008630752563,-0.43451574444770813,0.0,0.6,0.0
1759839624.7048314,2,-1.9499998092651367,0.19700008630752563,-0.4345157335112546,0.0,True,0.011255979537963867,-1.9499998092651367,0.19700008630752563,-0.43451574444770813,0.0,0.6,0.0
1759839624.7164474,2,-1.9499998092651367,0.19700008630752563,-0.43451573381446984,0.0,True,0.011615991592407227,-1.9499998092651367,0.19700008630752563,-0.43451574444770813,0.0,0.6,0.0
1759839624.7279046,2,-1.9499998092651367,0.19700008630752563,-0.434515734161792,0.0,True,0.011457204818725586,-1.9499998092651367,0.19700008630752563,-0.43451574444770813,0.0,0.6,0.0
1759839624.7387807,2,-1.9499998092651367,0.19700008630752563,-0.43451573462482784,0.0,True,0.010876178741455078,-1.9499998092651367,0.19700008630752563,-0.43451574444770813,0.0,0.6,0.0
1759839624.7501016,2,-1.9499998092651367,0.19700008630752563,-0.4345157349601223,0.0,True,0.011320829391479492,-1.9499998092651367,0.19700008630752563,-0.43451574444770813,0.0,0.6,0.0
1759839624.7613926,2,-1.9499998092651367,0.19700008630752563,-0.4345157352854123,0.0,True,0.011291027069091797,-1.9499998092651367,0.19700008630752563,-0.43451574444770813,0.0,0.6,0.0
1759839624.7726293,2,-1.9499998092651367,0.19700008630752563,-0.4345157356111251,0.0,True,0.01123666763305664,-1.9499998092651367,0.19700008630752563,-0.43451574444770813,0.0,0.6,0.0
1759839624.7827506,2,-1.9499998092651367,0.19700008630752563,-0.43451573611758576,0.0,True,0.010121345520019531,-1.9499998092651367,0.19700008630752563,-0.43451574444770813,0.0,0.6,0.0
1759839624.7938743,2,-1.9499998092651367,0.19700008630752563,-0.43451573638332874,0.0,True,0.0111236572265625,-1.9499998092651367,0.19700008630752563,-0.43451574444770813,0.0,0.6,0.0
1759839624.8052783,2,-1.9499998092651367,0.19700008630752563,-0.43451573658674647,0.0,True,0.011404037475585938,-1.9499998092651367,0.19700008630752563,-0.43451574444770813,0.0,0.6,0.0
1759839624.8165433,2,-1.9499998092651367,0.19700008630752563,-0.4345157368247996,0.0,True,0.011265039443969727,-1.9499998092651367,0.19700008630752563,-0.43451574444770813,0.0,0.6,0.0
1759839624.8276181,2,-1.9499998092651367,0.19700008630752563,-0.4345157370960493,0.0,True,0.01107478141784668,-1.9499998092651367,0.19700008630752563,-0.43451574444770813,0.0,0.6,0.0
1759839624.8386004,2,-1.9499998092651367,0.19700008630752563,-0.43451573737092986,0.0,True,0.010982275009155273,-1.9499998092651367,0.19700008630752563,-0.43451574444770813,0.0,0.6,0.0
1759839624.8499045,2,-1.9499998092651367,0.19700008630752563,-0.4345157375844906,0.0,True,0.011304140090942383,-1.9499998092651367,0.19700008630752563,-0.43451574444770813,0.0,0.6,0.0
1759839624.8650572,2,-1.9499998092651367,0.19700008630752563,-0.43451573728068915,0.0,True,0.015152692794799805,-1.9499998092651367,0.19700008630752563,-0.43451574444770813,0.0,0.6,0.0
1759839624.876456,2,-1.9499998092651367,0.19700008630752563,-0.4345157376309654,0.0,True,0.011398792266845703,-1.9499998092651367,0.19700008630752563,-0.43451574444770813,0.0,0.6,0.0
1759839624.8877728,2,-1.9499998092651367,0.19700008630752563,-0.434515737989841,0.0,True,0.011316776275634766,-1.9499998092651367,0.19700008630752563,-0.43451574444770813,0.0,0.6,0.0
1759839624.8982422,2,-1.9499998092651367,0.19700008630752563,-0.43451573840526336,0.0,True,0.010469436645507812,-1.9499998092651367,0.19700008630752563,-0.43451574444770813,0.0,0.6,0.0
1759839624.908444,2,-1.9499998092651367,0.19700008630752563,-0.4345157387827072,0.0,True,0.010201692581176758,-1.9499998092651367,0.19700008630752563,-0.43451574444770813,0.0,0.6,0.0
1759839624.919249,2,-1.9499998092651367,0.19700008630752563,-0.43451573902454754,0.0,True,0.010805130004882812,-1.9499998092651367,0.19700008630752563,-0.43451574444770813,0.0,0.6,0.0
1759839624.9303722,2,-1.9499998092651367,0.19700008630752563,-0.43451573920093267,0.0,True,0.011123180389404297,-1.9499998092651367,0.19700008630752563,-0.43451574444770813,0.0,0.6,0.0
1759839624.9416597,2,-1.9499998092651367,0.19700008630752563,-0.4345157393532375,0.0,True,0.011287450790405273,-1.9499998092651367,0.19700008630752563,-0.43451574444770813,0.0,0.6,0.0
1759839624.9530718,2,-1.9499998092651367,0.19700008630752563,-0.4345157394953283,0.0,True,0.01141214370727539,-1.9499998092651367,0.19700008630752563,-0.43451574444770813,0.0,0.6,0.0
1759839624.9643872,2,-1.9499998092651367,0.19700008630752563,-0.43451573965259627,0.0,True,0.011315345764160156,-1.9499998092651367,0.19700008630752563,-0.43451574444770813,0.0,0.6,0.0
1759839624.975003,2,-1.9499998092651367,0.19700008630752563,-0.43451573987629644,0.0,True,0.010615825653076172,-1.9499998092651367,0.19700008630752563,-0.43451574444770813,0.0,0.6,0.0
1759839624.9868228,2,-1.9499998092651367,0.19700008630752563,-0.43451573996776816,0.0,True,0.011819839477539062,-1.9499998092651367,0.19700008630752563,-0.43451574444770813,0.0,0.6,0.0
1759839624.9971752,2,-1.9499998092651367,0.19700008630752563,-0.4345157401997941,0.0,True,0.010352373123168945,-1.9499998092651367,0.19700008630752563,-0.43451574444770813,0.0,0.6,0.0
1759839625.0078757,2,-1.9499998092651367,0.19700008630752563,-0.43451574037718643,0.0,True,0.010700464248657227,-1.9499998092651367,0.19700008630752563,-0.43451574444770813,0.0,0.6,0.0
1759839625.0181036,2,-1.9499998092651367,0.19700008630752563,-0.43451574057403874,0.0,True,0.01022791862487793,-1.9499998092651367,0.19700008630752563,-0.43451574444770813,0.0,0.6,0.0
1759839625.0293856,2,-1.9499998092651367,0.19700008630752563,-0.4345157406616238,0.0,True,0.011281967163085938,-1.9499998092651367,0.19700008630752563,-0.43451574444770813,0.0,0.6,0.0
1759839625.0404828,2,-1.9499998092651367,0.19700008630752563,-0.4345157407677718,0.0,True,0.011097192764282227,-1.9499998092651367,0.19700008630752563,-0.43451574444770813,0.0,0.6,0.0
1759839625.0513117,2,-1.9499998092651367,0.19700008630752563,-0.43451574089816347,0.0,True,0.010828971862792969,-1.9499998092651367,0.19700008630752563,-0.43451574444770813,0.0,0.6,0.0
1759839625.0662823,2,-1.9499998092651367,0.19700008630752563,-0.43451574072859955,0.0,True,0.014970541000366211,-1.9499998092651367,0.19700008630752563,-0.43451574444770813,0.0,0.6,0.0
