timestamp,vehicle_id,x,y,theta,velocity,gps_available,dt,gps_x,gps_y,gps_theta,gps_velocity,control_steering,control_acceleration
1759842058.4250433,2,-1.95,0.197,-0.8848819307611251,0.0,False,0.01,nan,nan,nan,nan,0.0,0.0
1759842058.4363425,2,-1.95,0.197,-0.8848819307611251,0.0,False,0.01129913330078125,nan,nan,nan,nan,0.0,0.0
1759842058.4475315,2,-1.95,0.197,-0.8848819307611251,0.0,False,0.011188983917236328,nan,nan,nan,nan,0.0,0.0
1759842058.457859,2,-1.95,0.197,-0.8848819307611251,0.0,False,0.010327577590942383,nan,nan,nan,nan,0.0,0.0
1759842058.4681077,2,-1.95,0.197,-0.8848819307611251,0.0,False,0.010248661041259766,nan,nan,nan,nan,0.0,0.0
1759842058.4784534,2,-1.95,0.197,-0.8848819307611251,0.0,False,0.010345697402954102,nan,nan,nan,nan,0.0,0.0
1759842058.4891636,2,-1.95,0.197,-0.8848819307611251,0.0,False,0.01071023941040039,nan,nan,nan,nan,0.0,0.0
1759842058.5005014,2,-1.95,0.197,-0.8848819307611251,0.0,False,0.011337757110595703,nan,nan,nan,nan,0.0,0.0
1759842058.5115154,2,-1.95,0.197,-0.8848819307611251,0.0,False,0.011013984680175781,nan,nan,nan,nan,0.0,0.0
1759842058.522756,2,-1.95,0.197,-0.8848819307611251,0.0,False,0.011240720748901367,nan,nan,nan,nan,0.0,0.0
1759842058.533662,2,-1.95,0.197,-0.8848819307611251,0.0,False,0.010905981063842773,nan,nan,nan,nan,0.0,0.0
1759842058.5449262,2,-1.95,0.197,-0.8848819307611251,0.0,False,0.01126408576965332,nan,nan,nan,nan,0.0,0.0
1759842058.556156,2,-1.95,0.197,-0.8848819307611251,0.0,False,0.011229753494262695,nan,nan,nan,nan,0.0,0.0
1759842058.5666785,2,-1.95,0.197,-0.8848819307611251,0.0,False,0.010522603988647461,nan,nan,nan,nan,0.0,0.0
1759842058.5770605,2,-1.95,0.197,-0.8848819307611251,0.0,False,0.010381937026977539,nan,nan,nan,nan,0.0,0.0
1759842058.5878494,2,-1.95,0.197,-0.8848819307611251,0.0,False,0.010788917541503906,nan,nan,nan,nan,0.0,0.0
1759842058.598578,2,-1.95,0.197,-0.8848819307611251,0.0,False,0.010728597640991211,nan,nan,nan,nan,0.0,0.0
1759842058.609473,2,-1.95,0.197,-0.8848819307611251,0.0,False,0.010895013809204102,nan,nan,nan,nan,0.0,0.0
1759842058.6231697,2,-1.9500007565816244,0.19700044023593266,-0.4727003751208123,0.0,True,0.013696670532226562,-1.9500007629394531,0.1970004439353943,-0.43451088666915894,0.0,0.0,0.0
1759842058.6333861,2,-1.9500007608142735,0.19700044269880546,-0.4375109011136118,0.0,True,0.010216474533081055,-1.9500007629394531,0.1970004439353943,-0.43451088666915894,0.0,0.0,0.0
1759842058.6447532,2,-1.9500007621422333,0.19700044347151197,-0.4341629894968939,0.0,True,0.011367082595825195,-1.9500007629394531,0.1970004439353943,-0.43451088666915894,0.0,0.0,0.0
1759842058.6550868,2,-1.9500007626357352,0.19700044375866843,-0.43374559198009877,0.0,True,0.010333538055419922,-1.9500007629394531,0.1970004439353943,-0.43451088666915894,0.0,0.0,0.0
1759842058.666157,2,-1.9500007628234872,0.19700044386791665,-0.4336853786995576,0.0,True,0.01107025146484375,-1.9500007629394531,0.1970004439353943,-0.43451088666915894,0.0,0.0,0.0
1759842058.677232,2,-1.9500007628951606,0.19700044390962154,-0.4337352847639515,0.0,True,0.011075019836425781,-1.9500007629394531,0.1970004439353943,-0.43451088666915894,0.0,0.0,0.0
1759842058.6887195,2,-1.950000762922535,0.19700044392555005,-0.43381467587160216,0.0,True,0.011487483978271484,-1.9500007629394531,0.1970004439353943,-0.43451088666915894,0.0,0.0,0.0
1759842058.7000446,2,-1.950000762932991,0.19700044393163413,-0.4339029788458255,0.0,True,0.01132512092590332,-1.9500007629394531,0.1970004439353943,-0.43451088666915894,0.0,0.0,0.0
1759842058.7114034,2,-1.9500007629369849,0.19700044393395805,-0.43398234608085495,0.0,True,0.01135873794555664,-1.9500007629394531,0.1970004439353943,-0.43451088666915894,0.0,0.0,0.0
1759842058.7217894,2,-1.9500007629385103,0.1970004439348457,-0.4340573622304795,0.0,True,0.010385990142822266,-1.9500007629394531,0.1970004439353943,-0.43451088666915894,0.0,0.0,0.0
1759842058.732403,2,-1.950000762939093,0.19700044393518473,-0.43411418593704987,0.0,True,0.010613679885864258,-1.9500007629394531,0.1970004439353943,-0.43451088666915894,0.0,0.0,0.0
1759842058.7438176,2,-1.9500007629393155,0.19700044393531424,-0.43415467574237887,0.0,True,0.011414527893066406,-1.9500007629394531,0.1970004439353943,-0.43451088666915894,0.0,0.0,0.0
1759842058.754909,2,-1.9500007629394005,0.1970004439353637,-0.4341918801577975,0.0,True,0.011091470718383789,-1.9500007629394531,0.1970004439353943,-0.43451088666915894,0.0,0.0,0.0
1759842058.7663023,2,-1.950000762939433,0.1970004439353826,-0.4342220740611218,0.0,True,0.011393308639526367,-1.9500007629394531,0.1970004439353943,-0.43451088666915894,0.0,0.0,0.0
1759842058.7769325,2,-1.9500007629394454,0.19700044393538982,-0.4342519907187459,0.0,True,0.010630130767822266,-1.9500007629394531,0.1970004439353943,-0.43451088666915894,0.0,0.0,0.0
1759842058.7870903,2,-1.9500007629394502,0.1970004439353926,-0.4342787532772512,0.0,True,0.01015782356262207,-1.9500007629394531,0.1970004439353943,-0.43451088666915894,0.0,0.0,0.0
1759842058.7986941,2,-1.950000762939452,0.19700044393539365,-0.43429439408610904,0.0,True,0.011603832244873047,-1.9500007629394531,0.1970004439353943,-0.43451088666915894,0.0,0.0,0.0
1759842058.8094888,2,-1.9500007629394527,0.19700044393539404,-0.4343119816709571,0.0,True,0.010794639587402344,-1.9500007629394531,0.1970004439353943,-0.43451088666915894,0.0,0.0,0.0
1759842058.8220074,2,-1.950000762939453,0.1970004439353942,-0.4343213700976172,0.0,True,0.012518644332885742,-1.9500007629394531,0.1970004439353943,-0.43451088666915894,0.0,0.0,0.0
1759842058.8324392,2,-1.9500007629394531,0.19700044393539426,-0.4343382495843908,0.0,True,0.010431766510009766,-1.9500007629394531,0.1970004439353943,-0.43451088666915894,0.0,0.0,0.0
1759842058.8434079,2,-1.9500007629394531,0.1970004439353943,-0.4343509271856387,0.0,True,0.010968685150146484,-1.9500007629394531,0.1970004439353943,-0.43451088666915894,0.0,0.0,0.0
1759842058.8549032,2,-1.9500007629394531,0.1970004439353943,-0.4343603228085584,0.0,True,0.011495351791381836,-1.9500007629394531,0.1970004439353943,-0.43451088666915894,0.0,0.0,0.0
1759842058.865319,2,-1.9500007629394531,0.1970004439353943,-0.43437197631543434,0.0,True,0.010415792465209961,-1.9500007629394531,0.1970004439353943,-0.43451088666915894,0.0,0.0,0.0
1759842058.8762193,2,-1.9500007629394531,0.1970004439353943,-0.434380662883715,0.0,True,0.010900259017944336,-1.9500007629394531,0.1970004439353943,-0.43451088666915894,0.0,0.0,0.0
1759842058.887605,2,-1.9500007629394531,0.1970004439353943,-0.43438712877907903,0.0,True,0.011385679244995117,-1.9500007629394531,0.1970004439353943,-0.43451088666915894,0.0,0.0,0.0
1759842058.8988416,2,-1.9500007629394531,0.1970004439353943,-0.4343936481774975,0.0,True,0.01123666763305664,-1.9500007629394531,0.1970004439353943,-0.43451088666915894,0.0,0.0,0.0
1759842058.908958,2,-1.9500007629394531,0.1970004439353943,-0.43440224449501486,0.0,True,0.010116338729858398,-1.9500007629394531,0.1970004439353943,-0.43451088666915894,0.0,0.0,0.0
1759842058.918965,2,-1.9500007629394531,0.1970004439353943,-0.43440975610652544,0.0,True,0.010007143020629883,-1.9500007629394531,0.1970004439353943,-0.43451088666915894,0.0,0.0,0.0
1759842058.9291735,2,-1.9500007629394531,0.1970004439353943,-0.43441560600517093,0.0,True,0.010208368301391602,-1.9500007629394531,0.1970004439353943,-0.43451088666915894,0.0,0.0,0.0
1759842058.9395633,2,-1.9500007629394531,0.1970004439353943,-0.43442029764336354,0.0,True,0.01038980484008789,-1.9500007629394531,0.1970004439353943,-0.43451088666915894,0.0,0.0,0.0
1759842058.9499066,2,-1.9500007629394531,0.1970004439353943,-0.43442461757569717,0.0,True,0.010343313217163086,-1.9500007629394531,0.1970004439353943,-0.43451088666915894,0.0,0.0,0.0
1759842058.9608512,2,-1.9500007629394531,0.1970004439353943,-0.4344275059706568,0.0,True,0.010944604873657227,-1.9500007629394531,0.1970004439353943,-0.43451088666915894,0.0,0.0,0.0
1759842058.972043,2,-1.9500007629394531,0.1970004439353943,-0.4344300355438371,0.0,True,0.011191844940185547,-1.9500007629394531,0.1970004439353943,-0.43451088666915894,0.0,0.0,0.0
1759842058.9820979,2,-1.9500007629394531,0.1970004439353943,-0.43443461639582637,0.0,True,0.010054826736450195,-1.9500007629394531,0.1970004439353943,-0.43451088666915894,0.0,0.0,0.0
1759842058.9930859,2,-1.9500007629394531,0.1970004439353943,-0.4344372496189095,0.0,True,0.010987997055053711,-1.9500007629394531,0.1970004439353943,-0.43451088666915894,0.0,0.0,0.0
1759842059.0038579,2,-1.9500007629394531,0.1970004439353943,-0.43444015886110776,0.0,True,0.010771989822387695,-1.9500007629394531,0.1970004439353943,-0.43451088666915894,0.0,0.0,0.0
1759842059.0146334,2,-1.9500007629394531,0.1970004439353943,-0.434442987509847,0.0,True,0.010775566101074219,-1.9500007629394531,0.1970004439353943,-0.43451088666915894,0.0,0.0,0.0
1759842059.0309815,2,-1.9500007629394531,0.1970004439353943,-0.43443823541776005,0.0,True,0.01634812355041504,-1.9500007629394531,0.1970004439353943,-0.43451088666915894,0.0,0.0,0.0
1759842059.0414732,2,-1.9500007629394531,0.1970004439353943,-0.43444349626253675,0.0,True,0.010491609573364258,-1.9500007629394531,0.1970004439353943,-0.43451088666915894,0.0,0.0,0.0
1759842059.0518699,2,-1.9500007629394531,0.1970004439353943,-0.4344484878068471,0.0,True,0.010396718978881836,-1.9500007629394531,0.1970004439353943,-0.43451088666915894,0.0,0.0,0.0
1759842059.0619829,2,-1.9500007629394531,0.1970004439353943,-0.43445288932652026,0.0,True,0.010113000869750977,-1.9500007629394531,0.1970004439353943,-0.43451088666915894,0.0,0.0,0.0
1759842059.0727687,2,-1.9500007629394531,0.1970004439353943,-0.4344557041572763,0.0,True,0.010785818099975586,-1.9500007629394531,0.1970004439353943,-0.43451088666915894,0.0,0.0,0.0
1759842059.0843902,2,-1.9500007629394531,0.1970004439353943,-0.434457241908099,0.0,True,0.011621475219726562,-1.9500007629394531,0.1970004439353943,-0.43451088666915894,0.0,0.0,0.0
1759842059.0958025,2,-1.9500007629394531,0.1970004439353943,-0.4344590847844536,0.0,True,0.011412382125854492,-1.9500007629394531,0.1970004439353943,-0.43451088666915894,0.0,0.0,0.0
1759842059.1069453,2,-1.9500007629394531,0.1970004439353943,-0.4344612366639993,0.0,True,0.011142730712890625,-1.9500007629394531,0.1970004439353943,-0.43451088666915894,0.0,0.0,0.0
1759842059.1173294,2,-1.9500007629394531,0.1970004439353943,-0.43446401550176894,0.0,True,0.010384082794189453,-1.9500007629394531,0.1970004439353943,-0.43451088666915894,0.0,0.0,0.0
1759842059.1286387,2,-1.9500007629394531,0.1970004439353943,-0.43446557623128257,0.0,True,0.011309385299682617,-1.9500007629394531,0.1970004439353943,-0.43451088666915894,0.0,0.0,0.0
1759842059.1390083,2,-1.9500007629394531,0.1970004439353943,-0.43446792575268134,0.0,True,0.010369539260864258,-1.9500007629394531,0.1970004439353943,-0.43451088666915894,0.0,0.0,0.0
1759842059.149552,2,-1.9500007629394531,0.1970004439353943,-0.4344698644010201,0.0,True,0.0105438232421875,-1.9500007629394531,0.1970004439353943,-0.43451088666915894,0.0,0.0,0.0
1759842059.1602142,2,-1.9500007629394531,0.1970004439353943,-0.43447149081476155,0.0,True,0.010662078857421875,-1.9500007629394531,0.1970004439353943,-0.43451088666915894,0.0,0.0,0.0
1759842059.1704245,2,-1.9500007629394531,0.1970004439353943,-0.43447335661332254,0.0,True,0.010210275650024414,-1.9500007629394531,0.1970004439353943,-0.43451088666915894,0.0,0.0,0.0
1759842059.181661,2,-1.9500007629394531,0.1970004439353943,-0.4344742174982965,0.0,True,0.011236429214477539,-1.9500007629394531,0.1970004439353943,-0.43451088666915894,0.0,0.0,0.0
1759842059.1923964,2,-1.9500007629394531,0.1970004439353943,-0.43447552002908907,0.0,True,0.010735511779785156,-1.9500007629394531,0.1970004439353943,-0.43451088666915894,0.0,0.0,0.0
1759842059.202735,2,-1.9500007629394531,0.1970004439353943,-0.4344770867069272,0.0,True,0.010338544845581055,-1.9500007629394531,0.1970004439353943,-0.43451088666915894,0.0,0.0,0.0
1759842059.2130828,2,-1.9500007629394531,0.1970004439353943,-0.43447850105130925,0.0,True,0.010347843170166016,-1.9500007629394531,0.1970004439353943,-0.43451088666915894,0.0,0.0,0.0
1759842059.2258272,2,-1.9500007629394531,0.1970004439353943,-0.4344781663811226,0.0,True,0.012744426727294922,-1.9500007629394531,0.1970004439353943,-0.43451088666915894,0.0,0.0,0.0
1759842059.236564,2,-1.9500007629394531,0.1970004439353943,-0.43447953749637946,0.0,True,0.010736703872680664,-1.9500007629394531,0.1970004439353943,-0.43451088666915894,0.0,0.0,0.0
1759842059.2473617,2,-1.9500007629394531,0.1970004439353943,-0.4344808561456457,0.0,True,0.010797739028930664,-1.9500007629394531,0.1970004439353943,-0.43451088666915894,0.0,0.0,0.0
1759842059.2579896,2,-1.9500007629394531,0.1970004439353943,-0.43448216775381887,0.0,True,0.010627985000610352,-1.9500007629394531,0.1970004439353943,-0.43451088666915894,0.0,0.0,0.0
1759842059.2684932,2,-1.9500007629394531,0.1970004439353943,-0.4344834276006875,0.0,True,0.010503530502319336,-1.9500007629394531,0.1970004439353943,-0.43451088666915894,0.0,0.0,0.0
1759842059.2786098,2,-1.9500007629394531,0.1970004439353943,-0.43448477739324076,0.0,True,0.0101165771484375,-1.9500007629394531,0.1970004439353943,-0.43451088666915894,0.0,0.0,0.0
1759842059.288776,2,-1.9500007629394531,0.1970004439353943,-0.43448592860503155,0.0,True,0.010166168212890625,-1.9500007629394531,0.1970004439353943,-0.43451088666915894,0.0,0.0,0.0
1759842059.299078,2,-1.9500007629394531,0.1970004439353943,-0.4344868708147871,0.0,True,0.010302066802978516,-1.9500007629394531,0.1970004439353943,-0.43451088666915894,0.0,0.0,0.0
1759842059.310346,2,-1.9500007629394531,0.1970004439353943,-0.43448724074616685,0.0,True,0.011267900466918945,-1.9500007629394531,0.1970004439353943,-0.43451088666915894,0.0,0.0,0.0
1759842059.3212059,2,-1.9500007629394531,0.1970004439353943,-0.43448790765706846,0.0,True,0.010859966278076172,-1.9500007629394531,0.1970004439353943,-0.43451088666915894,0.0,0.0,0.0
1759842059.3322408,2,-1.9500007629394531,0.1970004439353943,-0.43448853006787225,0.0,True,0.011034965515136719,-1.9500007629394531,0.1970004439353943,-0.43451088666915894,0.0,0.0,0.0
1759842059.3426561,2,-1.9500007629394531,0.1970004439353943,-0.43448946705875,0.0,True,0.010415315628051758,-1.9500007629394531,0.1970004439353943,-0.43451088666915894,0.0,0.0,0.0
1759842059.3531253,2,-1.9500007629394531,0.1970004439353943,-0.4344903110855789,0.0,True,0.010469198226928711,-1.9500007629394531,0.1970004439353943,-0.43451088666915894,0.0,0.0,0.0
1759842059.3634958,2,-1.9500007629394531,0.1970004439353943,-0.4344911265292808,0.0,True,0.010370492935180664,-1.9500007629394531,0.1970004439353943,-0.43451088666915894,0.0,0.0,0.0
1759842059.3745494,2,-1.9500007629394531,0.1970004439353943,-0.4344915905958491,0.0,True,0.01105356216430664,-1.9500007629394531,0.1970004439353943,-0.43451088666915894,0.0,0.0,0.0
1759842059.3848412,2,-1.9500007629394531,0.1970004439353943,-0.4344923895865822,0.0,True,0.010291814804077148,-1.9500007629394531,0.1970004439353943,-0.43451088666915894,0.0,0.0,0.0
1759842059.3955708,2,-1.9500007629394531,0.1970004439353943,-0.43449296299584717,0.0,True,0.010729551315307617,-1.9500007629394531,0.1970004439353943,-0.43451088666915894,0.0,0.0,0.0
1759842059.4070582,2,-1.9500007629394531,0.1970004439353943,-0.4344932379585167,0.0,True,0.011487483978271484,-1.9500007629394531,0.1970004439353943,-0.43451088666915894,0.0,0.0,0.0
1759842059.4195275,2,-1.9500007629394531,0.1970004439353943,-0.4344932476386205,0.0,True,0.012469291687011719,-1.9500007629394531,0.1970004439353943,-0.43451088666915894,0.0,0.0,0.0
1759842059.4360564,2,-1.9500007629394531,0.1970004439353943,-0.4344920867320319,0.0,True,0.016528844833374023,-1.9500007629394531,0.1970004439353943,-0.43451088666915894,0.0,0.0,0.0
1759842059.4467895,2,-1.9500007629394531,0.1970004439353943,-0.4344934185600007,0.0,True,0.01073312759399414,-1.9500007629394531,0.1970004439353943,-0.43451088666915894,0.0,0.0,0.0
1759842059.4581103,2,-1.9500007629394531,0.1970004439353943,-0.43449446412610726,0.0,True,0.011320829391479492,-1.9500007629394531,0.1970004439353943,-0.43451088666915894,0.0,0.0,0.0
1759842059.469386,2,-1.9500007629394531,0.1970004439353943,-0.4344953551299433,0.0,True,0.011275768280029297,-1.9500007629394531,0.1970004439353943,-0.43451088666915894,0.0,0.0,0.0
1759842059.480613,2,-1.9500007629394531,0.1970004439353943,-0.43449613682755484,0.0,True,0.011226892471313477,-1.9500007629394531,0.1970004439353943,-0.43451088666915894,0.0,0.0,0.0
1759842059.4914608,2,-1.9500007629394531,0.1970004439353943,-0.43449692721148025,0.0,True,0.010847806930541992,-1.9500007629394531,0.1970004439353943,-0.43451088666915894,0.0,0.0,0.0
1759842059.5029352,2,-1.9500007629394531,0.1970004439353943,-0.4344974430160917,0.0,True,0.011474370956420898,-1.9500007629394531,0.1970004439353943,-0.43451088666915894,0.0,0.0,0.0
1759842059.5131083,2,-1.9500007629394531,0.1970004439353943,-0.4344982609113437,0.0,True,0.01017308235168457,-1.9500007629394531,0.1970004439353943,-0.43451088666915894,0.0,0.0,0.0
1759842059.5242317,2,-1.9500007629394531,0.1970004439353943,-0.4344987197028125,0.0,True,0.011123418807983398,-1.9500007629394531,0.1970004439353943,-0.43451088666915894,0.0,0.0,0.0
1759842059.5347583,2,-1.9500007629394531,0.1970004439353943,-0.4344992822909788,0.0,True,0.010526657104492188,-1.9500007629394531,0.1970004439353943,-0.43451088666915894,0.0,0.0,0.0
1759842059.5448093,2,-1.9500007629394531,0.1970004439353943,-0.4344998973270968,0.0,True,0.01005101203918457,-1.9500007629394531,0.1970004439353943,-0.43451088666915894,0.0,0.0,0.0
1759842059.556192,2,-1.9500007629394531,0.1970004439353943,-0.43450012039824415,0.0,True,0.011382579803466797,-1.9500007629394531,0.1970004439353943,-0.43451088666915894,0.0,0.0,0.0
1759842059.56753,2,-1.9500007629394531,0.1970004439353943,-0.43450037126312324,0.0,True,0.011337995529174805,-1.9500007629394531,0.1970004439353943,-0.43451088666915894,0.0,0.0,0.0
1759842059.5790372,2,-1.9500007629394531,0.1970004439353943,-0.4345006173074921,0.0,True,0.011507272720336914,-1.9500007629394531,0.1970004439353943,-0.43451088666915894,0.0,0.0,0.0
1759842059.590361,2,-1.9500007629394531,0.1970004439353943,-0.4345009310101098,0.0,True,0.011323928833007812,-1.9500007629394531,0.1970004439353943,-0.43451088666915894,0.0,0.0,0.0
1759842059.6018393,2,-1.9500007629394531,0.1970004439353943,-0.434501223228569,0.0,True,0.011478185653686523,-1.9500007629394531,0.1970004439353943,-0.43451088666915894,0.0,0.0,0.0
1759842059.6130998,2,-1.9500007629394531,0.1970004439353943,-0.4345015655592004,0.0,True,0.011260509490966797,-1.9500007629394531,0.1970004439353943,-0.43451088666915894,0.0,0.0,0.0
1759842059.6233826,2,-1.9500007629394531,0.1970004439353943,-0.4345020778847708,0.0,True,0.010282754898071289,-1.9500007629394531,0.1970004439353943,-0.43451088666915894,0.0,0.0,0.0
1759842059.6346352,2,-1.9500007629394531,0.1970004439353943,-0.43450235096300815,0.0,True,0.011252641677856445,-1.9500007629394531,0.1970004439353943,-0.43451088666915894,0.0,0.0,0.0
1759842059.6449404,2,-1.9500007629394531,0.1970004439353943,-0.4345027737044589,0.0,True,0.010305166244506836,-1.9500007629394531,0.1970004439353943,-0.43451088666915894,0.0,0.0,0.0
1759842059.655784,2,-1.9500007629394531,0.1970004439353943,-0.4345030594996899,0.0,True,0.010843515396118164,-1.9500007629394531,0.1970004439353943,-0.43451088666915894,0.0,0.0,0.0
1759842059.667162,2,-1.9500007629394531,0.1970004439353943,-0.43450323934740354,0.0,True,0.011378049850463867,-1.9500007629394531,0.1970004439353943,-0.43451088666915894,0.0,0.0,0.0
1759842059.6786437,2,-1.9500007629394531,0.1970004439353943,-0.4345034196334048,0.0,True,0.011481761932373047,-1.9500007629394531,0.1970004439353943,-0.43451088666915894,0.0,0.0,0.0
1759842059.688832,2,-1.9500007629394531,0.1970004439353943,-0.43450381316670317,0.0,True,0.01018834114074707,-1.9500007629394531,0.1970004439353943,-0.43451088666915894,0.0,0.0,0.0
1759842059.7001383,2,-1.9500007629394531,0.1970004439353943,-0.4345040005605849,0.0,True,0.011306285858154297,-1.9500007629394531,0.1970004439353943,-0.43451088666915894,0.0,0.0,0.0
1759842059.711374,2,-1.9500007629394531,0.1970004439353943,-0.4345041979132347,0.0,True,0.011235713958740234,-1.9500007629394531,0.1970004439353943,-0.43451088666915894,0.0,0.0,0.0
1759842059.7217944,2,-1.9500007629394531,0.1970004439353943,-0.43450451121071865,0.0,True,0.01042032241821289,-1.9500007629394531,0.1970004439353943,-0.43451088666915894,0.0,0.0,0.0
1759842059.7325463,2,-1.9500007629394531,0.1970004439353943,-0.4345047503475499,0.0,True,0.010751962661743164,-1.9500007629394531,0.1970004439353943,-0.43451088666915894,0.0,0.0,0.0
1759842059.7432852,2,-1.9500007629394531,0.1970004439353943,-0.43450497165002844,0.0,True,0.010738849639892578,-1.9500007629394531,0.1970004439353943,-0.43451088666915894,0.0,0.0,0.0
1759842059.754754,2,-1.9500007629394531,0.1970004439353943,-0.4345050916716602,0.0,True,0.011468887329101562,-1.9500007629394531,0.1970004439353943,-0.43451088666915894,0.0,0.0,0.0
1759842059.766127,2,-1.9500007629394531,0.1970004439353943,-0.4345052397481126,0.0,True,0.011373043060302734,-1.9500007629394531,0.1970004439353943,-0.43451088666915894,0.0,0.0,0.0
1759842059.7771065,2,-1.9500007629394531,0.1970004439353943,-0.43450544569968486,0.0,True,0.010979413986206055,-1.9500007629394531,0.1970004439353943,-0.43451088666915894,0.0,0.0,0.0
1759842059.7875962,2,-1.9500007629394531,0.1970004439353943,-0.4345056980243669,0.0,True,0.010489702224731445,-1.9500007629394531,0.1970004439353943,-0.43451088666915894,0.0,0.0,0.0
1759842059.7989476,2,-1.9500007629394531,0.1970004439353943,-0.4345058330398395,0.0,True,0.011351346969604492,-1.9500007629394531,0.1970004439353943,-0.43451088666915894,0.0,0.0,0.0
1759842059.8092542,2,-1.9500007629394531,0.1970004439353943,-0.4345060770929994,0.0,True,0.010306596755981445,-1.9500007629394531,0.1970004439353943,-0.43451088666915894,0.0,0.0,0.0
1759842059.8200896,2,-1.9500007629394531,0.1970004439353943,-0.43450624401181415,0.0,True,0.010835409164428711,-1.9500007629394531,0.1970004439353943,-0.43451088666915894,0.0,0.0,0.0
1759842059.837663,2,-1.9500007629394531,0.1970004439353943,-0.43450577250639455,0.0,True,0.01757335662841797,-1.9500007629394531,0.1970004439353943,-0.43451088666915894,0.0,0.0,0.0
1759842059.8438773,2,-1.9500007629394531,0.1970004439353943,-0.43450651580847577,0.0,True,0.0062143802642822266,-1.9500007629394531,0.1970004439353943,-0.43451088666915894,0.0,0.0,0.0
1759842059.8546677,2,-1.9500007629394531,0.1970004439353943,-0.4345067218562768,0.0,True,0.010790348052978516,-1.9500007629394531,0.1970004439353943,-0.43451088666915894,0.0,0.0,0.0
1759842059.8660119,2,-1.9500007629394531,0.1970004439353943,-0.4345068272061532,0.0,True,0.011344194412231445,-1.9500007629394531,0.1970004439353943,-0.43451088666915894,0.0,0.0,0.0
1759842059.877355,2,-1.9500007629394531,0.1970004439353943,-0.4345069355422915,0.0,True,0.011343240737915039,-1.9500007629394531,0.1970004439353943,-0.43451088666915894,0.0,0.0,0.0
1759842059.8888805,2,-1.9500007629394531,0.1970004439353943,-0.4345070365117891,0.0,True,0.011525392532348633,-1.9500007629394531,0.1970004439353943,-0.43451088666915894,0.0,0.0,0.0
1759842059.9002428,2,-1.9500007629394531,0.1970004439353943,-0.43450715830706343,0.0,True,0.011362314224243164,-1.9500007629394531,0.1970004439353943,-0.43451088666915894,0.0,0.0,0.0
1759842059.9115534,2,-1.9500007629394531,0.1970004439353943,-0.4345072856743837,0.0,True,0.011310577392578125,-1.9500007629394531,0.1970004439353943,-0.43451088666915894,0.0,0.0,0.0
1759842059.9218946,2,-1.9500007629394531,0.1970004439353943,-0.43450747899440145,0.0,True,0.010341167449951172,-1.9500007629394531,0.1970004439353943,-0.43451088666915894,0.0,0.0,0.0
1759842059.9331758,2,-1.9500007629394531,0.1970004439353943,-0.4345075835714187,0.0,True,0.011281251907348633,-1.9500007629394531,0.1970004439353943,-0.43451088666915894,0.0,0.0,0.0
1759842059.9446237,2,-1.9500007629394531,0.1970004439353943,-0.4345076733046689,0.0,True,0.011447906494140625,-1.9500007629394531,0.1970004439353943,-0.43451088666915894,0.0,0.0,0.0
1759842059.9560297,2,-1.9500007629394531,0.1970004439353943,-0.4345077702708213,0.0,True,0.01140594482421875,-1.9500007629394531,0.1970004439353943,-0.43451088666915894,0.0,0.0,0.0
1759842059.9672017,2,-1.9500007629394531,0.1970004439353943,-0.43450788401019835,0.0,True,0.011172056198120117,-1.9500007629394531,0.1970004439353943,-0.43451088666915894,0.0,0.0,0.0
1759842059.97761,2,-1.9500007629394531,0.1970004439353943,-0.43450803872063837,0.0,True,0.010408401489257812,-1.9500007629394531,0.1970004439353943,-0.43451088666915894,0.0,0.0,0.0
1759842059.9891148,2,-1.9500007629394531,0.1970004439353943,-0.4345081117597722,0.0,True,0.011504650115966797,-1.9500007629394531,0.1970004439353943,-0.43451088666915894,0.0,0.0,0.0
1759842060.0000153,2,-1.9500007629394531,0.1970004439353943,-0.43450821951841334,0.0,True,0.010900497436523438,-1.9500007629394531,0.1970004439353943,-0.43451088666915894,0.0,0.0,0.0
1759842060.0113583,2,-1.9500007629394531,0.1970004439353943,-0.43450829837884086,0.0,True,0.011343002319335938,-1.9500007629394531,0.1970004439353943,-0.43451088666915894,0.0,0.0,0.0
1759842060.0217195,2,-1.9500007629394531,0.1970004439353943,-0.43450842792094413,0.0,True,0.010361194610595703,-1.9500007629394531,0.1970004439353943,-0.43451088666915894,0.0,0.0,0.0
1759842060.0342238,2,-1.9500007629394531,0.1970004439353943,-0.434508436815797,0.0,True,0.012504339218139648,-1.9500007629394531,0.1970004439353943,-0.43451088666915894,0.0,0.0,0.0
1759842060.045028,2,-1.9500007629394531,0.1970004439353943,-0.43450854511095116,0.0,True,0.010804176330566406,-1.9500007629394531,0.1970004439353943,-0.43451088666915894,0.0,0.0,0.0
1759842060.055754,2,-1.9500007629394531,0.1970004439353943,-0.4345086517630463,0.0,True,0.010725975036621094,-1.9500007629394531,0.1970004439353943,-0.43451088666915894,0.0,0.0,0.0
1759842060.0658572,2,-1.9500007629394531,0.1970004439353943,-0.434508774523378,0.0,True,0.010103225708007812,-1.9500007629394531,0.1970004439353943,-0.43451088666915894,0.0,0.0,0.0
1759842060.0761516,2,-1.9500007629394531,0.1970004439353943,-0.4345088709146836,0.0,True,0.010294437408447266,-1.9500007629394531,0.1970004439353943,-0.43451088666915894,0.0,0.0,0.0
1759842060.0870006,2,-1.9500007629394531,0.1970004439353943,-0.43450893106069444,0.0,True,0.0108489990234375,-1.9500007629394531,0.1970004439353943,-0.43451088666915894,0.0,0.0,0.0
1759842060.098321,2,-1.9500007629394531,0.1970004439353943,-0.4345089701699081,0.0,True,0.011320352554321289,-1.9500007629394531,0.1970004439353943,-0.43451088666915894,0.0,0.0,0.0
1759842060.109042,2,-1.9500007629394531,0.1970004439353943,-0.43450903864975743,0.0,True,0.010720968246459961,-1.9500007629394531,0.1970004439353943,-0.43451088666915894,0.0,0.0,0.0
1759842060.1193514,2,-1.9500007629394531,0.1970004439353943,-0.4345091207363083,0.0,True,0.010309457778930664,-1.9500007629394531,0.1970004439353943,-0.43451088666915894,0.0,0.0,0.0
1759842060.1296465,2,-1.9500007629394531,0.1970004439353943,-0.43450919484470774,0.0,True,0.01029515266418457,-1.9500007629394531,0.1970004439353943,-0.43451088666915894,0.0,0.0,0.0
1759842060.1410804,2,-1.9500007629394531,0.1970004439353943,-0.43450922056917207,0.0,True,0.011433839797973633,-1.9500007629394531,0.1970004439353943,-0.43451088666915894,0.0,0.0,0.0
1759842060.151574,2,-1.9500007629394531,0.1970004439353943,-0.4345092846714387,0.0,True,0.01049351692199707,-1.9500007629394531,0.1970004439353943,-0.43451088666915894,0.0,0.0,0.0
1759842060.161777,2,-1.9500007629394531,0.1970004439353943,-0.4345093556417403,0.0,True,0.010203123092651367,-1.9500007629394531,0.1970004439353943,-0.43451088666915894,0.0,0.0,0.0
1759842060.173296,2,-1.9500007629394531,0.1970004439353943,-0.4345093766813033,0.0,True,0.01151895523071289,-1.9500007629394531,0.1970004439353943,-0.43451088666915894,0.0,0.0,0.0
1759842060.1845157,2,-1.9500007629394531,0.1970004439353943,-0.4345094131872784,0.0,True,0.01121973991394043,-1.9500007629394531,0.1970004439353943,-0.43451088666915894,0.0,0.0,0.0
1759842060.194781,2,-1.9500007629394531,0.1970004439353943,-0.43450948255806665,0.0,True,0.010265350341796875,-1.9500007629394531,0.1970004439353943,-0.43451088666915894,0.0,0.0,0.0
1759842060.2055516,2,-1.9500007629394531,0.1970004439353943,-0.4345095305779072,0.0,True,0.010770559310913086,-1.9500007629394531,0.1970004439353943,-0.43451088666915894,0.0,0.0,0.0
1759842060.2164292,2,-1.9500007629394531,0.1970004439353943,-0.43450957256597,0.0,True,0.010877609252929688,-1.9500007629394531,0.1970004439353943,-0.43451088666915894,0.0,0.0,0.0
1759842060.227339,2,-1.9500007629394531,0.1970004439353943,-0.4345096131102082,0.0,True,0.010909795761108398,-1.9500007629394531,0.1970004439353943,-0.43451088666915894,0.0,0.0,0.0
1759842060.237791,2,-1.9500007629394531,0.1970004439353943,-0.43450966537902147,0.0,True,0.010452032089233398,-1.9500007629394531,0.1970004439353943,-0.43451088666915894,0.0,0.0,0.0
1759842060.2485282,2,-1.9500007629394531,0.1970004439353943,-0.43450970631874597,0.0,True,0.010737180709838867,-1.9500007629394531,0.1970004439353943,-0.43451088666915894,0.0,0.0,0.0
1759842060.2593122,2,-1.9500007629394531,0.1970004439353943,-0.4345097441059771,0.0,True,0.010783910751342773,-1.9500007629394531,0.1970004439353943,-0.43451088666915894,0.0,0.0,0.0
1759842060.2699845,2,-1.9500007629394531,0.1970004439353943,-0.43450978364112025,0.0,True,0.010672330856323242,-1.9500007629394531,0.1970004439353943,-0.43451088666915894,0.0,0.0,0.0
1759842060.2807434,2,-1.9500007629394531,0.1970004439353943,-0.43450981956609347,0.0,True,0.01075887680053711,-1.9500007629394531,0.1970004439353943,-0.43451088666915894,0.0,0.0,0.0
1759842060.2917647,2,-1.9500007629394531,0.1970004439353943,-0.4345098486403085,0.0,True,0.01102137565612793,-1.9500007629394531,0.1970004439353943,-0.43451088666915894,0.0,0.0,0.0
1759842060.3027487,2,-1.9500007629394531,0.1970004439353943,-0.43450987938430075,0.0,True,0.010983943939208984,-1.9500007629394531,0.1970004439353943,-0.43451088666915894,0.0,0.0,0.0
1759842060.3136609,2,-1.9500007629394531,0.1970004439353943,-0.4345099121239393,0.0,True,0.010912179946899414,-1.9500007629394531,0.1970004439353943,-0.43451088666915894,0.0,0.0,0.0
1759842060.3247097,2,-1.9500007629394531,0.1970004439353943,-0.43450994170476065,0.0,True,0.01104879379272461,-1.9500007629394531,0.1970004439353943,-0.43451088666915894,0.0,0.0,0.0
1759842060.335466,2,-1.9500007629394531,0.1970004439353943,-0.434509976961337,0.0,True,0.010756254196166992,-1.9500007629394531,0.1970004439353943,-0.43451088666915894,0.0,0.0,0.0
1759842060.3458943,2,-1.9500007629394531,0.1970004439353943,-0.43451001648917753,0.0,True,0.010428428649902344,-1.9500007629394531,0.1970004439353943,-0.43451088666915894,0.0,0.0,0.0
1759842060.356808,2,-1.9500007629394531,0.1970004439353943,-0.4345100434630993,0.0,True,0.010913610458374023,-1.9500007629394531,0.1970004439353943,-0.43451088666915894,0.0,0.0,0.0
1759842060.3678071,2,-1.9500007629394531,0.1970004439353943,-0.4345100681528997,0.0,True,0.010999202728271484,-1.9500007629394531,0.1970004439353943,-0.43451088666915894,0.0,0.0,0.0
1759842060.377914,2,-1.9500007629394531,0.1970004439353943,-0.4345101080710698,0.0,True,0.010106801986694336,-1.9500007629394531,0.1970004439353943,-0.43451088666915894,0.0,0.0,0.0
1759842060.3883417,2,-1.9500007629394531,0.1970004439353943,-0.43451013832752494,0.0,True,0.010427713394165039,-1.9500007629394531,0.1970004439353943,-0.43451088666915894,0.0,0.0,0.0
1759842060.398551,2,-1.9500007629394531,0.1970004439353943,-0.4345101690476447,0.0,True,0.010209321975708008,-1.9500007629394531,0.1970004439353943,-0.43451088666915894,0.0,0.0,0.0
1759842060.4089453,2,-1.9500007629394531,0.1970004439353943,-0.4345101939704996,0.0,True,0.01039433479309082,-1.9500007629394531,0.1970004439353943,-0.43451088666915894,0.0,0.0,0.0
1759842060.419762,2,-1.9500007629394531,0.1970004439353943,-0.43451021100416654,0.0,True,0.010816574096679688,-1.9500007629394531,0.1970004439353943,-0.43451088666915894,0.0,0.6,0.0
1759842060.4423525,2,-1.9500007629394531,0.1970004439353943,-0.43451006711701545,0.0,True,0.02259063720703125,-1.9500007629394531,0.1970004439353943,-0.43451088666915894,0.0,0.6,0.0
1759842060.447936,2,-1.9500007629394531,0.1970004439353943,-0.43451020149498554,0.0,True,0.005583524703979492,-1.9500007629394531,0.1970004439353943,-0.43451088666915894,0.0,0.6,0.0
1759842060.4604461,2,-1.9500007629394531,0.1970004439353943,-0.43451022445153065,0.0,True,0.012510061264038086,-1.9500007629394531,0.1970004439353943,-0.43451088666915894,0.0,0.6,0.0
1759842060.4715493,2,-1.9500007629394531,0.1970004439353943,-0.43451025903474516,0.0,True,0.011103153228759766,-1.9500007629394531,0.1970004439353943,-0.43451088666915894,0.0,0.6,0.0
1759842060.4828901,2,-1.9500007629394531,0.1970004439353943,-0.4345102870972255,0.0,True,0.011340856552124023,-1.9500007629394531,0.1970004439353943,-0.43451088666915894,0.0,0.6,0.0
1759842060.4951072,2,-1.9500007629394531,0.1970004439353943,-0.43451030238979627,0.0,True,0.012217044830322266,-1.9500007629394531,0.1970004439353943,-0.43451088666915894,0.0,0.6,0.0
1759842060.5053394,2,-1.9500007629394531,0.1970004439353943,-0.4345103404849233,0.0,True,0.010232210159301758,-1.9500007629394531,0.1970004439353943,-0.43451088666915894,0.0,0.6,0.0
1759842060.5165806,2,-1.9500007629394531,0.1970004439353943,-0.4345103623988589,0.0,True,0.01124119758605957,-1.9500007629394531,0.1970004439353943,-0.43451088666915894,0.0,0.6,0.0
1759842060.528241,2,-1.9500007629394531,0.1970004439353943,-0.4345103776650099,0.0,True,0.011660337448120117,-1.9500007629394531,0.1970004439353943,-0.43451088666915894,0.0,0.6,0.0
1759842060.5393674,2,-1.9500007629394531,0.1970004439353943,-0.43451039844823924,0.0,True,0.011126518249511719,-1.9500007629394531,0.1970004439353943,-0.43451088666915894,0.0,0.6,0.0
1759842060.5527427,2,-1.9500007629394531,0.1970004439353943,-0.43451039681994175,0.0,True,0.013375282287597656,-1.9500007629394531,0.1970004439353943,-0.43451088666915894,0.0,0.6,0.0
1759842060.5635712,2,-1.9500007629394531,0.1970004439353943,-0.43451042363803616,0.0,True,0.010828495025634766,-1.9500007629394531,0.1970004439353943,-0.43451088666915894,0.0,0.6,0.0
1759842060.5742965,2,-1.9500007629394531,0.1970004439353943,-0.4345104491551801,0.0,True,0.010725259780883789,-1.9500007629394531,0.1970004439353943,-0.43451088666915894,0.0,0.6,0.0
1759842060.5855017,2,-1.9500007629394531,0.1970004439353943,-0.43451046684135264,0.0,True,0.011205196380615234,-1.9500007629394531,0.1970004439353943,-0.43451088666915894,0.0,0.6,0.0
1759842060.5968394,2,-1.9500007629394531,0.1970004439353943,-0.4345104817467984,0.0,True,0.011337757110595703,-1.9500007629394531,0.1970004439353943,-0.43451088666915894,0.0,0.6,0.0
1759842060.6101115,2,-1.9500007629394531,0.1970004439353943,-0.434510480875538,0.0,True,0.01327204704284668,-1.9500007629394531,0.1970004439353943,-0.43451088666915894,0.0,0.6,0.0
1759842060.6215017,2,-1.9500007629394531,0.1970004439353943,-0.43451049856796864,0.0,True,0.011390209197998047,-1.9500007629394531,0.1970004439353943,-0.43451088666915894,0.0,0.6,0.0
1759842060.634347,2,-1.9500007629394531,0.1970004439353943,-0.43451050534396174,0.0,True,0.012845277786254883,-1.9500007629394531,0.1970004439353943,-0.43451088666915894,0.0,0.6,0.0
1759842060.6510005,2,-1.9500007629394531,0.1970004439353943,-0.4345104882091757,0.0,True,0.01665353775024414,-1.9500007629394531,0.1970004439353943,-0.43451088666915894,0.0,0.6,0.0
1759842060.661296,2,-1.9500007629394531,0.1970004439353943,-0.43451052322925676,0.0,True,0.010295391082763672,-1.9500007629394531,0.1970004439353943,-0.43451088666915894,0.0,0.6,0.0
1759842060.6715097,2,-1.9500007629394531,0.1970004439353943,-0.43451055405869354,0.0,True,0.010213851928710938,-1.9500007629394531,0.1970004439353943,-0.43451088666915894,0.0,0.6,0.0
1759842060.6844149,2,-1.9500007629394531,0.1970004439353943,-0.43451056171324254,0.0,True,0.012905120849609375,-1.9500007629394531,0.1970004439353943,-0.43451088666915894,0.0,0.6,0.0
1759842060.6947064,2,-1.9500007629394531,0.1970004439353943,-0.4345105848472315,0.0,True,0.010291576385498047,-1.9500007629394531,0.1970004439353943,-0.43451088666915894,0.0,0.6,0.0
1759842060.7062051,2,-1.9500007629394531,0.1970004439353943,-0.43451059757735777,0.0,True,0.011498689651489258,-1.9500007629394531,0.1970004439353943,-0.43451088666915894,0.0,0.6,0.0
1759842060.7179768,2,-1.9500007629394531,0.1970004439353943,-0.4345106072511289,0.0,True,0.011771678924560547,-1.9500007629394531,0.1970004439353943,-0.43451088666915894,0.0,0.6,0.0
1759842060.7286842,2,-1.9500007629394531,0.1970004439353943,-0.4345106223040496,0.0,True,0.010707378387451172,-1.9500007629394531,0.1970004439353943,-0.43451088666915894,0.0,0.6,0.0
1759842060.7394674,2,-1.9500007629394531,0.1970004439353943,-0.43451063510765486,0.0,True,0.010783195495605469,-1.9500007629394531,0.1970004439353943,-0.43451088666915894,0.0,0.6,0.0
1759842060.7515197,2,-1.9500007629394531,0.1970004439353943,-0.43451063994195493,0.0,True,0.012052297592163086,-1.9500007629394531,0.1970004439353943,-0.43451088666915894,0.0,0.6,0.0
1759842060.762864,2,-1.9500007629394531,0.1970004439353943,-0.4345106488380637,0.0,True,0.011344432830810547,-1.9500007629394531,0.1970004439353943,-0.43451088666915894,0.0,0.6,0.0
1759842060.7761261,2,-1.9500007629394531,0.1970004439353943,-0.4345106488574775,0.0,True,0.013262033462524414,-1.9500007629394531,0.1970004439353943,-0.43451088666915894,0.0,0.6,0.0
1759842060.7868958,2,-1.9500007629394531,0.1970004439353943,-0.43451066219567736,0.0,True,0.01076960563659668,-1.9500007629394531,0.1970004439353943,-0.43451088666915894,0.0,0.6,0.0
1759842060.7979002,2,-1.9500007629394531,0.1970004439353943,-0.4345106732957653,0.0,True,0.011004447937011719,-1.9500007629394531,0.1970004439353943,-0.43451088666915894,0.0,0.6,0.0
1759842060.810372,2,-1.9500007629394531,0.1970004439353943,-0.4345106769152629,0.0,True,0.012471914291381836,-1.9500007629394531,0.1970004439353943,-0.43451088666915894,0.0,0.6,0.0
1759842060.821814,2,-1.9500007629394531,0.1970004439353943,-0.434510685409478,0.0,True,0.011441946029663086,-1.9500007629394531,0.1970004439353943,-0.43451088666915894,0.0,0.6,0.0
1759842060.8348248,2,-1.9500007629394531,0.1970004439353943,-0.43451068768480994,0.0,True,0.013010740280151367,-1.9500007629394531,0.1970004439353943,-0.43451088666915894,0.0,0.6,0.0
1759842060.8523169,2,-1.9500007629394531,0.1970004439353943,-0.4345106754432688,0.0,True,0.017492055892944336,-1.9500007629394531,0.1970004439353943,-0.43451088666915894,0.0,0.6,0.0
1759842060.8629973,2,-1.9500007629394531,0.1970004439353943,-0.4345106931321894,0.0,True,0.010680437088012695,-1.9500007629394531,0.1970004439353943,-0.43451088666915894,0.0,0.6,0.0
1759842060.8734434,2,-1.9500007629394531,0.1970004439353943,-0.43451070955445203,0.0,True,0.01044607162475586,-1.9500007629394531,0.1970004439353943,-0.43451088666915894,0.0,0.6,0.0
1759842060.8852441,2,-1.9500007629394531,0.1970004439353943,-0.4345107181344616,0.0,True,0.011800765991210938,-1.9500007629394531,0.1970004439353943,-0.43451088666915894,0.0,0.6,0.0
1759842060.8954577,2,-1.9500007629394531,0.1970004439353943,-0.4345107302595448,0.0,True,0.010213613510131836,-1.9500007629394531,0.1970004439353943,-0.43451088666915894,0.0,0.6,0.0
1759842060.9067063,2,-1.9500007629394531,0.1970004439353943,-0.43451073715053923,0.0,True,0.011248588562011719,-1.9500007629394531,0.1970004439353943,-0.43451088666915894,0.0,0.6,0.0
1759842060.9180717,2,-1.9500007629394531,0.1970004439353943,-0.4345107427520922,0.0,True,0.011365413665771484,-1.9500007629394531,0.1970004439353943,-0.43451088666915894,0.0,0.6,0.0
1759842060.9299362,2,-1.9500007629394531,0.1970004439353943,-0.43451074659801137,0.0,True,0.011864423751831055,-1.9500007629394531,0.1970004439353943,-0.43451088666915894,0.0,0.6,0.0
1759842060.9429274,2,-1.9500007629394531,0.1970004439353943,-0.43451074763351727,0.0,True,0.012991189956665039,-1.9500007629394531,0.1970004439353943,-0.43451088666915894,0.0,0.6,0.0
1759842060.9529822,2,-1.9500007629394531,0.1970004439353943,-0.43451075734633626,0.0,True,0.010054826736450195,-1.9500007629394531,0.1970004439353943,-0.43451088666915894,0.0,0.6,0.0
1759842060.9643643,2,-1.9500007629394531,0.1970004439353943,-0.4345107623797624,0.0,True,0.011382102966308594,-1.9500007629394531,0.1970004439353943,-0.43451088666915894,0.0,0.6,0.0
1759842060.9762123,2,-1.9500007629394531,0.1970004439353943,-0.43451076572010194,0.0,True,0.011847972869873047,-1.9500007629394531,0.1970004439353943,-0.43451088666915894,0.0,0.6,0.0
1759842060.9864373,2,-1.9500007629394531,0.1970004439353943,-0.43451077295331686,0.0,True,0.010225057601928711,-1.9500007629394531,0.1970004439353943,-0.43451088666915894,0.0,0.6,0.0
1759842060.9974546,2,-1.9500007629394531,0.1970004439353943,-0.43451077740479604,0.0,True,0.011017322540283203,-1.9500007629394531,0.1970004439353943,-0.43451088666915894,0.0,0.6,0.0
1759842061.0096357,2,-1.9500007629394531,0.1970004439353943,-0.43451077885104006,0.0,True,0.01218104362487793,-1.9500007629394531,0.1970004439353943,-0.43451088666915894,0.0,0.6,0.0
1759842061.0211172,2,-1.9500007629394531,0.1970004439353943,-0.4345107823021941,0.0,True,0.011481523513793945,-1.9500007629394531,0.1970004439353943,-0.43451088666915894,0.0,0.6,0.0
1759842061.03358,2,-1.9500007629394531,0.1970004439353943,-0.43451078389222886,0.0,True,0.012462854385375977,-1.9500007629394531,0.1970004439353943,-0.43451088666915894,0.0,0.6,0.0
1759842061.0486805,2,-1.9500007629394531,0.1970004439353943,-0.43451078103423235,0.0,True,0.015100479125976562,-1.9500007629394531,0.1970004439353943,-0.43451088666915894,0.0,0.6,0.0
1759842061.058686,2,-1.9500007629394531,0.1970004439353943,-0.4345107896700213,0.0,True,0.010005474090576172,-1.9500007629394531,0.1970004439353943,-0.43451088666915894,0.0,0.6,0.0
1759842061.070176,2,-1.9500007629394531,0.1970004439353943,-0.43451079448913177,0.0,True,0.0114898681640625,-1.9500007629394531,0.1970004439353943,-0.43451088666915894,0.0,0.6,0.0
1759842061.0844817,2,-1.9500007629394531,0.1970004439353943,-0.43451079377599733,0.0,True,0.014305830001831055,-1.9500007629394531,0.1970004439353943,-0.43451088666915894,0.0,0.6,0.0
1759842061.095569,2,-1.9500007629394531,0.1970004439353943,-0.43451079946433424,0.0,True,0.011087179183959961,-1.9500007629394531,0.1970004439353943,-0.43451088666915894,0.0,0.6,0.0
1759842061.1083517,2,-1.9500007629394531,0.1970004439353943,-0.43451080195296043,0.0,True,0.012782812118530273,-1.9500007629394531,0.1970004439353943,-0.43451088666915894,0.0,0.6,0.0
1759842061.1187253,2,-1.9500007629394531,0.1970004439353943,-0.4345108081078237,0.0,True,0.010373592376708984,-1.9500007629394531,0.1970004439353943,-0.43451088666915894,0.0,0.6,0.0
1759842061.1300714,2,-1.9500007629394531,0.1970004439353943,-0.4345108118576064,0.0,True,0.011346101760864258,-1.9500007629394531,0.1970004439353943,-0.43451088666915894,0.0,0.6,0.0
1759842061.1425068,2,-1.9500007629394531,0.1970004439353943,-0.434510813531217,0.0,True,0.012435436248779297,-1.9500007629394531,0.1970004439353943,-0.43451088666915894,0.0,0.6,0.0
1759842061.1537423,2,-1.9500007629394531,0.1970004439353943,-0.4345108170097376,0.0,True,0.011235475540161133,-1.9500007629394531,0.1970004439353943,-0.43451088666915894,0.0,0.6,0.0
1759842061.167632,2,-1.9500007629394531,0.1970004439353943,-0.4345108167588094,0.0,True,0.013889789581298828,-1.9500007629394531,0.1970004439353943,-0.43451088666915894,0.0,0.6,0.0
1759842061.1778252,2,-1.9500007629394531,0.1970004439353943,-0.4345108218860716,0.0,True,0.010193109512329102,-1.9500007629394531,0.1970004439353943,-0.43451088666915894,0.0,0.6,0.0
1759842061.1890292,2,-1.9500007629394531,0.1970004439353943,-0.43451082508263106,0.0,True,0.011204004287719727,-1.9500007629394531,0.1970004439353943,-0.43451088666915894,0.0,0.6,0.0
1759842061.2024062,2,-1.9500007629394531,0.1970004439353943,-0.43451082526399,0.0,True,0.013376951217651367,-1.9500007629394531,0.1970004439353943,-0.43451088666915894,0.0,0.6,0.0
1759842061.2133412,2,-1.9500007629394531,0.1970004439353943,-0.43451082869738045,0.0,True,0.010935068130493164,-1.9500007629394531,0.1970004439353943,-0.43451088666915894,0.0,0.6,0.0
1759842061.223987,2,-1.9500007629394531,0.1970004439353943,-0.43451083212156405,0.0,True,0.010645866394042969,-1.9500007629394531,0.1970004439353943,-0.43451088666915894,0.0,0.6,0.0
1759842061.2352126,2,-1.9500007629394531,0.1970004439353943,-0.4345108343875985,0.0,True,0.011225461959838867,-1.9500007629394531,0.1970004439353943,-0.43451088666915894,0.0,0.6,0.0
1759842061.2510147,2,-1.9500007629394531,0.1970004439353943,-0.43451083182929295,0.0,True,0.01580214500427246,-1.9500007629394531,0.1970004439353943,-0.43451088666915894,0.0,0.6,0.0
1759842061.2608578,2,-1.9500007629394531,0.1970004439353943,-0.4345108363244776,0.0,True,0.009843111038208008,-1.9500007629394531,0.1970004439353943,-0.43451088666915894,0.0,0.6,0.0
1759842061.2717505,2,-1.9500007629394531,0.1970004439353943,-0.4345108392801649,0.0,True,0.010892629623413086,-1.9500007629394531,0.1970004439353943,-0.43451088666915894,0.0,0.6,0.0
1759842061.2830346,2,-1.9500007629394531,0.1970004439353943,-0.4345108413371932,0.0,True,0.011284112930297852,-1.9500007629394531,0.1970004439353943,-0.43451088666915894,0.0,0.6,0.0
1759842061.2956731,2,-1.9500007629394531,0.1970004439353943,-0.4345108419864143,0.0,True,0.012638568878173828,-1.9500007629394531,0.1970004439353943,-0.43451088666915894,0.0,0.6,0.0
1759842061.3070261,2,-1.9500007629394531,0.1970004439353943,-0.43451084393187145,0.0,True,0.011353015899658203,-1.9500007629394531,0.1970004439353943,-0.43451088666915894,0.0,0.6,0.0
1759842061.321516,2,-1.9500007629394531,0.1970004439353943,-0.43451084328141043,0.0,True,0.014489889144897461,-1.9500007629394531,0.1970004439353943,-0.43451088666915894,0.0,0.6,0.0
1759842061.332213,2,-1.9500007629394531,0.1970004439353943,-0.4345108461738878,0.0,True,0.010696887969970703,-1.9500007629394531,0.1970004439353943,-0.43451088666915894,0.0,0.6,0.0
1759842061.343352,2,-1.9500007629394531,0.1970004439353943,-0.4345108484229634,0.0,True,0.011139154434204102,-1.9500007629394531,0.1970004439353943,-0.43451088666915894,0.0,0.6,0.0
1759842061.3541152,2,-1.9500007629394531,0.1970004439353943,-0.4345108505844628,0.0,True,0.010763168334960938,-1.9500007629394531,0.1970004439353943,-0.43451088666915894,0.0,0.6,0.0
1759842061.367357,2,-1.9500007629394531,0.1970004439353943,-0.4345108507066371,0.0,True,0.013241767883300781,-1.9500007629394531,0.1970004439353943,-0.43451088666915894,0.0,0.6,0.0
1759842061.3785627,2,-1.9500007629394531,0.1970004439353943,-0.43451085245464327,0.0,True,0.011205673217773438,-1.9500007629394531,0.1970004439353943,-0.43451088666915894,0.0,0.6,0.0
1759842061.389378,2,-1.9500007629394531,0.1970004439353943,-0.43451085434051606,0.0,True,0.01081538200378418,-1.9500007629394531,0.1970004439353943,-0.43451088666915894,0.0,0.6,0.0
1759842061.4025424,2,-1.9500007629394531,0.1970004439353943,-0.43451085451165383,0.0,True,0.013164281845092773,-1.9500007629394531,0.1970004439353943,-0.43451088666915894,0.0,0.6,0.0
1759842061.4130104,2,-1.9500007629394531,0.1970004439353943,-0.43451085651282995,0.0,True,0.010468006134033203,-1.9500007629394531,0.1970004439353943,-0.43451088666915894,0.0,0.6,0.0
1759842061.4230816,2,-1.9500007629394531,0.1970004439353943,-0.43451085850323423,0.0,True,0.010071277618408203,-1.9500007629394531,0.1970004439353943,-0.43451088666915894,0.0,0.6,0.0
1759842061.4372694,2,-1.9500007629394531,0.1970004439353943,-0.43451085784397137,0.0,True,0.014187812805175781,-1.9500007629394531,0.1970004439353943,-0.43451088666915894,0.0,0.6,0.0
1759842061.4534576,2,-1.9500007629394531,0.1970004439353943,-0.43451085659492605,0.0,True,0.01618814468383789,-1.9500007629394531,0.1970004439353943,-0.43451088666915894,0.0,0.6,0.0
1759842061.4638102,2,-1.9500007629394531,0.1970004439353943,-0.43451085909713427,0.0,True,0.010352611541748047,-1.9500007629394531,0.1970004439353943,-0.43451088666915894,0.0,0.6,0.0
1759842061.4751325,2,-1.9500007629394531,0.1970004439353943,-0.43451086081144474,0.0,True,0.011322259902954102,-1.9500007629394531,0.1970004439353943,-0.43451088666915894,0.0,0.6,0.0
1759842061.490755,2,-1.9500007629394531,0.1970004439353943,-0.43451086022747276,0.0,True,0.015622615814208984,-1.9500007629394531,0.1970004439353943,-0.43451088666915894,0.0,0.6,0.0
1759842061.5011206,2,-1.9500007629394531,0.1970004439353943,-0.4345108624166585,0.0,True,0.010365486145019531,-1.9500007629394531,0.1970004439353943,-0.43451088666915894,0.0,0.6,0.0
1759842061.5119905,2,-1.9500007629394531,0.1970004439353943,-0.43451086408437334,0.0,True,0.010869979858398438,-1.9500007629394531,0.1970004439353943,-0.43451088666915894,0.0,0.6,0.0
1759842061.525281,2,-1.9500007629394531,0.1970004439353943,-0.4345108644245208,0.0,True,0.0132904052734375,-1.9500007629394531,0.1970004439353943,-0.43451088666915894,0.0,0.6,0.0
1759842061.5356238,2,-1.9500007629394531,0.1970004439353943,-0.4345108660213697,0.0,True,0.010342836380004883,-1.9500007629394531,0.1970004439353943,-0.43451088666915894,0.0,0.6,0.0
1759842061.5464396,2,-1.9500007629394531,0.1970004439353943,-0.43451086719896637,0.0,True,0.010815858840942383,-1.9500007629394531,0.1970004439353943,-0.43451088666915894,0.0,0.6,0.0
1759842061.5602503,2,-1.9500007629394531,0.1970004439353943,-0.4345108670638176,0.0,True,0.01381063461303711,-1.9500007629394531,0.1970004439353943,-0.43451088666915894,0.0,0.6,0.0
1759842061.57158,2,-1.9500007629394531,0.1970004439353943,-0.4345108680245193,0.0,True,0.01132965087890625,-1.9500007629394531,0.1970004439353943,-0.43451088666915894,0.0,0.6,0.0
1759842061.5819259,2,-1.9500007629394531,0.1970004439353943,-0.4345108692730548,0.0,True,0.010345935821533203,-1.9500007629394531,0.1970004439353943,-0.43451088666915894,0.0,0.6,0.0
1759842061.5921934,2,-1.9500007629394531,0.1970004439353943,-0.4345108703352203,0.0,True,0.010267496109008789,-1.9500007629394531,0.1970004439353943,-0.43451088666915894,0.0,0.6,0.0
1759842061.6054175,2,-1.9500007629394531,0.1970004439353943,-0.43451087025120394,0.0,True,0.013224124908447266,-1.9500007629394531,0.1970004439353943,-0.43451088666915894,0.0,0.6,0.0
1759842061.6161387,2,-1.9500007629394531,0.1970004439353943,-0.43451087109650466,0.0,True,0.010721206665039062,-1.9500007629394531,0.1970004439353943,-0.43451088666915894,0.0,0.6,0.0
1759842061.6264164,2,-1.9500007629394531,0.1970004439353943,-0.43451087201148475,0.0,True,0.010277748107910156,-1.9500007629394531,0.1970004439353943,-0.43451088666915894,0.0,0.6,0.0
1759842061.6367536,2,-1.9500007629394531,0.1970004439353943,-0.4345108727613578,0.0,True,0.010337114334106445,-1.9500007629394531,0.1970004439353943,-0.43451088666915894,0.0,0.6,0.0
1759842061.656558,2,-1.9500007629394531,0.1970004439353943,-0.4345108707765064,0.0,True,0.01980447769165039,-1.9500007629394531,0.1970004439353943,-0.43451088666915894,0.0,0.6,0.0
1759842061.667916,2,-1.9500007629394531,0.1970004439353943,-0.4345108717963342,0.0,True,0.011358022689819336,-1.9500007629394531,0.1970004439353943,-0.43451088666915894,0.0,0.6,0.0
1759842061.6781435,2,-1.9500007629394531,0.1970004439353943,-0.4345108731001375,0.0,True,0.010227441787719727,-1.9500007629394531,0.1970004439353943,-0.43451088666915894,0.0,0.6,0.0
1759842061.6896737,2,-1.9500007629394531,0.1970004439353943,-0.4345108738187733,0.0,True,0.011530160903930664,-1.9500007629394531,0.1970004439353943,-0.43451088666915894,0.0,0.6,0.0
1759842061.7024622,2,-1.9500007629394531,0.1970004439353943,-0.43451087411849976,0.0,True,0.012788534164428711,-1.9500007629394531,0.1970004439353943,-0.43451088666915894,0.0,0.6,0.0
1759842061.7138748,2,-1.9500007629394531,0.1970004439353943,-0.4345108747574251,0.0,True,0.011412620544433594,-1.9500007629394531,0.1970004439353943,-0.43451088666915894,0.0,0.6,0.0
1759842061.7245624,2,-1.9500007629394531,0.1970004439353943,-0.43451087549563994,0.0,True,0.010687589645385742,-1.9500007629394531,0.1970004439353943,-0.43451088666915894,0.0,0.6,0.0
1759842061.7376983,2,-1.9500007629394531,0.1970004439353943,-0.4345108756005285,0.0,True,0.013135910034179688,-1.9500007629394531,0.1970004439353943,-0.43451088666915894,0.0,0.6,0.0
1759842061.7484293,2,-1.9500007629394531,0.1970004439353943,-0.43451087625468254,0.0,True,0.010730981826782227,-1.9500007629394531,0.1970004439353943,-0.43451088666915894,0.0,0.6,0.0
1759842061.7593944,2,-1.9500007629394531,0.1970004439353943,-0.43451087678917233,0.0,True,0.010965108871459961,-1.9500007629394531,0.1970004439353943,-0.43451088666915894,0.0,0.6,0.0
1759842061.7708974,2,-1.9500007629394531,0.1970004439353943,-0.43451087714437264,0.0,True,0.011502981185913086,-1.9500007629394531,0.1970004439353943,-0.43451088666915894,0.0,0.6,0.0
1759842061.7816703,2,-1.9500007629394531,0.1970004439353943,-0.4345108776089255,0.0,True,0.010772943496704102,-1.9500007629394531,0.1970004439353943,-0.43451088666915894,0.0,0.6,0.0
1759842061.7974517,2,-1.9500007629394531,0.1970004439353943,-0.4345108771441044,0.0,True,0.015781402587890625,-1.9500007629394531,0.1970004439353943,-0.43451088666915894,0.0,0.6,0.0
1759842061.8081686,2,-1.9500007629394531,0.1970004439353943,-0.43451087776209363,0.0,True,0.010716915130615234,-1.9500007629394531,0.1970004439353943,-0.43451088666915894,0.0,0.6,0.0
1759842061.8194351,2,-1.9500007629394531,0.1970004439353943,-0.4345108782441578,0.0,True,0.011266469955444336,-1.9500007629394531,0.1970004439353943,-0.43451088666915894,0.0,0.6,0.0
1759842061.83491,2,-1.9500007629394531,0.1970004439353943,-0.43451087800371013,0.0,True,0.015474796295166016,-1.9500007629394531,0.1970004439353943,-0.43451088666915894,0.0,0.6,0.0
1759842061.845362,2,-1.9500007629394531,0.1970004439353943,-0.434510878668533,0.0,True,0.010452032089233398,-1.9500007629394531,0.1970004439353943,-0.43451088666915894,0.0,0.6,0.0
1759842061.8779805,2,-1.9500007629394531,0.1970004439353943,-0.4345108762743486,0.0,True,0.03261852264404297,-1.9500007629394531,0.1970004439353943,-0.43451088666915894,0.0,0.6,0.0
1759842061.8882298,2,-1.9500007629394531,0.1970004439353943,-0.4345108776881528,0.0,True,0.01024937629699707,-1.9500007629394531,0.1970004439353943,-0.43451088666915894,0.0,0.6,0.0
1759842061.8994355,2,-1.9500007629394531,0.1970004439353943,-0.4345108788056642,0.0,True,0.011205673217773438,-1.9500007629394531,0.1970004439353943,-0.43451088666915894,0.0,0.6,0.0
1759842061.9162467,2,-1.9500007629394531,0.1970004439353943,-0.43451087899372354,0.0,True,0.016811132431030273,-1.9500007629394531,0.1970004439353943,-0.43451088666915894,0.0,0.6,0.0
1759842061.9265432,2,-1.9500007629394531,0.1970004439353943,-0.4345108798967914,0.0,True,0.01029658317565918,-1.9500007629394531,0.1970004439353943,-0.43451088666915894,0.0,0.6,0.0
1759842061.9373,2,-1.9500007629394531,0.1970004439353943,-0.43451088056592724,0.0,True,0.010756731033325195,-1.9500007629394531,0.1970004439353943,-0.43451088666915894,0.0,0.6,0.0
1759842061.951567,2,-1.9500007629394531,0.1970004439353943,-0.43451088071499555,0.0,True,0.0142669677734375,-1.9500007629394531,0.1970004439353943,-0.43451088666915894,0.0,0.6,0.0
1759842061.962941,2,-1.9500007629394531,0.1970004439353943,-0.43451088114511194,0.0,True,0.01137399673461914,-1.9500007629394531,0.1970004439353943,-0.43451088666915894,0.0,0.6,0.0
1759842061.9795868,2,-1.9500007629394531,0.1970004439353943,-0.43451088102311886,0.0,True,0.01664590835571289,-1.9500007629394531,0.1970004439353943,-0.43451088666915894,0.0,0.6,0.0
1759842061.989819,2,-1.9500007629394531,0.1970004439353943,-0.43451088156406215,0.0,True,0.010232210159301758,-1.9500007629394531,0.1970004439353943,-0.43451088666915894,0.0,0.6,0.0
1759842062.0013165,2,-1.9500007629394531,0.1970004439353943,-0.43451088190936105,0.0,True,0.01149749755859375,-1.9500007629394531,0.1970004439353943,-0.43451088666915894,0.0,0.6,0.0
1759842062.0157604,2,-1.9500007629394531,0.1970004439353943,-0.4345108819402803,0.0,True,0.01444387435913086,-1.9500007629394531,0.1970004439353943,-0.43451088666915894,0.0,0.6,0.0
1759842062.0272703,2,-1.9500007629394531,0.1970004439353943,-0.43451088223745415,0.0,True,0.011509895324707031,-1.9500007629394531,0.1970004439353943,-0.43451088666915894,0.0,0.6,0.0
1759842062.0386004,2,-1.9500007629394531,0.1970004439353943,-0.4345108825148607,0.0,True,0.011330127716064453,-1.9500007629394531,0.1970004439353943,-0.43451088666915894,0.0,0.6,0.0
1759842062.052359,2,-1.9500007629394531,0.1970004439353943,-0.43451088256624715,0.0,True,0.013758659362792969,-1.9500007629394531,0.1970004439353943,-0.43451088666915894,0.0,0.6,0.0
1759842062.0719764,2,-1.9500007629394531,0.1970004439353943,-0.43451088223578793,0.0,True,0.019617319107055664,-1.9500007629394531,0.1970004439353943,-0.43451088666915894,0.0,0.6,0.0
1759842062.0828023,2,-1.9500007629394531,0.1970004439353943,-0.43451088265411286,0.0,True,0.010825872421264648,-1.9500007629394531,0.1970004439353943,-0.43451088666915894,0.0,0.6,0.0
1759842062.0942066,2,-1.9500007629394531,0.1970004439353943,-0.4345108829829947,0.0,True,0.011404275894165039,-1.9500007629394531,0.1970004439353943,-0.43451088666915894,0.0,0.6,0.0
1759842062.1045706,2,-1.9500007629394531,0.1970004439353943,-0.43451088330498244,0.0,True,0.010364055633544922,-1.9500007629394531,0.1970004439353943,-0.43451088666915894,0.0,0.6,0.0
1759842062.1194744,2,-1.9500007629394531,0.1970004439353943,-0.43451088328605536,0.0,True,0.014903783798217773,-1.9500007629394531,0.1970004439353943,-0.43451088666915894,0.0,0.6,0.0
1759842062.129784,2,-1.9500007629394531,0.1970004439353943,-0.4345108835612077,0.0,True,0.010309696197509766,-1.9500007629394531,0.1970004439353943,-0.43451088666915894,0.0,0.6,0.0
1759842062.140557,2,-1.9500007629394531,0.1970004439353943,-0.4345108837692493,0.0,True,0.010772943496704102,-1.9500007629394531,0.1970004439353943,-0.43451088666915894,0.0,0.6,0.0
1759842062.1530747,2,-1.9500007629394531,0.1970004439353943,-0.4345108838419218,0.0,True,0.012517690658569336,-1.9500007629394531,0.1970004439353943,-0.43451088666915894,0.0,0.6,0.0
1759842062.1633456,2,-1.9500007629394531,0.1970004439353943,-0.43451088403119265,0.0,True,0.010270833969116211,-1.9500007629394531,0.1970004439353943,-0.43451088666915894,0.0,0.6,0.0
1759842062.1736972,2,-1.9500007629394531,0.1970004439353943,-0.4345108841875458,0.0,True,0.01035165786743164,-1.9500007629394531,0.1970004439353943,-0.43451088666915894,0.0,0.6,0.0
1759842062.187747,2,-1.9500007629394531,0.1970004439353943,-0.4345108841350509,0.0,True,0.014049768447875977,-1.9500007629394531,0.1970004439353943,-0.43451088666915894,0.0,0.6,0.0
1759842062.1991026,2,-1.9500007629394531,0.1970004439353943,-0.4345108842438705,0.0,True,0.01135563850402832,-1.9500007629394531,0.1970004439353943,-0.43451088666915894,0.0,0.6,0.0
1759842062.2099886,2,-1.9500007629394531,0.1970004439353943,-0.4345108843728873,0.0,True,0.010885953903198242,-1.9500007629394531,0.1970004439353943,-0.43451088666915894,0.0,0.6,0.0
1759842062.2237604,2,-1.9500007629394531,0.1970004439353943,-0.4345108843586907,0.0,True,0.013771772384643555,-1.9500007629394531,0.1970004439353943,-0.43451088666915894,0.0,0.6,0.0
1759842062.2340164,2,-1.9500007629394531,0.1970004439353943,-0.4345108845162251,0.0,True,0.010256052017211914,-1.9500007629394531,0.1970004439353943,-0.43451088666915894,0.0,0.6,0.0
1759842062.244516,2,-1.9500007629394531,0.1970004439353943,-0.4345108846437835,0.0,True,0.01049947738647461,-1.9500007629394531,0.1970004439353943,-0.43451088666915894,0.0,0.6,0.0
1759842062.2588549,2,-1.9500007629394531,0.1970004439353943,-0.43451088459769593,0.0,True,0.014338970184326172,-1.9500007629394531,0.1970004439353943,-0.43451088666915894,0.0,0.6,0.0
1759842062.2762952,2,-1.9500007629394531,0.1970004439353943,-0.43451088447012154,0.0,True,0.017440319061279297,-1.9500007629394531,0.1970004439353943,-0.43451088666915894,0.0,0.6,0.0
