timestamp,vehicle_id,x,y,theta,velocity,gps_available,dt,gps_x,gps_y,gps_theta,gps_velocity,control_steering,control_acceleration
1759842058.1015859,0,-1.205,-0.83,-0.7801621756414647,0.0,False,0.01,nan,nan,nan,nan,0.0,0.0
1759842058.1118217,0,-1.205,-0.83,-0.7801621756414647,0.0,False,0.010235786437988281,nan,nan,nan,nan,0.0,0.0
1759842058.1228333,0,-1.205,-0.83,-0.7801621756414647,0.0,False,0.011011600494384766,nan,nan,nan,nan,0.0,0.0
1759842058.1335196,0,-1.205,-0.83,-0.7801621756414647,0.0,False,0.010686397552490234,nan,nan,nan,nan,0.0,0.0
1759842058.144801,0,-1.205,-0.83,-0.7801621756414647,0.0,False,0.011281251907348633,nan,nan,nan,nan,0.0,0.0
1759842058.1550262,0,-1.205,-0.83,-0.7801621756414647,0.0,False,0.010225296020507812,nan,nan,nan,nan,0.0,0.0
1759842058.1664243,0,-1.205,-0.83,-0.7801621756414647,0.0,False,0.011398077011108398,nan,nan,nan,nan,0.0,0.0
1759842058.1779275,0,-1.205,-0.83,-0.7801621756414647,0.0,False,0.011503219604492188,nan,nan,nan,nan,0.0,0.0
1759842058.1893804,0,-1.205,-0.83,-0.7801621756414647,0.0,False,0.011452913284301758,nan,nan,nan,nan,0.0,0.0
1759842058.20028,0,-1.205,-0.83,-0.7801621756414647,0.0,False,0.010899543762207031,nan,nan,nan,nan,0.0,0.0
1759842058.2117772,0,-1.205,-0.83,-0.7801621756414647,0.0,False,0.011497259140014648,nan,nan,nan,nan,0.0,0.0
1759842058.2225797,0,-1.205,-0.83,-0.7801621756414647,0.0,False,0.010802507400512695,nan,nan,nan,nan,0.0,0.0
1759842058.2336512,0,-1.205,-0.83,-0.7801621756414647,0.0,False,0.011071443557739258,nan,nan,nan,nan,0.0,0.0
1759842058.2444959,0,-1.205,-0.83,-0.7801621756414647,0.0,False,0.010844707489013672,nan,nan,nan,nan,0.0,0.0
1759842058.2545087,0,-1.205,-0.83,-0.7801621756414647,0.0,False,0.01001286506652832,nan,nan,nan,nan,0.0,0.0
1759842058.2654324,0,-1.205,-0.83,-0.7801621756414647,0.0,False,0.010923624038696289,nan,nan,nan,nan,0.0,0.0
1759842058.2767105,0,-1.205,-0.83,-0.7801621756414647,0.0,False,0.011278152465820312,nan,nan,nan,nan,0.0,0.0
1759842058.2880907,0,-1.205,-0.83,-0.7801621756414647,0.0,False,0.011380195617675781,nan,nan,nan,nan,0.0,0.0
1759842058.2987833,0,-1.2050000425577163,-0.8299997470180194,-0.7229996523844342,0.0,True,0.010692596435546875,-1.2050000429153442,-0.8299997448921204,-0.7177034020423889,0.0,0.0,0.0
1759842058.3098934,0,-1.205000042795803,-0.8299997456027273,-0.7181153326162075,0.0,True,0.011110067367553711,-1.2050000429153442,-0.8299997448921204,-0.7177034020423889,0.0,0.0,0.0
1759842058.320617,0,-1.2050000428705006,-0.8299997451586908,-0.7176567625204964,0.0,True,0.010723590850830078,-1.2050000429153442,-0.8299997448921204,-0.7177034020423889,0.0,0.0,0.0
1759842058.3309236,0,-1.2050000428982601,-0.829999744993676,-0.7175986177003999,0.0,True,0.010306596755981445,-1.2050000429153442,-0.8299997448921204,-0.7177034020423889,0.0,0.0,0.0
1759842058.3419292,0,-1.2050000429088212,-0.8299997449308965,-0.7175898007660955,0.0,True,0.011005640029907227,-1.2050000429153442,-0.8299997448921204,-0.7177034020423889,0.0,0.0,0.0
1759842058.3534825,0,-1.205000042912853,-0.8299997449069307,-0.7175952526601286,0.0,True,0.011553287506103516,-1.2050000429153442,-0.8299997448921204,-0.7177034020423889,0.0,0.0,0.0
1759842058.3642209,0,-1.2050000429143926,-0.8299997448977774,-0.7176080868945167,0.0,True,0.010738372802734375,-1.2050000429153442,-0.8299997448921204,-0.7177034020423889,0.0,0.0,0.0
1759842058.374988,0,-1.2050000429149808,-0.8299997448942812,-0.7176204191802515,0.0,True,0.010767221450805664,-1.2050000429153442,-0.8299997448921204,-0.7177034020423889,0.0,0.0,0.0
1759842058.386216,0,-1.2050000429152055,-0.8299997448929457,-0.7176305669068377,0.0,True,0.011227846145629883,-1.2050000429153442,-0.8299997448921204,-0.7177034020423889,0.0,0.0,0.0
1759842058.3971643,0,-1.2050000429152912,-0.8299997448924357,-0.7176397600654134,0.0,True,0.010948419570922852,-1.2050000429153442,-0.8299997448921204,-0.7177034020423889,0.0,0.0,0.0
1759842058.4080923,0,-1.205000042915324,-0.8299997448922408,-0.7176474505108228,0.0,True,0.010927915573120117,-1.2050000429153442,-0.8299997448921204,-0.7177034020423889,0.0,0.0,0.0
1759842058.4189992,0,-1.2050000429153365,-0.8299997448921663,-0.7176538338220393,0.0,True,0.01090693473815918,-1.2050000429153442,-0.8299997448921204,-0.7177034020423889,0.0,0.0,0.0
1759842058.4304054,0,-1.2050000429153414,-0.8299997448921379,-0.7176587430767167,0.0,True,0.011406183242797852,-1.2050000429153442,-0.8299997448921204,-0.7177034020423889,0.0,0.0,0.0
1759842058.440602,0,-1.2050000429153431,-0.829999744892127,-0.7176638904744408,0.0,True,0.010196685791015625,-1.2050000429153442,-0.8299997448921204,-0.7177034020423889,0.0,0.0,0.0
1759842058.4519627,0,-1.2050000429153438,-0.8299997448921229,-0.7176672404420259,0.0,True,0.011360645294189453,-1.2050000429153442,-0.8299997448921204,-0.7177034020423889,0.0,0.0,0.0
1759842058.4632432,0,-1.205000042915344,-0.8299997448921214,-0.7176702440594998,0.0,True,0.011280536651611328,-1.2050000429153442,-0.8299997448921204,-0.7177034020423889,0.0,0.0,0.0
1759842058.4740617,0,-1.2050000429153442,-0.8299997448921207,-0.7176731825644875,0.0,True,0.0108184814453125,-1.2050000429153442,-0.8299997448921204,-0.7177034020423889,0.0,0.0,0.0
1759842058.4848905,0,-1.2050000429153442,-0.8299997448921205,-0.7176756888766676,0.0,True,0.010828733444213867,-1.2050000429153442,-0.8299997448921204,-0.7177034020423889,0.0,0.0,0.0
1759842058.503769,0,-1.2050000429153442,-0.8299997448921204,-0.7176741047823345,0.0,True,0.018878459930419922,-1.2050000429153442,-0.8299997448921204,-0.7177034020423889,0.0,0.0,0.0
1759842058.515309,0,-1.2050000429153442,-0.8299997448921204,-0.7176772186677152,0.0,True,0.01154017448425293,-1.2050000429153442,-0.8299997448921204,-0.7177034020423889,0.0,0.0,0.0
1759842058.525936,0,-1.2050000429153442,-0.8299997448921204,-0.717680293109975,0.0,True,0.010626792907714844,-1.2050000429153442,-0.8299997448921204,-0.7177034020423889,0.0,0.0,0.0
1759842058.537053,0,-1.2050000429153442,-0.8299997448921204,-0.7176824710280023,0.0,True,0.011117219924926758,-1.2050000429153442,-0.8299997448921204,-0.7177034020423889,0.0,0.0,0.0
1759842058.5473175,0,-1.2050000429153442,-0.8299997448921204,-0.7176844958321951,0.0,True,0.010264396667480469,-1.2050000429153442,-0.8299997448921204,-0.7177034020423889,0.0,0.0,0.0
1759842058.558021,0,-1.2050000429153442,-0.8299997448921204,-0.7176859483124822,0.0,True,0.010703563690185547,-1.2050000429153442,-0.8299997448921204,-0.7177034020423889,0.0,0.0,0.0
1759842058.568969,0,-1.2050000429153442,-0.8299997448921204,-0.7176870614239927,0.0,True,0.010947942733764648,-1.2050000429153442,-0.8299997448921204,-0.7177034020423889,0.0,0.0,0.0
1759842058.5793982,0,-1.2050000429153442,-0.8299997448921204,-0.7176881832625366,0.0,True,0.010429143905639648,-1.2050000429153442,-0.8299997448921204,-0.7177034020423889,0.0,0.0,0.0
1759842058.590719,0,-1.2050000429153442,-0.8299997448921204,-0.7176888810126094,0.0,True,0.011320829391479492,-1.2050000429153442,-0.8299997448921204,-0.7177034020423889,0.0,0.0,0.0
1759842058.6019888,0,-1.2050000429153442,-0.8299997448921204,-0.7176895516850301,0.0,True,0.011269807815551758,-1.2050000429153442,-0.8299997448921204,-0.7177034020423889,0.0,0.0,0.0
1759842058.6123352,0,-1.2050000429153442,-0.8299997448921204,-0.7176904388244338,0.0,True,0.010346412658691406,-1.2050000429153442,-0.8299997448921204,-0.7177034020423889,0.0,0.0,0.0
1759842058.623668,0,-1.2050000429153442,-0.8299997448921204,-0.7176909617305309,0.0,True,0.01133275032043457,-1.2050000429153442,-0.8299997448921204,-0.7177034020423889,0.0,0.0,0.0
1759842058.634782,0,-1.2050000429153442,-0.8299997448921204,-0.7176915164709801,0.0,True,0.011114120483398438,-1.2050000429153442,-0.8299997448921204,-0.7177034020423889,0.0,0.0,0.0
1759842058.644983,0,-1.2050000429153442,-0.8299997448921204,-0.7176922573369993,0.0,True,0.010200977325439453,-1.2050000429153442,-0.8299997448921204,-0.7177034020423889,0.0,0.0,0.0
1759842058.6563988,0,-1.2050000429153442,-0.8299997448921204,-0.7176926308462317,0.0,True,0.011415719985961914,-1.2050000429153442,-0.8299997448921204,-0.7177034020423889,0.0,0.0,0.0
1759842058.6667657,0,-1.2050000429153442,-0.8299997448921204,-0.7176932242966334,0.0,True,0.01036691665649414,-1.2050000429153442,-0.8299997448921204,-0.7177034020423889,0.0,0.0,0.0
1759842058.6778476,0,-1.2050000429153442,-0.8299997448921204,-0.7176936108706382,0.0,True,0.011081933975219727,-1.2050000429153442,-0.8299997448921204,-0.7177034020423889,0.0,0.0,0.0
1759842058.687868,0,-1.2050000429153442,-0.8299997448921204,-0.7176941871410616,0.0,True,0.01002049446105957,-1.2050000429153442,-0.8299997448921204,-0.7177034020423889,0.0,0.0,0.0
1759842058.6986995,0,-1.2050000429153442,-0.8299997448921204,-0.717694536560689,0.0,True,0.010831356048583984,-1.2050000429153442,-0.8299997448921204,-0.7177034020423889,0.0,0.0,0.0
1759842058.7091336,0,-1.2050000429153442,-0.8299997448921204,-0.7176949351870885,0.0,True,0.010434150695800781,-1.2050000429153442,-0.8299997448921204,-0.7177034020423889,0.0,0.0,0.0
1759842058.7198944,0,-1.2050000429153442,-0.8299997448921204,-0.7176952453413552,0.0,True,0.010760784149169922,-1.2050000429153442,-0.8299997448921204,-0.7177034020423889,0.0,0.0,0.0
1759842058.7303112,0,-1.2050000429153442,-0.8299997448921204,-0.717695600300253,0.0,True,0.010416746139526367,-1.2050000429153442,-0.8299997448921204,-0.7177034020423889,0.0,0.0,0.0
1759842058.7409348,0,-1.2050000429153442,-0.8299997448921204,-0.7176958951022243,0.0,True,0.010623693466186523,-1.2050000429153442,-0.8299997448921204,-0.7177034020423889,0.0,0.0,0.0
1759842058.752303,0,-1.2050000429153442,-0.8299997448921204,-0.7176960593275119,0.0,True,0.011368036270141602,-1.2050000429153442,-0.8299997448921204,-0.7177034020423889,0.0,0.0,0.0
1759842058.763524,0,-1.2050000429153442,-0.8299997448921204,-0.7176962713354875,0.0,True,0.011221170425415039,-1.2050000429153442,-0.8299997448921204,-0.7177034020423889,0.0,0.0,0.0
1759842058.774901,0,-1.2050000429153442,-0.8299997448921204,-0.7176964783143873,0.0,True,0.01137685775756836,-1.2050000429153442,-0.8299997448921204,-0.7177034020423889,0.0,0.0,0.0
1759842058.7859266,0,-1.2050000429153442,-0.8299997448921204,-0.7176967475346672,0.0,True,0.011025667190551758,-1.2050000429153442,-0.8299997448921204,-0.7177034020423889,0.0,0.0,0.0
1759842058.7966492,0,-1.2050000429153442,-0.8299997448921204,-0.7176970486830996,0.0,True,0.010722637176513672,-1.2050000429153442,-0.8299997448921204,-0.7177034020423889,0.0,0.0,0.0
1759842058.8066769,0,-1.2050000429153442,-0.8299997448921204,-0.7176974123774151,0.0,True,0.010027647018432617,-1.2050000429153442,-0.8299997448921204,-0.7177034020423889,0.0,0.0,0.0
1759842058.8170066,0,-1.2050000429153442,-0.8299997448921204,-0.7176976868703804,0.0,True,0.010329723358154297,-1.2050000429153442,-0.8299997448921204,-0.7177034020423889,0.0,0.0,0.0
1759842058.827409,0,-1.2050000429153442,-0.8299997448921204,-0.7176979186197556,0.0,True,0.010402441024780273,-1.2050000429153442,-0.8299997448921204,-0.7177034020423889,0.0,0.0,0.0
1759842058.8383567,0,-1.2050000429153442,-0.8299997448921204,-0.7176980675769489,0.0,True,0.010947704315185547,-1.2050000429153442,-0.8299997448921204,-0.7177034020423889,0.0,0.0,0.0
1759842058.8493583,0,-1.2050000429153442,-0.8299997448921204,-0.7176982152201958,0.0,True,0.0110015869140625,-1.2050000429153442,-0.8299997448921204,-0.7177034020423889,0.0,0.0,0.0
1759842058.8603437,0,-1.2050000429153442,-0.8299997448921204,-0.7176983729721282,0.0,True,0.010985374450683594,-1.2050000429153442,-0.8299997448921204,-0.7177034020423889,0.0,0.0,0.0
1759842058.8706138,0,-1.2050000429153442,-0.8299997448921204,-0.7176986079467031,0.0,True,0.010270118713378906,-1.2050000429153442,-0.8299997448921204,-0.7177034020423889,0.0,0.0,0.0
1759842058.882169,0,-1.2050000429153442,-0.8299997448921204,-0.7176986936250209,0.0,True,0.011555194854736328,-1.2050000429153442,-0.8299997448921204,-0.7177034020423889,0.0,0.0,0.0
1759842058.8930454,0,-1.2050000429153442,-0.8299997448921204,-0.7176988606783077,0.0,True,0.01087641716003418,-1.2050000429153442,-0.8299997448921204,-0.7177034020423889,0.0,0.0,0.0
1759842058.9052832,0,-1.2050000429153442,-0.8299997448921204,-0.7176989030413488,0.0,True,0.012237787246704102,-1.2050000429153442,-0.8299997448921204,-0.7177034020423889,0.0,0.0,0.0
1759842058.9159234,0,-1.2050000429153442,-0.8299997448921204,-0.7176991186149024,0.0,True,0.010640144348144531,-1.2050000429153442,-0.8299997448921204,-0.7177034020423889,0.0,0.0,0.0
1759842058.9269404,0,-1.2050000429153442,-0.8299997448921204,-0.7176992878889301,0.0,True,0.011017084121704102,-1.2050000429153442,-0.8299997448921204,-0.7177034020423889,0.0,0.0,0.0
1759842058.9381745,0,-1.2050000429153442,-0.8299997448921204,-0.7176994270271173,0.0,True,0.011234045028686523,-1.2050000429153442,-0.8299997448921204,-0.7177034020423889,0.0,0.0,0.0
1759842058.9486215,0,-1.2050000429153442,-0.8299997448921204,-0.7176996250605541,0.0,True,0.010447025299072266,-1.2050000429153442,-0.8299997448921204,-0.7177034020423889,0.0,0.0,0.0
1759842058.960098,0,-1.2050000429153442,-0.8299997448921204,-0.7176997234865503,0.0,True,0.011476516723632812,-1.2050000429153442,-0.8299997448921204,-0.7177034020423889,0.0,0.0,0.0
1759842058.9703467,0,-1.2050000429153442,-0.8299997448921204,-0.7176999149853032,0.0,True,0.010248661041259766,-1.2050000429153442,-0.8299997448921204,-0.7177034020423889,0.0,0.0,0.0
1759842058.980527,0,-1.2050000429153442,-0.8299997448921204,-0.7177000900445893,0.0,True,0.010180234909057617,-1.2050000429153442,-0.8299997448921204,-0.7177034020423889,0.0,0.0,0.0
1759842058.9905927,0,-1.2050000429153442,-0.8299997448921204,-0.7177002485930117,0.0,True,0.010065793991088867,-1.2050000429153442,-0.8299997448921204,-0.7177034020423889,0.0,0.0,0.0
1759842059.001059,0,-1.2050000429153442,-0.8299997448921204,-0.7177003592329889,0.0,True,0.010466337203979492,-1.2050000429153442,-0.8299997448921204,-0.7177034020423889,0.0,0.0,0.0
1759842059.011351,0,-1.2050000429153442,-0.8299997448921204,-0.7177004728311456,0.0,True,0.01029205322265625,-1.2050000429153442,-0.8299997448921204,-0.7177034020423889,0.0,0.0,0.0
1759842059.0215988,0,-1.2050000429153442,-0.8299997448921204,-0.7177005812997628,0.0,True,0.01024770736694336,-1.2050000429153442,-0.8299997448921204,-0.7177034020423889,0.0,0.0,0.0
1759842059.0328722,0,-1.2050000429153442,-0.8299997448921204,-0.7177006200654823,0.0,True,0.011273384094238281,-1.2050000429153442,-0.8299997448921204,-0.7177034020423889,0.0,0.0,0.0
1759842059.0437129,0,-1.2050000429153442,-0.8299997448921204,-0.7177006964495085,0.0,True,0.010840654373168945,-1.2050000429153442,-0.8299997448921204,-0.7177034020423889,0.0,0.0,0.0
1759842059.0547516,0,-1.2050000429153442,-0.8299997448921204,-0.7177007668709336,0.0,True,0.011038780212402344,-1.2050000429153442,-0.8299997448921204,-0.7177034020423889,0.0,0.0,0.0
1759842059.065627,0,-1.2050000429153442,-0.8299997448921204,-0.7177008505542357,0.0,True,0.010875463485717773,-1.2050000429153442,-0.8299997448921204,-0.7177034020423889,0.0,0.0,0.0
1759842059.0756383,0,-1.2050000429153442,-0.8299997448921204,-0.7177009795385771,0.0,True,0.01001119613647461,-1.2050000429153442,-0.8299997448921204,-0.7177034020423889,0.0,0.0,0.0
1759842059.085992,0,-1.2050000429153442,-0.8299997448921204,-0.7177010757618341,0.0,True,0.010353803634643555,-1.2050000429153442,-0.8299997448921204,-0.7177034020423889,0.0,0.0,0.0
1759842059.0975282,0,-1.2050000429153442,-0.8299997448921204,-0.7177011042576353,0.0,True,0.011536121368408203,-1.2050000429153442,-0.8299997448921204,-0.7177034020423889,0.0,0.0,0.0
1759842059.114457,0,-1.2050000429153442,-0.8299997448921204,-0.7177008956141897,0.0,True,0.016928672790527344,-1.2050000429153442,-0.8299997448921204,-0.7177034020423889,0.0,0.0,0.0
1759842059.125313,0,-1.2050000429153442,-0.8299997448921204,-0.7177010511419404,0.0,True,0.010856151580810547,-1.2050000429153442,-0.8299997448921204,-0.7177034020423889,0.0,0.0,0.0
1759842059.1356041,0,-1.2050000429153442,-0.8299997448921204,-0.7177012260735705,0.0,True,0.010291099548339844,-1.2050000429153442,-0.8299997448921204,-0.7177034020423889,0.0,0.0,0.0
1759842059.1459737,0,-1.2050000429153442,-0.8299997448921204,-0.7177013650432329,0.0,True,0.010369539260864258,-1.2050000429153442,-0.8299997448921204,-0.7177034020423889,0.0,0.0,0.0
1759842059.1565175,0,-1.2050000429153442,-0.8299997448921204,-0.7177014712336955,0.0,True,0.0105438232421875,-1.2050000429153442,-0.8299997448921204,-0.7177034020423889,0.0,0.0,0.0
1759842059.1677186,0,-1.2050000429153442,-0.8299997448921204,-0.7177015358604812,0.0,True,0.011201143264770508,-1.2050000429153442,-0.8299997448921204,-0.7177034020423889,0.0,0.0,0.0
1759842059.1789048,0,-1.2050000429153442,-0.8299997448921204,-0.7177015976901622,0.0,True,0.01118612289428711,-1.2050000429153442,-0.8299997448921204,-0.7177034020423889,0.0,0.0,0.0
1759842059.189153,0,-1.2050000429153442,-0.8299997448921204,-0.7177016921222261,0.0,True,0.010248184204101562,-1.2050000429153442,-0.8299997448921204,-0.7177034020423889,0.0,0.0,0.0
1759842059.1993618,0,-1.2050000429153442,-0.8299997448921204,-0.7177017762867131,0.0,True,0.010208845138549805,-1.2050000429153442,-0.8299997448921204,-0.7177034020423889,0.0,0.0,0.0
1759842059.2102234,0,-1.2050000429153442,-0.8299997448921204,-0.7177018266879607,0.0,True,0.010861635208129883,-1.2050000429153442,-0.8299997448921204,-0.7177034020423889,0.0,0.0,0.0
1759842059.2216196,0,-1.2050000429153442,-0.8299997448921204,-0.7177018575046592,0.0,True,0.011396169662475586,-1.2050000429153442,-0.8299997448921204,-0.7177034020423889,0.0,0.0,0.0
1759842059.2317696,0,-1.2050000429153442,-0.8299997448921204,-0.717701932552357,0.0,True,0.010149955749511719,-1.2050000429153442,-0.8299997448921204,-0.7177034020423889,0.0,0.0,0.0
1759842059.243022,0,-1.2050000429153442,-0.8299997448921204,-0.7177019667317275,0.0,True,0.011252403259277344,-1.2050000429153442,-0.8299997448921204,-0.7177034020423889,0.0,0.0,0.0
1759842059.2538192,0,-1.2050000429153442,-0.8299997448921204,-0.7177020158470029,0.0,True,0.010797262191772461,-1.2050000429153442,-0.8299997448921204,-0.7177034020423889,0.0,0.0,0.0
1759842059.2639468,0,-1.2050000429153442,-0.8299997448921204,-0.7177020829843634,0.0,True,0.010127544403076172,-1.2050000429153442,-0.8299997448921204,-0.7177034020423889,0.0,0.0,0.0
1759842059.2744484,0,-1.2050000429153442,-0.8299997448921204,-0.7177021320088528,0.0,True,0.010501623153686523,-1.2050000429153442,-0.8299997448921204,-0.7177034020423889,0.0,0.0,0.0
1759842059.2845619,0,-1.2050000429153442,-0.8299997448921204,-0.7177021870165881,0.0,True,0.01011347770690918,-1.2050000429153442,-0.8299997448921204,-0.7177034020423889,0.0,0.0,0.0
1759842059.2947338,0,-1.2050000429153442,-0.8299997448921204,-0.7177022347261968,0.0,True,0.010171890258789062,-1.2050000429153442,-0.8299997448921204,-0.7177034020423889,0.0,0.0,0.0
1759842059.314246,0,-1.2050000429153442,-0.8299997448921204,-0.7177020497493416,0.0,True,0.019512176513671875,-1.2050000429153442,-0.8299997448921204,-0.7177034020423889,0.0,0.0,0.0
1759842059.3208365,0,-1.2050000429153442,-0.8299997448921204,-0.7177022372190294,0.0,True,0.006590604782104492,-1.2050000429153442,-0.8299997448921204,-0.7177034020423889,0.0,0.0,0.0
1759842059.3313513,0,-1.2050000429153442,-0.8299997448921204,-0.7177023050657141,0.0,True,0.01051473617553711,-1.2050000429153442,-0.8299997448921204,-0.7177034020423889,0.0,0.0,0.0
1759842059.3422718,0,-1.2050000429153442,-0.8299997448921204,-0.7177023466767665,0.0,True,0.010920524597167969,-1.2050000429153442,-0.8299997448921204,-0.7177034020423889,0.0,0.0,0.0
1759842059.3532896,0,-1.2050000429153442,-0.8299997448921204,-0.7177023822165829,0.0,True,0.011017799377441406,-1.2050000429153442,-0.8299997448921204,-0.7177034020423889,0.0,0.0,0.0
1759842059.3647995,0,-1.2050000429153442,-0.8299997448921204,-0.7177024064394271,0.0,True,0.011509895324707031,-1.2050000429153442,-0.8299997448921204,-0.7177034020423889,0.0,0.0,0.0
1759842059.3761685,0,-1.2050000429153442,-0.8299997448921204,-0.7177024357070607,0.0,True,0.011368989944458008,-1.2050000429153442,-0.8299997448921204,-0.7177034020423889,0.0,0.0,0.0
1759842059.3867052,0,-1.2050000429153442,-0.8299997448921204,-0.7177024820059508,0.0,True,0.010536670684814453,-1.2050000429153442,-0.8299997448921204,-0.7177034020423889,0.0,0.0,0.0
1759842059.3972402,0,-1.2050000429153442,-0.8299997448921204,-0.7177025236697077,0.0,True,0.010535001754760742,-1.2050000429153442,-0.8299997448921204,-0.7177034020423889,0.0,0.0,0.0
1759842059.4077973,0,-1.2050000429153442,-0.8299997448921204,-0.7177025600582674,0.0,True,0.010557174682617188,-1.2050000429153442,-0.8299997448921204,-0.7177034020423889,0.0,0.0,0.0
1759842059.4192884,0,-1.2050000429153442,-0.8299997448921204,-0.7177025767067455,0.0,True,0.011491060256958008,-1.2050000429153442,-0.8299997448921204,-0.7177034020423889,0.0,0.0,0.0
1759842059.4301,0,-1.2050000429153442,-0.8299997448921204,-0.7177026069085493,0.0,True,0.010811567306518555,-1.2050000429153442,-0.8299997448921204,-0.7177034020423889,0.0,0.0,0.0
1759842059.440973,0,-1.2050000429153442,-0.8299997448921204,-0.7177026352346587,0.0,True,0.010873079299926758,-1.2050000429153442,-0.8299997448921204,-0.7177034020423889,0.0,0.0,0.0
1759842059.4515662,0,-1.2050000429153442,-0.8299997448921204,-0.717702666500383,0.0,True,0.010593175888061523,-1.2050000429153442,-0.8299997448921204,-0.7177034020423889,0.0,0.0,0.0
1759842059.4624627,0,-1.2050000429153442,-0.8299997448921204,-0.7177026906521959,0.0,True,0.010896444320678711,-1.2050000429153442,-0.8299997448921204,-0.7177034020423889,0.0,0.0,0.0
1759842059.4732764,0,-1.2050000429153442,-0.8299997448921204,-0.7177027150499402,0.0,True,0.010813713073730469,-1.2050000429153442,-0.8299997448921204,-0.7177034020423889,0.0,0.0,0.0
1759842059.4835129,0,-1.2050000429153442,-0.8299997448921204,-0.7177027466481007,0.0,True,0.010236501693725586,-1.2050000429153442,-0.8299997448921204,-0.7177034020423889,0.0,0.0,0.0
1759842059.494837,0,-1.2050000429153442,-0.8299997448921204,-0.7177027600541397,0.0,True,0.011324167251586914,-1.2050000429153442,-0.8299997448921204,-0.7177034020423889,0.0,0.0,0.0
1759842059.5051064,0,-1.2050000429153442,-0.8299997448921204,-0.7177027886200946,0.0,True,0.010269403457641602,-1.2050000429153442,-0.8299997448921204,-0.7177034020423889,0.0,0.0,0.0
1759842059.5159864,0,-1.2050000429153442,-0.8299997448921204,-0.7177028070447964,0.0,True,0.010879993438720703,-1.2050000429153442,-0.8299997448921204,-0.7177034020423889,0.0,0.0,0.0
1759842059.5275164,0,-1.2050000429153442,-0.8299997448921204,-0.7177028170024968,0.0,True,0.011529922485351562,-1.2050000429153442,-0.8299997448921204,-0.7177034020423889,0.0,0.0,0.0
1759842059.537661,0,-1.2050000429153442,-0.8299997448921204,-0.7177028458593018,0.0,True,0.010144710540771484,-1.2050000429153442,-0.8299997448921204,-0.7177034020423889,0.0,0.0,0.0
1759842059.548727,0,-1.2050000429153442,-0.8299997448921204,-0.717702861331702,0.0,True,0.011065959930419922,-1.2050000429153442,-0.8299997448921204,-0.7177034020423889,0.0,0.0,0.0
1759842059.559454,0,-1.2050000429153442,-0.8299997448921204,-0.7177028803684316,0.0,True,0.0107269287109375,-1.2050000429153442,-0.8299997448921204,-0.7177034020423889,0.0,0.0,0.0
1759842059.5709229,0,-1.2050000429153442,-0.8299997448921204,-0.7177028907981668,0.0,True,0.011468887329101562,-1.2050000429153442,-0.8299997448921204,-0.7177034020423889,0.0,0.0,0.0
1759842059.581385,0,-1.2050000429153442,-0.8299997448921204,-0.7177029131810819,0.0,True,0.010462045669555664,-1.2050000429153442,-0.8299997448921204,-0.7177034020423889,0.0,0.0,0.0
1759842059.5926225,0,-1.2050000429153442,-0.8299997448921204,-0.717702926167215,0.0,True,0.011237621307373047,-1.2050000429153442,-0.8299997448921204,-0.7177034020423889,0.0,0.0,0.0
1759842059.606182,0,-1.2050000429153442,-0.8299997448921204,-0.7177029173186931,0.0,True,0.013559579849243164,-1.2050000429153442,-0.8299997448921204,-0.7177034020423889,0.0,0.0,0.0
1759842059.616967,0,-1.2050000429153442,-0.8299997448921204,-0.7177029416475253,0.0,True,0.01078486442565918,-1.2050000429153442,-0.8299997448921204,-0.7177034020423889,0.0,0.0,0.0
1759842059.627725,0,-1.2050000429153442,-0.8299997448921204,-0.7177029650517532,0.0,True,0.010757923126220703,-1.2050000429153442,-0.8299997448921204,-0.7177034020423889,0.0,0.0,0.0
1759842059.6385376,0,-1.2050000429153442,-0.8299997448921204,-0.7177029849480796,0.0,True,0.010812759399414062,-1.2050000429153442,-0.8299997448921204,-0.7177034020423889,0.0,0.0,0.0
1759842059.6487708,0,-1.2050000429153442,-0.8299997448921204,-0.717703007350357,0.0,True,0.010233163833618164,-1.2050000429153442,-0.8299997448921204,-0.7177034020423889,0.0,0.0,0.0
1759842059.6597004,0,-1.2050000429153442,-0.8299997448921204,-0.717703020996062,0.0,True,0.010929584503173828,-1.2050000429153442,-0.8299997448921204,-0.7177034020423889,0.0,0.0,0.0
1759842059.6699624,0,-1.2050000429153442,-0.8299997448921204,-0.7177030388166763,0.0,True,0.010262012481689453,-1.2050000429153442,-0.8299997448921204,-0.7177034020423889,0.0,0.0,0.0
1759842059.6809468,0,-1.2050000429153442,-0.8299997448921204,-0.7177030492530605,0.0,True,0.010984420776367188,-1.2050000429153442,-0.8299997448921204,-0.7177034020423889,0.0,0.0,0.0
1759842059.6915903,0,-1.2050000429153442,-0.8299997448921204,-0.7177030619599982,0.0,True,0.010643482208251953,-1.2050000429153442,-0.8299997448921204,-0.7177034020423889,0.0,0.0,0.0
1759842059.7023795,0,-1.2050000429153442,-0.8299997448921204,-0.7177030730585461,0.0,True,0.010789155960083008,-1.2050000429153442,-0.8299997448921204,-0.7177034020423889,0.0,0.0,0.0
1759842059.7168148,0,-1.2050000429153442,-0.8299997448921204,-0.7177030593422629,0.0,True,0.014435291290283203,-1.2050000429153442,-0.8299997448921204,-0.7177034020423889,0.0,0.0,0.0
1759842059.7272046,0,-1.2050000429153442,-0.8299997448921204,-0.7177030792421348,0.0,True,0.01038980484008789,-1.2050000429153442,-0.8299997448921204,-0.7177034020423889,0.0,0.0,0.0
1759842059.737927,0,-1.2050000429153442,-0.8299997448921204,-0.7177030958217792,0.0,True,0.01072239875793457,-1.2050000429153442,-0.8299997448921204,-0.7177034020423889,0.0,0.0,0.0
1759842059.7481298,0,-1.2050000429153442,-0.8299997448921204,-0.7177031131758937,0.0,True,0.010202884674072266,-1.2050000429153442,-0.8299997448921204,-0.7177034020423889,0.0,0.0,0.0
1759842059.7586296,0,-1.2050000429153442,-0.8299997448921204,-0.7177031261112443,0.0,True,0.010499715805053711,-1.2050000429153442,-0.8299997448921204,-0.7177034020423889,0.0,0.0,0.0
1759842059.7699997,0,-1.2050000429153442,-0.8299997448921204,-0.7177031324662799,0.0,True,0.011370182037353516,-1.2050000429153442,-0.8299997448921204,-0.7177034020423889,0.0,0.0,0.0
1759842059.7815359,0,-1.2050000429153442,-0.8299997448921204,-0.7177031383340626,0.0,True,0.011536121368408203,-1.2050000429153442,-0.8299997448921204,-0.7177034020423889,0.0,0.0,0.0
1759842059.7925146,0,-1.2050000429153442,-0.8299997448921204,-0.7177031480244729,0.0,True,0.01097869873046875,-1.2050000429153442,-0.8299997448921204,-0.7177034020423889,0.0,0.0,0.0
1759842059.8033445,0,-1.2050000429153442,-0.8299997448921204,-0.7177031581907798,0.0,True,0.010829925537109375,-1.2050000429153442,-0.8299997448921204,-0.7177034020423889,0.0,0.0,0.0
1759842059.814161,0,-1.2050000429153442,-0.8299997448921204,-0.7177031676710701,0.0,True,0.010816574096679688,-1.2050000429153442,-0.8299997448921204,-0.7177034020423889,0.0,0.0,0.0
1759842059.8244848,0,-1.2050000429153442,-0.8299997448921204,-0.7177031787780415,0.0,True,0.010323762893676758,-1.2050000429153442,-0.8299997448921204,-0.7177034020423889,0.0,0.0,0.0
1759842059.835842,0,-1.2050000429153442,-0.8299997448921204,-0.7177031838623389,0.0,True,0.01135706901550293,-1.2050000429153442,-0.8299997448921204,-0.7177034020423889,0.0,0.0,0.0
1759842059.846198,0,-1.2050000429153442,-0.8299997448921204,-0.7177031936706175,0.0,True,0.01035618782043457,-1.2050000429153442,-0.8299997448921204,-0.7177034020423889,0.0,0.0,0.0
1759842059.8564334,0,-1.2050000429153442,-0.8299997448921204,-0.7177032031487016,0.0,True,0.010235309600830078,-1.2050000429153442,-0.8299997448921204,-0.7177034020423889,0.0,0.0,0.0
1759842059.8667512,0,-1.2050000429153442,-0.8299997448921204,-0.7177032111379162,0.0,True,0.010317802429199219,-1.2050000429153442,-0.8299997448921204,-0.7177034020423889,0.0,0.0,0.0
1759842059.8770952,0,-1.2050000429153442,-0.8299997448921204,-0.7177032182032193,0.0,True,0.01034402847290039,-1.2050000429153442,-0.8299997448921204,-0.7177034020423889,0.0,0.0,0.0
1759842059.8884795,0,-1.2050000429153442,-0.8299997448921204,-0.7177032206550287,0.0,True,0.011384248733520508,-1.2050000429153442,-0.8299997448921204,-0.7177034020423889,0.0,0.0,0.0
1759842059.8989947,0,-1.2050000429153442,-0.8299997448921204,-0.71770322718206,0.0,True,0.010515213012695312,-1.2050000429153442,-0.8299997448921204,-0.7177034020423889,0.0,0.0,0.0
1759842059.9103901,0,-1.2050000429153442,-0.8299997448921204,-0.7177032303586586,0.0,True,0.011395454406738281,-1.2050000429153442,-0.8299997448921204,-0.7177034020423889,0.0,0.0,0.0
1759842059.9205885,0,-1.2050000429153442,-0.8299997448921204,-0.7177032383101896,0.0,True,0.010198354721069336,-1.2050000429153442,-0.8299997448921204,-0.7177034020423889,0.0,0.0,0.0
1759842059.93192,0,-1.2050000429153442,-0.8299997448921204,-0.7177032417175706,0.0,True,0.011331558227539062,-1.2050000429153442,-0.8299997448921204,-0.7177034020423889,0.0,0.0,0.0
1759842059.9433005,0,-1.2050000429153442,-0.8299997448921204,-0.7177032452901706,0.0,True,0.011380434036254883,-1.2050000429153442,-0.8299997448921204,-0.7177034020423889,0.0,0.0,0.0
1759842059.9541285,0,-1.2050000429153442,-0.8299997448921204,-0.7177032511192802,0.0,True,0.010828018188476562,-1.2050000429153442,-0.8299997448921204,-0.7177034020423889,0.0,0.0,0.0
1759842059.9655168,0,-1.2050000429153442,-0.8299997448921204,-0.7177032550422133,0.0,True,0.011388301849365234,-1.2050000429153442,-0.8299997448921204,-0.7177034020423889,0.0,0.0,0.0
1759842059.9762335,0,-1.2050000429153442,-0.8299997448921204,-0.7177032611312324,0.0,True,0.010716676712036133,-1.2050000429153442,-0.8299997448921204,-0.7177034020423889,0.0,0.0,0.0
1759842059.9872906,0,-1.2050000429153442,-0.8299997448921204,-0.7177032658536859,0.0,True,0.011057138442993164,-1.2050000429153442,-0.8299997448921204,-0.7177034020423889,0.0,0.0,0.0
1759842059.998158,0,-1.2050000429153442,-0.8299997448921204,-0.7177032709156173,0.0,True,0.01086735725402832,-1.2050000429153442,-0.8299997448921204,-0.7177034020423889,0.0,0.0,0.0
1759842060.0095787,0,-1.2050000429153442,-0.8299997448921204,-0.7177032742540348,0.0,True,0.011420726776123047,-1.2050000429153442,-0.8299997448921204,-0.7177034020423889,0.0,0.0,0.0
1759842060.01985,0,-1.2050000429153442,-0.8299997448921204,-0.7177032807114934,0.0,True,0.010271310806274414,-1.2050000429153442,-0.8299997448921204,-0.7177034020423889,0.0,0.0,0.0
1759842060.0302444,0,-1.2050000429153442,-0.8299997448921204,-0.7177032861601198,0.0,True,0.01039433479309082,-1.2050000429153442,-0.8299997448921204,-0.7177034020423889,0.0,0.0,0.0
1759842060.0417104,0,-1.2050000429153442,-0.8299997448921204,-0.7177032883838734,0.0,True,0.011466026306152344,-1.2050000429153442,-0.8299997448921204,-0.7177034020423889,0.0,0.0,0.0
1759842060.0530007,0,-1.2050000429153442,-0.8299997448921204,-0.7177032913164858,0.0,True,0.011290311813354492,-1.2050000429153442,-0.8299997448921204,-0.7177034020423889,0.0,0.0,0.0
1759842060.0637336,0,-1.2050000429153442,-0.8299997448921204,-0.7177032957464604,0.0,True,0.010732889175415039,-1.2050000429153442,-0.8299997448921204,-0.7177034020423889,0.0,0.0,0.0
1759842060.0738494,0,-1.2050000429153442,-0.8299997448921204,-0.7177033012400464,0.0,True,0.010115861892700195,-1.2050000429153442,-0.8299997448921204,-0.7177034020423889,0.0,0.0,0.0
1759842060.0851521,0,-1.2050000429153442,-0.8299997448921204,-0.7177033035377267,0.0,True,0.011302709579467773,-1.2050000429153442,-0.8299997448921204,-0.7177034020423889,0.0,0.0,0.0
1759842060.0960872,0,-1.2050000429153442,-0.8299997448921204,-0.7177033066802352,0.0,True,0.010935068130493164,-1.2050000429153442,-0.8299997448921204,-0.7177034020423889,0.0,0.0,0.0
1759842060.1068048,0,-1.2050000429153442,-0.8299997448921204,-0.7177033102539241,0.0,True,0.010717630386352539,-1.2050000429153442,-0.8299997448921204,-0.7177034020423889,0.0,0.0,0.0
1759842060.119619,0,-1.2050000429153442,-0.8299997448921204,-0.7177033097250014,0.0,True,0.012814044952392578,-1.2050000429153442,-0.8299997448921204,-0.7177034020423889,0.0,0.0,0.0
1759842060.1309328,0,-1.2050000429153442,-0.8299997448921204,-0.7177033129168766,0.0,True,0.011313915252685547,-1.2050000429153442,-0.8299997448921204,-0.7177034020423889,0.0,0.0,0.0
1759842060.141968,0,-1.2050000429153442,-0.8299997448921204,-0.7177033167312903,0.0,True,0.01103520393371582,-1.2050000429153442,-0.8299997448921204,-0.7177034020423889,0.0,0.0,0.0
1759842060.1521845,0,-1.2050000429153442,-0.8299997448921204,-0.7177033216186253,0.0,True,0.010216474533081055,-1.2050000429153442,-0.8299997448921204,-0.7177034020423889,0.0,0.0,0.0
1759842060.16361,0,-1.2050000429153442,-0.8299997448921204,-0.7177033238426169,0.0,True,0.011425495147705078,-1.2050000429153442,-0.8299997448921204,-0.7177034020423889,0.0,0.0,0.0
1759842060.174486,0,-1.2050000429153442,-0.8299997448921204,-0.7177033268903728,0.0,True,0.010875940322875977,-1.2050000429153442,-0.8299997448921204,-0.7177034020423889,0.0,0.0,0.0
1759842060.1853485,0,-1.2050000429153442,-0.8299997448921204,-0.7177033297958424,0.0,True,0.010862588882446289,-1.2050000429153442,-0.8299997448921204,-0.7177034020423889,0.0,0.0,0.0
1759842060.1961308,0,-1.2050000429153442,-0.8299997448921204,-0.7177033326148532,0.0,True,0.010782241821289062,-1.2050000429153442,-0.8299997448921204,-0.7177034020423889,0.0,0.0,0.0
1759842060.206349,0,-1.2050000429153442,-0.8299997448921204,-0.717703336019003,0.0,True,0.010218143463134766,-1.2050000429153442,-0.8299997448921204,-0.7177034020423889,0.0,0.0,0.0
1759842060.217695,0,-1.2050000429153442,-0.8299997448921204,-0.7177033374697626,0.0,True,0.011346101760864258,-1.2050000429153442,-0.8299997448921204,-0.7177034020423889,0.0,0.0,0.0
1759842060.2281394,0,-1.2050000429153442,-0.8299997448921204,-0.7177033401993782,0.0,True,0.010444402694702148,-1.2050000429153442,-0.8299997448921204,-0.7177034020423889,0.0,0.0,0.0
1759842060.2390685,0,-1.2050000429153442,-0.8299997448921204,-0.7177033421157812,0.0,True,0.010929107666015625,-1.2050000429153442,-0.8299997448921204,-0.7177034020423889,0.0,0.0,0.0
1759842060.2498431,0,-1.2050000429153442,-0.8299997448921204,-0.7177033441666509,0.0,True,0.010774612426757812,-1.2050000429153442,-0.8299997448921204,-0.7177034020423889,0.0,0.0,0.0
1759842060.26064,0,-1.2050000429153442,-0.8299997448921204,-0.7177033461198832,0.0,True,0.010796785354614258,-1.2050000429153442,-0.8299997448921204,-0.7177034020423889,0.0,0.0,0.0
1759842060.2718701,0,-1.2050000429153442,-0.8299997448921204,-0.7177033475054522,0.0,True,0.011230230331420898,-1.2050000429153442,-0.8299997448921204,-0.7177034020423889,0.0,0.0,0.0
1759842060.283115,0,-1.2050000429153442,-0.8299997448921204,-0.717703348964335,0.0,True,0.011244773864746094,-1.2050000429153442,-0.8299997448921204,-0.7177034020423889,0.0,0.0,0.0
1759842060.2934566,0,-1.2050000429153442,-0.8299997448921204,-0.7177033514763753,0.0,True,0.010341644287109375,-1.2050000429153442,-0.8299997448921204,-0.7177034020423889,0.0,0.0,0.0
1759842060.304951,0,-1.2050000429153442,-0.8299997448921204,-0.7177033525492131,0.0,True,0.01149439811706543,-1.2050000429153442,-0.8299997448921204,-0.7177034020423889,0.0,0.0,0.0
1759842060.3160205,0,-1.2050000429153442,-0.8299997448921204,-0.7177033541450442,0.0,True,0.011069536209106445,-1.2050000429153442,-0.8299997448921204,-0.7177034020423889,0.0,0.0,0.0
1759842060.3270082,0,-1.2050000429153442,-0.8299997448921204,-0.7177033558326755,0.0,True,0.01098775863647461,-1.2050000429153442,-0.8299997448921204,-0.7177034020423889,0.0,0.0,0.0
1759842060.3383276,0,-1.2050000429153442,-0.8299997448921204,-0.7177033571540221,0.0,True,0.011319398880004883,-1.2050000429153442,-0.8299997448921204,-0.7177034020423889,0.0,0.0,0.0
1759842060.3486893,0,-1.2050000429153442,-0.8299997448921204,-0.7177033593608293,0.0,True,0.010361671447753906,-1.2050000429153442,-0.8299997448921204,-0.7177034020423889,0.0,0.0,0.0
1759842060.3601348,0,-1.2050000429153442,-0.8299997448921204,-0.7177033603942213,0.0,True,0.01144552230834961,-1.2050000429153442,-0.8299997448921204,-0.7177034020423889,0.0,0.0,0.0
1759842060.3715594,0,-1.2050000429153442,-0.8299997448921204,-0.7177033614906598,0.0,True,0.011424541473388672,-1.2050000429153442,-0.8299997448921204,-0.7177034020423889,0.0,0.0,0.0
1759842060.3828545,0,-1.2050000429153442,-0.8299997448921204,-0.7177033627756284,0.0,True,0.011295080184936523,-1.2050000429153442,-0.8299997448921204,-0.7177034020423889,0.0,0.0,0.0
1759842060.3937857,0,-1.2050000429153442,-0.8299997448921204,-0.717703364357039,0.0,True,0.010931253433227539,-1.2050000429153442,-0.8299997448921204,-0.7177034020423889,0.0,0.0,0.0
1759842060.4050107,0,-1.2050000429153442,-0.8299997448921204,-0.7177033656182097,0.0,True,0.011224985122680664,-1.2050000429153442,-0.8299997448921204,-0.7177034020423889,0.0,0.0,0.0
1759842060.4159107,0,-1.2050000429153442,-0.8299997448921204,-0.7177033670747779,0.0,True,0.010900020599365234,-1.2050000429153442,-0.8299997448921204,-0.7177034020423889,0.0,0.0,0.0
1759842060.4372478,0,-1.2050000429153442,-0.8299997448921204,-0.7177033613905657,0.0,True,0.021337032318115234,-1.2050000429153442,-0.8299997448921204,-0.7177034020423889,0.0,0,0
1759842060.4482625,0,-1.2050000429153442,-0.8299997448921204,-0.7177033646609292,0.0,True,0.011014699935913086,-1.2050000429153442,-0.8299997448921204,-0.7177034020423889,0.0,0,0
1759842060.4586754,0,-1.2050000429153442,-0.8299997448921204,-0.7177033681362488,0.0,True,0.010412931442260742,-1.2050000429153442,-0.8299997448921204,-0.7177034020423889,0.0,0,0
1759842060.4699488,0,-1.2050000429153442,-0.8299997448921204,-0.7177033703452942,0.0,True,0.011273384094238281,-1.2050000429153442,-0.8299997448921204,-0.7177034020423889,0.0,0,0
1759842060.4806285,0,-1.2050000429153442,-0.8299997448921204,-0.7177033724603206,0.0,True,0.01067972183227539,-1.2050000429153442,-0.8299997448921204,-0.7177034020423889,0.0,0,0
1759842060.4918818,0,-1.2050000429153442,-0.8299997448921204,-0.7177033738795533,0.0,True,0.01125335693359375,-1.2050000429153442,-0.8299997448921204,-0.7177034020423889,0.0,0,0
1759842060.5020726,0,-1.2050000429153442,-0.8299997448921204,-0.7177033756721762,0.0,True,0.010190725326538086,-1.2050000429153442,-0.8299997448921204,-0.7177034020423889,0.0,0,0
1759842060.5123048,0,-1.2050000429153442,-0.8299997448921204,-0.7177033771478634,0.0,True,0.010232210159301758,-1.2050000429153442,-0.8299997448921204,-0.7177034020423889,0.0,0,0
1759842060.528119,0,-1.2050000429153442,-0.8299997448921204,-0.7177033755946809,0.0,True,0.01581430435180664,-1.2050000429153442,-0.8299997448921204,-0.7177034020423889,0.0,0,0
1759842060.5392401,0,-1.2050000429153442,-0.8299997448921204,-0.7177033769873056,0.0,True,0.011121034622192383,-1.2050000429153442,-0.8299997448921204,-0.7177034020423889,0.0,0,0
1759842060.550398,0,-1.2050000429153442,-0.8299997448921204,-0.7177033783460391,0.0,True,0.011157989501953125,-1.2050000429153442,-0.8299997448921204,-0.7177034020423889,0.0,0,0
1759842060.5607982,0,-1.2050000429153442,-0.8299997448921204,-0.7177033798542922,0.0,True,0.010400056838989258,-1.2050000429153442,-0.8299997448921204,-0.7177034020423889,0.0,0,0
1759842060.571554,0,-1.2050000429153442,-0.8299997448921204,-0.7177033809559141,0.0,True,0.010755777359008789,-1.2050000429153442,-0.8299997448921204,-0.7177034020423889,0.0,0,0
1759842060.58179,0,-1.2050000429153442,-0.8299997448921204,-0.7177033821099883,0.0,True,0.010236024856567383,-1.2050000429153442,-0.8299997448921204,-0.7177034020423889,0.0,0,0
1759842060.5919557,0,-1.2050000429153442,-0.8299997448921204,-0.7177033831176125,0.0,True,0.010165691375732422,-1.2050000429153442,-0.8299997448921204,-0.7177034020423889,0.0,0,0
1759842060.6022677,0,-1.2050000429153442,-0.8299997448921204,-0.7177033839156941,0.0,True,0.010312080383300781,-1.2050000429153442,-0.8299997448921204,-0.7177034020423889,0.0,0,0
1759842060.6135545,0,-1.2050000429153442,-0.8299997448921204,-0.7177033842466631,0.0,True,0.011286735534667969,-1.2050000429153442,-0.8299997448921204,-0.7177034020423889,0.0,0,0
1759842060.6238403,0,-1.2050000429153442,-0.8299997448921204,-0.7177033849897079,0.0,True,0.01028585433959961,-1.2050000429153442,-0.8299997448921204,-0.7177034020423889,0.0,0,0
1759842060.6352038,0,-1.2050000429153442,-0.8299997448921204,-0.7177033852956747,0.0,True,0.011363506317138672,-1.2050000429153442,-0.8299997448921204,-0.7177034020423889,0.0,0,0
1759842060.646007,0,-1.2050000429153442,-0.8299997448921204,-0.7177033858405117,0.0,True,0.01080322265625,-1.2050000429153442,-0.8299997448921204,-0.7177034020423889,0.0,0,0
1759842060.6574244,0,-1.2050000429153442,-0.8299997448921204,-0.7177033861801778,0.0,True,0.011417388916015625,-1.2050000429153442,-0.8299997448921204,-0.7177034020423889,0.0,0,0
1759842060.6682613,0,-1.2050000429153442,-0.8299997448921204,-0.7177033867488412,0.0,True,0.01083683967590332,-1.2050000429153442,-0.8299997448921204,-0.7177034020423889,0.0,0,0
1759842060.6784751,0,-1.2050000429153442,-0.8299997448921204,-0.7177033874937226,0.0,True,0.010213851928710938,-1.2050000429153442,-0.8299997448921204,-0.7177034020423889,0.0,0,0
1759842060.688765,0,-1.2050000429153442,-0.8299997448921204,-0.7177033881262567,0.0,True,0.010289907455444336,-1.2050000429153442,-0.8299997448921204,-0.7177034020423889,0.0,0,0
1759842060.7001317,0,-1.2050000429153442,-0.8299997448921204,-0.7177033883692392,0.0,True,0.011366605758666992,-1.2050000429153442,-0.8299997448921204,-0.7177034020423889,0.0,0,0
1759842060.7116525,0,-1.2050000429153442,-0.8299997448921204,-0.7177033886089639,0.0,True,0.011520862579345703,-1.2050000429153442,-0.8299997448921204,-0.7177034020423889,0.0,0,0
1759842060.7254605,0,-1.2050000429153442,-0.8299997448921204,-0.7177033883010857,0.0,True,0.013808012008666992,-1.2050000429153442,-0.8299997448921204,-0.7177034020423889,0.0,0,0
1759842060.7362022,0,-1.2050000429153442,-0.8299997448921204,-0.717703389025564,0.0,True,0.010741710662841797,-1.2050000429153442,-0.8299997448921204,-0.7177034020423889,0.0,0,0
1759842060.7475047,0,-1.2050000429153442,-0.8299997448921204,-0.7177033895702767,0.0,True,0.011302471160888672,-1.2050000429153442,-0.8299997448921204,-0.7177034020423889,0.0,0,0
1759842060.757947,0,-1.2050000429153442,-0.8299997448921204,-0.7177033902699499,0.0,True,0.010442256927490234,-1.2050000429153442,-0.8299997448921204,-0.7177034020423889,0.0,0,0
1759842060.768228,0,-1.2050000429153442,-0.8299997448921204,-0.7177033909091399,0.0,True,0.010281085968017578,-1.2050000429153442,-0.8299997448921204,-0.7177034020423889,0.0,0,0
1759842060.7784734,0,-1.2050000429153442,-0.8299997448921204,-0.7177033914569826,0.0,True,0.010245323181152344,-1.2050000429153442,-0.8299997448921204,-0.7177034020423889,0.0,0,0
1759842060.788688,0,-1.2050000429153442,-0.8299997448921204,-0.7177033919327034,0.0,True,0.010214567184448242,-1.2050000429153442,-0.8299997448921204,-0.7177034020423889,0.0,0,0
1759842060.7987258,0,-1.2050000429153442,-0.8299997448921204,-0.717703392385399,0.0,True,0.010037899017333984,-1.2050000429153442,-0.8299997448921204,-0.7177034020423889,0.0,0,0
1759842060.8095162,0,-1.2050000429153442,-0.8299997448921204,-0.7177033926265892,0.0,True,0.010790348052978516,-1.2050000429153442,-0.8299997448921204,-0.7177034020423889,0.0,0,0
1759842060.8209486,0,-1.2050000429153442,-0.8299997448921204,-0.7177033927421448,0.0,True,0.011432409286499023,-1.2050000429153442,-0.8299997448921204,-0.7177034020423889,0.0,0,0
1759842060.8318398,0,-1.2050000429153442,-0.8299997448921204,-0.7177033930123642,0.0,True,0.010891199111938477,-1.2050000429153442,-0.8299997448921204,-0.7177034020423889,0.0,0,0
1759842060.843313,0,-1.2050000429153442,-0.8299997448921204,-0.7177033931873691,0.0,True,0.01147317886352539,-1.2050000429153442,-0.8299997448921204,-0.7177034020423889,0.0,0,0
1759842060.854171,0,-1.2050000429153442,-0.8299997448921204,-0.7177033935036352,0.0,True,0.01085805892944336,-1.2050000429153442,-0.8299997448921204,-0.7177034020423889,0.0,0,0
1759842060.8649168,0,-1.2050000429153442,-0.8299997448921204,-0.717703393832231,0.0,True,0.010745763778686523,-1.2050000429153442,-0.8299997448921204,-0.7177034020423889,0.0,0,0
1759842060.8752248,0,-1.2050000429153442,-0.8299997448921204,-0.7177033942116164,0.0,True,0.010308027267456055,-1.2050000429153442,-0.8299997448921204,-0.7177034020423889,0.0,0,0
1759842060.8866115,0,-1.2050000429153442,-0.8299997448921204,-0.7177033943741549,0.0,True,0.011386632919311523,-1.2050000429153442,-0.8299997448921204,-0.7177034020423889,0.0,0,0
1759842060.896787,0,-1.2050000429153442,-0.8299997448921204,-0.7177033947408766,0.0,True,0.010175466537475586,-1.2050000429153442,-0.8299997448921204,-0.7177034020423889,0.0,0,0
1759842060.9082956,0,-1.2050000429153442,-0.8299997448921204,-0.717703394870636,0.0,True,0.011508703231811523,-1.2050000429153442,-0.8299997448921204,-0.7177034020423889,0.0,0,0
1759842060.9184482,0,-1.2050000429153442,-0.8299997448921204,-0.7177033952181127,0.0,True,0.010152578353881836,-1.2050000429153442,-0.8299997448921204,-0.7177034020423889,0.0,0,0
1759842060.93377,0,-1.2050000429153442,-0.8299997448921204,-0.7177033948112967,0.0,True,0.015321731567382812,-1.2050000429153442,-0.8299997448921204,-0.7177034020423889,0.0,0,0
1759842060.944264,0,-1.2050000429153442,-0.8299997448921204,-0.7177033952400524,0.0,True,0.010493993759155273,-1.2050000429153442,-0.8299997448921204,-0.7177034020423889,0.0,0,0
1759842060.9557157,0,-1.2050000429153442,-0.8299997448921204,-0.7177033955241754,0.0,True,0.01145172119140625,-1.2050000429153442,-0.8299997448921204,-0.7177034020423889,0.0,0,0
1759842060.9672012,0,-1.2050000429153442,-0.8299997448921204,-0.7177033957764785,0.0,True,0.011485576629638672,-1.2050000429153442,-0.8299997448921204,-0.7177034020423889,0.0,0,0
1759842060.978562,0,-1.2050000429153442,-0.8299997448921204,-0.7177033960295454,0.0,True,0.011360883712768555,-1.2050000429153442,-0.8299997448921204,-0.7177034020423889,0.0,0,0
1759842060.9893153,0,-1.2050000429153442,-0.8299997448921204,-0.7177033963362849,0.0,True,0.010753154754638672,-1.2050000429153442,-0.8299997448921204,-0.7177034020423889,0.0,0,0
1759842061.0007665,0,-1.2050000429153442,-0.8299997448921204,-0.7177033965287478,0.0,True,0.011451244354248047,-1.2050000429153442,-0.8299997448921204,-0.7177034020423889,0.0,0,0
1759842061.012074,0,-1.2050000429153442,-0.8299997448921204,-0.7177033967277726,0.0,True,0.011307477951049805,-1.2050000429153442,-0.8299997448921204,-0.7177034020423889,0.0,0,0
1759842061.0227768,0,-1.2050000429153442,-0.8299997448921204,-0.7177033969822517,0.0,True,0.010702848434448242,-1.2050000429153442,-0.8299997448921204,-0.7177034020423889,0.0,0,0
1759842061.0333881,0,-1.2050000429153442,-0.8299997448921204,-0.7177033972186955,0.0,True,0.010611295700073242,-1.2050000429153442,-0.8299997448921204,-0.7177034020423889,0.0,0,0
1759842061.0442824,0,-1.2050000429153442,-0.8299997448921204,-0.7177033973991449,0.0,True,0.010894298553466797,-1.2050000429153442,-0.8299997448921204,-0.7177034020423889,0.0,0,0
1759842061.0551333,0,-1.2050000429153442,-0.8299997448921204,-0.7177033975696219,0.0,True,0.010850906372070312,-1.2050000429153442,-0.8299997448921204,-0.7177034020423889,0.0,0,0
1759842061.066723,0,-1.2050000429153442,-0.8299997448921204,-0.7177033976632003,0.0,True,0.011589765548706055,-1.2050000429153442,-0.8299997448921204,-0.7177034020423889,0.0,0,0
1759842061.0771413,0,-1.2050000429153442,-0.8299997448921204,-0.7177033978710199,0.0,True,0.010418176651000977,-1.2050000429153442,-0.8299997448921204,-0.7177034020423889,0.0,0,0
1759842061.0877228,0,-1.2050000429153442,-0.8299997448921204,-0.7177033980458098,0.0,True,0.010581493377685547,-1.2050000429153442,-0.8299997448921204,-0.7177034020423889,0.0,0,0
1759842061.0989497,0,-1.2050000429153442,-0.8299997448921204,-0.7177033981494461,0.0,True,0.011226892471313477,-1.2050000429153442,-0.8299997448921204,-0.7177034020423889,0.0,0,0
1759842061.109221,0,-1.2050000429153442,-0.8299997448921204,-0.7177033983312029,0.0,True,0.010271310806274414,-1.2050000429153442,-0.8299997448921204,-0.7177034020423889,0.0,0,0
1759842061.1200063,0,-1.2050000429153442,-0.8299997448921204,-0.7177033984555816,0.0,True,0.010785341262817383,-1.2050000429153442,-0.8299997448921204,-0.7177034020423889,0.0,0,0
1759842061.132339,0,-1.2050000429153442,-0.8299997448921204,-0.717703398458589,0.0,True,0.012332677841186523,-1.2050000429153442,-0.8299997448921204,-0.7177034020423889,0.0,0,0
1759842061.1423423,0,-1.2050000429153442,-0.8299997448921204,-0.7177033986590509,0.0,True,0.010003328323364258,-1.2050000429153442,-0.8299997448921204,-0.7177034020423889,0.0,0,0
1759842061.1526043,0,-1.2050000429153442,-0.8299997448921204,-0.7177033988209836,0.0,True,0.010262012481689453,-1.2050000429153442,-0.8299997448921204,-0.7177034020423889,0.0,0,0
1759842061.1633222,0,-1.2050000429153442,-0.8299997448921204,-0.7177033989295349,0.0,True,0.01071786880493164,-1.2050000429153442,-0.8299997448921204,-0.7177034020423889,0.0,0,0
1759842061.1735864,0,-1.2050000429153442,-0.8299997448921204,-0.7177033990602517,0.0,True,0.010264158248901367,-1.2050000429153442,-0.8299997448921204,-0.7177034020423889,0.0,0,0
1759842061.18378,0,-1.2050000429153442,-0.8299997448921204,-0.717703399183204,0.0,True,0.010193586349487305,-1.2050000429153442,-0.8299997448921204,-0.7177034020423889,0.0,0,0
1759842061.194975,0,-1.2050000429153442,-0.8299997448921204,-0.7177033992325761,0.0,True,0.011194944381713867,-1.2050000429153442,-0.8299997448921204,-0.7177034020423889,0.0,0,0
1759842061.2052412,0,-1.2050000429153442,-0.8299997448921204,-0.7177033993446251,0.0,True,0.010266304016113281,-1.2050000429153442,-0.8299997448921204,-0.7177034020423889,0.0,0,0
1759842061.2167044,0,-1.2050000429153442,-0.8299997448921204,-0.7177033993822004,0.0,True,0.011463165283203125,-1.2050000429153442,-0.8299997448921204,-0.7177034020423889,0.0,0,0
1759842061.2273858,0,-1.2050000429153442,-0.8299997448921204,-0.7177033994738551,0.0,True,0.010681390762329102,-1.2050000429153442,-0.8299997448921204,-0.7177034020423889,0.0,0,0
1759842061.2383316,0,-1.2050000429153442,-0.8299997448921204,-0.7177033995506967,0.0,True,0.010945796966552734,-1.2050000429153442,-0.8299997448921204,-0.7177034020423889,0.0,0,0
1759842061.2489715,0,-1.2050000429153442,-0.8299997448921204,-0.7177033996429198,0.0,True,0.01063990592956543,-1.2050000429153442,-0.8299997448921204,-0.7177034020423889,0.0,0,0
1759842061.2600691,0,-1.2050000429153442,-0.8299997448921204,-0.7177033997077071,0.0,True,0.01109766960144043,-1.2050000429153442,-0.8299997448921204,-0.7177034020423889,0.0,0,0
1759842061.270412,0,-1.2050000429153442,-0.8299997448921204,-0.7177033998100804,0.0,True,0.010342836380004883,-1.2050000429153442,-0.8299997448921204,-0.7177034020423889,0.0,0,0
1759842061.2817898,0,-1.2050000429153442,-0.8299997448921204,-0.7177033998558269,0.0,True,0.011377811431884766,-1.2050000429153442,-0.8299997448921204,-0.7177034020423889,0.0,0,0
1759842061.2931619,0,-1.2050000429153442,-0.8299997448921204,-0.717703399906922,0.0,True,0.011372089385986328,-1.2050000429153442,-0.8299997448921204,-0.7177034020423889,0.0,0,0
1759842061.3032012,0,-1.2050000429153442,-0.8299997448921204,-0.7177034000215734,0.0,True,0.010039329528808594,-1.2050000429153442,-0.8299997448921204,-0.7177034020423889,0.0,0,0
1759842061.3134809,0,-1.2050000429153442,-0.8299997448921204,-0.7177034001125229,0.0,True,0.010279655456542969,-1.2050000429153442,-0.8299997448921204,-0.7177034020423889,0.0,0,0
1759842061.324904,0,-1.2050000429153442,-0.8299997448921204,-0.7177034001456999,0.0,True,0.011423110961914062,-1.2050000429153442,-0.8299997448921204,-0.7177034020423889,0.0,0,0
1759842061.3381677,0,-1.2050000429153442,-0.8299997448921204,-0.71770340011415,0.0,True,0.013263702392578125,-1.2050000429153442,-0.8299997448921204,-0.7177034020423889,0.0,0,0
1759842061.349309,0,-1.2050000429153442,-0.8299997448921204,-0.7177034001913594,0.0,True,0.011141300201416016,-1.2050000429153442,-0.8299997448921204,-0.7177034020423889,0.0,0,0
1759842061.3600194,0,-1.2050000429153442,-0.8299997448921204,-0.7177034002849645,0.0,True,0.010710477828979492,-1.2050000429153442,-0.8299997448921204,-0.7177034020423889,0.0,0,0
1759842061.3702786,0,-1.2050000429153442,-0.8299997448921204,-0.7177034003831437,0.0,True,0.010259151458740234,-1.2050000429153442,-0.8299997448921204,-0.7177034020423889,0.0,0,0
1759842061.3809266,0,-1.2050000429153442,-0.8299997448921204,-0.7177034004535017,0.0,True,0.010648012161254883,-1.2050000429153442,-0.8299997448921204,-0.7177034020423889,0.0,0,0
1759842061.3922162,0,-1.2050000429153442,-0.8299997448921204,-0.717703400494969,0.0,True,0.011289596557617188,-1.2050000429153442,-0.8299997448921204,-0.7177034020423889,0.0,0,0
1759842061.4035573,0,-1.2050000429153442,-0.8299997448921204,-0.7177034005361165,0.0,True,0.011341094970703125,-1.2050000429153442,-0.8299997448921204,-0.7177034020423889,0.0,0,0
1759842061.414112,0,-1.2050000429153442,-0.8299997448921204,-0.717703400603547,0.0,True,0.010554790496826172,-1.2050000429153442,-0.8299997448921204,-0.7177034020423889,0.0,0,0
1759842061.4253557,0,-1.2050000429153442,-0.8299997448921204,-0.7177034006452203,0.0,True,0.011243581771850586,-1.2050000429153442,-0.8299997448921204,-0.7177034020423889,0.0,0,0
1759842061.4354825,0,-1.2050000429153442,-0.8299997448921204,-0.7177034007180048,0.0,True,0.010126829147338867,-1.2050000429153442,-0.8299997448921204,-0.7177034020423889,0.0,0.5235987755982988,0.029244261792578285
1759842061.4468517,0,-1.2050000429153442,-0.8299997448921204,-0.7177034007482632,0.0,True,0.01136922836303711,-1.2050000429153442,-0.8299997448921204,-0.7177034020423889,0.0,0.5235987755982988,0.029969942867563208
1759842061.4568615,0,-1.2050000429153442,-0.8299997448921204,-0.7177034008155978,0.0,True,0.010009765625,-1.2050000429153442,-0.8299997448921204,-0.7177034020423889,0.0,0.5235987755982988,0.029372868149704225
1759842061.4671783,0,-1.2050000429153442,-0.8299997448921204,-0.7177034008673253,0.0,True,0.010316848754882812,-1.2050000429153442,-0.8299997448921204,-0.7177034020423889,0.0,0.5235987755982988,0.03175282426042071
1759842061.4779274,0,-1.2050000429153442,-0.8299997448921204,-0.7177034009022538,0.0,True,0.010749101638793945,-1.2050000429153442,-0.8299997448921204,-0.7177034020423889,0.0,0.5235987755982988,0.033675619865849125
1759842061.4884932,0,-1.2050000429153442,-0.8299997448921204,-0.717703400940632,0.0,True,0.010565757751464844,-1.2050000429153442,-0.8299997448921204,-0.7177034020423889,0.0,0.5235987755982988,0.030699754210535363
1759842061.4993308,0,-1.2050000429153442,-0.8299997448921204,-0.7177034009713719,0.0,True,0.010837554931640625,-1.2050000429153442,-0.8299997448921204,-0.7177034020423889,0.0,0.5235987755982988,0.029833842607803154
1759842061.509633,0,-1.2050000429153442,-0.8299997448921204,-0.7177034010144006,0.0,True,0.010302305221557617,-1.2050000429153442,-0.8299997448921204,-0.7177034020423889,0.0,0.5235987755982988,0.03376893832158908
1759842061.5209935,0,-1.2050000429153442,-0.8299997448921204,-0.7177034010313967,0.0,True,0.011360406875610352,-1.2050000429153442,-0.8299997448921204,-0.7177034020423889,0.0,0.5235987755982988,0.034629119453235595
1759842061.5398743,0,-1.203773792607787,-0.8310681612167099,-0.7170530454238921,0.012258796531224261,True,0.018880844116210938,-1.203123688697815,-0.8316344022750854,-0.715568482875824,0.012258796531224261,0.5235987755982988,0.033510479176244404
1759842061.5466645,0,-1.2033480409318262,-0.8314390113246146,-0.716622935725816,0.012258796531224261,True,0.0067901611328125,-1.203123688697815,-0.8316344022750854,-0.715568482875824,0.012258796531224261,0.5235987755982988,0.032403468330259526
1759842061.5574675,0,-1.2031712416743636,-0.8315929956092937,-0.7162712012886701,0.012258796531224261,True,0.010802984237670898,-1.203123688697815,-0.8316344022750854,-0.715568482875824,0.012258796531224261,0.5235987755982988,0.031082579422163803
1759842061.5687323,0,-1.2031020680006246,-0.8316532191600243,-0.716018810706716,0.012258796531224261,True,0.011264801025390625,-1.203123688697815,-0.8316344022750854,-0.715568482875824,0.012258796531224261,0.5235987755982988,0.030681140454125712
1759842061.5800695,0,-1.203075381455767,-0.8316764354888543,-0.7158368280678786,0.012258796531224261,True,0.0113372802734375,-1.203123688697815,-0.8316344022750854,-0.715568482875824,0.012258796531224261,0.5235987755982988,0.03272276535804234
1759842061.5904171,0,-1.2030686784018545,-0.8316822549318682,-0.7157122348282812,0.012258796531224261,True,0.010347604751586914,-1.203123688697815,-0.8316344022750854,-0.715568482875824,0.012258796531224261,0.5235987755982988,0.03218352388128471
1759842061.6012182,0,-1.2030645119209098,-0.8316858666425003,-0.7156182770181552,0.012258796531224261,True,0.010801076889038086,-1.203123688697815,-0.8316344022750854,-0.715568482875824,0.012258796531224261,0.5235987755982988,0.029814175764959195
1759842061.611363,0,-1.203065236780113,-0.8316852261706043,-0.7155560093866349,0.012258796531224261,True,0.010144710540771484,-1.203123688697815,-0.8316344022750854,-0.715568482875824,0.012258796531224261,0.5235987755982988,0.029378223989649305
1759842061.6220973,0,-1.2030634281885262,-0.8316867906568786,-0.7155069813893142,0.012258796531224261,True,0.010734319686889648,-1.203123688697815,-0.8316344022750854,-0.715568482875824,0.012258796531224261,0.5235987755982988,0.029917645616903056
1759842061.6328707,0,-1.2030625976171683,-0.8316875065426976,-0.7154731282222286,0.012258796531224261,True,0.010773420333862305,-1.203123688697815,-0.8316344022750854,-0.715568482875824,0.012258796531224261,0.5235987755982988,0.03042135219980965
1759842061.643719,0,-1.2030620147060715,-0.8316880086959698,-0.7154493887554558,0.012258796531224261,True,0.010848283767700195,-1.203123688697815,-0.8316344022750854,-0.715568482875824,0.012258796531224261,0.5235987755982988,0.028757339472773386
1759842061.6551194,0,-1.2030598398253318,-0.831689895736114,-0.7154300635501052,0.012258796531224261,True,0.011400461196899414,-1.203123688697815,-0.8316344022750854,-0.715568482875824,0.012258796531224261,0.5235987755982988,0.029529193383209636
1759842061.6666753,0,-1.2030584590600677,-0.8316910932530647,-0.7154173942850335,0.012258796531224261,True,0.011555910110473633,-1.203123688697815,-0.8316344022750854,-0.715568482875824,0.012258796531224261,0.5235987755982988,0.029578736955789303
1759842061.676956,0,-1.2030624384104083,-0.8316876329778689,-0.7154176588075849,0.012258796531224261,True,0.010280609130859375,-1.203123688697815,-0.8316344022750854,-0.715568482875824,0.012258796531224261,0.5235987755982988,0.02772661282716999
1759842061.6877868,0,-1.203062013612414,-0.8316880014667619,-0.7154134890874406,0.012258796531224261,True,0.010830879211425781,-1.203123688697815,-0.8316344022750854,-0.715568482875824,0.012258796531224261,0.5235987755982988,0.028854268894414156
1759842061.6982465,0,-1.2030631631947584,-0.831687001851129,-0.7154144916172385,0.012258796531224261,True,0.010459661483764648,-1.203123688697815,-0.8316344022750854,-0.715568482875824,0.012258796531224261,0.5235987755982988,0.030812856985673626
1759842061.7089167,0,-1.2030628582890808,-0.8316872667049287,-0.7154144391954809,0.012258796531224261,True,0.010670185089111328,-1.203123688697815,-0.8316344022750854,-0.715568482875824,0.012258796531224261,0.5235987755982988,0.031029123619252304
