timestamp,observer_vehicle_id,vehicle_0_x,vehicle_0_y,vehicle_0_theta,vehicle_0_velocity,vehicle_1_x,vehicle_1_y,vehicle_1_theta,vehicle_1_velocity,vehicle_2_x,vehicle_2_y,vehicle_2_theta,vehicle_2_velocity
1759837280.4646313,2,0.0,0.0,0.0,0.0,-0.34434416434959303,-0.06946423297634396,-0.1424419902261832,0.0,-1.95,0.197,-0.8848819307611251,0.0
1759837280.4753685,2,-0.2370568695180737,-0.1632838980611922,-0.1411920728004958,0.0,-0.6173602534930517,-0.1245395186527336,-0.2553782880572147,0.0,-1.95,0.197,-0.8848819307611251,0.0
1759837280.4865751,2,-0.42530860980872326,-0.2929510029797312,-0.2533156044828837,0.0,-0.8342723324356419,-0.168296993722803,-0.3451065060075359,0.0,-1.95,0.197,-0.8848819307611251,0.0
1759837280.4968917,2,-0.5753391963788215,-0.3962915180779661,-0.34267445556520326,0.0,-1.0072275162420006,-0.20318708458606488,-0.41665144026784595,0.0,-1.95,0.197,-0.8848819307611251,0.0
1759837280.508137,2,-0.6950843002069709,-0.47877150427938553,-0.41399514520215963,0.0,-1.1453355376265606,-0.23104748928169713,-0.4737814383015711,0.0,-1.95,0.197,-0.8848819307611251,0.0
1759837280.5184436,2,-0.7910058988295074,-0.5448419478956787,-0.4711264545094419,0.0,-1.2560195721386846,-0.25337567821626,-0.5195671834787832,0.0,-1.95,0.197,-0.8848819307611251,0.0
1759837280.529255,2,-0.8679882625795909,-0.5978671163315585,-0.5169774755283765,0.0,-1.3448917772299869,-0.27130378677370925,-0.5563302103559936,0.0,-1.95,0.197,-0.8848819307611251,0.0
1759837280.5400443,2,-0.9335481729418929,-0.6430245409708932,-0.5560252350617166,0.0,-1.4207807270922999,-0.28661279514190063,-0.587722561885983,0.0,-1.95,0.197,-0.8848819307611251,0.0
1759837280.5514667,2,-0.9857343873357306,-0.6789702131153288,-0.5871075647864633,0.0,-1.4811889397599478,-0.29879888857071174,-0.6127111254489493,0.0,-1.95,0.197,-0.8848819307611251,0.0
1759837280.5629625,2,-1.0273837481625188,-0.7076581393558995,-0.6119141000195697,0.0,-1.5294002054269458,-0.3085245030491867,-0.632654279258167,0.0,-1.95,0.197,-0.8848819307611251,0.0
1759837280.573337,2,-1.0607532997385605,-0.7306429634994356,-0.6317891458894603,0.0,-1.568027168345099,-0.3163166849099808,-0.6486327741597643,0.0,-1.95,0.197,-0.8848819307611251,0.0
1759837280.584601,2,-1.0875286088426188,-0.7490856977310655,-0.6477366330893103,0.0,-1.5990209582834427,-0.32256903377485424,-0.6614537177985471,0.0,-1.95,0.197,-0.8848819307611251,0.0
1759837280.5958145,2,-1.109070384641844,-0.7639235935102872,-0.660567005746637,0.0,-1.6239566657079696,-0.327599291201284,-0.6717686647643433,0.0,-1.95,0.197,-0.8848819307611251,0.0
1759837280.6071908,2,-1.1274680942313005,-0.7765958680715406,-0.6715247592890581,0.0,-1.6440670330004825,-0.3316561371811936,-0.6800875533586532,0.0,-1.95,0.197,-0.8848819307611251,0.0
1759837280.6178622,2,-1.142171951093807,-0.7867238304880055,-0.6802824385446715,0.0,-1.6613124088705267,-0.33513503106477094,-0.6872213047488286,0.0,-1.95,0.197,-0.8848819307611251,0.0
1759837280.62859,2,-1.1539524296365564,-0.7948381806918062,-0.687298941324844,0.0,-1.6751291089580214,-0.3379222613221933,-0.6929367443077895,0.0,-1.95,0.197,-0.8848819307611251,0.0
1759837280.6394293,2,-1.1634133615938955,-0.8013548357561651,-0.6929339123611055,0.0,-1.686225335561074,-0.3401606929545941,-0.6975268281976239,0.0,-1.95,0.197,-0.8848819307611251,0.0
1759837280.6501288,2,-1.1710318522805783,-0.8066024240635337,-0.6974715175941907,0.0,-1.6951606602641653,-0.3419632078253403,-0.7012230297476909,0.0,-1.95,0.197,-0.8848819307611251,0.0
1759837280.6603558,2,-1.1771851881021878,-0.8108408190996047,-0.7011364704009025,0.0,-1.7023775823336973,-0.3434190709062698,-0.704208393953973,0.0,-1.949999692638715,0.19700002648035686,-0.47270519937685584,0.0
1759837280.6715865,2,-1.182161367744039,-0.8142683932974167,-0.7041003040147058,0.0,-1.7082138801923503,-0.3445964219293039,-0.7066226468108774,0.0,-1.9499996909192014,0.19700002662849958,-0.4374846908932355,0.0
1759837280.6827404,2,-1.1864396612425718,-0.8172152660917403,-0.7066484736937146,0.0,-1.7129462842953058,-0.3455510854757788,-0.7085802611071812,0.0,-1.9499996903797179,0.19700002667497815,-0.4341683253304449,0.0
1759837280.694054,2,-1.1898745159066806,-0.8195811813253698,-0.7086942876403,0.0,-1.7170276574727719,-0.3463744171497695,-0.7102685688482231,0.0,-1.9499996901792327,0.19700002669225072,-0.43373685401304835,0.0
1759837280.7053459,2,-1.1926395400867835,-0.8214857197902474,-0.7103411477212833,0.0,-1.720313122689579,-0.3470371910396277,-0.7116276399542627,0.0,-1.9499996901029584,0.19700002669882205,-0.43369634877511487,0.0
1759837280.7161336,2,-1.1948724315479584,-0.8230237271994795,-0.711671067307173,0.0,-1.7229662955917855,-0.3475724131798186,-0.7127251559505576,0.0,-1.949999690073841,0.19700002670133063,-0.43376322504169806,0.0
1759837280.7271266,2,-1.1966796869934455,-0.8242685580897691,-0.7127474762842554,0.0,-1.7251137180073868,-0.34800561073743574,-0.713613462343995,0.0,-1.9499996900627201,0.19700002670228872,-0.43384737861350153,0.0
1759837280.7385101,2,-1.198145494168402,-0.82527820066971,-0.7136205172291505,0.0,-1.7268554237481615,-0.34835696344173356,-0.7143339392905783,0.0,-1.9499996900584724,0.19700002670265468,-0.43392679619715047,0.0
1759837280.7499788,2,-1.1994109916267892,-0.8261498706551108,-0.7143742528607595,0.0,-1.728271605193973,-0.348642648428074,-0.71491975930598,0.0,-1.94999969005685,0.19700002670279446,-0.43399968347399387,0.0
1759837280.7601836,2,-1.200431440133499,-0.8268527518257136,-0.7149820363016757,0.0,-1.7295014596083411,-0.3488907458329713,-0.7154285029659806,0.0,-1.9499996900562302,0.19700002670284786,-0.4340730602883962,0.0
1759837280.771478,2,-1.20125525164094,-0.8274201901559174,-0.7154727019152434,0.0,-1.7304940941530134,-0.3490909890907646,-0.7158391178529132,0.0,-1.9499996900559935,0.19700002670286826,-0.4341224764431822,0.0
1759837280.7828467,2,-1.2019219949418467,-0.8278794404843282,-0.7158698170415513,0.0,-1.7312972865725516,-0.3492530163621168,-0.7161713677895127,0.0,-1.9499996900559031,0.19700002670287606,-0.43416407517929656,0.0
1759837280.7936668,2,-1.202463363077116,-0.8282523328607128,-0.7161922581896277,0.0,-1.7319492949629312,-0.3493845454176982,-0.7164410786845565,0.0,-1.9499996900558685,0.19700002670287903,-0.43420311121658095,0.0
1759837280.8050053,2,-1.2029037593664573,-0.8285556762017495,-0.7164545600797698,0.0,-1.7324795739656391,-0.3494915181153658,-0.7166604347949281,0.0,-1.9499996900558554,0.19700002670288017,-0.43423275170050246,0.0
1759837280.8162482,2,-1.2032629809102173,-0.828803106677196,-0.7166685139485659,0.0,-1.7329120119615706,-0.3495787534363243,-0.7168393178287275,0.0,-1.9499996900558503,0.19700002670288058,-0.4342588211086102,0.0
1759837280.8275533,2,-1.2035754823918405,-0.8290183565460273,-0.7168546411510102,0.0,-1.7332655345206058,-0.3496500692184564,-0.7169855565692443,0.0,-1.9499996900558483,0.19700002670288075,-0.43428113603868823,0.0
1759837280.838824,2,-1.2038285493663543,-0.8291926681454049,-0.7170053689099719,0.0,-1.7335742325076668,-0.3497123425807277,-0.717113253101401,0.0,-1.9499996900558476,0.1970000267028808,-0.43430073625274446,0.0
1759837280.8492491,2,-1.2040342139956037,-0.8293343291840639,-0.7171278636318693,0.0,-1.733825016486994,-0.3497629330032476,-0.7172169928270317,0.0,-1.9499996900558474,0.19700002670288083,-0.4343209387703446,0.0
1759837280.8624368,2,-1.2042012218680895,-0.8294493635911317,-0.7172273342261541,0.0,-1.7340285904147459,-0.34980399978529103,-0.7173012035627702,0.0,-1.9499996900558472,0.19700002670288086,-0.43432824088161226,0.0
1759837280.8731036,2,-1.2043376438128055,-0.829543330523875,-0.7173085877126659,0.0,-1.734194821790906,-0.3498375334885945,-0.7173699671153717,0.0,-1.9499996900558472,0.19700002670288086,-0.43434491284252985,0.0
1759837280.8834655,2,-1.204449391765464,-0.8296203021018239,-0.7173751452652867,0.0,-1.734330938761639,-0.34986499224046524,-0.7174262734920208,0.0,-1.9499996900558472,0.19700002670288086,-0.4343601047559815,0.0
1759837280.8946185,2,-1.204547191361971,-0.8296876661034618,-0.7174333951180666,0.0,-1.7344425528601373,-0.3498875080503561,-0.7174724439690418,0.0,-1.9499996900558472,0.19700002670288086,-0.4343702546035413,0.0
1759837280.9059398,2,-1.204626592182693,-0.829742357096147,-0.7174806865822736,0.0,-1.734540721138189,-0.34990731144719994,-0.7175130524252041,0.0,-1.9499996900558472,0.19700002670288086,-0.43437872340970785,0.0
1759837280.9168777,2,-1.2046912508836012,-0.8297868937710355,-0.7175191975776494,0.0,-1.7346205973594229,-0.349923424804171,-0.7175460941581628,0.0,-1.9499996900558472,0.19700002670288086,-0.43438749936155047,0.0
1759837280.9282904,2,-1.2047440065459787,-0.8298232316768525,-0.7175506190729986,0.0,-1.734685716183641,-0.3499365611649546,-0.7175730313212778,0.0,-1.9499996900558472,0.19700002670288086,-0.4343942121123163,0.0
1759837280.939285,2,-1.2047871829263075,-0.8298529714084982,-0.7175763351074971,0.0,-1.734738967629932,-0.34994730353045533,-0.7175950594047403,0.0,-1.9499996900558472,0.19700002670288086,-0.43440144232688027,0.0
1759837280.9501352,2,-1.2048226132632922,-0.8298773756940363,-0.717597437565861,0.0,-1.73478263021672,-0.3499561115441085,-0.7176131209443404,0.0,-1.9499996900558472,0.19700002670288086,-0.434408285797506,0.0
1759837280.9609928,2,-1.2048536877902474,-0.8298987797136793,-0.7176159456853727,0.0,-1.7348185177595226,-0.3499633511052577,-0.7176279662460774,0.0,-1.9499996900558472,0.19700002670288086,-0.43441434366299886,0.0
1759837280.9722712,2,-1.204878986492392,-0.8299162053664791,-0.7176310136992303,0.0,-1.73485003254507,-0.34996970855408976,-0.7176410027056422,0.0,-1.9499996900558472,0.19700002670288086,-0.43441894809201465,0.0
1759837280.982953,2,-1.2048996501712577,-0.8299304384323267,-0.717643321073645,0.0,-1.7348757547338804,-0.349974897467686,-0.7176516429898302,0.0,-1.9499996900558472,0.19700002670288086,-0.4344244260456449,0.0
1759837280.9931598,2,-1.2049165785023768,-0.8299420986044129,-0.717653403659164,0.0,-1.7348968118569326,-0.34997914530183843,-0.7176603535150156,0.0,-1.9499996900558472,0.19700002670288086,-0.4344301784940754,0.0
1759837281.0032809,2,-1.2049304802576644,-0.8299516740822207,-0.7176616836033335,0.0,-1.7349140917190191,-0.34998263115259487,-0.7176675015320324,0.0,-1.9499996900558472,0.19700002670288086,-0.43443524644526127,0.0
1759837281.0145726,2,-1.2049419064101419,-0.8299595443739367,-0.7176684890680126,0.0,-1.7349282842574376,-0.34998549420037467,-0.717673372441512,0.0,-1.9499996900558472,0.19700002670288086,-0.43443766652959326,0.0
1759837281.0253356,2,-1.2049513276282051,-0.8299660336742173,-0.7176741003852859,0.0,-1.7349399780927606,-0.349987853187067,-0.717678209733237,0.0,-1.9499996900558472,0.19700002670288086,-0.4344409927780077,0.0
1759837281.0361462,2,-1.2049596615179807,-0.8299717740267805,-0.7176790640852381,0.0,-1.7349496357276988,-0.3499898014129201,-0.7176822047268624,0.0,-1.9499996900558472,0.19700002670288086,-0.43444412962470835,0.0
1759837281.0464752,2,-1.2049664830298583,-0.8299764726590213,-0.717683127006526,0.0,-1.7349581813786732,-0.3499915253192663,-0.7176857397353177,0.0,-1.9499996900558472,0.19700002670288086,-0.43444779487453294,0.0
1759837281.0604951,2,-1.2049720550242957,-0.8299803106282544,-0.7176864457099487,0.0,-1.7349651601430145,-0.3499929331390068,-0.7176886265827949,0.0,-1.9499996900558472,0.19700002670288086,-0.43444604685273625,0.0
1759837281.0720122,2,-1.2049766344018746,-0.8299834648866536,-0.7176891732065778,0.0,-1.7349708943938549,-0.3499940899041783,-0.7176909986227094,0.0,-1.9499996900558472,0.19700002670288086,-0.4344489410847743,0.0
1759837281.0820262,2,-1.2049804146527365,-0.8299860687095154,-0.7176914247399586,0.0,-1.7349756269168017,-0.34999504459169906,-0.7176929562861668,0.0,-1.9499996900558472,0.19700002670288086,-0.43445386549786136,0.0
1759837281.0933623,2,-1.2049835370732074,-0.8299882194212282,-0.71769328446678,0.0,-1.7349795350259207,-0.3499958329709732,-0.717694572921204,0.0,-1.9499996900558472,0.19700002670288086,-0.43445640371383476,0.0
1759837281.1046858,2,-1.2049863029043135,-0.8299901245155007,-0.7176949318074695,0.0,-1.7349827704764962,-0.34999648565545527,-0.7176959113031688,0.0,-1.9499996900558472,0.19700002670288086,-0.4344587276707941,0.0
1759837281.1160202,2,-1.2049885710255992,-0.8299916867890832,-0.7176962827100876,0.0,-1.7349856488976745,-0.34999706631672395,-0.7176971019957485,0.0,-1.9499996900558472,0.19700002670288086,-0.43446096443987514,0.0
1759837281.1266499,2,-1.2049904373267502,-0.8299929722904377,-0.7176973942869362,0.0,-1.734988016299356,-0.3499975438904974,-0.7176980812991376,0.0,-1.9499996900558472,0.19700002670288086,-0.4344638713278446,0.0
1759837281.1369162,2,-1.2049919773430529,-0.8299940330479914,-0.7176983115271511,0.0,-1.7349899689210835,-0.3499979377910906,-0.7176988890239485,0.0,-1.9499996900558472,0.19700002670288086,-0.43446682344931276,0.0
1759837281.148213,2,-1.2049932493999032,-0.8299949092360618,-0.7176990691695843,0.0,-1.7349915810663292,-0.3499982630076749,-0.7176995559066813,0.0,-1.9499996900558472,0.19700002670288086,-0.43446833674183344,0.0
1759837281.1595254,2,-1.2049943027248056,-0.8299956347623726,-0.7176996965343454,0.0,-1.7349929154043762,-0.34999853218246735,-0.7177001078712177,0.0,-1.9499996900558472,0.19700002670288086,-0.4344698127962659,0.0
1759837281.1707928,2,-1.204995177149401,-0.8299962370628111,-0.717700217345328,0.0,-1.734994022621287,-0.34999875554032095,-0.7177005658844403,0.0,-1.9499996900558472,0.19700002670288086,-0.4344713795424475,0.0
1759837281.1820107,2,-1.204995958728627,-0.8299967754117015,-0.7177006828572162,0.0,-1.7349949437026224,-0.34999894134921533,-0.7177009469005056,0.0,-1.9499996900558472,0.19700002670288086,-0.4344729962266136,0.0
1759837281.1923146,2,-1.2049966034401671,-0.8299972194866343,-0.7177010668501328,0.0,-1.7349957692207765,-0.34999910788023664,-0.7177012883857433,0.0,-1.9499996900558472,0.19700002670288086,-0.43447534374935165,0.0
1759837281.2036471,2,-1.2049971357952105,-0.8299975861708262,-0.7177013839230453,0.0,-1.7349964507191626,-0.3499992453582821,-0.71770157029552,0.0,-1.9499996900558472,0.19700002670288086,-0.4344765659787573,0.0
1759837281.2149627,2,-1.204997576485706,-0.8299978897168153,-0.7177016464001659,0.0,-1.7349970147461833,-0.3499993591389365,-0.7177018036118926,0.0,-1.9499996900558472,0.19700002670288086,-0.4344777857117297,0.0
1759837281.2263243,2,-1.2049979421817616,-0.8299981416069107,-0.7177018642102813,0.0,-1.7349974826857983,-0.3499994535359665,-0.7177019971805862,0.0,-1.9499996900558472,0.19700002670288086,-0.4344790041632951,0.0
1759837281.23668,2,-1.2049982467984894,-0.8299983514257901,-0.717702045641291,0.0,-1.734997872382176,-0.34999953214905993,-0.7177021583830498,0.0,-1.9499996900558472,0.19700002670288086,-0.43448096703744454,0.0
1759837281.2472546,2,-1.2049985193650554,-0.8299985391686362,-0.717702207983089,0.0,-1.7349981975619544,-0.34999959774727885,-0.7177022928974677,0.0,-1.9499996900558472,0.19700002670288086,-0.43448254674555997,0.0
1759837281.263715,2,-1.2049987430051168,-0.8299986932110862,-0.7177023411840543,0.0,-1.7349984876266427,-0.3499996562617628,-0.7177024128861179,0.0,-1.9499996900558472,0.19700002670288086,-0.43448004835548915,0.0
1759837281.2745593,2,-1.2049989284699374,-0.8299988209585714,-0.717702451647685,0.0,-1.7349987280679173,-0.349999704765761,-0.7177025123474629,0.0,-1.9499996900558472,0.19700002670288086,-0.4344822682457341,0.0
1759837281.2859385,2,-1.204999082536888,-0.829998927079319,-0.7177025434106115,0.0,-1.7349989277140772,-0.34999974504019804,-0.7177025949334316,0.0,-1.9499996900558472,0.19700002670288086,-0.4344840757926977,0.0
1759837281.2973154,2,-1.204999210839621,-0.8299990154537688,-0.7177026198282611,0.0,-1.7349990938993172,-0.34999977856459435,-0.7177026636778995,0.0,-1.9499996900558472,0.19700002670288086,-0.43448564080105717,0.0
1759837281.3073509,2,-1.2049993181416638,-0.8299990893630205,-0.7177026837378111,0.0,-1.7349992328205306,-0.34999980658904356,-0.7177027211442839,0.0,-1.9499996900558472,0.19700002670288086,-0.43448778107857855,0.0
1759837281.3176525,2,-1.2049994080447393,-0.8299991512879275,-0.7177027372844625,0.0,-1.7349993491635993,-0.3499998300588243,-0.7177027692709548,0.0,-1.9499996900558472,0.19700002670288086,-0.43448940185858836,0.0
1759837281.3285372,2,-1.20499948894557,-0.8299992070121216,-0.7177027854693391,0.0,-1.734999446738179,-0.34999984974245496,-0.7177028096338207,0.0,-1.9499996900558472,0.19700002670288086,-0.43449043089134065,0.0
1759837281.3399634,2,-1.2049995561605362,-0.8299992533095426,-0.7177028255028568,0.0,-1.7349995345429452,-0.34999986745523004,-0.7177028459552889,0.0,-1.9499996900558472,0.19700002670288086,-0.43449108322232094,0.0
1759837281.3513372,2,-1.20499961214784,-0.8299992918733912,-0.7177028588491314,0.0,-1.73499960767264,-0.34999988220761635,-0.7177028762062421,0.0,-1.9499996900558472,0.19700002670288086,-0.43449179628430734,0.0
1759837281.3627305,2,-1.2049996588967997,-0.8299993240739024,-0.7177028866930094,0.0,-1.7349996687286664,-0.3499998945243927,-0.7177029014627814,0.0,-1.9499996900558472,0.19700002670288086,-0.4344925327233149,0.0
1759837281.3730705,2,-1.2049996980835065,-0.8299993510655617,-0.7177029100327775,0.0,-1.734999719902456,-0.3499999048476344,-0.7177029226314179,0.0,-1.9499996900558472,0.19700002670288086,-0.43449376434003106,0.0
1759837281.3838751,2,-1.2049997309837752,-0.8299993737271455,-0.7177029296283165,0.0,-1.7349997628621243,-0.34999991351384896,-0.7177029404021871,0.0,-1.9499996900558472,0.19700002670288086,-0.4344946430909679,0.0
1759837281.3943524,2,-1.2049997606750074,-0.8299993941783568,-0.7177029473125398,0.0,-1.7349997990261659,-0.34999992080918796,-0.7177029553618657,0.0,-1.9499996900558472,0.19700002670288086,-0.43449557523194926,0.0
1759837281.4045532,2,-1.2049997854593333,-0.8299994112497091,-0.7177029620741892,0.0,-1.7349998295496767,-0.3499999269666679,-0.7177029679882729,0.0,-1.9499996900558472,0.19700002670288086,-0.43449652577512593,0.0
1759837281.4154305,2,-1.2049998061751412,-0.8299994255186812,-0.7177029744126119,0.0,-1.7349998574046104,-0.34999993258581813,-0.717702979510792,0.0,-1.9499996900558472,0.19700002670288086,-0.4344970876007075,0.0
1759837281.4258301,2,-1.2049998235423005,-0.8299994374811165,-0.7177029847565652,0.0,-1.7349998807336129,-0.3499999372919564,-0.7177029891611066,0.0,-1.9499996900558472,0.19700002670288086,-0.43449781919769676,0.0
1759837281.4372525,2,-1.2049998381143494,-0.82999944751829,-0.7177029934357391,0.0,-1.7349999002887642,-0.3499999412367991,-0.7177029972503236,0.0,-1.9499996900558472,0.19700002670288086,-0.43449811775983704,0.0
1759837281.4488063,2,-1.2049998503686423,-0.8299994559590019,-0.7177030007344477,0.0,-1.734999916717536,-0.34999994455096023,-0.7177030040462773,0.0,-1.9499996900558472,0.19700002670288086,-0.434498433855957,0.0
1759837281.4629166,2,-1.2049998606615067,-0.829999463048689,-0.7177030068649213,0.0,-1.7349999305036652,-0.3499999473320235,-0.7177030097490709,0.0,-1.9499996900558472,0.19700002670288086,-0.434497959644073,0.0
1759837281.4742641,2,-1.2049998700723954,-0.8299994695308746,-0.7177030124700864,0.0,-1.7349999421520497,-0.3499999496818414,-0.7177030145675614,0.0,-1.9499996900558472,0.19700002670288086,-0.43449874218248224,0.0
1759837281.4855313,2,-1.2049998779576265,-0.8299994749621927,-0.7177030171665634,0.0,-1.7349999528200757,-0.34999995183389254,-0.717703018980515,0.0,-1.9499996900558472,0.19700002670288086,-0.43449955597989387,0.0
1759837281.4967825,2,-1.2049998845806242,-0.8299994795240893,-0.7177030211112488,0.0,-1.734999961772449,-0.3499999536398466,-0.7177030226837688,0.0,-1.9499996900558472,0.19700002670288086,-0.4345002917996066,0.0
1759837281.5075955,2,-1.2049998901601984,-0.8299994833672792,-0.7177030244344668,0.0,-1.7349999693077274,-0.3499999551599314,-0.7177030258008249,0.0,-1.9499996900558472,0.19700002670288086,-0.43450108313660785,0.0
1759837281.5183637,2,-1.2049998948718388,-0.8299994866126398,-0.7177030272407395,0.0,-1.7349999756652386,-0.34999995644242626,-0.7177030284306837,0.0,-1.9499996900558472,0.19700002670288086,-0.4345017886901825,0.0
1759837281.52938,2,-1.2049998988581818,-0.8299994893584183,-0.7177030296150224,0.0,-1.7349999810393868,-0.3499999575265483,-0.717703030653763,0.0,-1.9499996900558472,0.19700002670288086,-0.4345023380299047,0.0
1759837281.5407383,2,-1.2049999025227143,-0.8299994918825347,-0.7177030317976335,0.0,-1.7349999855905145,-0.3499999584446431,-0.7177030325363901,0.0,-1.9499996900558472,0.19700002670288086,-0.4345027507096262,0.0
1759837281.5514588,2,-1.204999905601387,-0.8299994940031131,-0.7177030336313039,0.0,-1.7349999897729769,-0.34999995928836747,-0.7177030342665146,0.0,-1.9499996900558472,0.19700002670288086,-0.4345033243756191,0.0
1759837281.5627236,2,-1.204999908191833,-0.8299994957874027,-0.7177030351741845,0.0,-1.7349999932909674,-0.34999995999804845,-0.7177030357217725,0.0,-1.9499996900558472,0.19700002670288086,-0.43450371409149824,0.0
1759837281.5739827,2,-1.2049999103766984,-0.82999949729233,-0.7177030364754997,0.0,-1.7349999962571465,-0.349999960596413,-0.7177030369487671,0.0,-1.9499996900558472,0.19700002670288086,-0.43450409611474505,0.0
1759837281.5852654,2,-1.2049999122237913,-0.8299994985646009,-0.7177030375756361,0.0,-1.7349999987639189,-0.3499999611021019,-0.7177030379857229,0.0,-1.9499996900558472,0.19700002670288086,-0.43450447213998444,0.0
1759837281.595997,2,-1.2049999137902818,-0.8299994996435937,-0.7177030385086445,0.0,-1.7350000008891564,-0.34999996153082413,-0.7177030388648522,0.0,-1.9499996900558472,0.19700002670288086,-0.4345049683895539,0.0
1759837281.60681,2,-1.2049999152306692,-0.8299995006357271,-0.7177030393665451,0.0,-1.7350000026947574,-0.3499999618950663,-0.7177030396117603,0.0,-1.9499996900558472,0.19700002670288086,-0.4345054038232164,0.0
1759837281.6180015,2,-1.2049999164428524,-0.8299995014706746,-0.7177030400885266,0.0,-1.7350000043564926,-0.3499999622302867,-0.7177030402991565,0.0,-1.9499996900558472,0.19700002670288086,-0.4345057223853139,0.0
1759837281.628795,2,-1.2049999174659856,-0.8299995021754049,-0.7177030406979089,0.0,-1.7350000057589157,-0.34999996251319615,-0.7177030408792852,0.0,-1.9499996900558472,0.19700002670288086,-0.43450611589973137,0.0
1759837281.6394837,2,-1.2049999183316549,-0.8299995027716747,-0.7177030412135053,0.0,-1.7350000069453744,-0.34999996275253936,-0.7177030413700777,0.0,-1.9499996900558472,0.19700002670288086,-0.4345065048240393,0.0
1759837281.6508942,2,-1.2049999190649672,-0.8299995032767774,-0.7177030416502691,0.0,-1.7350000079503225,-0.3499999629552667,-0.7177030417857863,0.0,-1.9499996900558472,0.19700002670288086,-0.4345067258842725,0.0
1759837281.6623063,2,-1.2049999196876293,-0.8299995037056649,-0.7177030420211293,0.0,-1.735000008803544,-0.3499999631273863,-0.7177030421387314,0.0,-1.9499996900558472,0.19700002670288086,-0.4345069611375702,0.0
1759837281.6735857,2,-1.2049999202176882,-0.8299995040707675,-0.7177030423368348,0.0,-1.7350000095297975,-0.34999996327389277,-0.7177030424391546,0.0,-1.9499996900558472,0.19700002670288086,-0.4345072378123831,0.0
1759837281.684851,2,-1.204999920705745,-0.829999504406939,-0.7177030426275234,0.0,-1.7350000101494205,-0.3499999633988888,-0.7177030426954688,0.0,-1.9499996900558472,0.19700002670288086,-0.43450752008214444,0.0
1759837281.6963077,2,-1.2049999211186428,-0.8299995046913416,-0.7177030428734471,0.0,-1.7350000107252606,-0.34999996351505247,-0.7177030429336717,0.0,-1.9499996900558472,0.19700002670288086,-0.4345077680218772,0.0
1759837281.7067053,2,-1.2049999214693379,-0.8299995049328991,-0.7177030430823225,0.0,-1.7350000112138642,-0.349999963613618,-0.7177030431357884,0.0,-1.9499996900558472,0.19700002670288086,-0.43450818516687306,0.0
1759837281.7179992,2,-1.2049999217674479,-0.8299995051382361,-0.7177030432598779,0.0,-1.7350000116287974,-0.34999996369732206,-0.7177030433074303,0.0,-1.9499996900558472,0.19700002670288086,-0.43450841763471004,0.0
1759837281.7293706,2,-1.2049999220214167,-0.8299995053131689,-0.7177030434111428,0.0,-1.735000011981948,-0.3499999637685628,-0.7177030434535153,0.0,-1.9499996900558472,0.19700002670288086,-0.4345086308664108,0.0
1759837281.7406735,2,-1.2049999222383059,-0.8299995054625614,-0.7177030435403229,0.0,-1.7350000122832472,-0.3499999638293436,-0.7177030435781512,0.0,-1.9499996900558472,0.19700002670288086,-0.4345088595176332,0.0
1759837281.7520642,2,-1.2049999224406913,-0.8299995056019638,-0.7177030436608645,0.0,-1.7350000125408638,-0.3499999638813124,-0.7177030436847173,0.0,-1.9499996900558472,0.19700002670288086,-0.4345090766064299,0.0
1759837281.7629642,2,-1.2049999226124117,-0.8299995057202441,-0.7177030437631419,0.0,-1.7350000127813927,-0.34999996392983407,-0.7177030437842149,0.0,-1.9499996900558472,0.19700002670288086,-0.43450935845019956,0.0
1759837281.774334,2,-1.2049999227583412,-0.8299995058207599,-0.7177030438500582,0.0,-1.7350000129856642,-0.3499999639710416,-0.7177030438687143,0.0,-1.9499996900558472,0.19700002670288086,-0.4345095600119606,0.0
1759837281.7852783,2,-1.2049999228827244,-0.8299995059064345,-0.7177030439241413,0.0,-1.7350000131596628,-0.3499999640061422,-0.7177030439406908,0.0,-1.9499996900558472,0.19700002670288086,-0.43450980971649855,0.0
1759837281.7953956,2,-1.2049999229891168,-0.8299995059797172,-0.7177030439875091,0.0,-1.7350000133083983,-0.3499999640361464,-0.7177030440022169,0.0,-1.9499996900558472,0.19700002670288086,-0.4345101403258589,0.0
1759837281.8065722,2,-1.2049999230801585,-0.8299995060424262,-0.7177030440417339,0.0,-1.7350000134355925,-0.3499999640618052,-0.7177030440548322,0.0,-1.9499996900558472,0.19700002670288086,-0.4345103028855313,0.0
1759837281.8177474,2,-1.2049999231649675,-0.8299995061008423,-0.7177030440922465,0.0,-1.7350000135446118,-0.3499999640837976,-0.7177030440999292,0.0,-1.9499996900558472,0.19700002670288086,-0.4345104599720031,0.0
1759837281.8289914,2,-1.204999923237068,-0.8299995061505048,-0.7177030441351898,0.0,-1.735000013638252,-0.3499999641026876,-0.7177030441386646,0.0,-1.9499996900558472,0.19700002670288086,-0.4345106135540888,0.0
1759837281.8392866,2,-1.2049999232985955,-0.8299995061928845,-0.7177030441718358,0.0,-1.7350000137262154,-0.3499999641204324,-0.7177030441750517,0.0,-1.9499996900558472,0.19700002670288086,-0.4345108682729304,0.0
1759837281.850099,2,-1.2049999233511697,-0.8299995062290976,-0.7177030442031493,0.0,-1.735000013801324,-0.349999964135584,-0.7177030442061213,0.0,-1.9499996900558472,0.19700002670288086,-0.4345110431249033,0.0
1759837281.8640287,2,-1.2049999233959716,-0.829999506259957,-0.7177030442298336,0.0,-1.7350000138652841,-0.3499999641484866,-0.7177030442325792,0.0,-1.9499996900558472,0.19700002670288086,-0.43451090789182345,0.0
1759837281.875463,2,-1.2049999234344086,-0.8299995062864323,-0.7177030442527267,0.0,-1.7350000139201183,-0.34999996415954826,-0.717703044255262,0.0,-1.9499996900558472,0.19700002670288086,-0.43451108876421607,0.0
1759837281.8866017,2,-1.204999923467476,-0.8299995063092089,-0.7177030442724217,0.0,-1.7350000139672586,-0.3499999641690578,-0.7177030442747621,0.0,-1.9499996900558472,0.19700002670288086,-0.43451130588324816,0.0
1759837281.8974802,2,-1.2049999234985118,-0.8299995063305864,-0.7177030442909069,0.0,-1.7350000140078918,-0.3499999641772547,-0.7177030442915705,0.0,-1.9499996900558472,0.19700002670288086,-0.4345115246540381,0.0
1759837281.908433,2,-1.2049999235250557,-0.8299995063488698,-0.7177030443067166,0.0,-1.735000014046147,-0.3499999641849719,-0.7177030443073953,0.0,-1.9499996900558472,0.19700002670288086,-0.434511711018871,0.0
1759837281.919681,2,-1.2049999235477977,-0.8299995063645343,-0.7177030443202618,0.0,-1.735000014078896,-0.3499999641915783,-0.7177030443209423,0.0,-1.9499996900558472,0.19700002670288086,-0.43451185414681426,0.0
1759837281.9300082,2,-1.2049999235673554,-0.8299995063780056,-0.7177030443319105,0.0,-1.7350000141070363,-0.349999964197255,-0.7177030443325829,0.0,-1.9499996900558472,0.19700002670288086,-0.4345120602208645,0.0
1759837281.9406679,2,-1.2049999235842004,-0.8299995063896083,-0.7177030443419433,0.0,-1.7350000141312538,-0.34999996420214036,-0.7177030443426009,0.0,-1.9499996900558472,0.19700002670288086,-0.43451221527143247,0.0
1759837281.9509904,2,-1.2049999235987479,-0.8299995063996286,-0.7177030443506079,0.0,-1.7350000141521515,-0.34999996420635604,-0.7177030443512454,0.0,-1.9499996900558472,0.19700002670288086,-0.4345123770005408,0.0
1759837281.9612863,2,-1.2049999236124789,-0.8299995064090864,-0.717703044358786,0.0,-1.7350000141702224,-0.34999996421000146,-0.7177030443587207,0.0,-1.9499996900558472,0.19700002670288086,-0.43451252161332826,0.0
1759837281.97164,2,-1.204999923624259,-0.8299995064172004,-0.7177030443658022,0.0,-1.735000014185879,-0.3499999642131598,-0.7177030443651973,0.0,-1.9499996900558472,0.19700002670288086,-0.43451264576677495,0.0
1759837281.9827104,2,-1.2049999236343751,-0.8299995064241683,-0.7177030443718273,0.0,-1.7350000142008468,-0.34999996421617924,-0.7177030443713888,0.0,-1.9499996900558472,0.19700002670288086,-0.4345127116351204,0.0
1759837281.9940147,2,-1.204999923643078,-0.8299995064301628,-0.7177030443770107,0.0,-1.7350000142136999,-0.34999996421877205,-0.7177030443767055,0.0,-1.9499996900558472,0.19700002670288086,-0.43451276858007404,0.0
1759837282.005255,2,-1.2049999236505826,-0.829999506435332,-0.7177030443814806,0.0,-1.735000014224763,-0.3499999642210038,-0.717703044381282,0.0,-1.9499996900558472,0.19700002670288086,-0.4345128411812169,0.0
1759837282.01654,2,-1.2049999236570677,-0.829999506439799,-0.7177030443853433,0.0,-1.7350000142343058,-0.3499999642229289,-0.7177030443852296,0.0,-1.9499996900558472,0.19700002670288086,-0.43451291877008735,0.0
1759837282.0273895,2,-1.2049999236626883,-0.8299995064436705,-0.7177030443886909,0.0,-1.735000014242562,-0.34999996422459434,-0.7177030443886447,0.0,-1.9499996900558472,0.19700002670288086,-0.4345130258913503,0.0
1759837282.0385294,2,-1.2049999236680577,-0.8299995064473689,-0.7177030443918889,0.0,-1.7350000142497157,-0.3499999642260375,-0.717703044391604,0.0,-1.9499996900558472,0.19700002670288086,-0.43451311208681,0.0
1759837282.049438,2,-1.2049999236726792,-0.8299995064505522,-0.7177030443946417,0.0,-1.735000014256541,-0.3499999642274143,-0.7177030443944274,0.0,-1.9499996900558472,0.19700002670288086,-0.43451320894344114,0.0
1759837282.0659854,2,-1.2049999236766282,-0.8299995064532724,-0.7177030443969937,0.0,-1.7350000142623645,-0.3499999642285891,-0.7177030443968364,0.0,-1.9499996900558472,0.19700002670288086,-0.43451301872735115,0.0
1759837282.0772064,2,-1.2049999236800442,-0.8299995064556251,-0.7177030443990282,0.0,-1.7350000142673938,-0.34999996422960367,-0.7177030443989169,0.0,-1.9499996900558472,0.19700002670288086,-0.4345131722870992,0.0
1759837282.0878663,2,-1.204999923683008,-0.8299995064576665,-0.7177030444007935,0.0,-1.735000014271751,-0.3499999642304827,-0.7177030444007192,0.0,-1.9499996900558472,0.19700002670288086,-0.4345133494347184,0.0
1759837282.098133,2,-1.2049999236855866,-0.8299995064594428,-0.7177030444023293,0.0,-1.7350000142755364,-0.34999996423124635,-0.717703044402285,0.0,-1.9499996900558472,0.19700002670288086,-0.43451351353149725,0.0
1759837282.1090937,2,-1.2049999236880582,-0.8299995064611453,-0.7177030444038015,0.0,-1.7350000142788276,-0.34999996423191027,-0.7177030444036465,0.0,-1.9499996900558472,0.19700002670288086,-0.4345136166711683,0.0
1759837282.120531,2,-1.2049999236901903,-0.8299995064626138,-0.7177030444050714,0.0,-1.7350000142819828,-0.34999996423254676,-0.7177030444049516,0.0,-1.9499996900558472,0.19700002670288086,-0.4345136854975067,0.0
1759837282.1313684,2,-1.2049999236920355,-0.8299995064638848,-0.7177030444061703,0.0,-1.735000014284709,-0.3499999642330967,-0.7177030444060793,0.0,-1.9499996900558472,0.19700002670288086,-0.4345137763388962,0.0
1759837282.1426063,2,-1.2049999236936344,-0.8299995064649861,-0.7177030444071226,0.0,-1.735000014287068,-0.34999996423357266,-0.7177030444070553,0.0,-1.9499996900558472,0.19700002670288086,-0.4345138437765641,0.0
1759837282.1539152,2,-1.204999923695023,-0.8299995064659426,-0.7177030444079495,0.0,-1.7350000142891138,-0.3499999642339853,-0.7177030444079014,0.0,-1.9499996900558472,0.19700002670288086,-0.4345139054684033,0.0
1759837282.1648283,2,-1.2049999236962365,-0.8299995064667783,-0.7177030444086723,0.0,-1.7350000142908926,-0.3499999642343441,-0.7177030444086373,0.0,-1.9499996900558472,0.19700002670288086,-0.43451398065987057,0.0
1759837282.1761036,2,-1.2049999236973166,-0.8299995064675223,-0.7177030444093155,0.0,-1.735000014292457,-0.3499999642346597,-0.7177030444092846,0.0,-1.9499996900558472,0.19700002670288086,-0.4345140378533081,0.0
1759837282.1868947,2,-1.2049999236982778,-0.8299995064681843,-0.7177030444098881,0.0,-1.7350000142938495,-0.34999996423494056,-0.7177030444098605,0.0,-1.9499996900558472,0.19700002670288086,-0.43451410984777533,0.0
1759837282.1982121,2,-1.2049999236991331,-0.8299995064687736,-0.7177030444103976,0.0,-1.7350000142951556,-0.3499999642352041,-0.7177030444104008,0.0,-1.9499996900558472,0.19700002670288086,-0.43451415893212797,0.0
1759837282.2085714,2,-1.2049999236998945,-0.829999506469298,-0.717703044410851,0.0,-1.7350000142962896,-0.34999996423543284,-0.71770304441087,0.0,-1.9499996900558472,0.19700002670288086,-0.43451423770135555,0.0
1759837282.219972,2,-1.2049999236998945,-0.829999506469298,-0.717703044410851,0.0,-1.7350000142972746,-0.3499999642356315,-0.7177030444112773,0.0,-1.9499996900558472,0.19700002670288086,-0.43451427587927327,0.0
1759837282.230802,2,-1.2049999236998945,-0.829999506469298,-0.717703044410851,0.0,-1.735000014298137,-0.3499999642358055,-0.717703044411634,0.0,-1.9499996900558472,0.19700002670288086,-0.4345143316184803,0.0
1759837282.2418473,2,-1.2049999236998945,-0.829999506469298,-0.717703044410851,0.0,-1.7350000142989046,-0.34999996423596036,-0.7177030444119514,0.0,-1.9499996900558472,0.19700002670288086,-0.4345143785694745,0.0
1759837282.253058,2,-1.2049999237005964,-0.8299995064697816,-0.7177030444112691,0.0,-1.7350000142995878,-0.3499999642360982,-0.717703044412234,0.0,-1.9499996900558472,0.19700002670288086,-0.43451441937595625,0.0
1759837282.2683527,2,-1.2049999237012017,-0.8299995064701985,-0.7177030444116296,0.0,-1.735000014300212,-0.34999996423622415,-0.7177030444124922,0.0,-1.9499996900558472,0.19700002670288086,-0.4345143537516894,0.0
1759837282.2793617,2,-1.2049999237017357,-0.8299995064705662,-0.7177030444119475,0.0,-1.735000014300755,-0.34999996423633367,-0.7177030444127168,0.0,-1.9499996900558472,0.19700002670288086,-0.43451443063274553,0.0
1759837282.2902615,2,-1.2049999237022109,-0.8299995064708935,-0.7177030444122305,0.0,-1.7350000143012345,-0.34999996423643037,-0.7177030444129151,0.0,-1.9499996900558472,0.19700002670288086,-0.4345145073534926,0.0
1759837282.3012,2,-1.2049999237026336,-0.8299995064711847,-0.7177030444124823,0.0,-1.7350000143016615,-0.34999996423651647,-0.7177030444130917,0.0,-1.9499996900558472,0.19700002670288086,-0.43451457154727535,0.0
1759837282.312302,2,-1.20499992370301,-0.8299995064714439,-0.7177030444127066,0.0,-1.7350000143020414,-0.34999996423659313,-0.717703044413249,0.0,-1.9499996900558472,0.19700002670288086,-0.43451462298524035,0.0
1759837282.3237386,2,-1.20499992370301,-0.8299995064714439,-0.7177030444127066,0.0,-1.7350000143023794,-0.34999996423666135,-0.7177030444133888,0.0,-1.9499996900558472,0.19700002670288086,-0.4345146616731057,0.0
1759837282.3345585,2,-1.20499992370301,-0.8299995064714439,-0.7177030444127066,0.0,-1.7350000143023794,-0.34999996423666135,-0.7177030444133888,0.0,-1.9499996900558472,0.19700002670288086,-0.43451471170932976,0.0
1759837282.345052,2,-1.20499992370301,-0.8299995064714439,-0.7177030444127066,0.0,-1.7350000143023794,-0.34999996423666135,-0.7177030444133888,0.0,-1.9499996900558472,0.19700002670288086,-0.4345147634732651,0.0
1759837282.3562965,2,-1.20499992370301,-0.8299995064714439,-0.7177030444127066,0.0,-1.7350000143023794,-0.34999996423666135,-0.7177030444133888,0.0,-1.9499996900558472,0.19700002670288086,-0.4345147936730527,0.0
1759837282.3677497,2,-1.20499992370301,-0.8299995064714439,-0.7177030444127066,0.0,-1.7350000143023794,-0.34999996423666135,-0.7177030444133888,0.0,-1.9499996900558472,0.19700002670288086,-0.4345148188515999,0.0
1759837282.3780458,2,-1.20499992370301,-0.8299995064714439,-0.7177030444127066,0.0,-1.7350000143023794,-0.34999996423666135,-0.7177030444133888,0.0,-1.9499996900558472,0.19700002670288086,-0.43451486657383853,0.0
1759837282.3889813,2,-1.2049999237033449,-0.8299995064716746,-0.7177030444129061,0.0,-1.7350000143023794,-0.34999996423666135,-0.7177030444133888,0.0,-1.9499996900558472,0.19700002670288086,-0.43451489745095273,0.0
1759837282.3992286,2,-1.2049999237036428,-0.8299995064718799,-0.7177030444130836,0.0,-1.7350000143023794,-0.34999996423666135,-0.7177030444133888,0.0,-1.9499996900558472,0.19700002670288086,-0.4345149378153508,0.0
1759837282.4095287,2,-1.2049999237039082,-0.8299995064720627,-0.7177030444132416,0.0,-1.7350000143023794,-0.34999996423666135,-0.7177030444133888,0.0,-1.9499996900558472,0.19700002670288086,-0.4345149726241395,0.0
1759837282.4197607,2,-1.2049999237041444,-0.8299995064722253,-0.7177030444133824,0.0,-1.7350000143026802,-0.349999964236722,-0.7177030444135133,0.0,-1.9499996900558472,0.19700002670288086,-0.4345150044172126,0.0
1759837282.43051,2,-1.2049999237043545,-0.8299995064723701,-0.7177030444135075,0.0,-1.735000014302948,-0.34999996423677604,-0.7177030444136241,0.0,-1.9499996900558472,0.19700002670288086,-0.43451502470855274,0.0
1759837282.4409323,2,-1.2049999237043545,-0.8299995064723701,-0.7177030444135075,0.0,-1.7350000143031865,-0.3499999642368241,-0.7177030444137227,0.0,-1.9499996900558472,0.19700002670288086,-0.434515049758625,0.0
1759837282.451732,2,-1.2049999237043545,-0.8299995064723701,-0.7177030444135075,0.0,-1.7350000143031865,-0.3499999642368241,-0.7177030444137227,0.0,-1.9499996900558472,0.19700002670288086,-0.4345150681101977,0.0
1759837282.470596,2,-1.2049999237043545,-0.8299995064723701,-0.7177030444135075,0.0,-1.7350000143031865,-0.3499999642368241,-0.7177030444137227,0.0,-1.9499996900558472,0.19700002670288086,-0.43451497503286163,0.006
1759837282.4767983,2,-1.2049999237043545,-0.8299995064723701,-0.7177030444135075,0.0,-1.7350000143031865,-0.3499999642368241,-0.7177030444137227,0.0,-1.9499996900558472,0.19700002670288086,-0.4345150872230423,0.006
1759837282.4870746,2,-1.2049999237043545,-0.8299995064723701,-0.7177030444135075,0.0,-1.7350000143031865,-0.3499999642368241,-0.7177030444137227,0.0,-1.9499996900558472,0.19700002670288086,-0.4345151269950023,0.006
1759837282.4984314,2,-1.2049999237043545,-0.8299995064723701,-0.7177030444135075,0.0,-1.7350000143031865,-0.3499999642368241,-0.7177030444137227,0.0,-1.9499996900558472,0.19700002670288086,-0.4345151424453704,0.006
1759837282.5093153,2,-1.2049999237043545,-0.8299995064723701,-0.7177030444135075,0.0,-1.7350000143031865,-0.3499999642368241,-0.7177030444137227,0.0,-1.9499996900558472,0.19700002670288086,-0.43451516356625497,0.006
1759837282.520684,2,-1.2049999237043545,-0.8299995064723701,-0.7177030444135075,0.0,-1.7350000143031865,-0.3499999642368241,-0.7177030444137227,0.0,-1.9499996900558472,0.19700002670288086,-0.4345151784064178,0.006
1759837282.5314198,2,-1.2049999237043545,-0.8299995064723701,-0.7177030444135075,0.0,-1.7350000143031865,-0.3499999642368241,-0.7177030444137227,0.0,-1.9499996900558472,0.19700002670288086,-0.43451520121600495,0.006
1759837282.541776,2,-1.2049999237043545,-0.8299995064723701,-0.7177030444135075,0.0,-1.7350000143031865,-0.3499999642368241,-0.7177030444137227,0.0,-1.9499996900558472,0.19700002670288086,-0.43451522676735094,0.006
1759837282.5526643,2,-1.2049999237043545,-0.8299995064723701,-0.7177030444135075,0.0,-1.7350000143031865,-0.3499999642368241,-0.7177030444137227,0.0,-1.9499996900558472,0.19700002670288086,-0.43451524367877425,0.006
1759837282.5630271,2,-1.2049999237043545,-0.8299995064723701,-0.7177030444135075,0.0,-1.7350000143031865,-0.3499999642368241,-0.7177030444137227,0.0,-1.9499996900558472,0.19700002670288086,-0.43451526508921035,0.006
1759837282.57345,2,-1.2049999237043545,-0.8299995064723701,-0.7177030444135075,0.0,-1.7350000143031865,-0.3499999642368241,-0.7177030444137227,0.0,-1.9499996900558472,0.19700002670288086,-0.4345152839219786,0.006
1759837282.5847273,2,-1.2049999237043545,-0.8299995064723701,-0.7177030444135075,0.0,-1.7350000143031865,-0.3499999642368241,-0.7177030444137227,0.0,-1.9499996900558472,0.19700002670288086,-0.43451529279819745,0.006
1759837282.5957556,2,-1.2049999237043545,-0.8299995064723701,-0.7177030444135075,0.0,-1.7350000143031865,-0.3499999642368241,-0.7177030444137227,0.0,-1.9499996900558472,0.19700002670288086,-0.43451530519062587,0.006
1759837282.6061664,2,-1.2049999237043545,-0.8299995064723701,-0.7177030444135075,0.0,-1.7350000143031865,-0.3499999642368241,-0.7177030444137227,0.0,-1.9499996900558472,0.19700002670288086,-0.43451532379147473,0.006
1759837282.616478,2,-1.2049999237043545,-0.8299995064723701,-0.7177030444135075,0.0,-1.7350000143031865,-0.3499999642368241,-0.7177030444137227,0.0,-1.9499996900558472,0.19700002670288086,-0.43451534173858514,0.006
1759837282.6268246,2,-1.2049999237043545,-0.8299995064723701,-0.7177030444135075,0.0,-1.7350000143031865,-0.3499999642368241,-0.7177030444137227,0.0,-1.9499996900558472,0.19700002670288086,-0.43451535747722586,0.006
1759837282.6378205,2,-1.2049999237043545,-0.8299995064723701,-0.7177030444135075,0.0,-1.7350000143031865,-0.3499999642368241,-0.7177030444137227,0.0,-1.9499996900558472,0.19700002670288086,-0.43451536646225364,0.006
1759837282.6491084,2,-1.2049999237043545,-0.8299995064723701,-0.7177030444135075,0.0,-1.7350000143031865,-0.3499999642368241,-0.7177030444137227,0.0,-1.9499996900558472,0.19700002670288086,-0.434515373670056,0.006
1759837282.659402,2,-1.2049999237043545,-0.8299995064723701,-0.7177030444135075,0.0,-1.7350000143031865,-0.3499999642368241,-0.7177030444137227,0.0,-1.9499996900558472,0.19700002670288086,-0.43451538983118887,0.006
1759837282.676671,2,-1.2049999237043545,-0.8299995064723701,-0.7177030444135075,0.0,-1.7350000143031865,-0.3499999642368241,-0.7177030444137227,0.0,-1.9499996900558472,0.19700002670288086,-0.43451535434389577,0.006
1759837282.687391,2,-1.2049999237043545,-0.8299995064723701,-0.7177030444135075,0.0,-1.7350000143031865,-0.3499999642368241,-0.7177030444137227,0.0,-1.9499996900558472,0.19700002670288086,-0.4345153789963057,0.006
1759837282.6981876,2,-1.2049999237043545,-0.8299995064723701,-0.7177030444135075,0.0,-1.7350000143031865,-0.3499999642368241,-0.7177030444137227,0.0,-1.9499996900558472,0.19700002670288086,-0.43451540239247066,0.006
1759837282.7092733,2,-1.2049999237043545,-0.8299995064723701,-0.7177030444135075,0.0,-1.7350000143031865,-0.3499999642368241,-0.7177030444137227,0.0,-1.9499996900558472,0.19700002670288086,-0.43451541997046655,0.006
1759837282.7194595,2,-1.2049999237043545,-0.8299995064723701,-0.7177030444135075,0.0,-1.7350000143031865,-0.3499999642368241,-0.7177030444137227,0.0,-1.9499996900558472,0.19700002670288086,-0.4345154406055922,0.006
1759837282.729712,2,-1.2049999237043545,-0.8299995064723701,-0.7177030444135075,0.0,-1.7350000143031865,-0.3499999642368241,-0.7177030444137227,0.0,-1.9499996900558472,0.19700002670288086,-0.4345154574039931,0.006
1759837282.7398634,2,-1.2049999237043545,-0.8299995064723701,-0.7177030444135075,0.0,-1.7350000143031865,-0.3499999642368241,-0.7177030444137227,0.0,-1.9499996900558472,0.19700002670288086,-0.4345154720015927,0.006
1759837282.7511628,2,-1.2049999237043545,-0.8299995064723701,-0.7177030444135075,0.0,-1.7350000143031865,-0.3499999642368241,-0.7177030444137227,0.0,-1.9499996900558472,0.19700002670288086,-0.43451547793251066,0.006
1759837282.7620008,2,-1.2049999237043545,-0.8299995064723701,-0.7177030444135075,0.0,-1.7350000143031865,-0.3499999642368241,-0.7177030444137227,0.0,-1.9499996900558472,0.19700002670288086,-0.4345154867143463,0.006
1759837282.7730012,2,-1.2049999237043545,-0.8299995064723701,-0.7177030444135075,0.0,-1.7350000143031865,-0.3499999642368241,-0.7177030444137227,0.0,-1.9499996900558472,0.19700002670288086,-0.43451549456204575,0.006
1759837282.7834265,2,-1.2049999237043545,-0.8299995064723701,-0.7177030444135075,0.0,-1.7350000143031865,-0.3499999642368241,-0.7177030444137227,0.0,-1.9499996900558472,0.19700002670288086,-0.4345155052938807,0.006
1759837282.7936695,2,-1.2049999237043545,-0.8299995064723701,-0.7177030444135075,0.0,-1.7350000143031865,-0.3499999642368241,-0.7177030444137227,0.0,-1.9499996900558472,0.19700002670288086,-0.43451551597727445,0.006
1759837282.803975,2,-1.2049999237043545,-0.8299995064723701,-0.7177030444135075,0.0,-1.7350000143031865,-0.3499999642368241,-0.7177030444137227,0.0,-1.9499996900558472,0.19700002670288086,-0.4345155251209114,0.006
1759837282.8142314,2,-1.2049999237043545,-0.8299995064723701,-0.7177030444135075,0.0,-1.7350000143031865,-0.3499999642368241,-0.7177030444137227,0.0,-1.9499996900558472,0.19700002670288086,-0.4345155335651505,0.006
1759837282.8250012,2,-1.2049999237043545,-0.8299995064723701,-0.7177030444135075,0.0,-1.7350000143031865,-0.3499999642368241,-0.7177030444137227,0.0,-1.9499996900558472,0.19700002670288086,-0.43451553894952966,0.006
1759837282.8357394,2,-1.2049999237043545,-0.8299995064723701,-0.7177030444135075,0.0,-1.7350000143031865,-0.3499999642368241,-0.7177030444137227,0.0,-1.9499996900558472,0.19700002670288086,-0.4345155445729212,0.006
1759837282.846164,2,-1.2049999237043545,-0.8299995064723701,-0.7177030444135075,0.0,-1.7350000143031865,-0.3499999642368241,-0.7177030444137227,0.0,-1.9499996900558472,0.19700002670288086,-0.434515551675414,0.006
1759837282.8574946,2,-1.2049999237043545,-0.8299995064723701,-0.7177030444135075,0.0,-1.7350000143031865,-0.3499999642368241,-0.7177030444137227,0.0,-1.9499996900558472,0.19700002670288086,-0.4345155547637578,0.006
1759837282.8683965,2,-1.2049999237043545,-0.8299995064723701,-0.7177030444135075,0.0,-1.7350000143031865,-0.3499999642368241,-0.7177030444137227,0.0,-1.9499996900558472,0.19700002670288086,-0.4345155602623123,0.006
1759837282.884801,2,-1.2049999237043545,-0.8299995064723701,-0.7177030444135075,0.0,-1.7350000143031865,-0.3499999642368241,-0.7177030444137227,0.0,-1.9499996900558472,0.19700002670288086,-0.43451554554009064,0.006
1759837282.8960721,2,-1.2049999237043545,-0.8299995064723701,-0.7177030444135075,0.0,-1.7350000143031865,-0.3499999642368241,-0.7177030444137227,0.0,-1.9499996900558472,0.19700002670288086,-0.4345155558094973,0.006
1759837282.9063027,2,-1.2049999237043545,-0.8299995064723701,-0.7177030444135075,0.0,-1.7350000143031865,-0.3499999642368241,-0.7177030444137227,0.0,-1.9499996900558472,0.19700002670288086,-0.4345155697887435,0.006
1759837282.917504,2,-1.2049999237043545,-0.8299995064723701,-0.7177030444135075,0.0,-1.7350000143031865,-0.3499999642368241,-0.7177030444137227,0.0,-1.9499996900558472,0.19700002670288086,-0.4345155780471792,0.006
1759837282.9276414,2,-1.2049999237043545,-0.8299995064723701,-0.7177030444135075,0.0,-1.7350000143031865,-0.3499999642368241,-0.7177030444137227,0.0,-1.9499996900558472,0.19700002670288086,-0.4345155885178542,0.006
1759837282.9378498,2,-1.2049999237043545,-0.8299995064723701,-0.7177030444135075,0.0,-1.7350000143031865,-0.3499999642368241,-0.7177030444137227,0.0,-1.9499996900558472,0.19700002670288086,-0.43451559707042087,0.006
1759837282.948131,2,-1.2049999237043545,-0.8299995064723701,-0.7177030444135075,0.0,-1.7350000143031865,-0.3499999642368241,-0.7177030444137227,0.0,-1.9499996900558472,0.19700002670288086,-0.4345156039907269,0.006
1759837282.9583952,2,-1.2049999237043545,-0.8299995064723701,-0.7177030444135075,0.0,-1.7350000143031865,-0.3499999642368241,-0.7177030444137227,0.0,-1.9499996900558472,0.19700002670288086,-0.4345156100059775,0.0
1759837282.9690626,2,-1.2049999237043545,-0.8299995064723701,-0.7177030444135075,0.0,-1.7350000143031865,-0.3499999642368241,-0.7177030444137227,0.0,-1.9499996900558472,0.19700002670288086,-0.43451561418491025,0.0
1759837282.9802456,2,-1.2049999237043545,-0.8299995064723701,-0.7177030444135075,0.0,-1.7350000143031865,-0.3499999642368241,-0.7177030444137227,0.0,-1.9499996900558472,0.19700002670288086,-0.43451561678012673,0.0
1759837282.991141,2,-1.2049999237043545,-0.8299995064723701,-0.7177030444135075,0.0,-1.7350000143031865,-0.3499999642368241,-0.7177030444137227,0.0,-1.9499996900558472,0.19700002670288086,-0.43451562050261217,0.0
1759837283.001913,2,-1.2049999237043545,-0.8299995064723701,-0.7177030444135075,0.0,-1.7350000143031865,-0.3499999642368241,-0.7177030444137227,0.0,-1.9499996900558472,0.19700002670288086,-0.43451562464997195,0.0
1759837283.0125504,2,-1.2049999237043545,-0.8299995064723701,-0.7177030444135075,0.0,-1.7350000143031865,-0.3499999642368241,-0.7177030444137227,0.0,-1.9499996900558472,0.19700002670288086,-0.43451562901658747,0.0
1759837283.0230567,2,-1.2049999237043545,-0.8299995064723701,-0.7177030444135075,0.0,-1.7350000143031865,-0.3499999642368241,-0.7177030444137227,0.0,-1.9499996900558472,0.19700002670288086,-0.43451563344691196,0.0
1759837283.0344882,2,-1.2049999237043545,-0.8299995064723701,-0.7177030444135075,0.0,-1.7350000143031865,-0.3499999642368241,-0.7177030444137227,0.0,-1.9499996900558472,0.19700002670288086,-0.43451563541582594,0.0
1759837283.0447195,2,-1.2049999237043545,-0.8299995064723701,-0.7177030444135075,0.0,-1.7350000143031865,-0.3499999642368241,-0.7177030444137227,0.0,-1.9499996900558472,0.19700002670288086,-0.4345156404174215,0.0
1759837283.05548,2,-1.2049999237043545,-0.8299995064723701,-0.7177030444135075,0.0,-1.7350000143031865,-0.3499999642368241,-0.7177030444137227,0.0,-1.9499996900558472,0.19700002670288086,-0.43451564385032526,0.0
1759837283.0669074,2,-1.2049999237043545,-0.8299995064723701,-0.7177030444135075,0.0,-1.7350000143031865,-0.3499999642368241,-0.7177030444137227,0.0,-1.9499996900558472,0.19700002670288086,-0.434515645710988,0.0
1759837283.0810077,2,-1.2049999237043545,-0.8299995064723701,-0.7177030444135075,0.0,-1.7350000143031865,-0.3499999642368241,-0.7177030444137227,0.0,-1.9499996900558472,0.19700002670288086,-0.4345156426282557,0.0
1759837283.0894084,2,-1.2049999237043545,-0.8299995064723701,-0.7177030444135075,0.0,-1.7350000143031865,-0.3499999642368241,-0.7177030444137227,0.0,-1.9499996900558472,0.19700002670288086,-0.4345156524762661,0.0
1759837283.099665,2,-1.2049999237043545,-0.8299995064723701,-0.7177030444135075,0.0,-1.7350000143031865,-0.3499999642368241,-0.7177030444137227,0.0,-1.9499996900558472,0.19700002670288086,-0.43451565724618035,0.0
1759837283.109866,2,-1.2049999237043545,-0.8299995064723701,-0.7177030444135075,0.0,-1.7350000143031865,-0.3499999642368241,-0.7177030444137227,0.0,-1.9499996900558472,0.19700002670288086,-0.43451566115348683,0.0
1759837283.121141,2,-1.2049999237043545,-0.8299995064723701,-0.7177030444135075,0.0,-1.7350000143031865,-0.3499999642368241,-0.7177030444137227,0.0,-1.9499996900558472,0.19700002670288086,-0.43451566267653696,0.0
1759837283.1326346,2,-1.2049999237043545,-0.8299995064723701,-0.7177030444135075,0.0,-1.7350000143031865,-0.3499999642368241,-0.7177030444137227,0.0,-1.9499996900558472,0.19700002670288086,-0.43451566404708686,0.0
1759837283.1428137,2,-1.2049999237043545,-0.8299995064723701,-0.7177030444135075,0.0,-1.7350000143031865,-0.3499999642368241,-0.7177030444137227,0.0,-1.9499996900558472,0.19700002670288086,-0.4345156679531712,0.0
1759837283.1534262,2,-1.2049999237043545,-0.8299995064723701,-0.7177030444135075,0.0,-1.7350000143031865,-0.3499999642368241,-0.7177030444137227,0.0,-1.9499996900558472,0.19700002670288086,-0.4345156708055775,0.0
1759837283.164616,2,-1.2049999237043545,-0.8299995064723701,-0.7177030444135075,0.0,-1.7350000143031865,-0.3499999642368241,-0.7177030444137227,0.0,-1.9499996900558472,0.19700002670288086,-0.4345156725329069,0.0
1759837283.1750412,2,-1.2049999237043545,-0.8299995064723701,-0.7177030444135075,0.0,-1.7350000143031865,-0.3499999642368241,-0.7177030444137227,0.0,-1.9499996900558472,0.19700002670288086,-0.4345156755072388,0.0
1759837283.1853077,2,-1.2049999237043545,-0.8299995064723701,-0.7177030444135075,0.0,-1.7350000143031865,-0.3499999642368241,-0.7177030444137227,0.0,-1.9499996900558472,0.19700002670288086,-0.43451567849872674,0.0
1759837283.1961257,2,-1.2049999237043545,-0.8299995064723701,-0.7177030444135075,0.0,-1.7350000143031865,-0.3499999642368241,-0.7177030444137227,0.0,-1.9499996900558472,0.19700002670288086,-0.43451568040656247,0.0
1759837283.206368,2,-1.2049999237043545,-0.8299995064723701,-0.7177030444135075,0.0,-1.7350000143031865,-0.3499999642368241,-0.7177030444137227,0.0,-1.9499996900558472,0.19700002670288086,-0.43451568304679,0.0
1759837283.2172906,2,-1.2049999237043545,-0.8299995064723701,-0.7177030444135075,0.0,-1.7350000143031865,-0.3499999642368241,-0.7177030444137227,0.0,-1.9499996900558472,0.19700002670288086,-0.43451568459013146,0.0
1759837283.2284956,2,-1.2049999237043545,-0.8299995064723701,-0.7177030444135075,0.0,-1.7350000143031865,-0.3499999642368241,-0.7177030444137227,0.0,-1.9499996900558472,0.19700002670288086,-0.4345156858240635,0.0
1759837283.2387974,2,-1.2049999237043545,-0.8299995064723701,-0.7177030444135075,0.0,-1.7350000143031865,-0.3499999642368241,-0.7177030444137227,0.0,-1.9499996900558472,0.19700002670288086,-0.4345156883347663,0.0
1759837283.2495089,2,-1.2049999237043545,-0.8299995064723701,-0.7177030444135075,0.0,-1.7350000143031865,-0.3499999642368241,-0.7177030444137227,0.0,-1.9499996900558472,0.19700002670288086,-0.4345156901792997,0.0
1759837283.2631688,2,-1.2049999237043545,-0.8299995064723701,-0.7177030444135075,0.0,-1.7350000143031865,-0.3499999642368241,-0.7177030444137227,0.0,-1.9499996900558472,0.19700002670288086,-0.4345156886393937,0.0
1759837283.274356,2,-1.2049999237043545,-0.8299995064723701,-0.7177030444135075,0.0,-1.7350000143031865,-0.3499999642368241,-0.7177030444137227,0.0,-1.9499996900558472,0.19700002670288086,-0.43451569076456664,0.0
1759837283.2867284,2,-1.2049999237043545,-0.8299995064723701,-0.7177030444135075,0.0,-1.7350000143031865,-0.3499999642368241,-0.7177030444137227,0.0,-1.9499996900558472,0.19700002670288086,-0.4345156917713435,0.0
1759837283.296935,2,-1.2049999237043545,-0.8299995064723701,-0.7177030444135075,0.0,-1.7350000143031865,-0.3499999642368241,-0.7177030444137227,0.0,-1.9499996900558472,0.19700002670288086,-0.4345156951594457,0.0
1759837283.3077092,2,-1.2049999237043545,-0.8299995064723701,-0.7177030444135075,0.0,-1.7350000143031865,-0.3499999642368241,-0.7177030444137227,0.0,-1.9499996900558472,0.19700002670288086,-0.4345156975420199,0.0
1759837283.3202395,2,-1.2049999237043545,-0.8299995064723701,-0.7177030444135075,0.0,-1.7350000143031865,-0.3499999642368241,-0.7177030444137227,0.0,-1.9499996900558472,0.19700002670288086,-0.43451569796725664,0.0
1759837283.3302472,2,-1.2049999237043545,-0.8299995064723701,-0.7177030444135075,0.0,-1.7350000143031865,-0.3499999642368241,-0.7177030444137227,0.0,-1.9499996900558472,0.19700002670288086,-0.4345157009336358,0.0
1759837283.341519,2,-1.2049999237043545,-0.8299995064723701,-0.7177030444135075,0.0,-1.7350000143031865,-0.3499999642368241,-0.7177030444137227,0.0,-1.9499996900558472,0.19700002670288086,-0.4345157024266566,0.0
1759837283.3534255,2,-1.2049999237043545,-0.8299995064723701,-0.7177030444135075,0.0,-1.7350000143031865,-0.3499999642368241,-0.7177030444137227,0.0,-1.9499996900558472,0.19700002670288086,-0.43451570327882116,0.0
1759837283.3648658,2,-1.2049999237043545,-0.8299995064723701,-0.7177030444135075,0.0,-1.7350000143031865,-0.3499999642368241,-0.7177030444137227,0.0,-1.9499996900558472,0.19700002670288086,-0.4345157046525898,0.0
1759837283.3762395,2,-1.2049999237043545,-0.8299995064723701,-0.7177030444135075,0.0,-1.7350000143031865,-0.3499999642368241,-0.7177030444137227,0.0,-1.9499996900558472,0.19700002670288086,-0.43451570609665424,0.0
1759837283.387001,2,-1.2049999237043545,-0.8299995064723701,-0.7177030444135075,0.0,-1.7350000143031865,-0.3499999642368241,-0.7177030444137227,0.0,-1.9499996900558472,0.19700002670288086,-0.43451570794783123,0.0
1759837283.3983626,2,-1.2049999237043545,-0.8299995064723701,-0.7177030444135075,0.0,-1.7350000143031865,-0.3499999642368241,-0.7177030444137227,0.0,-1.9499996900558472,0.19700002670288086,-0.4345157091729259,0.0
1759837283.4094696,2,-1.2049999237043545,-0.8299995064723701,-0.7177030444135075,0.0,-1.7350000143031865,-0.3499999642368241,-0.7177030444137227,0.0,-1.9499996900558472,0.19700002670288086,-0.43451571052182203,0.0
1759837283.4199479,2,-1.2049999237043545,-0.8299995064723701,-0.7177030444135075,0.0,-1.7350000143031865,-0.3499999642368241,-0.7177030444137227,0.0,-1.9499996900558472,0.19700002670288086,-0.4345157122186869,0.0
1759837283.4303644,2,-1.2049999237043545,-0.8299995064723701,-0.7177030444135075,0.0,-1.7350000143031865,-0.3499999642368241,-0.7177030444137227,0.0,-1.9499996900558472,0.19700002670288086,-0.4345157137516402,0.0
1759837283.4417577,2,-1.2049999237043545,-0.8299995064723701,-0.7177030444135075,0.0,-1.7350000143031865,-0.3499999642368241,-0.7177030444137227,0.0,-1.9499996900558472,0.19700002670288086,-0.4345157144744469,0.0
1759837283.452769,2,-1.2049999237043545,-0.8299995064723701,-0.7177030444135075,0.0,-1.7350000143031865,-0.3499999642368241,-0.7177030444137227,0.0,-1.9499996900558472,0.19700002670288086,-0.4345157154632098,0.0
1759837283.4661703,2,-1.2049999237043545,-0.8299995064723701,-0.7177030444135075,0.0,-1.7350000143031865,-0.3499999642368241,-0.7177030444137227,0.0,-1.9499996900558472,0.19700002670288086,-0.4345157150646166,0.0
1759837283.478626,2,-1.2049999237043545,-0.8299995064723701,-0.7177030444135075,0.0,-1.7350000143031865,-0.3499999642368241,-0.7177030444137227,0.0,-1.9499996900558472,0.19700002670288086,-0.43451571561095825,0.0
1759837283.497388,2,-1.2049999237043545,-0.8299995064723701,-0.7177030444135075,0.0,-1.7350000143031865,-0.3499999642368241,-0.7177030444137227,0.0,-1.9499996900558472,0.19700002670288086,-0.4345157131204651,0.0
1759837283.5065405,2,-1.2049999237043545,-0.8299995064723701,-0.7177030444135075,0.0,-1.7350000143031865,-0.3499999642368241,-0.7177030444137227,0.0,-1.9499996900558472,0.19700002670288086,-0.43451571661796967,0.0
1759837283.5165575,2,-1.2049999237043545,-0.8299995064723701,-0.7177030444135075,0.0,-1.7350000143031865,-0.3499999642368241,-0.7177030444137227,0.0,-1.9499996900558472,0.19700002670288086,-0.43451571916078174,0.0
1759837283.5273938,2,-1.2049999237043545,-0.8299995064723701,-0.7177030444135075,0.0,-1.7350000143031865,-0.3499999642368241,-0.7177030444137227,0.0,-1.9499996900558472,0.19700002670288086,-0.43451572070511446,0.0
1759837283.5395977,2,-1.2049999237043545,-0.8299995064723701,-0.7177030444135075,0.0,-1.7350000143031865,-0.3499999642368241,-0.7177030444137227,0.0,-1.9499996900558472,0.19700002670288086,-0.43451572133079,0.0
1759837283.550374,2,-1.2049999237043545,-0.8299995064723701,-0.7177030444135075,0.0,-1.7350000143031865,-0.3499999642368241,-0.7177030444137227,0.0,-1.9499996900558472,0.19700002670288086,-0.4345157225844147,0.0
1759837283.5617218,2,-1.2049999237043545,-0.8299995064723701,-0.7177030444135075,0.0,-1.7350000143031865,-0.3499999642368241,-0.7177030444137227,0.0,-1.9499996900558472,0.19700002670288086,-0.434515723455565,0.0
1759837283.5730278,2,-1.2049999237043545,-0.8299995064723701,-0.7177030444135075,0.0,-1.7350000143031865,-0.3499999642368241,-0.7177030444137227,0.0,-1.9499996900558472,0.19700002670288086,-0.43451572426483764,0.0
1759837283.5842695,2,-1.2049999237043545,-0.8299995064723701,-0.7177030444135075,0.0,-1.7350000143031865,-0.3499999642368241,-0.7177030444137227,0.0,-1.9499996900558472,0.19700002670288086,-0.43451572504830693,0.0
1759837283.5945606,2,-1.2049999237043545,-0.8299995064723701,-0.7177030444135075,0.0,-1.7350000143031865,-0.3499999642368241,-0.7177030444137227,0.0,-1.9499996900558472,0.19700002670288086,-0.4345157261396686,0.0
