timestamp,vehicle_id,x,y,theta,velocity,gps_available,dt,gps_x,gps_y,gps_theta,gps_velocity,control_steering,control_acceleration
1759837280.4646313,2,-1.95,0.197,-0.8848819307611251,0.0,False,0.01,nan,nan,nan,nan,0.0,0.0
1759837280.4753685,2,-1.95,0.197,-0.8848819307611251,0.0,False,0.010737180709838867,nan,nan,nan,nan,0.0,0.0
1759837280.4865751,2,-1.95,0.197,-0.8848819307611251,0.0,False,0.011206626892089844,nan,nan,nan,nan,0.0,0.0
1759837280.4968917,2,-1.95,0.197,-0.8848819307611251,0.0,False,0.010316610336303711,nan,nan,nan,nan,0.0,0.0
1759837280.508137,2,-1.95,0.197,-0.8848819307611251,0.0,False,0.011245250701904297,nan,nan,nan,nan,0.0,0.0
1759837280.5184436,2,-1.95,0.197,-0.8848819307611251,0.0,False,0.010306596755981445,nan,nan,nan,nan,0.0,0.0
1759837280.529255,2,-1.95,0.197,-0.8848819307611251,0.0,False,0.010811328887939453,nan,nan,nan,nan,0.0,0.0
1759837280.5400443,2,-1.95,0.197,-0.8848819307611251,0.0,False,0.01078939437866211,nan,nan,nan,nan,0.0,0.0
1759837280.5514667,2,-1.95,0.197,-0.8848819307611251,0.0,False,0.011422395706176758,nan,nan,nan,nan,0.0,0.0
1759837280.5629625,2,-1.95,0.197,-0.8848819307611251,0.0,False,0.011495828628540039,nan,nan,nan,nan,0.0,0.0
1759837280.573337,2,-1.95,0.197,-0.8848819307611251,0.0,False,0.01037454605102539,nan,nan,nan,nan,0.0,0.0
1759837280.584601,2,-1.95,0.197,-0.8848819307611251,0.0,False,0.011263847351074219,nan,nan,nan,nan,0.0,0.0
1759837280.5958145,2,-1.95,0.197,-0.8848819307611251,0.0,False,0.011213541030883789,nan,nan,nan,nan,0.0,0.0
1759837280.6071908,2,-1.95,0.197,-0.8848819307611251,0.0,False,0.011376380920410156,nan,nan,nan,nan,0.0,0.0
1759837280.6178622,2,-1.95,0.197,-0.8848819307611251,0.0,False,0.010671377182006836,nan,nan,nan,nan,0.0,0.0
1759837280.62859,2,-1.95,0.197,-0.8848819307611251,0.0,False,0.010727882385253906,nan,nan,nan,nan,0.0,0.0
1759837280.6394293,2,-1.95,0.197,-0.8848819307611251,0.0,False,0.010839223861694336,nan,nan,nan,nan,0.0,0.0
1759837280.6501288,2,-1.95,0.197,-0.8848819307611251,0.0,False,0.01069951057434082,nan,nan,nan,nan,0.0,0.0
1759837280.6603558,2,-1.949999692638715,0.19700002648035686,-0.47270519937685584,0.0,True,0.010226964950561523,-1.9499996900558472,0.19700002670288086,-0.43451574444770813,0.0,0.0,0.0
1759837280.6715865,2,-1.9499996909192014,0.19700002662849958,-0.4374846908932355,0.0,True,0.011230707168579102,-1.9499996900558472,0.19700002670288086,-0.43451574444770813,0.0,0.0,0.0
1759837280.6827404,2,-1.9499996903797179,0.19700002667497815,-0.4341683253304449,0.0,True,0.011153936386108398,-1.9499996900558472,0.19700002670288086,-0.43451574444770813,0.0,0.0,0.0
1759837280.694054,2,-1.9499996901792327,0.19700002669225072,-0.4337368540130484,0.0,True,0.011313438415527344,-1.9499996900558472,0.19700002670288086,-0.43451574444770813,0.0,0.0,0.0
1759837280.7053459,2,-1.9499996901029584,0.19700002669882205,-0.43369634877511487,0.0,True,0.011291980743408203,-1.9499996900558472,0.19700002670288086,-0.43451574444770813,0.0,0.0,0.0
1759837280.7161336,2,-1.949999690073841,0.19700002670133063,-0.43376322504169806,0.0,True,0.010787725448608398,-1.9499996900558472,0.19700002670288086,-0.43451574444770813,0.0,0.0,0.0
1759837280.7271266,2,-1.9499996900627201,0.19700002670228872,-0.43384737861350153,0.0,True,0.010993003845214844,-1.9499996900558472,0.19700002670288086,-0.43451574444770813,0.0,0.0,0.0
1759837280.7385101,2,-1.9499996900584724,0.19700002670265468,-0.43392679619715047,0.0,True,0.011383533477783203,-1.9499996900558472,0.19700002670288086,-0.43451574444770813,0.0,0.0,0.0
1759837280.7499788,2,-1.94999969005685,0.19700002670279446,-0.43399968347399387,0.0,True,0.011468648910522461,-1.9499996900558472,0.19700002670288086,-0.43451574444770813,0.0,0.0,0.0
1759837280.7601836,2,-1.9499996900562302,0.19700002670284786,-0.4340730602883962,0.0,True,0.010204792022705078,-1.9499996900558472,0.19700002670288086,-0.43451574444770813,0.0,0.0,0.0
1759837280.771478,2,-1.9499996900559935,0.19700002670286826,-0.43412247644318214,0.0,True,0.011294364929199219,-1.9499996900558472,0.19700002670288086,-0.43451574444770813,0.0,0.0,0.0
1759837280.7828467,2,-1.9499996900559031,0.19700002670287606,-0.43416407517929656,0.0,True,0.011368751525878906,-1.9499996900558472,0.19700002670288086,-0.43451574444770813,0.0,0.0,0.0
1759837280.7936668,2,-1.9499996900558685,0.19700002670287903,-0.43420311121658095,0.0,True,0.010820150375366211,-1.9499996900558472,0.19700002670288086,-0.43451574444770813,0.0,0.0,0.0
1759837280.8050053,2,-1.9499996900558554,0.19700002670288017,-0.43423275170050246,0.0,True,0.011338472366333008,-1.9499996900558472,0.19700002670288086,-0.43451574444770813,0.0,0.0,0.0
1759837280.8162482,2,-1.9499996900558503,0.19700002670288058,-0.43425882110861025,0.0,True,0.011242866516113281,-1.9499996900558472,0.19700002670288086,-0.43451574444770813,0.0,0.0,0.0
1759837280.8275533,2,-1.9499996900558483,0.19700002670288075,-0.43428113603868823,0.0,True,0.011305093765258789,-1.9499996900558472,0.19700002670288086,-0.43451574444770813,0.0,0.0,0.0
1759837280.838824,2,-1.9499996900558476,0.1970000267028808,-0.43430073625274446,0.0,True,0.011270761489868164,-1.9499996900558472,0.19700002670288086,-0.43451574444770813,0.0,0.0,0.0
1759837280.8492491,2,-1.9499996900558474,0.19700002670288083,-0.4343209387703446,0.0,True,0.010425090789794922,-1.9499996900558472,0.19700002670288086,-0.43451574444770813,0.0,0.0,0.0
1759837280.8624368,2,-1.9499996900558472,0.19700002670288086,-0.43432824088161226,0.0,True,0.013187646865844727,-1.9499996900558472,0.19700002670288086,-0.43451574444770813,0.0,0.0,0.0
1759837280.8731036,2,-1.9499996900558472,0.19700002670288086,-0.43434491284252985,0.0,True,0.010666847229003906,-1.9499996900558472,0.19700002670288086,-0.43451574444770813,0.0,0.0,0.0
1759837280.8834655,2,-1.9499996900558472,0.19700002670288086,-0.4343601047559815,0.0,True,0.010361909866333008,-1.9499996900558472,0.19700002670288086,-0.43451574444770813,0.0,0.0,0.0
1759837280.8946185,2,-1.9499996900558472,0.19700002670288086,-0.4343702546035413,0.0,True,0.011152982711791992,-1.9499996900558472,0.19700002670288086,-0.43451574444770813,0.0,0.0,0.0
1759837280.9059398,2,-1.9499996900558472,0.19700002670288086,-0.43437872340970785,0.0,True,0.011321306228637695,-1.9499996900558472,0.19700002670288086,-0.43451574444770813,0.0,0.0,0.0
1759837280.9168777,2,-1.9499996900558472,0.19700002670288086,-0.4343874993615504,0.0,True,0.010937929153442383,-1.9499996900558472,0.19700002670288086,-0.43451574444770813,0.0,0.0,0.0
1759837280.9282904,2,-1.9499996900558472,0.19700002670288086,-0.4343942121123163,0.0,True,0.011412620544433594,-1.9499996900558472,0.19700002670288086,-0.43451574444770813,0.0,0.0,0.0
1759837280.939285,2,-1.9499996900558472,0.19700002670288086,-0.43440144232688027,0.0,True,0.010994672775268555,-1.9499996900558472,0.19700002670288086,-0.43451574444770813,0.0,0.0,0.0
1759837280.9501352,2,-1.9499996900558472,0.19700002670288086,-0.434408285797506,0.0,True,0.010850191116333008,-1.9499996900558472,0.19700002670288086,-0.43451574444770813,0.0,0.0,0.0
1759837280.9609928,2,-1.9499996900558472,0.19700002670288086,-0.4344143436629988,0.0,True,0.010857582092285156,-1.9499996900558472,0.19700002670288086,-0.43451574444770813,0.0,0.0,0.0
1759837280.9722712,2,-1.9499996900558472,0.19700002670288086,-0.43441894809201465,0.0,True,0.011278390884399414,-1.9499996900558472,0.19700002670288086,-0.43451574444770813,0.0,0.0,0.0
1759837280.982953,2,-1.9499996900558472,0.19700002670288086,-0.4344244260456449,0.0,True,0.010681867599487305,-1.9499996900558472,0.19700002670288086,-0.43451574444770813,0.0,0.0,0.0
1759837280.9931598,2,-1.9499996900558472,0.19700002670288086,-0.4344301784940754,0.0,True,0.01020669937133789,-1.9499996900558472,0.19700002670288086,-0.43451574444770813,0.0,0.0,0.0
1759837281.0032809,2,-1.9499996900558472,0.19700002670288086,-0.4344352464452612,0.0,True,0.01012110710144043,-1.9499996900558472,0.19700002670288086,-0.43451574444770813,0.0,0.0,0.0
1759837281.0145726,2,-1.9499996900558472,0.19700002670288086,-0.43443766652959326,0.0,True,0.011291742324829102,-1.9499996900558472,0.19700002670288086,-0.43451574444770813,0.0,0.0,0.0
1759837281.0253356,2,-1.9499996900558472,0.19700002670288086,-0.43444099277800774,0.0,True,0.010762929916381836,-1.9499996900558472,0.19700002670288086,-0.43451574444770813,0.0,0.0,0.0
1759837281.0361462,2,-1.9499996900558472,0.19700002670288086,-0.43444412962470835,0.0,True,0.010810613632202148,-1.9499996900558472,0.19700002670288086,-0.43451574444770813,0.0,0.0,0.0
1759837281.0464752,2,-1.9499996900558472,0.19700002670288086,-0.4344477948745329,0.0,True,0.010329008102416992,-1.9499996900558472,0.19700002670288086,-0.43451574444770813,0.0,0.0,0.0
1759837281.0604951,2,-1.9499996900558472,0.19700002670288086,-0.43444604685273625,0.0,True,0.014019966125488281,-1.9499996900558472,0.19700002670288086,-0.43451574444770813,0.0,0.0,0.0
1759837281.0720122,2,-1.9499996900558472,0.19700002670288086,-0.4344489410847743,0.0,True,0.011517047882080078,-1.9499996900558472,0.19700002670288086,-0.43451574444770813,0.0,0.0,0.0
1759837281.0820262,2,-1.9499996900558472,0.19700002670288086,-0.43445386549786136,0.0,True,0.010014057159423828,-1.9499996900558472,0.19700002670288086,-0.43451574444770813,0.0,0.0,0.0
1759837281.0933623,2,-1.9499996900558472,0.19700002670288086,-0.43445640371383476,0.0,True,0.011336088180541992,-1.9499996900558472,0.19700002670288086,-0.43451574444770813,0.0,0.0,0.0
1759837281.1046858,2,-1.9499996900558472,0.19700002670288086,-0.4344587276707941,0.0,True,0.01132345199584961,-1.9499996900558472,0.19700002670288086,-0.43451574444770813,0.0,0.0,0.0
1759837281.1160202,2,-1.9499996900558472,0.19700002670288086,-0.43446096443987514,0.0,True,0.011334419250488281,-1.9499996900558472,0.19700002670288086,-0.43451574444770813,0.0,0.0,0.0
1759837281.1266499,2,-1.9499996900558472,0.19700002670288086,-0.4344638713278446,0.0,True,0.010629653930664062,-1.9499996900558472,0.19700002670288086,-0.43451574444770813,0.0,0.0,0.0
1759837281.1369162,2,-1.9499996900558472,0.19700002670288086,-0.43446682344931276,0.0,True,0.010266304016113281,-1.9499996900558472,0.19700002670288086,-0.43451574444770813,0.0,0.0,0.0
1759837281.148213,2,-1.9499996900558472,0.19700002670288086,-0.4344683367418334,0.0,True,0.011296749114990234,-1.9499996900558472,0.19700002670288086,-0.43451574444770813,0.0,0.0,0.0
1759837281.1595254,2,-1.9499996900558472,0.19700002670288086,-0.43446981279626584,0.0,True,0.011312484741210938,-1.9499996900558472,0.19700002670288086,-0.43451574444770813,0.0,0.0,0.0
1759837281.1707928,2,-1.9499996900558472,0.19700002670288086,-0.4344713795424475,0.0,True,0.011267423629760742,-1.9499996900558472,0.19700002670288086,-0.43451574444770813,0.0,0.0,0.0
1759837281.1820107,2,-1.9499996900558472,0.19700002670288086,-0.4344729962266136,0.0,True,0.011217832565307617,-1.9499996900558472,0.19700002670288086,-0.43451574444770813,0.0,0.0,0.0
1759837281.1923146,2,-1.9499996900558472,0.19700002670288086,-0.4344753437493516,0.0,True,0.010303974151611328,-1.9499996900558472,0.19700002670288086,-0.43451574444770813,0.0,0.0,0.0
1759837281.2036471,2,-1.9499996900558472,0.19700002670288086,-0.4344765659787573,0.0,True,0.011332511901855469,-1.9499996900558472,0.19700002670288086,-0.43451574444770813,0.0,0.0,0.0
1759837281.2149627,2,-1.9499996900558472,0.19700002670288086,-0.4344777857117297,0.0,True,0.011315584182739258,-1.9499996900558472,0.19700002670288086,-0.43451574444770813,0.0,0.0,0.0
1759837281.2263243,2,-1.9499996900558472,0.19700002670288086,-0.4344790041632951,0.0,True,0.01136159896850586,-1.9499996900558472,0.19700002670288086,-0.43451574444770813,0.0,0.0,0.0
1759837281.23668,2,-1.9499996900558472,0.19700002670288086,-0.43448096703744454,0.0,True,0.010355710983276367,-1.9499996900558472,0.19700002670288086,-0.43451574444770813,0.0,0.0,0.0
1759837281.2472546,2,-1.9499996900558472,0.19700002670288086,-0.43448254674555997,0.0,True,0.010574579238891602,-1.9499996900558472,0.19700002670288086,-0.43451574444770813,0.0,0.0,0.0
1759837281.263715,2,-1.9499996900558472,0.19700002670288086,-0.43448004835548915,0.0,True,0.016460418701171875,-1.9499996900558472,0.19700002670288086,-0.43451574444770813,0.0,0.0,0.0
1759837281.2745593,2,-1.9499996900558472,0.19700002670288086,-0.4344822682457341,0.0,True,0.010844230651855469,-1.9499996900558472,0.19700002670288086,-0.43451574444770813,0.0,0.0,0.0
1759837281.2859385,2,-1.9499996900558472,0.19700002670288086,-0.43448407579269777,0.0,True,0.011379241943359375,-1.9499996900558472,0.19700002670288086,-0.43451574444770813,0.0,0.0,0.0
1759837281.2973154,2,-1.9499996900558472,0.19700002670288086,-0.4344856408010571,0.0,True,0.01137685775756836,-1.9499996900558472,0.19700002670288086,-0.43451574444770813,0.0,0.0,0.0
1759837281.3073509,2,-1.9499996900558472,0.19700002670288086,-0.43448778107857855,0.0,True,0.010035514831542969,-1.9499996900558472,0.19700002670288086,-0.43451574444770813,0.0,0.0,0.0
1759837281.3176525,2,-1.9499996900558472,0.19700002670288086,-0.4344894018585883,0.0,True,0.010301589965820312,-1.9499996900558472,0.19700002670288086,-0.43451574444770813,0.0,0.0,0.0
1759837281.3285372,2,-1.9499996900558472,0.19700002670288086,-0.43449043089134065,0.0,True,0.010884761810302734,-1.9499996900558472,0.19700002670288086,-0.43451574444770813,0.0,0.0,0.0
1759837281.3399634,2,-1.9499996900558472,0.19700002670288086,-0.434491083222321,0.0,True,0.011426210403442383,-1.9499996900558472,0.19700002670288086,-0.43451574444770813,0.0,0.0,0.0
1759837281.3513372,2,-1.9499996900558472,0.19700002670288086,-0.43449179628430734,0.0,True,0.011373758316040039,-1.9499996900558472,0.19700002670288086,-0.43451574444770813,0.0,0.0,0.0
1759837281.3627305,2,-1.9499996900558472,0.19700002670288086,-0.4344925327233149,0.0,True,0.011393308639526367,-1.9499996900558472,0.19700002670288086,-0.43451574444770813,0.0,0.0,0.0
1759837281.3730705,2,-1.9499996900558472,0.19700002670288086,-0.43449376434003106,0.0,True,0.010339975357055664,-1.9499996900558472,0.19700002670288086,-0.43451574444770813,0.0,0.0,0.0
1759837281.3838751,2,-1.9499996900558472,0.19700002670288086,-0.43449464309096797,0.0,True,0.01080465316772461,-1.9499996900558472,0.19700002670288086,-0.43451574444770813,0.0,0.0,0.0
1759837281.3943524,2,-1.9499996900558472,0.19700002670288086,-0.43449557523194926,0.0,True,0.010477304458618164,-1.9499996900558472,0.19700002670288086,-0.43451574444770813,0.0,0.0,0.0
1759837281.4045532,2,-1.9499996900558472,0.19700002670288086,-0.4344965257751259,0.0,True,0.010200738906860352,-1.9499996900558472,0.19700002670288086,-0.43451574444770813,0.0,0.0,0.0
1759837281.4154305,2,-1.9499996900558472,0.19700002670288086,-0.4344970876007075,0.0,True,0.010877370834350586,-1.9499996900558472,0.19700002670288086,-0.43451574444770813,0.0,0.0,0.0
1759837281.4258301,2,-1.9499996900558472,0.19700002670288086,-0.4344978191976967,0.0,True,0.010399580001831055,-1.9499996900558472,0.19700002670288086,-0.43451574444770813,0.0,0.0,0.0
1759837281.4372525,2,-1.9499996900558472,0.19700002670288086,-0.43449811775983704,0.0,True,0.011422395706176758,-1.9499996900558472,0.19700002670288086,-0.43451574444770813,0.0,0.0,0.0
1759837281.4488063,2,-1.9499996900558472,0.19700002670288086,-0.434498433855957,0.0,True,0.011553764343261719,-1.9499996900558472,0.19700002670288086,-0.43451574444770813,0.0,0.0,0.0
1759837281.4629166,2,-1.9499996900558472,0.19700002670288086,-0.434497959644073,0.0,True,0.014110326766967773,-1.9499996900558472,0.19700002670288086,-0.43451574444770813,0.0,0.0,0.0
1759837281.4742641,2,-1.9499996900558472,0.19700002670288086,-0.4344987421824822,0.0,True,0.011347532272338867,-1.9499996900558472,0.19700002670288086,-0.43451574444770813,0.0,0.0,0.0
1759837281.4855313,2,-1.9499996900558472,0.19700002670288086,-0.43449955597989387,0.0,True,0.01126718521118164,-1.9499996900558472,0.19700002670288086,-0.43451574444770813,0.0,0.0,0.0
1759837281.4967825,2,-1.9499996900558472,0.19700002670288086,-0.4345002917996066,0.0,True,0.011251211166381836,-1.9499996900558472,0.19700002670288086,-0.43451574444770813,0.0,0.0,0.0
1759837281.5075955,2,-1.9499996900558472,0.19700002670288086,-0.43450108313660785,0.0,True,0.010812997817993164,-1.9499996900558472,0.19700002670288086,-0.43451574444770813,0.0,0.0,0.0
1759837281.5183637,2,-1.9499996900558472,0.19700002670288086,-0.4345017886901825,0.0,True,0.01076817512512207,-1.9499996900558472,0.19700002670288086,-0.43451574444770813,0.0,0.0,0.0
1759837281.52938,2,-1.9499996900558472,0.19700002670288086,-0.4345023380299047,0.0,True,0.011016368865966797,-1.9499996900558472,0.19700002670288086,-0.43451574444770813,0.0,0.0,0.0
1759837281.5407383,2,-1.9499996900558472,0.19700002670288086,-0.4345027507096262,0.0,True,0.011358261108398438,-1.9499996900558472,0.19700002670288086,-0.43451574444770813,0.0,0.0,0.0
1759837281.5514588,2,-1.9499996900558472,0.19700002670288086,-0.4345033243756191,0.0,True,0.010720491409301758,-1.9499996900558472,0.19700002670288086,-0.43451574444770813,0.0,0.0,0.0
1759837281.5627236,2,-1.9499996900558472,0.19700002670288086,-0.43450371409149824,0.0,True,0.011264801025390625,-1.9499996900558472,0.19700002670288086,-0.43451574444770813,0.0,0.0,0.0
1759837281.5739827,2,-1.9499996900558472,0.19700002670288086,-0.43450409611474505,0.0,True,0.011259078979492188,-1.9499996900558472,0.19700002670288086,-0.43451574444770813,0.0,0.0,0.0
1759837281.5852654,2,-1.9499996900558472,0.19700002670288086,-0.43450447213998444,0.0,True,0.011282682418823242,-1.9499996900558472,0.19700002670288086,-0.43451574444770813,0.0,0.0,0.0
1759837281.595997,2,-1.9499996900558472,0.19700002670288086,-0.4345049683895539,0.0,True,0.010731697082519531,-1.9499996900558472,0.19700002670288086,-0.43451574444770813,0.0,0.0,0.0
1759837281.60681,2,-1.9499996900558472,0.19700002670288086,-0.43450540382321634,0.0,True,0.010812997817993164,-1.9499996900558472,0.19700002670288086,-0.43451574444770813,0.0,0.0,0.0
1759837281.6180015,2,-1.9499996900558472,0.19700002670288086,-0.43450572238531393,0.0,True,0.011191368103027344,-1.9499996900558472,0.19700002670288086,-0.43451574444770813,0.0,0.0,0.0
1759837281.628795,2,-1.9499996900558472,0.19700002670288086,-0.4345061158997314,0.0,True,0.010793447494506836,-1.9499996900558472,0.19700002670288086,-0.43451574444770813,0.0,0.0,0.0
1759837281.6394837,2,-1.9499996900558472,0.19700002670288086,-0.4345065048240393,0.0,True,0.01068878173828125,-1.9499996900558472,0.19700002670288086,-0.43451574444770813,0.0,0.0,0.0
1759837281.6508942,2,-1.9499996900558472,0.19700002670288086,-0.4345067258842725,0.0,True,0.01141047477722168,-1.9499996900558472,0.19700002670288086,-0.43451574444770813,0.0,0.0,0.0
1759837281.6623063,2,-1.9499996900558472,0.19700002670288086,-0.43450696113757026,0.0,True,0.01141214370727539,-1.9499996900558472,0.19700002670288086,-0.43451574444770813,0.0,0.0,0.0
1759837281.6735857,2,-1.9499996900558472,0.19700002670288086,-0.4345072378123831,0.0,True,0.01127934455871582,-1.9499996900558472,0.19700002670288086,-0.43451574444770813,0.0,0.0,0.0
1759837281.684851,2,-1.9499996900558472,0.19700002670288086,-0.43450752008214444,0.0,True,0.011265277862548828,-1.9499996900558472,0.19700002670288086,-0.43451574444770813,0.0,0.0,0.0
1759837281.6963077,2,-1.9499996900558472,0.19700002670288086,-0.4345077680218772,0.0,True,0.011456727981567383,-1.9499996900558472,0.19700002670288086,-0.43451574444770813,0.0,0.0,0.0
1759837281.7067053,2,-1.9499996900558472,0.19700002670288086,-0.43450818516687306,0.0,True,0.010397672653198242,-1.9499996900558472,0.19700002670288086,-0.43451574444770813,0.0,0.0,0.0
1759837281.7179992,2,-1.9499996900558472,0.19700002670288086,-0.43450841763471004,0.0,True,0.011293888092041016,-1.9499996900558472,0.19700002670288086,-0.43451574444770813,0.0,0.0,0.0
1759837281.7293706,2,-1.9499996900558472,0.19700002670288086,-0.4345086308664108,0.0,True,0.011371374130249023,-1.9499996900558472,0.19700002670288086,-0.43451574444770813,0.0,0.0,0.0
1759837281.7406735,2,-1.9499996900558472,0.19700002670288086,-0.4345088595176332,0.0,True,0.011302947998046875,-1.9499996900558472,0.19700002670288086,-0.43451574444770813,0.0,0.0,0.0
1759837281.7520642,2,-1.9499996900558472,0.19700002670288086,-0.4345090766064299,0.0,True,0.01139068603515625,-1.9499996900558472,0.19700002670288086,-0.43451574444770813,0.0,0.0,0.0
1759837281.7629642,2,-1.9499996900558472,0.19700002670288086,-0.43450935845019956,0.0,True,0.010900020599365234,-1.9499996900558472,0.19700002670288086,-0.43451574444770813,0.0,0.0,0.0
1759837281.774334,2,-1.9499996900558472,0.19700002670288086,-0.4345095600119606,0.0,True,0.011369705200195312,-1.9499996900558472,0.19700002670288086,-0.43451574444770813,0.0,0.0,0.0
1759837281.7852783,2,-1.9499996900558472,0.19700002670288086,-0.43450980971649855,0.0,True,0.010944366455078125,-1.9499996900558472,0.19700002670288086,-0.43451574444770813,0.0,0.0,0.0
1759837281.7953956,2,-1.9499996900558472,0.19700002670288086,-0.4345101403258589,0.0,True,0.010117292404174805,-1.9499996900558472,0.19700002670288086,-0.43451574444770813,0.0,0.0,0.0
1759837281.8065722,2,-1.9499996900558472,0.19700002670288086,-0.4345103028855313,0.0,True,0.011176586151123047,-1.9499996900558472,0.19700002670288086,-0.43451574444770813,0.0,0.0,0.0
1759837281.8177474,2,-1.9499996900558472,0.19700002670288086,-0.4345104599720031,0.0,True,0.011175155639648438,-1.9499996900558472,0.19700002670288086,-0.43451574444770813,0.0,0.0,0.0
1759837281.8289914,2,-1.9499996900558472,0.19700002670288086,-0.4345106135540888,0.0,True,0.011244058609008789,-1.9499996900558472,0.19700002670288086,-0.43451574444770813,0.0,0.0,0.0
1759837281.8392866,2,-1.9499996900558472,0.19700002670288086,-0.4345108682729304,0.0,True,0.01029515266418457,-1.9499996900558472,0.19700002670288086,-0.43451574444770813,0.0,0.0,0.0
1759837281.850099,2,-1.9499996900558472,0.19700002670288086,-0.4345110431249033,0.0,True,0.010812520980834961,-1.9499996900558472,0.19700002670288086,-0.43451574444770813,0.0,0.0,0.0
1759837281.8640287,2,-1.9499996900558472,0.19700002670288086,-0.43451090789182345,0.0,True,0.013929605484008789,-1.9499996900558472,0.19700002670288086,-0.43451574444770813,0.0,0.0,0.0
1759837281.875463,2,-1.9499996900558472,0.19700002670288086,-0.43451108876421607,0.0,True,0.011434316635131836,-1.9499996900558472,0.19700002670288086,-0.43451574444770813,0.0,0.0,0.0
1759837281.8866017,2,-1.9499996900558472,0.19700002670288086,-0.43451130588324816,0.0,True,0.011138677597045898,-1.9499996900558472,0.19700002670288086,-0.43451574444770813,0.0,0.0,0.0
1759837281.8974802,2,-1.9499996900558472,0.19700002670288086,-0.4345115246540381,0.0,True,0.010878562927246094,-1.9499996900558472,0.19700002670288086,-0.43451574444770813,0.0,0.0,0.0
1759837281.908433,2,-1.9499996900558472,0.19700002670288086,-0.434511711018871,0.0,True,0.01095271110534668,-1.9499996900558472,0.19700002670288086,-0.43451574444770813,0.0,0.0,0.0
1759837281.919681,2,-1.9499996900558472,0.19700002670288086,-0.43451185414681426,0.0,True,0.011248111724853516,-1.9499996900558472,0.19700002670288086,-0.43451574444770813,0.0,0.0,0.0
1759837281.9300082,2,-1.9499996900558472,0.19700002670288086,-0.4345120602208645,0.0,True,0.01032710075378418,-1.9499996900558472,0.19700002670288086,-0.43451574444770813,0.0,0.0,0.0
1759837281.9406679,2,-1.9499996900558472,0.19700002670288086,-0.43451221527143247,0.0,True,0.01065969467163086,-1.9499996900558472,0.19700002670288086,-0.43451574444770813,0.0,0.0,0.0
1759837281.9509904,2,-1.9499996900558472,0.19700002670288086,-0.4345123770005408,0.0,True,0.01032257080078125,-1.9499996900558472,0.19700002670288086,-0.43451574444770813,0.0,0.0,0.0
1759837281.9612863,2,-1.9499996900558472,0.19700002670288086,-0.4345125216133283,0.0,True,0.010295867919921875,-1.9499996900558472,0.19700002670288086,-0.43451574444770813,0.0,0.0,0.0
1759837281.97164,2,-1.9499996900558472,0.19700002670288086,-0.43451264576677495,0.0,True,0.010353803634643555,-1.9499996900558472,0.19700002670288086,-0.43451574444770813,0.0,0.0,0.0
1759837281.9827104,2,-1.9499996900558472,0.19700002670288086,-0.4345127116351204,0.0,True,0.01107025146484375,-1.9499996900558472,0.19700002670288086,-0.43451574444770813,0.0,0.0,0.0
1759837281.9940147,2,-1.9499996900558472,0.19700002670288086,-0.43451276858007404,0.0,True,0.011304378509521484,-1.9499996900558472,0.19700002670288086,-0.43451574444770813,0.0,0.0,0.0
1759837282.005255,2,-1.9499996900558472,0.19700002670288086,-0.4345128411812169,0.0,True,0.011240243911743164,-1.9499996900558472,0.19700002670288086,-0.43451574444770813,0.0,0.0,0.0
1759837282.01654,2,-1.9499996900558472,0.19700002670288086,-0.43451291877008735,0.0,True,0.011285066604614258,-1.9499996900558472,0.19700002670288086,-0.43451574444770813,0.0,0.0,0.0
1759837282.0273895,2,-1.9499996900558472,0.19700002670288086,-0.4345130258913503,0.0,True,0.010849475860595703,-1.9499996900558472,0.19700002670288086,-0.43451574444770813,0.0,0.0,0.0
1759837282.0385294,2,-1.9499996900558472,0.19700002670288086,-0.43451311208681,0.0,True,0.011139869689941406,-1.9499996900558472,0.19700002670288086,-0.43451574444770813,0.0,0.0,0.0
1759837282.049438,2,-1.9499996900558472,0.19700002670288086,-0.43451320894344114,0.0,True,0.01090860366821289,-1.9499996900558472,0.19700002670288086,-0.43451574444770813,0.0,0.0,0.0
1759837282.0659854,2,-1.9499996900558472,0.19700002670288086,-0.43451301872735115,0.0,True,0.016547441482543945,-1.9499996900558472,0.19700002670288086,-0.43451574444770813,0.0,0.0,0.0
1759837282.0772064,2,-1.9499996900558472,0.19700002670288086,-0.4345131722870992,0.0,True,0.011220932006835938,-1.9499996900558472,0.19700002670288086,-0.43451574444770813,0.0,0.0,0.0
1759837282.0878663,2,-1.9499996900558472,0.19700002670288086,-0.4345133494347184,0.0,True,0.010659933090209961,-1.9499996900558472,0.19700002670288086,-0.43451574444770813,0.0,0.0,0.0
1759837282.098133,2,-1.9499996900558472,0.19700002670288086,-0.43451351353149725,0.0,True,0.010266780853271484,-1.9499996900558472,0.19700002670288086,-0.43451574444770813,0.0,0.0,0.0
1759837282.1090937,2,-1.9499996900558472,0.19700002670288086,-0.4345136166711683,0.0,True,0.010960578918457031,-1.9499996900558472,0.19700002670288086,-0.43451574444770813,0.0,0.0,0.0
1759837282.120531,2,-1.9499996900558472,0.19700002670288086,-0.4345136854975067,0.0,True,0.011437416076660156,-1.9499996900558472,0.19700002670288086,-0.43451574444770813,0.0,0.0,0.0
1759837282.1313684,2,-1.9499996900558472,0.19700002670288086,-0.4345137763388962,0.0,True,0.010837316513061523,-1.9499996900558472,0.19700002670288086,-0.43451574444770813,0.0,0.0,0.0
1759837282.1426063,2,-1.9499996900558472,0.19700002670288086,-0.4345138437765641,0.0,True,0.011237859725952148,-1.9499996900558472,0.19700002670288086,-0.43451574444770813,0.0,0.0,0.0
1759837282.1539152,2,-1.9499996900558472,0.19700002670288086,-0.4345139054684033,0.0,True,0.011308908462524414,-1.9499996900558472,0.19700002670288086,-0.43451574444770813,0.0,0.0,0.0
1759837282.1648283,2,-1.9499996900558472,0.19700002670288086,-0.43451398065987057,0.0,True,0.01091313362121582,-1.9499996900558472,0.19700002670288086,-0.43451574444770813,0.0,0.0,0.0
1759837282.1761036,2,-1.9499996900558472,0.19700002670288086,-0.4345140378533081,0.0,True,0.011275291442871094,-1.9499996900558472,0.19700002670288086,-0.43451574444770813,0.0,0.0,0.0
1759837282.1868947,2,-1.9499996900558472,0.19700002670288086,-0.4345141098477754,0.0,True,0.01079106330871582,-1.9499996900558472,0.19700002670288086,-0.43451574444770813,0.0,0.0,0.0
1759837282.1982121,2,-1.9499996900558472,0.19700002670288086,-0.43451415893212797,0.0,True,0.01131749153137207,-1.9499996900558472,0.19700002670288086,-0.43451574444770813,0.0,0.0,0.0
1759837282.2085714,2,-1.9499996900558472,0.19700002670288086,-0.43451423770135555,0.0,True,0.01035928726196289,-1.9499996900558472,0.19700002670288086,-0.43451574444770813,0.0,0.0,0.0
1759837282.219972,2,-1.9499996900558472,0.19700002670288086,-0.43451427587927327,0.0,True,0.011400461196899414,-1.9499996900558472,0.19700002670288086,-0.43451574444770813,0.0,0.0,0.0
1759837282.230802,2,-1.9499996900558472,0.19700002670288086,-0.4345143316184803,0.0,True,0.010830163955688477,-1.9499996900558472,0.19700002670288086,-0.43451574444770813,0.0,0.0,0.0
1759837282.2418473,2,-1.9499996900558472,0.19700002670288086,-0.4345143785694745,0.0,True,0.011045217514038086,-1.9499996900558472,0.19700002670288086,-0.43451574444770813,0.0,0.0,0.0
1759837282.253058,2,-1.9499996900558472,0.19700002670288086,-0.43451441937595625,0.0,True,0.01121068000793457,-1.9499996900558472,0.19700002670288086,-0.43451574444770813,0.0,0.0,0.0
1759837282.2683527,2,-1.9499996900558472,0.19700002670288086,-0.43451435375168934,0.0,True,0.015294790267944336,-1.9499996900558472,0.19700002670288086,-0.43451574444770813,0.0,0.0,0.0
1759837282.2793617,2,-1.9499996900558472,0.19700002670288086,-0.43451443063274553,0.0,True,0.011008977890014648,-1.9499996900558472,0.19700002670288086,-0.43451574444770813,0.0,0.0,0.0
1759837282.2902615,2,-1.9499996900558472,0.19700002670288086,-0.4345145073534926,0.0,True,0.010899782180786133,-1.9499996900558472,0.19700002670288086,-0.43451574444770813,0.0,0.0,0.0
1759837282.3012,2,-1.9499996900558472,0.19700002670288086,-0.43451457154727535,0.0,True,0.010938405990600586,-1.9499996900558472,0.19700002670288086,-0.43451574444770813,0.0,0.0,0.0
1759837282.312302,2,-1.9499996900558472,0.19700002670288086,-0.43451462298524035,0.0,True,0.01110219955444336,-1.9499996900558472,0.19700002670288086,-0.43451574444770813,0.0,0.0,0.0
1759837282.3237386,2,-1.9499996900558472,0.19700002670288086,-0.4345146616731057,0.0,True,0.01143646240234375,-1.9499996900558472,0.19700002670288086,-0.43451574444770813,0.0,0.0,0.0
1759837282.3345585,2,-1.9499996900558472,0.19700002670288086,-0.43451471170932976,0.0,True,0.01081991195678711,-1.9499996900558472,0.19700002670288086,-0.43451574444770813,0.0,0.0,0.0
1759837282.345052,2,-1.9499996900558472,0.19700002670288086,-0.4345147634732651,0.0,True,0.01049351692199707,-1.9499996900558472,0.19700002670288086,-0.43451574444770813,0.0,0.0,0.0
1759837282.3562965,2,-1.9499996900558472,0.19700002670288086,-0.4345147936730527,0.0,True,0.011244535446166992,-1.9499996900558472,0.19700002670288086,-0.43451574444770813,0.0,0.0,0.0
1759837282.3677497,2,-1.9499996900558472,0.19700002670288086,-0.4345148188515999,0.0,True,0.01145315170288086,-1.9499996900558472,0.19700002670288086,-0.43451574444770813,0.0,0.0,0.0
1759837282.3780458,2,-1.9499996900558472,0.19700002670288086,-0.43451486657383853,0.0,True,0.010296106338500977,-1.9499996900558472,0.19700002670288086,-0.43451574444770813,0.0,0.0,0.0
1759837282.3889813,2,-1.9499996900558472,0.19700002670288086,-0.43451489745095273,0.0,True,0.010935544967651367,-1.9499996900558472,0.19700002670288086,-0.43451574444770813,0.0,0.0,0.0
1759837282.3992286,2,-1.9499996900558472,0.19700002670288086,-0.4345149378153508,0.0,True,0.010247230529785156,-1.9499996900558472,0.19700002670288086,-0.43451574444770813,0.0,0.0,0.0
1759837282.4095287,2,-1.9499996900558472,0.19700002670288086,-0.4345149726241395,0.0,True,0.010300159454345703,-1.9499996900558472,0.19700002670288086,-0.43451574444770813,0.0,0.0,0.0
1759837282.4197607,2,-1.9499996900558472,0.19700002670288086,-0.4345150044172126,0.0,True,0.010231971740722656,-1.9499996900558472,0.19700002670288086,-0.43451574444770813,0.0,0.0,0.0
1759837282.43051,2,-1.9499996900558472,0.19700002670288086,-0.43451502470855274,0.0,True,0.010749340057373047,-1.9499996900558472,0.19700002670288086,-0.43451574444770813,0.0,0.0,0.0
1759837282.4409323,2,-1.9499996900558472,0.19700002670288086,-0.434515049758625,0.0,True,0.010422229766845703,-1.9499996900558472,0.19700002670288086,-0.43451574444770813,0.0,0.0,0.0
1759837282.451732,2,-1.9499996900558472,0.19700002670288086,-0.4345150681101977,0.0,True,0.010799646377563477,-1.9499996900558472,0.19700002670288086,-0.43451574444770813,0.0,0.0,0.0
1759837282.470596,2,-1.9499996900558472,0.19700002670288086,-0.43451497503286163,0.0,True,0.018864154815673828,-1.9499996900558472,0.19700002670288086,-0.43451574444770813,0.0,0.6,0.0
1759837282.4767983,2,-1.9499996900558472,0.19700002670288086,-0.43451508722304233,0.0,True,0.006202220916748047,-1.9499996900558472,0.19700002670288086,-0.43451574444770813,0.0,0.6,0.0
1759837282.4870746,2,-1.9499996900558472,0.19700002670288086,-0.4345151269950023,0.0,True,0.010276317596435547,-1.9499996900558472,0.19700002670288086,-0.43451574444770813,0.0,0.6,0.0
1759837282.4984314,2,-1.9499996900558472,0.19700002670288086,-0.4345151424453704,0.0,True,0.011356830596923828,-1.9499996900558472,0.19700002670288086,-0.43451574444770813,0.0,0.6,0.0
1759837282.5093153,2,-1.9499996900558472,0.19700002670288086,-0.43451516356625497,0.0,True,0.010883808135986328,-1.9499996900558472,0.19700002670288086,-0.43451574444770813,0.0,0.6,0.0
1759837282.520684,2,-1.9499996900558472,0.19700002670288086,-0.43451517840641785,0.0,True,0.011368751525878906,-1.9499996900558472,0.19700002670288086,-0.43451574444770813,0.0,0.6,0.0
1759837282.5314198,2,-1.9499996900558472,0.19700002670288086,-0.43451520121600495,0.0,True,0.010735750198364258,-1.9499996900558472,0.19700002670288086,-0.43451574444770813,0.0,0.6,0.0
1759837282.541776,2,-1.9499996900558472,0.19700002670288086,-0.4345152267673509,0.0,True,0.01035618782043457,-1.9499996900558472,0.19700002670288086,-0.43451574444770813,0.0,0.6,0.0
1759837282.5526643,2,-1.9499996900558472,0.19700002670288086,-0.43451524367877425,0.0,True,0.010888338088989258,-1.9499996900558472,0.19700002670288086,-0.43451574444770813,0.0,0.6,0.0
1759837282.5630271,2,-1.9499996900558472,0.19700002670288086,-0.43451526508921035,0.0,True,0.010362863540649414,-1.9499996900558472,0.19700002670288086,-0.43451574444770813,0.0,0.6,0.0
1759837282.57345,2,-1.9499996900558472,0.19700002670288086,-0.4345152839219786,0.0,True,0.010422945022583008,-1.9499996900558472,0.19700002670288086,-0.43451574444770813,0.0,0.6,0.0
1759837282.5847273,2,-1.9499996900558472,0.19700002670288086,-0.43451529279819745,0.0,True,0.011277198791503906,-1.9499996900558472,0.19700002670288086,-0.43451574444770813,0.0,0.6,0.0
1759837282.5957556,2,-1.9499996900558472,0.19700002670288086,-0.43451530519062587,0.0,True,0.011028289794921875,-1.9499996900558472,0.19700002670288086,-0.43451574444770813,0.0,0.6,0.0
1759837282.6061664,2,-1.9499996900558472,0.19700002670288086,-0.43451532379147473,0.0,True,0.010410785675048828,-1.9499996900558472,0.19700002670288086,-0.43451574444770813,0.0,0.6,0.0
1759837282.616478,2,-1.9499996900558472,0.19700002670288086,-0.4345153417385852,0.0,True,0.010311603546142578,-1.9499996900558472,0.19700002670288086,-0.43451574444770813,0.0,0.6,0.0
1759837282.6268246,2,-1.9499996900558472,0.19700002670288086,-0.4345153574772258,0.0,True,0.010346651077270508,-1.9499996900558472,0.19700002670288086,-0.43451574444770813,0.0,0.6,0.0
1759837282.6378205,2,-1.9499996900558472,0.19700002670288086,-0.43451536646225364,0.0,True,0.010995864868164062,-1.9499996900558472,0.19700002670288086,-0.43451574444770813,0.0,0.6,0.0
1759837282.6491084,2,-1.9499996900558472,0.19700002670288086,-0.434515373670056,0.0,True,0.011287927627563477,-1.9499996900558472,0.19700002670288086,-0.43451574444770813,0.0,0.6,0.0
1759837282.659402,2,-1.9499996900558472,0.19700002670288086,-0.43451538983118887,0.0,True,0.01029348373413086,-1.9499996900558472,0.19700002670288086,-0.43451574444770813,0.0,0.6,0.0
1759837282.676671,2,-1.9499996900558472,0.19700002670288086,-0.43451535434389577,0.0,True,0.017269134521484375,-1.9499996900558472,0.19700002670288086,-0.43451574444770813,0.0,0.6,0.0
1759837282.687391,2,-1.9499996900558472,0.19700002670288086,-0.43451537899630566,0.0,True,0.010720014572143555,-1.9499996900558472,0.19700002670288086,-0.43451574444770813,0.0,0.6,0.0
1759837282.6981876,2,-1.9499996900558472,0.19700002670288086,-0.43451540239247066,0.0,True,0.010796546936035156,-1.9499996900558472,0.19700002670288086,-0.43451574444770813,0.0,0.6,0.0
1759837282.7092733,2,-1.9499996900558472,0.19700002670288086,-0.4345154199704666,0.0,True,0.011085748672485352,-1.9499996900558472,0.19700002670288086,-0.43451574444770813,0.0,0.6,0.0
1759837282.7194595,2,-1.9499996900558472,0.19700002670288086,-0.4345154406055922,0.0,True,0.010186195373535156,-1.9499996900558472,0.19700002670288086,-0.43451574444770813,0.0,0.6,0.0
1759837282.729712,2,-1.9499996900558472,0.19700002670288086,-0.4345154574039931,0.0,True,0.01025247573852539,-1.9499996900558472,0.19700002670288086,-0.43451574444770813,0.0,0.6,0.0
1759837282.7398634,2,-1.9499996900558472,0.19700002670288086,-0.4345154720015927,0.0,True,0.010151386260986328,-1.9499996900558472,0.19700002670288086,-0.43451574444770813,0.0,0.6,0.0
1759837282.7511628,2,-1.9499996900558472,0.19700002670288086,-0.43451547793251066,0.0,True,0.011299371719360352,-1.9499996900558472,0.19700002670288086,-0.43451574444770813,0.0,0.6,0.0
1759837282.7620008,2,-1.9499996900558472,0.19700002670288086,-0.43451548671434637,0.0,True,0.010838031768798828,-1.9499996900558472,0.19700002670288086,-0.43451574444770813,0.0,0.6,0.0
1759837282.7730012,2,-1.9499996900558472,0.19700002670288086,-0.43451549456204575,0.0,True,0.011000394821166992,-1.9499996900558472,0.19700002670288086,-0.43451574444770813,0.0,0.6,0.0
1759837282.7834265,2,-1.9499996900558472,0.19700002670288086,-0.4345155052938807,0.0,True,0.010425329208374023,-1.9499996900558472,0.19700002670288086,-0.43451574444770813,0.0,0.6,0.0
1759837282.7936695,2,-1.9499996900558472,0.19700002670288086,-0.43451551597727445,0.0,True,0.010242938995361328,-1.9499996900558472,0.19700002670288086,-0.43451574444770813,0.0,0.6,0.0
1759837282.803975,2,-1.9499996900558472,0.19700002670288086,-0.4345155251209114,0.0,True,0.010305643081665039,-1.9499996900558472,0.19700002670288086,-0.43451574444770813,0.0,0.6,0.0
1759837282.8142314,2,-1.9499996900558472,0.19700002670288086,-0.4345155335651505,0.0,True,0.010256290435791016,-1.9499996900558472,0.19700002670288086,-0.43451574444770813,0.0,0.6,0.0
1759837282.8250012,2,-1.9499996900558472,0.19700002670288086,-0.43451553894952966,0.0,True,0.010769844055175781,-1.9499996900558472,0.19700002670288086,-0.43451574444770813,0.0,0.6,0.0
1759837282.8357394,2,-1.9499996900558472,0.19700002670288086,-0.4345155445729212,0.0,True,0.010738134384155273,-1.9499996900558472,0.19700002670288086,-0.43451574444770813,0.0,0.6,0.0
1759837282.846164,2,-1.9499996900558472,0.19700002670288086,-0.434515551675414,0.0,True,0.010424613952636719,-1.9499996900558472,0.19700002670288086,-0.43451574444770813,0.0,0.6,0.0
1759837282.8574946,2,-1.9499996900558472,0.19700002670288086,-0.4345155547637578,0.0,True,0.011330604553222656,-1.9499996900558472,0.19700002670288086,-0.43451574444770813,0.0,0.6,0.0
1759837282.8683965,2,-1.9499996900558472,0.19700002670288086,-0.4345155602623123,0.0,True,0.010901927947998047,-1.9499996900558472,0.19700002670288086,-0.43451574444770813,0.0,0.6,0.0
1759837282.884801,2,-1.9499996900558472,0.19700002670288086,-0.43451554554009064,0.0,True,0.016404390335083008,-1.9499996900558472,0.19700002670288086,-0.43451574444770813,0.0,0.6,0.0
1759837282.8960721,2,-1.9499996900558472,0.19700002670288086,-0.4345155558094973,0.0,True,0.011271238327026367,-1.9499996900558472,0.19700002670288086,-0.43451574444770813,0.0,0.6,0.0
1759837282.9063027,2,-1.9499996900558472,0.19700002670288086,-0.4345155697887435,0.0,True,0.010230541229248047,-1.9499996900558472,0.19700002670288086,-0.43451574444770813,0.0,0.6,0.0
1759837282.917504,2,-1.9499996900558472,0.19700002670288086,-0.4345155780471792,0.0,True,0.01120138168334961,-1.9499996900558472,0.19700002670288086,-0.43451574444770813,0.0,0.6,0.0
1759837282.9276414,2,-1.9499996900558472,0.19700002670288086,-0.4345155885178542,0.0,True,0.010137319564819336,-1.9499996900558472,0.19700002670288086,-0.43451574444770813,0.0,0.6,0.0
1759837282.9378498,2,-1.9499996900558472,0.19700002670288086,-0.43451559707042087,0.0,True,0.010208368301391602,-1.9499996900558472,0.19700002670288086,-0.43451574444770813,0.0,0.6,0.0
1759837282.948131,2,-1.9499996900558472,0.19700002670288086,-0.434515603990727,0.0,True,0.01028132438659668,-1.9499996900558472,0.19700002670288086,-0.43451574444770813,0.0,0.6,0.0
1759837282.9583952,2,-1.9499996900558472,0.19700002670288086,-0.4345156100059775,0.0,True,0.010264158248901367,-1.9499996900558472,0.19700002670288086,-0.43451574444770813,0.0,0.0,0.0
1759837282.9690626,2,-1.9499996900558472,0.19700002670288086,-0.43451561418491025,0.0,True,0.01066732406616211,-1.9499996900558472,0.19700002670288086,-0.43451574444770813,0.0,0.0,0.0
1759837282.9802456,2,-1.9499996900558472,0.19700002670288086,-0.43451561678012673,0.0,True,0.011183023452758789,-1.9499996900558472,0.19700002670288086,-0.43451574444770813,0.0,0.0,0.0
1759837282.991141,2,-1.9499996900558472,0.19700002670288086,-0.43451562050261217,0.0,True,0.010895490646362305,-1.9499996900558472,0.19700002670288086,-0.43451574444770813,0.0,0.0,0.0
1759837283.001913,2,-1.9499996900558472,0.19700002670288086,-0.43451562464997195,0.0,True,0.010771989822387695,-1.9499996900558472,0.19700002670288086,-0.43451574444770813,0.0,0.0,0.0
1759837283.0125504,2,-1.9499996900558472,0.19700002670288086,-0.43451562901658747,0.0,True,0.010637283325195312,-1.9499996900558472,0.19700002670288086,-0.43451574444770813,0.0,0.0,0.0
1759837283.0230567,2,-1.9499996900558472,0.19700002670288086,-0.434515633446912,0.0,True,0.010506391525268555,-1.9499996900558472,0.19700002670288086,-0.43451574444770813,0.0,0.0,0.0
1759837283.0344882,2,-1.9499996900558472,0.19700002670288086,-0.43451563541582594,0.0,True,0.011431455612182617,-1.9499996900558472,0.19700002670288086,-0.43451574444770813,0.0,0.0,0.0
1759837283.0447195,2,-1.9499996900558472,0.19700002670288086,-0.4345156404174215,0.0,True,0.010231256484985352,-1.9499996900558472,0.19700002670288086,-0.43451574444770813,0.0,0.0,0.0
1759837283.05548,2,-1.9499996900558472,0.19700002670288086,-0.43451564385032526,0.0,True,0.01076054573059082,-1.9499996900558472,0.19700002670288086,-0.43451574444770813,0.0,0.0,0.0
1759837283.0669074,2,-1.9499996900558472,0.19700002670288086,-0.434515645710988,0.0,True,0.01142740249633789,-1.9499996900558472,0.19700002670288086,-0.43451574444770813,0.0,0.0,0.0
1759837283.0810077,2,-1.9499996900558472,0.19700002670288086,-0.4345156426282557,0.0,True,0.014100313186645508,-1.9499996900558472,0.19700002670288086,-0.43451574444770813,0.0,0.0,0.0
1759837283.0894084,2,-1.9499996900558472,0.19700002670288086,-0.4345156524762661,0.0,True,0.008400678634643555,-1.9499996900558472,0.19700002670288086,-0.43451574444770813,0.0,0.0,0.0
1759837283.099665,2,-1.9499996900558472,0.19700002670288086,-0.43451565724618035,0.0,True,0.010256528854370117,-1.9499996900558472,0.19700002670288086,-0.43451574444770813,0.0,0.0,0.0
1759837283.109866,2,-1.9499996900558472,0.19700002670288086,-0.43451566115348683,0.0,True,0.010200977325439453,-1.9499996900558472,0.19700002670288086,-0.43451574444770813,0.0,0.0,0.0
1759837283.121141,2,-1.9499996900558472,0.19700002670288086,-0.43451566267653696,0.0,True,0.011275053024291992,-1.9499996900558472,0.19700002670288086,-0.43451574444770813,0.0,0.0,0.0
1759837283.1326346,2,-1.9499996900558472,0.19700002670288086,-0.43451566404708686,0.0,True,0.011493682861328125,-1.9499996900558472,0.19700002670288086,-0.43451574444770813,0.0,0.0,0.0
1759837283.1428137,2,-1.9499996900558472,0.19700002670288086,-0.4345156679531712,0.0,True,0.01017904281616211,-1.9499996900558472,0.19700002670288086,-0.43451574444770813,0.0,0.0,0.0
1759837283.1534262,2,-1.9499996900558472,0.19700002670288086,-0.4345156708055775,0.0,True,0.01061248779296875,-1.9499996900558472,0.19700002670288086,-0.43451574444770813,0.0,0.0,0.0
1759837283.164616,2,-1.9499996900558472,0.19700002670288086,-0.4345156725329069,0.0,True,0.011189937591552734,-1.9499996900558472,0.19700002670288086,-0.43451574444770813,0.0,0.0,0.0
1759837283.1750412,2,-1.9499996900558472,0.19700002670288086,-0.4345156755072388,0.0,True,0.010425090789794922,-1.9499996900558472,0.19700002670288086,-0.43451574444770813,0.0,0.0,0.0
1759837283.1853077,2,-1.9499996900558472,0.19700002670288086,-0.43451567849872674,0.0,True,0.010266542434692383,-1.9499996900558472,0.19700002670288086,-0.43451574444770813,0.0,0.0,0.0
1759837283.1961257,2,-1.9499996900558472,0.19700002670288086,-0.4345156804065624,0.0,True,0.010818004608154297,-1.9499996900558472,0.19700002670288086,-0.43451574444770813,0.0,0.0,0.0
1759837283.206368,2,-1.9499996900558472,0.19700002670288086,-0.43451568304679,0.0,True,0.010242223739624023,-1.9499996900558472,0.19700002670288086,-0.43451574444770813,0.0,0.0,0.0
1759837283.2172906,2,-1.9499996900558472,0.19700002670288086,-0.43451568459013146,0.0,True,0.010922670364379883,-1.9499996900558472,0.19700002670288086,-0.43451574444770813,0.0,0.0,0.0
1759837283.2284956,2,-1.9499996900558472,0.19700002670288086,-0.4345156858240635,0.0,True,0.011204957962036133,-1.9499996900558472,0.19700002670288086,-0.43451574444770813,0.0,0.0,0.0
1759837283.2387974,2,-1.9499996900558472,0.19700002670288086,-0.4345156883347663,0.0,True,0.010301828384399414,-1.9499996900558472,0.19700002670288086,-0.43451574444770813,0.0,0.0,0.0
1759837283.2495089,2,-1.9499996900558472,0.19700002670288086,-0.4345156901792997,0.0,True,0.010711431503295898,-1.9499996900558472,0.19700002670288086,-0.43451574444770813,0.0,0.0,0.0
1759837283.2631688,2,-1.9499996900558472,0.19700002670288086,-0.4345156886393937,0.0,True,0.013659954071044922,-1.9499996900558472,0.19700002670288086,-0.43451574444770813,0.0,0.0,0.0
1759837283.274356,2,-1.9499996900558472,0.19700002670288086,-0.43451569076456664,0.0,True,0.011187076568603516,-1.9499996900558472,0.19700002670288086,-0.43451574444770813,0.0,0.0,0.0
1759837283.2867284,2,-1.9499996900558472,0.19700002670288086,-0.4345156917713435,0.0,True,0.012372493743896484,-1.9499996900558472,0.19700002670288086,-0.43451574444770813,0.0,0.0,0.0
1759837283.296935,2,-1.9499996900558472,0.19700002670288086,-0.43451569515944577,0.0,True,0.01020669937133789,-1.9499996900558472,0.19700002670288086,-0.43451574444770813,0.0,0.0,0.0
1759837283.3077092,2,-1.9499996900558472,0.19700002670288086,-0.4345156975420199,0.0,True,0.01077413558959961,-1.9499996900558472,0.19700002670288086,-0.43451574444770813,0.0,0.0,0.0
1759837283.3202395,2,-1.9499996900558472,0.19700002670288086,-0.43451569796725664,0.0,True,0.012530326843261719,-1.9499996900558472,0.19700002670288086,-0.43451574444770813,0.0,0.0,0.0
1759837283.3302472,2,-1.9499996900558472,0.19700002670288086,-0.4345157009336358,0.0,True,0.010007619857788086,-1.9499996900558472,0.19700002670288086,-0.43451574444770813,0.0,0.0,0.0
1759837283.341519,2,-1.9499996900558472,0.19700002670288086,-0.4345157024266566,0.0,True,0.011271953582763672,-1.9499996900558472,0.19700002670288086,-0.43451574444770813,0.0,0.0,0.0
1759837283.3534255,2,-1.9499996900558472,0.19700002670288086,-0.43451570327882116,0.0,True,0.01190638542175293,-1.9499996900558472,0.19700002670288086,-0.43451574444770813,0.0,0.0,0.0
1759837283.3648658,2,-1.9499996900558472,0.19700002670288086,-0.4345157046525898,0.0,True,0.011440277099609375,-1.9499996900558472,0.19700002670288086,-0.43451574444770813,0.0,0.0,0.0
1759837283.3762395,2,-1.9499996900558472,0.19700002670288086,-0.43451570609665424,0.0,True,0.011373758316040039,-1.9499996900558472,0.19700002670288086,-0.43451574444770813,0.0,0.0,0.0
1759837283.387001,2,-1.9499996900558472,0.19700002670288086,-0.43451570794783123,0.0,True,0.010761499404907227,-1.9499996900558472,0.19700002670288086,-0.43451574444770813,0.0,0.0,0.0
1759837283.3983626,2,-1.9499996900558472,0.19700002670288086,-0.4345157091729259,0.0,True,0.01136159896850586,-1.9499996900558472,0.19700002670288086,-0.43451574444770813,0.0,0.0,0.0
1759837283.4094696,2,-1.9499996900558472,0.19700002670288086,-0.43451571052182203,0.0,True,0.01110696792602539,-1.9499996900558472,0.19700002670288086,-0.43451574444770813,0.0,0.0,0.0
1759837283.4199479,2,-1.9499996900558472,0.19700002670288086,-0.4345157122186869,0.0,True,0.01047825813293457,-1.9499996900558472,0.19700002670288086,-0.43451574444770813,0.0,0.0,0.0
1759837283.4303644,2,-1.9499996900558472,0.19700002670288086,-0.4345157137516402,0.0,True,0.010416507720947266,-1.9499996900558472,0.19700002670288086,-0.43451574444770813,0.0,0.0,0.0
1759837283.4417577,2,-1.9499996900558472,0.19700002670288086,-0.4345157144744469,0.0,True,0.011393308639526367,-1.9499996900558472,0.19700002670288086,-0.43451574444770813,0.0,0.0,0.0
1759837283.452769,2,-1.9499996900558472,0.19700002670288086,-0.4345157154632098,0.0,True,0.011011362075805664,-1.9499996900558472,0.19700002670288086,-0.43451574444770813,0.0,0.0,0.0
1759837283.4661703,2,-1.9499996900558472,0.19700002670288086,-0.4345157150646166,0.0,True,0.013401269912719727,-1.9499996900558472,0.19700002670288086,-0.43451574444770813,0.0,0.0,0.0
1759837283.478626,2,-1.9499996900558472,0.19700002670288086,-0.43451571561095825,0.0,True,0.01245570182800293,-1.9499996900558472,0.19700002670288086,-0.43451574444770813,0.0,0.0,0.0
1759837283.497388,2,-1.9499996900558472,0.19700002670288086,-0.4345157131204651,0.0,True,0.018761873245239258,-1.9499996900558472,0.19700002670288086,-0.43451574444770813,0.0,0.0,0.0
1759837283.5065405,2,-1.9499996900558472,0.19700002670288086,-0.4345157166179696,0.0,True,0.009152650833129883,-1.9499996900558472,0.19700002670288086,-0.43451574444770813,0.0,0.0,0.0
1759837283.5165575,2,-1.9499996900558472,0.19700002670288086,-0.4345157191607818,0.0,True,0.010016918182373047,-1.9499996900558472,0.19700002670288086,-0.43451574444770813,0.0,0.0,0.0
1759837283.5273938,2,-1.9499996900558472,0.19700002670288086,-0.43451572070511446,0.0,True,0.010836362838745117,-1.9499996900558472,0.19700002670288086,-0.43451574444770813,0.0,0.0,0.0
1759837283.5395977,2,-1.9499996900558472,0.19700002670288086,-0.43451572133079,0.0,True,0.01220393180847168,-1.9499996900558472,0.19700002670288086,-0.43451574444770813,0.0,0.0,0.0
1759837283.550374,2,-1.9499996900558472,0.19700002670288086,-0.43451572258441473,0.0,True,0.010776281356811523,-1.9499996900558472,0.19700002670288086,-0.43451574444770813,0.0,0.0,0.0
1759837283.5617218,2,-1.9499996900558472,0.19700002670288086,-0.434515723455565,0.0,True,0.011347770690917969,-1.9499996900558472,0.19700002670288086,-0.43451574444770813,0.0,0.0,0.0
1759837283.5730278,2,-1.9499996900558472,0.19700002670288086,-0.43451572426483764,0.0,True,0.011306047439575195,-1.9499996900558472,0.19700002670288086,-0.43451574444770813,0.0,0.0,0.0
1759837283.5842695,2,-1.9499996900558472,0.19700002670288086,-0.43451572504830693,0.0,True,0.011241674423217773,-1.9499996900558472,0.19700002670288086,-0.43451574444770813,0.0,0.0,0.0
1759837283.5945606,2,-1.9499996900558472,0.19700002670288086,-0.4345157261396686,0.0,True,0.010291099548339844,-1.9499996900558472,0.19700002670288086,-0.43451574444770813,0.0,0.0,0.0
1759837283.6060605,2,-1.9499996900558472,0.19700002670288086,-0.4345157266355546,0.0,True,0.011499881744384766,-1.9499996900558472,0.19700002670288086,-0.43451574444770813,0.0,0.0,0.0
1759837283.6168525,2,-1.9499996900558472,0.19700002670288086,-0.4345157273746185,0.0,True,0.010792016983032227,-1.9499996900558472,0.19700002670288086,-0.43451574444770813,0.0,0.0,0.0
1759837283.6281576,2,-1.9499996900558472,0.19700002670288086,-0.4345157278861471,0.0,True,0.011305093765258789,-1.9499996900558472,0.19700002670288086,-0.43451574444770813,0.0,0.0,0.0
1759837283.639178,2,-1.9499996900558472,0.19700002670288086,-0.43451572848546505,0.0,True,0.011020421981811523,-1.9499996900558472,0.19700002670288086,-0.43451574444770813,0.0,0.0,0.0
1759837283.6500275,2,-1.9499996900558472,0.19700002670288086,-0.4345157291137731,0.0,True,0.010849475860595703,-1.9499996900558472,0.19700002670288086,-0.43451574444770813,0.0,0.0,0.0
1759837283.6602275,2,-1.9499996900558472,0.19700002670288086,-0.4345157298957645,0.0,True,0.010200023651123047,-1.9499996900558472,0.19700002670288086,-0.43451574444770813,0.0,0.0,0.0
1759837283.6710045,2,-1.9499996900558472,0.19700002670288086,-0.43451573040259817,0.0,True,0.010776996612548828,-1.9499996900558472,0.19700002670288086,-0.43451574444770813,0.0,0.0,0.0
1759837283.6814983,2,-1.9499996900558472,0.19700002670288086,-0.43451573095110163,0.0,True,0.010493755340576172,-1.9499996900558472,0.19700002670288086,-0.43451574444770813,0.0,0.0,0.0
1759837283.6987247,2,-1.9499996900558472,0.19700002670288086,-0.43451572960391793,0.0,True,0.017226457595825195,-1.9499996900558472,0.19700002670288086,-0.43451574444770813,0.0,0.0,0.0
1759837283.710436,2,-1.9499996900558472,0.19700002670288086,-0.4345157302724765,0.0,True,0.011711359024047852,-1.9499996900558472,0.19700002670288086,-0.43451574444770813,0.0,0.0,0.0
1759837283.7209349,2,-1.9499996900558472,0.19700002670288086,-0.43451573130219856,0.0,True,0.010498762130737305,-1.9499996900558472,0.19700002670288086,-0.43451574444770813,0.0,0.0,0.0
1759837283.7316687,2,-1.9499996900558472,0.19700002670288086,-0.43451573209895855,0.0,True,0.010733842849731445,-1.9499996900558472,0.19700002670288086,-0.43451574444770813,0.0,0.0,0.0
1759837283.7423508,2,-1.9499996900558472,0.19700002670288086,-0.43451573276643884,0.0,True,0.010682106018066406,-1.9499996900558472,0.19700002670288086,-0.43451574444770813,0.0,0.0,0.0
1759837283.7530336,2,-1.9499996900558472,0.19700002670288086,-0.4345157333306311,0.0,True,0.010682821273803711,-1.9499996900558472,0.19700002670288086,-0.43451574444770813,0.0,0.0,0.0
1759837283.7638707,2,-1.9499996900558472,0.19700002670288086,-0.43451573378520614,0.0,True,0.010837078094482422,-1.9499996900558472,0.19700002670288086,-0.43451574444770813,0.0,0.0,0.0
1759837283.7753613,2,-1.9499996900558472,0.19700002670288086,-0.4345157340552923,0.0,True,0.011490583419799805,-1.9499996900558472,0.19700002670288086,-0.43451574444770813,0.0,0.0,0.0
1759837283.7859268,2,-1.9499996900558472,0.19700002670288086,-0.4345157345275865,0.0,True,0.010565519332885742,-1.9499996900558472,0.19700002670288086,-0.43451574444770813,0.0,0.0,0.0
1759837283.7992005,2,-1.9499996900558472,0.19700002670288086,-0.4345157344204367,0.0,True,0.01327371597290039,-1.9499996900558472,0.19700002670288086,-0.43451574444770813,0.0,0.0,0.0
1759837283.8095648,2,-1.9499996900558472,0.19700002670288086,-0.4345157349902635,0.0,True,0.010364294052124023,-1.9499996900558472,0.19700002670288086,-0.43451574444770813,0.0,0.0,0.0
1759837283.8198595,2,-1.9499996900558472,0.19700002670288086,-0.43451573552176725,0.0,True,0.010294675827026367,-1.9499996900558472,0.19700002670288086,-0.43451574444770813,0.0,0.0,0.0
1759837283.8307707,2,-1.9499996900558472,0.19700002670288086,-0.43451573585753067,0.0,True,0.010911226272583008,-1.9499996900558472,0.19700002670288086,-0.43451574444770813,0.0,0.0,0.0
1759837283.8411846,2,-1.9499996900558472,0.19700002670288086,-0.4345157362471159,0.0,True,0.010413885116577148,-1.9499996900558472,0.19700002670288086,-0.43451574444770813,0.0,0.0,0.0
1759837283.851894,2,-1.9499996900558472,0.19700002670288086,-0.4345157365445651,0.0,True,0.010709285736083984,-1.9499996900558472,0.19700002670288086,-0.43451574444770813,0.0,0.0,0.0
1759837283.8632202,2,-1.9499996900558472,0.19700002670288086,-0.43451573671876176,0.0,True,0.011326313018798828,-1.9499996900558472,0.19700002670288086,-0.43451574444770813,0.0,0.0,0.0
1759837283.8746812,2,-1.9499996900558472,0.19700002670288086,-0.4345157368882653,0.0,True,0.011461019515991211,-1.9499996900558472,0.19700002670288086,-0.43451574444770813,0.0,0.0,0.0
1759837283.8855476,2,-1.9499996900558472,0.19700002670288086,-0.43451573717180025,0.0,True,0.010866403579711914,-1.9499996900558472,0.19700002670288086,-0.43451574444770813,0.0,0.0,0.0
1759837283.9030306,2,-1.9499996900558472,0.19700002670288086,-0.43451573649617714,0.0,True,0.017482995986938477,-1.9499996900558472,0.19700002670288086,-0.43451574444770813,0.0,0.0,0.0
1759837283.9129252,2,-1.9499996900558472,0.19700002670288086,-0.43451573715557146,0.0,True,0.009894609451293945,-1.9499996900558472,0.19700002670288086,-0.43451574444770813,0.0,0.0,0.0
1759837283.9242547,2,-1.9499996900558472,0.19700002670288086,-0.43451573755886486,0.0,True,0.011329412460327148,-1.9499996900558472,0.19700002670288086,-0.43451574444770813,0.0,0.0,0.0
1759837283.9356964,2,-1.9499996900558472,0.19700002670288086,-0.4345157378792486,0.0,True,0.011441707611083984,-1.9499996900558472,0.19700002670288086,-0.43451574444770813,0.0,0.0,0.0
1759837283.9464662,2,-1.9499996900558472,0.19700002670288086,-0.43451573824610357,0.0,True,0.010769844055175781,-1.9499996900558472,0.19700002670288086,-0.43451574444770813,0.0,0.0,0.0
1759837283.9576993,2,-1.9499996900558472,0.19700002670288086,-0.4345157385064944,0.0,True,0.011233091354370117,-1.9499996900558472,0.19700002670288086,-0.43451574444770813,0.0,0.0,0.0
1759837283.9694939,2,-1.9499996900558472,0.19700002670288086,-0.4345157386756533,0.0,True,0.011794567108154297,-1.9499996900558472,0.19700002670288086,-0.43451574444770813,0.0,0.0,0.0
1759837283.9812043,2,-1.9499996900558472,0.19700002670288086,-0.43451573885796435,0.0,True,0.011710405349731445,-1.9499996900558472,0.19700002670288086,-0.43451574444770813,0.0,0.0,0.0
1759837283.9916015,2,-1.9499996900558472,0.19700002670288086,-0.4345157391831407,0.0,True,0.010397195816040039,-1.9499996900558472,0.19700002670288086,-0.43451574444770813,0.0,0.0,0.0
1759837284.0020597,2,-1.9499996900558472,0.19700002670288086,-0.43451573945797506,0.0,True,0.010458230972290039,-1.9499996900558472,0.19700002670288086,-0.43451574444770813,0.0,0.0,0.0
1759837284.0127413,2,-1.9499996900558472,0.19700002670288086,-0.4345157396686261,0.0,True,0.010681629180908203,-1.9499996900558472,0.19700002670288086,-0.43451574444770813,0.0,0.0,0.0
1759837284.0231495,2,-1.9499996900558472,0.19700002670288086,-0.4345157398817747,0.0,True,0.010408163070678711,-1.9499996900558472,0.19700002670288086,-0.43451574444770813,0.0,0.0,0.0
1759837284.0338938,2,-1.9499996900558472,0.19700002670288086,-0.4345157400391102,0.0,True,0.010744333267211914,-1.9499996900558472,0.19700002670288086,-0.43451574444770813,0.0,0.0,0.0
1759837284.0446935,2,-1.9499996900558472,0.19700002670288086,-0.4345157401808848,0.0,True,0.010799646377563477,-1.9499996900558472,0.19700002670288086,-0.43451574444770813,0.0,0.0,0.0
1759837284.0556715,2,-1.9499996900558472,0.19700002670288086,-0.4345157403024693,0.0,True,0.010977983474731445,-1.9499996900558472,0.19700002670288086,-0.43451574444770813,0.0,0.0,0.0
1759837284.066927,2,-1.9499996900558472,0.19700002670288086,-0.43451574040163976,0.0,True,0.011255502700805664,-1.9499996900558472,0.19700002670288086,-0.43451574444770813,0.0,0.0,0.0
1759837284.0773213,2,-1.9499996900558472,0.19700002670288086,-0.4345157405795863,0.0,True,0.01039433479309082,-1.9499996900558472,0.19700002670288086,-0.43451574444770813,0.0,0.0,0.0
1759837284.087555,2,-1.9499996900558472,0.19700002670288086,-0.43451574075511346,0.0,True,0.010233640670776367,-1.9499996900558472,0.19700002670288086,-0.43451574444770813,0.0,0.0,0.0
1759837284.1005945,2,-1.9499996900558472,0.19700002670288086,-0.43451574069429455,0.0,True,0.013039588928222656,-1.9499996900558472,0.19700002670288086,-0.43451574444770813,0.0,0.0,0.0
1759837284.1110754,2,-1.9499996900558472,0.19700002670288086,-0.43451574087186273,0.0,True,0.010480880737304688,-1.9499996900558472,0.19700002670288086,-0.43451574444770813,0.0,0.0,0.0
1759837284.1214366,2,-1.9499996900558472,0.19700002670288086,-0.43451574104980395,0.0,True,0.010361194610595703,-1.9499996900558472,0.19700002670288086,-0.43451574444770813,0.0,0.0,0.0
1759837284.1317225,2,-1.9499996900558472,0.19700002670288086,-0.43451574120918046,0.0,True,0.01028585433959961,-1.9499996900558472,0.19700002670288086,-0.43451574444770813,0.0,0.0,0.0
1759837284.1429052,2,-1.9499996900558472,0.19700002670288086,-0.4345157412875338,0.0,True,0.011182785034179688,-1.9499996900558472,0.19700002670288086,-0.43451574444770813,0.0,0.0,0.0
