timestamp,vehicle_id,x,y,theta,velocity,gps_available,dt,gps_x,gps_y,gps_theta,gps_velocity,control_steering,control_acceleration
1759837280.2387717,0,-1.205,-0.83,-0.7801621756414647,0.0,False,0.01,nan,nan,nan,nan,0.0,0.0
1759837280.2496269,0,-1.205,-0.83,-0.7801621756414647,0.0,False,0.01085519790649414,nan,nan,nan,nan,0.0,0.0
1759837280.2604098,0,-1.205,-0.83,-0.7801621756414647,0.0,False,0.010782957077026367,nan,nan,nan,nan,0.0,0.0
1759837280.2714722,0,-1.205,-0.83,-0.7801621756414647,0.0,False,0.011062383651733398,nan,nan,nan,nan,0.0,0.0
1759837280.2818363,0,-1.205,-0.83,-0.7801621756414647,0.0,False,0.010364055633544922,nan,nan,nan,nan,0.0,0.0
1759837280.2928548,0,-1.205,-0.83,-0.7801621756414647,0.0,False,0.011018514633178711,nan,nan,nan,nan,0.0,0.0
1759837280.3038661,0,-1.205,-0.83,-0.7801621756414647,0.0,False,0.011011362075805664,nan,nan,nan,nan,0.0,0.0
1759837280.3153143,0,-1.205,-0.83,-0.7801621756414647,0.0,False,0.011448144912719727,nan,nan,nan,nan,0.0,0.0
1759837280.326372,0,-1.205,-0.83,-0.7801621756414647,0.0,False,0.011057615280151367,nan,nan,nan,nan,0.0,0.0
1759837280.3370697,0,-1.205,-0.83,-0.7801621756414647,0.0,False,0.01069784164428711,nan,nan,nan,nan,0.0,0.0
1759837280.3476872,0,-1.205,-0.83,-0.7801621756414647,0.0,False,0.010617494583129883,nan,nan,nan,nan,0.0,0.0
1759837280.358529,0,-1.205,-0.83,-0.7801621756414647,0.0,False,0.010841846466064453,nan,nan,nan,nan,0.0,0.0
1759837280.3692386,0,-1.205,-0.83,-0.7801621756414647,0.0,False,0.010709524154663086,nan,nan,nan,nan,0.0,0.0
1759837280.3803823,0,-1.205,-0.83,-0.7801621756414647,0.0,False,0.011143684387207031,nan,nan,nan,nan,0.0,0.0
1759837280.391306,0,-1.205,-0.83,-0.7801621756414647,0.0,False,0.010923624038696289,nan,nan,nan,nan,0.0,0.0
1759837280.4026144,0,-1.205,-0.83,-0.7801621756414647,0.0,False,0.011308431625366211,nan,nan,nan,nan,0.0,0.0
1759837280.4127862,0,-1.205,-0.83,-0.7801621756414647,0.0,False,0.010171890258789062,nan,nan,nan,nan,0.0,0.0
1759837280.424043,0,-1.205,-0.83,-0.7801621756414647,0.0,False,0.011256694793701172,nan,nan,nan,nan,0.0,0.0
1759837280.4358685,0,-1.2049999243418377,-0.8299995105862618,-0.7229993272748079,0.0,True,0.0118255615234375,-1.2049999237060547,-0.8299995064735413,-0.7177030444145203,0.0,0.0,0.0
1759837280.4466867,0,-1.2049999239185727,-0.8299995078482668,-0.7181164133885396,0.0,True,0.010818243026733398,-1.2049999237060547,-0.8299995064735413,-0.7177030444145203,0.0,0.0,0.0
1759837280.4574828,0,-1.2049999237857767,-0.8299995069892429,-0.7176566937059654,0.0,True,0.010796070098876953,-1.2049999237060547,-0.8299995064735413,-0.7177030444145203,0.0,0.0,0.0
1759837280.4681902,0,-1.2049999237364264,-0.8299995066700088,-0.7175967912491377,0.0,True,0.010707378387451172,-1.2049999237060547,-0.8299995064735413,-0.7177030444145203,0.0,0.0,0.0
1759837280.478409,0,-1.2049999237176512,-0.8299995065485567,-0.7175911849496721,0.0,True,0.01021885871887207,-1.2049999237060547,-0.8299995064735413,-0.7177030444145203,0.0,0.0,0.0
1759837280.4896486,0,-1.2049999237104838,-0.829999506502193,-0.7175960114779247,0.0,True,0.01123952865600586,-1.2049999237060547,-0.8299995064735413,-0.7177030444145203,0.0,0.0,0.0
1759837280.5004594,0,-1.2049999237077464,-0.8299995064844852,-0.7176074915955972,0.0,True,0.01081085205078125,-1.2049999237060547,-0.8299995064735413,-0.7177030444145203,0.0,0.0,0.0
1759837280.5111842,0,-1.2049999237067008,-0.8299995064777215,-0.7176194809202698,0.0,True,0.010724782943725586,-1.2049999237060547,-0.8299995064735413,-0.7177030444145203,0.0,0.0,0.0
1759837280.521539,0,-1.2049999237063016,-0.829999506475138,-0.7176306020083025,0.0,True,0.010354757308959961,-1.2049999237060547,-0.8299995064735413,-0.7177030444145203,0.0,0.0,0.0
1759837280.5317857,0,-1.204999923706149,-0.8299995064741511,-0.7176398686230954,0.0,True,0.010246753692626953,-1.2049999237060547,-0.8299995064735413,-0.7177030444145203,0.0,0.0,0.0
1759837280.5426655,0,-1.2049999237060907,-0.8299995064737742,-0.7176467435458243,0.0,True,0.010879755020141602,-1.2049999237060547,-0.8299995064735413,-0.7177030444145203,0.0,0.0,0.0
1759837280.5540497,0,-1.2049999237060685,-0.8299995064736302,-0.7176522369882239,0.0,True,0.011384248733520508,-1.2049999237060547,-0.8299995064735413,-0.7177030444145203,0.0,0.0,0.0
1759837280.565062,0,-1.20499992370606,-0.8299995064735752,-0.7176575185399976,0.0,True,0.01101231575012207,-1.2049999237060547,-0.8299995064735413,-0.7177030444145203,0.0,0.0,0.0
1759837280.5758717,0,-1.2049999237060567,-0.8299995064735542,-0.7176622166397735,0.0,True,0.010809659957885742,-1.2049999237060547,-0.8299995064735413,-0.7177030444145203,0.0,0.0,0.0
1759837280.586118,0,-1.2049999237060554,-0.8299995064735463,-0.7176665499138632,0.0,True,0.01024627685546875,-1.2049999237060547,-0.8299995064735413,-0.7177030444145203,0.0,0.0,0.0
1759837280.5963364,0,-1.204999923706055,-0.8299995064735431,-0.7176700882825209,0.0,True,0.010218381881713867,-1.2049999237060547,-0.8299995064735413,-0.7177030444145203,0.0,0.0,0.0
1759837280.6071908,0,-1.2049999237060547,-0.8299995064735419,-0.7176726163493132,0.0,True,0.010854482650756836,-1.2049999237060547,-0.8299995064735413,-0.7177030444145203,0.0,0.0,0.0
1759837280.618368,0,-1.2049999237060547,-0.8299995064735415,-0.7176746770719653,0.0,True,0.01117706298828125,-1.2049999237060547,-0.8299995064735413,-0.7177030444145203,0.0,0.0,0.0
1759837280.6296015,0,-1.2049999237060547,-0.8299995064735414,-0.7176765691796128,0.0,True,0.01123356819152832,-1.2049999237060547,-0.8299995064735413,-0.7177030444145203,0.0,0.0,0.0
1759837280.6394293,0,-1.2049999237060547,-0.8299995064735413,-0.7176790003557869,0.0,True,0.009827852249145508,-1.2049999237060547,-0.8299995064735413,-0.7177030444145203,0.0,0.0,0.0
1759837280.6495461,0,-1.2049999237060547,-0.8299995064735413,-0.7176808743787078,0.0,True,0.010116815567016602,-1.2049999237060547,-0.8299995064735413,-0.7177030444145203,0.0,0.0,0.0
1759837280.6608648,0,-1.2049999237060547,-0.8299995064735413,-0.717681926658198,0.0,True,0.011318683624267578,-1.2049999237060547,-0.8299995064735413,-0.7177030444145203,0.0,0.0,0.0
1759837280.6715865,0,-1.2049999237060547,-0.8299995064735413,-0.7176832024612239,0.0,True,0.010721683502197266,-1.2049999237060547,-0.8299995064735413,-0.7177030444145203,0.0,0.0,0.0
1759837280.682232,0,-1.2049999237060547,-0.8299995064735413,-0.7176844113538365,0.0,True,0.010645389556884766,-1.2049999237060547,-0.8299995064735413,-0.7177030444145203,0.0,0.0,0.0
1759837280.6924925,0,-1.2049999237060547,-0.8299995064735413,-0.7176856389768389,0.0,True,0.010260581970214844,-1.2049999237060547,-0.8299995064735413,-0.7177030444145203,0.0,0.0,0.0
1759837280.703788,0,-1.2049999237060547,-0.8299995064735413,-0.7176863576339674,0.0,True,0.011295557022094727,-1.2049999237060547,-0.8299995064735413,-0.7177030444145203,0.0,0.0,0.0
1759837280.7150836,0,-1.2049999237060547,-0.8299995064735413,-0.7176870766251504,0.0,True,0.011295557022094727,-1.2049999237060547,-0.8299995064735413,-0.7177030444145203,0.0,0.0,0.0
1759837280.7255733,0,-1.2049999237060547,-0.8299995064735413,-0.7176880497877747,0.0,True,0.010489702224731445,-1.2049999237060547,-0.8299995064735413,-0.7177030444145203,0.0,0.0,0.0
1759837280.7363966,0,-1.2049999237060547,-0.8299995064735413,-0.7176888241849966,0.0,True,0.010823249816894531,-1.2049999237060547,-0.8299995064735413,-0.7177030444145203,0.0,0.0,0.0
1759837280.7474504,0,-1.2049999237060547,-0.8299995064735413,-0.7176894676674905,0.0,True,0.011053800582885742,-1.2049999237060547,-0.8299995064735413,-0.7177030444145203,0.0,0.0,0.0
1759837280.7586634,0,-1.2049999237060547,-0.8299995064735413,-0.7176900414235394,0.0,True,0.011213064193725586,-1.2049999237060547,-0.8299995064735413,-0.7177030444145203,0.0,0.0,0.0
1759837280.7699592,0,-1.2049999237060547,-0.8299995064735413,-0.7176905848925088,0.0,True,0.011295795440673828,-1.2049999237060547,-0.8299995064735413,-0.7177030444145203,0.0,0.0,0.0
1759837280.7813194,0,-1.2049999237060547,-0.8299995064735413,-0.7176911066255354,0.0,True,0.01136016845703125,-1.2049999237060547,-0.8299995064735413,-0.7177030444145203,0.0,0.0,0.0
1759837280.7921395,0,-1.2049999237060547,-0.8299995064735413,-0.7176917430845542,0.0,True,0.010820150375366211,-1.2049999237060547,-0.8299995064735413,-0.7177030444145203,0.0,0.0,0.0
1759837280.8029678,0,-1.2049999237060547,-0.8299995064735413,-0.7176923202429055,0.0,True,0.010828256607055664,-1.2049999237060547,-0.8299995064735413,-0.7177030444145203,0.0,0.0,0.0
1759837280.8142295,0,-1.2049999237060547,-0.8299995064735413,-0.7176927504914143,0.0,True,0.011261701583862305,-1.2049999237060547,-0.8299995064735413,-0.7177030444145203,0.0,0.0,0.0
1759837280.8254843,0,-1.2049999237060547,-0.8299995064735413,-0.7176931671551721,0.0,True,0.01125478744506836,-1.2049999237060547,-0.8299995064735413,-0.7177030444145203,0.0,0.0,0.0
1759837280.8357296,0,-1.2049999237060547,-0.8299995064735413,-0.7176937658189431,0.0,True,0.010245323181152344,-1.2049999237060547,-0.8299995064735413,-0.7177030444145203,0.0,0.0,0.0
1759837280.846666,0,-1.2049999237060547,-0.8299995064735413,-0.7176941589137886,0.0,True,0.010936498641967773,-1.2049999237060547,-0.8299995064735413,-0.7177030444145203,0.0,0.0,0.0
1759837280.8580928,0,-1.2049999237060547,-0.8299995064735413,-0.7176944336349074,0.0,True,0.011426687240600586,-1.2049999237060547,-0.8299995064735413,-0.7177030444145203,0.0,0.0,0.0
1759837280.8695538,0,-1.2049999237060547,-0.8299995064735413,-0.7176947143367123,0.0,True,0.011461019515991211,-1.2049999237060547,-0.8299995064735413,-0.7177030444145203,0.0,0.0,0.0
1759837280.8808367,0,-1.2049999237060547,-0.8299995064735413,-0.7176950365860186,0.0,True,0.011282920837402344,-1.2049999237060547,-0.8299995064735413,-0.7177030444145203,0.0,0.0,0.0
1759837280.8920872,0,-1.2049999237060547,-0.8299995064735413,-0.717695358895682,0.0,True,0.011250495910644531,-1.2049999237060547,-0.8299995064735413,-0.7177030444145203,0.0,0.0,0.0
1759837280.902826,0,-1.2049999237060547,-0.8299995064735413,-0.7176957448300172,0.0,True,0.010738849639892578,-1.2049999237060547,-0.8299995064735413,-0.7177030444145203,0.0,0.0,0.0
1759837280.9137008,0,-1.2049999237060547,-0.8299995064735413,-0.7176960727353858,0.0,True,0.010874748229980469,-1.2049999237060547,-0.8299995064735413,-0.7177030444145203,0.0,0.0,0.0
1759837280.925136,0,-1.2049999237060547,-0.8299995064735413,-0.7176962936231686,0.0,True,0.011435270309448242,-1.2049999237060547,-0.8299995064735413,-0.7177030444145203,0.0,0.0,0.0
1759837280.936029,0,-1.2049999237060547,-0.8299995064735413,-0.7176965884748263,0.0,True,0.010892868041992188,-1.2049999237060547,-0.8299995064735413,-0.7177030444145203,0.0,0.0,0.0
1759837280.9470944,0,-1.2049999237060547,-0.8299995064735413,-0.7176968427032531,0.0,True,0.011065483093261719,-1.2049999237060547,-0.8299995064735413,-0.7177030444145203,0.0,0.0,0.0
1759837280.958416,0,-1.2049999237060547,-0.8299995064735413,-0.7176970514730172,0.0,True,0.011321544647216797,-1.2049999237060547,-0.8299995064735413,-0.7177030444145203,0.0,0.0,0.0
1759837280.9691749,0,-1.2049999237060547,-0.8299995064735413,-0.7176973251576193,0.0,True,0.01075887680053711,-1.2049999237060547,-0.8299995064735413,-0.7177030444145203,0.0,0.0,0.0
1759837280.9804294,0,-1.2049999237060547,-0.8299995064735413,-0.7176975204578433,0.0,True,0.011254549026489258,-1.2049999237060547,-0.8299995064735413,-0.7177030444145203,0.0,0.0,0.0
1759837280.9916434,0,-1.2049999237060547,-0.8299995064735413,-0.7176977151456008,0.0,True,0.011214017868041992,-1.2049999237060547,-0.8299995064735413,-0.7177030444145203,0.0,0.0,0.0
1759837281.0022678,0,-1.2049999237060547,-0.8299995064735413,-0.717697968441076,0.0,True,0.010624408721923828,-1.2049999237060547,-0.8299995064735413,-0.7177030444145203,0.0,0.0,0.0
1759837281.0135589,0,-1.2049999237060547,-0.8299995064735413,-0.7176981299761724,0.0,True,0.011291027069091797,-1.2049999237060547,-0.8299995064735413,-0.7177030444145203,0.0,0.0,0.0
1759837281.0238154,0,-1.2049999237060547,-0.8299995064735413,-0.7176983897136964,0.0,True,0.010256528854370117,-1.2049999237060547,-0.8299995064735413,-0.7177030444145203,0.0,0.0,0.0
1759837281.037215,0,-1.2049999237060547,-0.8299995064735413,-0.7176983247691382,0.0,True,0.013399600982666016,-1.2049999237060547,-0.8299995064735413,-0.7177030444145203,0.0,0.0,0.0
1759837281.0480943,0,-1.2049999237060547,-0.8299995064735413,-0.7176985503931359,0.0,True,0.010879278182983398,-1.2049999237060547,-0.8299995064735413,-0.7177030444145203,0.0,0.0,0.0
1759837281.0583894,0,-1.2049999237060547,-0.8299995064735413,-0.7176988186647044,0.0,True,0.01029515266418457,-1.2049999237060547,-0.8299995064735413,-0.7177030444145203,0.0,0.0,0.0
1759837281.069843,0,-1.2049999237060547,-0.8299995064735413,-0.7176989497028039,0.0,True,0.011453628540039062,-1.2049999237060547,-0.8299995064735413,-0.7177030444145203,0.0,0.0,0.0
1759837281.0804877,0,-1.2049999237060547,-0.8299995064735413,-0.7176991414537675,0.0,True,0.010644674301147461,-1.2049999237060547,-0.8299995064735413,-0.7177030444145203,0.0,0.0,0.0
1759837281.0907912,0,-1.2049999237060547,-0.8299995064735413,-0.7176993420653215,0.0,True,0.010303497314453125,-1.2049999237060547,-0.8299995064735413,-0.7177030444145203,0.0,0.0,0.0
1759837281.1011076,0,-1.2049999237060547,-0.8299995064735413,-0.717699514973404,0.0,True,0.01031637191772461,-1.2049999237060547,-0.8299995064735413,-0.7177030444145203,0.0,0.0,0.0
1759837281.111444,0,-1.2049999237060547,-0.8299995064735413,-0.7176996644244245,0.0,True,0.01033639907836914,-1.2049999237060547,-0.8299995064735413,-0.7177030444145203,0.0,0.0,0.0
1759837281.121469,0,-1.2049999237060547,-0.8299995064735413,-0.7176998199009894,0.0,True,0.0100250244140625,-1.2049999237060547,-0.8299995064735413,-0.7177030444145203,0.0,0.0,0.0
1759837281.1317484,0,-1.2049999237060547,-0.8299995064735413,-0.717699939233551,0.0,True,0.010279417037963867,-1.2049999237060547,-0.8299995064735413,-0.7177030444145203,0.0,0.0,0.0
1759837281.1419938,0,-1.2049999237060547,-0.8299995064735413,-0.7177000504060231,0.0,True,0.010245323181152344,-1.2049999237060547,-0.8299995064735413,-0.7177030444145203,0.0,0.0,0.0
1759837281.1533158,0,-1.2049999237060547,-0.8299995064735413,-0.7177000849920887,0.0,True,0.011322021484375,-1.2049999237060547,-0.8299995064735413,-0.7177030444145203,0.0,0.0,0.0
1759837281.163616,0,-1.2049999237060547,-0.8299995064735413,-0.7177001980121833,0.0,True,0.010300159454345703,-1.2049999237060547,-0.8299995064735413,-0.7177030444145203,0.0,0.0,0.0
1759837281.1748645,0,-1.2049999237060547,-0.8299995064735413,-0.7177002501068053,0.0,True,0.011248588562011719,-1.2049999237060547,-0.8299995064735413,-0.7177030444145203,0.0,0.0,0.0
1759837281.1850471,0,-1.2049999237060547,-0.8299995064735413,-0.717700372751521,0.0,True,0.010182619094848633,-1.2049999237060547,-0.8299995064735413,-0.7177030444145203,0.0,0.0,0.0
1759837281.196501,0,-1.2049999237060547,-0.8299995064735413,-0.7177004149834687,0.0,True,0.011453866958618164,-1.2049999237060547,-0.8299995064735413,-0.7177030444145203,0.0,0.0,0.0
1759837281.2078037,0,-1.2049999237060547,-0.8299995064735413,-0.7177004753364962,0.0,True,0.011302709579467773,-1.2049999237060547,-0.8299995064735413,-0.7177030444145203,0.0,0.0,0.0
1759837281.2191098,0,-1.2049999237060547,-0.8299995064735413,-0.7177005445693485,0.0,True,0.011306047439575195,-1.2049999237060547,-0.8299995064735413,-0.7177030444145203,0.0,0.0,0.0
1759837281.23668,0,-1.2049999237060547,-0.8299995064735413,-0.7177003132440589,0.0,True,0.01757025718688965,-1.2049999237060547,-0.8299995064735413,-0.7177030444145203,0.0,0.0,0.0
1759837281.2431145,0,-1.2049999237060547,-0.8299995064735413,-0.7177007084512059,0.0,True,0.006434440612792969,-1.2049999237060547,-0.8299995064735413,-0.7177030444145203,0.0,0.0,0.0
1759837281.2545142,0,-1.2049999237060547,-0.8299995064735413,-0.7177008020307234,0.0,True,0.01139974594116211,-1.2049999237060547,-0.8299995064735413,-0.7177030444145203,0.0,0.0,0.0
1759837281.265809,0,-1.2049999237060547,-0.8299995064735413,-0.7177008778539182,0.0,True,0.011294841766357422,-1.2049999237060547,-0.8299995064735413,-0.7177030444145203,0.0,0.0,0.0
1759837281.276085,0,-1.2049999237060547,-0.8299995064735413,-0.7177009949584274,0.0,True,0.010275840759277344,-1.2049999237060547,-0.8299995064735413,-0.7177030444145203,0.0,0.0,0.0
1759837281.2875423,0,-1.2049999237060547,-0.8299995064735413,-0.7177010484561492,0.0,True,0.011457443237304688,-1.2049999237060547,-0.8299995064735413,-0.7177030444145203,0.0,0.0,0.0
1759837281.2989297,0,-1.2049999237060547,-0.8299995064735413,-0.717701105454541,0.0,True,0.011387348175048828,-1.2049999237060547,-0.8299995064735413,-0.7177030444145203,0.0,0.0,0.0
1759837281.3094292,0,-1.2049999237060547,-0.8299995064735413,-0.7177011990940052,0.0,True,0.01049947738647461,-1.2049999237060547,-0.8299995064735413,-0.7177030444145203,0.0,0.0,0.0
1759837281.320268,0,-1.2049999237060547,-0.8299995064735413,-0.7177012707110766,0.0,True,0.010838747024536133,-1.2049999237060547,-0.8299995064735413,-0.7177030444145203,0.0,0.0,0.0
1759837281.331075,0,-1.2049999237060547,-0.8299995064735413,-0.717701337368247,0.0,True,0.010807037353515625,-1.2049999237060547,-0.8299995064735413,-0.7177030444145203,0.0,0.0,0.0
1759837281.3415456,0,-1.2049999237060547,-0.8299995064735413,-0.7177014113247857,0.0,True,0.01047062873840332,-1.2049999237060547,-0.8299995064735413,-0.7177030444145203,0.0,0.0,0.0
1759837281.3523467,0,-1.2049999237060547,-0.8299995064735413,-0.717701467030242,0.0,True,0.010801076889038086,-1.2049999237060547,-0.8299995064735413,-0.7177030444145203,0.0,0.0,0.0
1759837281.3627305,0,-1.2049999237060547,-0.8299995064735413,-0.7177015332007866,0.0,True,0.010383844375610352,-1.2049999237060547,-0.8299995064735413,-0.7177030444145203,0.0,0.0,0.0
1759837281.3730705,0,-1.2049999237060547,-0.8299995064735413,-0.7177015948400438,0.0,True,0.010339975357055664,-1.2049999237060547,-0.8299995064735413,-0.7177030444145203,0.0,0.0,0.0
1759837281.3838751,0,-1.2049999237060547,-0.8299995064735413,-0.7177016363367397,0.0,True,0.01080465316772461,-1.2049999237060547,-0.8299995064735413,-0.7177030444145203,0.0,0.0,0.0
1759837281.3953648,0,-1.2049999237060547,-0.8299995064735413,-0.7177016573057813,0.0,True,0.011489629745483398,-1.2049999237060547,-0.8299995064735413,-0.7177030444145203,0.0,0.0,0.0
1759837281.4060705,0,-1.2049999237060547,-0.8299995064735413,-0.7177017071085778,0.0,True,0.010705709457397461,-1.2049999237060547,-0.8299995064735413,-0.7177030444145203,0.0,0.0,0.0
1759837281.4170282,0,-1.2049999237060547,-0.8299995064735413,-0.717701749079767,0.0,True,0.010957717895507812,-1.2049999237060547,-0.8299995064735413,-0.7177030444145203,0.0,0.0,0.0
1759837281.4274142,0,-1.2049999237060547,-0.8299995064735413,-0.7177018054658006,0.0,True,0.010385990142822266,-1.2049999237060547,-0.8299995064735413,-0.7177030444145203,0.0,0.0,0.0
1759837281.4394047,0,-1.2049999237060547,-0.8299995064735413,-0.7177018158466808,0.0,True,0.011990547180175781,-1.2049999237060547,-0.8299995064735413,-0.7177030444145203,0.0,0.0,0.0
1759837281.4504285,0,-1.2049999237060547,-0.8299995064735413,-0.7177018575868068,0.0,True,0.011023759841918945,-1.2049999237060547,-0.8299995064735413,-0.7177030444145203,0.0,0.0,0.0
1759837281.460829,0,-1.2049999237060547,-0.8299995064735413,-0.7177019147761516,0.0,True,0.010400533676147461,-1.2049999237060547,-0.8299995064735413,-0.7177030444145203,0.0,0.0,0.0
1759837281.4716642,0,-1.2049999237060547,-0.8299995064735413,-0.7177019557343449,0.0,True,0.01083517074584961,-1.2049999237060547,-0.8299995064735413,-0.7177030444145203,0.0,0.0,0.0
1759837281.4824152,0,-1.2049999237060547,-0.8299995064735413,-0.7177019955642621,0.0,True,0.010751008987426758,-1.2049999237060547,-0.8299995064735413,-0.7177030444145203,0.0,0.0,0.0
1759837281.4936893,0,-1.2049999237060547,-0.8299995064735413,-0.7177020219330856,0.0,True,0.011274099349975586,-1.2049999237060547,-0.8299995064735413,-0.7177030444145203,0.0,0.0,0.0
1759837281.504559,0,-1.2049999237060547,-0.8299995064735413,-0.7177020581287277,0.0,True,0.010869741439819336,-1.2049999237060547,-0.8299995064735413,-0.7177030444145203,0.0,0.0,0.0
1759837281.5152843,0,-1.2049999237060547,-0.8299995064735413,-0.7177020962040626,0.0,True,0.010725259780883789,-1.2049999237060547,-0.8299995064735413,-0.7177030444145203,0.0,0.0,0.0
1759837281.5252914,0,-1.2049999237060547,-0.8299995064735413,-0.7177021455992012,0.0,True,0.010007143020629883,-1.2049999237060547,-0.8299995064735413,-0.7177030444145203,0.0,0.0,0.0
1759837281.536125,0,-1.2049999237060547,-0.8299995064735413,-0.7177021729155086,0.0,True,0.010833501815795898,-1.2049999237060547,-0.8299995064735413,-0.7177030444145203,0.0,0.0,0.0
1759837281.546385,0,-1.2049999237060547,-0.8299995064735413,-0.71770220931284,0.0,True,0.01026010513305664,-1.2049999237060547,-0.8299995064735413,-0.7177030444145203,0.0,0.0,0.0
1759837281.5576036,0,-1.2049999237060547,-0.8299995064735413,-0.7177022257886208,0.0,True,0.011218547821044922,-1.2049999237060547,-0.8299995064735413,-0.7177030444145203,0.0,0.0,0.0
1759837281.5678318,0,-1.2049999237060547,-0.8299995064735413,-0.7177022609848507,0.0,True,0.010228157043457031,-1.2049999237060547,-0.8299995064735413,-0.7177030444145203,0.0,0.0,0.0
1759837281.5781488,0,-1.2049999237060547,-0.8299995064735413,-0.7177022920274609,0.0,True,0.010317087173461914,-1.2049999237060547,-0.8299995064735413,-0.7177030444145203,0.0,0.0,0.0
1759837281.5883076,0,-1.2049999237060547,-0.8299995064735413,-0.7177023226407968,0.0,True,0.010158777236938477,-1.2049999237060547,-0.8299995064735413,-0.7177030444145203,0.0,0.0,0.0
1759837281.5990484,0,-1.2049999237060547,-0.8299995064735413,-0.717702341290682,0.0,True,0.01074075698852539,-1.2049999237060547,-0.8299995064735413,-0.7177030444145203,0.0,0.0,0.0
1759837281.6103618,0,-1.2049999237060547,-0.8299995064735413,-0.7177023516788825,0.0,True,0.011313438415527344,-1.2049999237060547,-0.8299995064735413,-0.7177030444145203,0.0,0.0,0.0
1759837281.6205506,0,-1.2049999237060547,-0.8299995064735413,-0.7177023815258092,0.0,True,0.010188817977905273,-1.2049999237060547,-0.8299995064735413,-0.7177030444145203,0.0,0.0,0.0
1759837281.631849,0,-1.2049999237060547,-0.8299995064735413,-0.7177023938699421,0.0,True,0.011298418045043945,-1.2049999237060547,-0.8299995064735413,-0.7177030444145203,0.0,0.0,0.0
1759837281.6441696,0,-1.2049999237060547,-0.8299995064735413,-0.7177023944511554,0.0,True,0.012320518493652344,-1.2049999237060547,-0.8299995064735413,-0.7177030444145203,0.0,0.0,0.0
1759837281.655568,0,-1.2049999237060547,-0.8299995064735413,-0.7177024134530932,0.0,True,0.0113983154296875,-1.2049999237060547,-0.8299995064735413,-0.7177030444145203,0.0,0.0,0.0
1759837281.6669512,0,-1.2049999237060547,-0.8299995064735413,-0.717702434417804,0.0,True,0.011383295059204102,-1.2049999237060547,-0.8299995064735413,-0.7177030444145203,0.0,0.0,0.0
1759837281.6776772,0,-1.2049999237060547,-0.8299995064735413,-0.7177024631947333,0.0,True,0.010725975036621094,-1.2049999237060547,-0.8299995064735413,-0.7177030444145203,0.0,0.0,0.0
1759837281.689029,0,-1.2049999237060547,-0.8299995064735413,-0.7177024819887983,0.0,True,0.011351823806762695,-1.2049999237060547,-0.8299995064735413,-0.7177030444145203,0.0,0.0,0.0
1759837281.7003973,0,-1.2049999237060547,-0.8299995064735413,-0.7177025000665722,0.0,True,0.011368274688720703,-1.2049999237060547,-0.8299995064735413,-0.7177030444145203,0.0,0.0,0.0
1759837281.7107887,0,-1.2049999237060547,-0.8299995064735413,-0.7177025285761687,0.0,True,0.010391473770141602,-1.2049999237060547,-0.8299995064735413,-0.7177030444145203,0.0,0.0,0.0
1759837281.7221785,0,-1.2049999237060547,-0.8299995064735413,-0.7177025433854229,0.0,True,0.011389732360839844,-1.2049999237060547,-0.8299995064735413,-0.7177030444145203,0.0,0.0,0.0
1759837281.7329297,0,-1.2049999237060547,-0.8299995064735413,-0.7177025643719013,0.0,True,0.01075124740600586,-1.2049999237060547,-0.8299995064735413,-0.7177030444145203,0.0,0.0,0.0
1759837281.7437487,0,-1.2049999237060547,-0.8299995064735413,-0.7177025832089736,0.0,True,0.010818958282470703,-1.2049999237060547,-0.8299995064735413,-0.7177030444145203,0.0,0.0,0.0
1759837281.7552547,0,-1.2049999237060547,-0.8299995064735413,-0.717702594212966,0.0,True,0.011506080627441406,-1.2049999237060547,-0.8299995064735413,-0.7177030444145203,0.0,0.0,0.0
1759837281.7660124,0,-1.2049999237060547,-0.8299995064735413,-0.7177026127623503,0.0,True,0.010757684707641602,-1.2049999237060547,-0.8299995064735413,-0.7177030444145203,0.0,0.0,0.0
1759837281.7774134,0,-1.2049999237060547,-0.8299995064735413,-0.717702624620765,0.0,True,0.011400938034057617,-1.2049999237060547,-0.8299995064735413,-0.7177030444145203,0.0,0.0,0.0
1759837281.7883143,0,-1.2049999237060547,-0.8299995064735413,-0.7177026409344052,0.0,True,0.01090097427368164,-1.2049999237060547,-0.8299995064735413,-0.7177030444145203,0.0,0.0,0.0
1759837281.7994738,0,-1.2049999237060547,-0.8299995064735413,-0.7177026543360228,0.0,True,0.011159420013427734,-1.2049999237060547,-0.8299995064735413,-0.7177030444145203,0.0,0.0,0.0
1759837281.810621,0,-1.2049999237060547,-0.8299995064735413,-0.7177026674533629,0.0,True,0.011147260665893555,-1.2049999237060547,-0.8299995064735413,-0.7177030444145203,0.0,0.0,0.0
1759837281.8213458,0,-1.2049999237060547,-0.8299995064735413,-0.7177026834522504,0.0,True,0.010724782943725586,-1.2049999237060547,-0.8299995064735413,-0.7177030444145203,0.0,0.0,0.0
1759837281.8325462,0,-1.2049999237060547,-0.8299995064735413,-0.7177026946960705,0.0,True,0.011200428009033203,-1.2049999237060547,-0.8299995064735413,-0.7177030444145203,0.0,0.0,0.0
1759837281.8439052,0,-1.2049999237060547,-0.8299995064735413,-0.7177027046196187,0.0,True,0.011358976364135742,-1.2049999237060547,-0.8299995064735413,-0.7177030444145203,0.0,0.0,0.0
1759837281.8547132,0,-1.2049999237060547,-0.8299995064735413,-0.7177027185956497,0.0,True,0.010807991027832031,-1.2049999237060547,-0.8299995064735413,-0.7177030444145203,0.0,0.0,0.0
1759837281.8656156,0,-1.2049999237060547,-0.8299995064735413,-0.7177027310241453,0.0,True,0.01090240478515625,-1.2049999237060547,-0.8299995064735413,-0.7177030444145203,0.0,0.0,0.0
1759837281.8759675,0,-1.2049999237060547,-0.8299995064735413,-0.7177027460489533,0.0,True,0.010351896286010742,-1.2049999237060547,-0.8299995064735413,-0.7177030444145203,0.0,0.0,0.0
1759837281.8866017,0,-1.2049999237060547,-0.8299995064735413,-0.7177027576049255,0.0,True,0.010634183883666992,-1.2049999237060547,-0.8299995064735413,-0.7177030444145203,0.0,0.0,0.0
1759837281.8979838,0,-1.2049999237060547,-0.8299995064735413,-0.7177027636985596,0.0,True,0.011382102966308594,-1.2049999237060547,-0.8299995064735413,-0.7177030444145203,0.0,0.0,0.0
1759837281.908433,0,-1.2049999237060547,-0.8299995064735413,-0.7177027757601593,0.0,True,0.01044917106628418,-1.2049999237060547,-0.8299995064735413,-0.7177030444145203,0.0,0.0,0.0
1759837281.9186702,0,-1.2049999237060547,-0.8299995064735413,-0.7177027880952593,0.0,True,0.01023721694946289,-1.2049999237060547,-0.8299995064735413,-0.7177030444145203,0.0,0.0,0.0
1759837281.9300082,0,-1.2049999237060547,-0.8299995064735413,-0.717702793091231,0.0,True,0.011337995529174805,-1.2049999237060547,-0.8299995064735413,-0.7177030444145203,0.0,0.0,0.0
1759837281.941179,0,-1.2049999237060547,-0.8299995064735413,-0.7177027995312617,0.0,True,0.01117086410522461,-1.2049999237060547,-0.8299995064735413,-0.7177030444145203,0.0,0.0,0.0
1759837281.951508,0,-1.2049999237060547,-0.8299995064735413,-0.7177028106879035,0.0,True,0.010329008102416992,-1.2049999237060547,-0.8299995064735413,-0.7177030444145203,0.0,0.0,0.0
1759837281.962941,0,-1.2049999237060547,-0.8299995064735413,-0.7177028155129239,0.0,True,0.011432886123657227,-1.2049999237060547,-0.8299995064735413,-0.7177030444145203,0.0,0.0,0.0
1759837281.9736624,0,-1.2049999237060547,-0.8299995064735413,-0.7177028241336654,0.0,True,0.010721445083618164,-1.2049999237060547,-0.8299995064735413,-0.7177030444145203,0.0,0.0,0.0
1759837281.9847393,0,-1.2049999237060547,-0.8299995064735413,-0.7177028308253632,0.0,True,0.011076927185058594,-1.2049999237060547,-0.8299995064735413,-0.7177030444145203,0.0,0.0,0.0
1759837281.9950247,0,-1.2049999237060547,-0.8299995064735413,-0.7177028408829784,0.0,True,0.010285377502441406,-1.2049999237060547,-0.8299995064735413,-0.7177030444145203,0.0,0.0,0.0
1759837282.005255,0,-1.2049999237060547,-0.8299995064735413,-0.7177028501186982,0.0,True,0.010230302810668945,-1.2049999237060547,-0.8299995064735413,-0.7177030444145203,0.0,0.0,0.0
1759837282.0159805,0,-1.2049999237060547,-0.8299995064735413,-0.7177028562057863,0.0,True,0.01072549819946289,-1.2049999237060547,-0.8299995064735413,-0.7177030444145203,0.0,0.0,0.0
1759837282.0273895,0,-1.2049999237060547,-0.8299995064735413,-0.717702859344099,0.0,True,0.01140904426574707,-1.2049999237060547,-0.8299995064735413,-0.7177030444145203,0.0,0.0,0.0
1759837282.042068,0,-1.2049999237060547,-0.8299995064735413,-0.7177028510433843,0.0,True,0.014678478240966797,-1.2049999237060547,-0.8299995064735413,-0.7177030444145203,0.0,0.0,0.0
1759837282.0489316,0,-1.2049999237060547,-0.8299995064735413,-0.7177028755455943,0.0,True,0.006863594055175781,-1.2049999237060547,-0.8299995064735413,-0.7177030444145203,0.0,0.0,0.0
1759837282.0592594,0,-1.2049999237060547,-0.8299995064735413,-0.7177028831837067,0.0,True,0.010327816009521484,-1.2049999237060547,-0.8299995064735413,-0.7177030444145203,0.0,0.0,0.0
1759837282.070033,0,-1.2049999237060547,-0.8299995064735413,-0.7177028874547542,0.0,True,0.010773658752441406,-1.2049999237060547,-0.8299995064735413,-0.7177030444145203,0.0,0.0,0.0
1759837282.0802493,0,-1.2049999237060547,-0.8299995064735413,-0.7177028935471075,0.0,True,0.010216236114501953,-1.2049999237060547,-0.8299995064735413,-0.7177030444145203,0.0,0.0,0.0
1759837282.0904489,0,-1.2049999237060547,-0.8299995064735413,-0.7177028992703818,0.0,True,0.010199546813964844,-1.2049999237060547,-0.8299995064735413,-0.7177030444145203,0.0,0.0,0.0
1759837282.1006691,0,-1.2049999237060547,-0.8299995064735413,-0.7177029044407828,0.0,True,0.01022028923034668,-1.2049999237060547,-0.8299995064735413,-0.7177030444145203,0.0,0.0,0.0
1759837282.112181,0,-1.2049999237060547,-0.8299995064735413,-0.7177029053508228,0.0,True,0.011511802673339844,-1.2049999237060547,-0.8299995064735413,-0.7177030444145203,0.0,0.0,0.0
1759837282.123572,0,-1.2049999237060547,-0.8299995064735413,-0.7177029075168129,0.0,True,0.011391162872314453,-1.2049999237060547,-0.8299995064735413,-0.7177030444145203,0.0,0.0,0.0
1759837282.1349843,0,-1.2049999237060547,-0.8299995064735413,-0.7177029104347952,0.0,True,0.01141214370727539,-1.2049999237060547,-0.8299995064735413,-0.7177030444145203,0.0,0.0,0.0
1759837282.1462016,0,-1.2049999237060547,-0.8299995064735413,-0.7177029144085267,0.0,True,0.011217355728149414,-1.2049999237060547,-0.8299995064735413,-0.7177030444145203,0.0,0.0,0.0
1759837282.156481,0,-1.2049999237060547,-0.8299995064735413,-0.7177029209714263,0.0,True,0.010279417037963867,-1.2049999237060547,-0.8299995064735413,-0.7177030444145203,0.0,0.0,0.0
1759837282.167392,0,-1.2049999237060547,-0.8299995064735413,-0.7177029252053764,0.0,True,0.010910987854003906,-1.2049999237060547,-0.8299995064735413,-0.7177030444145203,0.0,0.0,0.0
1759837282.178667,0,-1.2049999237060547,-0.8299995064735413,-0.7177029282892917,0.0,True,0.011275053024291992,-1.2049999237060547,-0.8299995064735413,-0.7177030444145203,0.0,0.0,0.0
1759837282.1895308,0,-1.2049999237060547,-0.8299995064735413,-0.7177029325014566,0.0,True,0.010863780975341797,-1.2049999237060547,-0.8299995064735413,-0.7177030444145203,0.0,0.0,0.0
1759837282.2007432,0,-1.2049999237060547,-0.8299995064735413,-0.7177029357857876,0.0,True,0.011212348937988281,-1.2049999237060547,-0.8299995064735413,-0.7177030444145203,0.0,0.0,0.0
1759837282.2116725,0,-1.2049999237060547,-0.8299995064735413,-0.7177029397220451,0.0,True,0.010929346084594727,-1.2049999237060547,-0.8299995064735413,-0.7177030444145203,0.0,0.0,0.0
1759837282.2230248,0,-1.2049999237060547,-0.8299995064735413,-0.7177029426245696,0.0,True,0.011352300643920898,-1.2049999237060547,-0.8299995064735413,-0.7177030444145203,0.0,0.0,0.0
1759837282.2334192,0,-1.2049999237060547,-0.8299995064735413,-0.7177029475614223,0.0,True,0.01039433479309082,-1.2049999237060547,-0.8299995064735413,-0.7177030444145203,0.0,0.0,0.0
1759837282.2454133,0,-1.2049999237060547,-0.8299995064735413,-0.7177029488616338,0.0,True,0.011994123458862305,-1.2049999237060547,-0.8299995064735413,-0.7177030444145203,0.0,0.0,0.0
1759837282.256105,0,-1.2049999237060547,-0.8299995064735413,-0.7177029530581542,0.0,True,0.010691642761230469,-1.2049999237060547,-0.8299995064735413,-0.7177030444145203,0.0,0.0,0.0
1759837282.2668338,0,-1.2049999237060547,-0.8299995064735413,-0.7177029569327384,0.0,True,0.010728836059570312,-1.2049999237060547,-0.8299995064735413,-0.7177030444145203,0.0,0.0,0.0
1759837282.27784,0,-1.2049999237060547,-0.8299995064735413,-0.7177029599477862,0.0,True,0.01100611686706543,-1.2049999237060547,-0.8299995064735413,-0.7177030444145203,0.0,0.0,0.0
1759837282.288213,0,-1.2049999237060547,-0.8299995064735413,-0.7177029638949541,0.0,True,0.010373115539550781,-1.2049999237060547,-0.8299995064735413,-0.7177030444145203,0.0,0.0,0.0
1759837282.2990854,0,-1.2049999237060547,-0.8299995064735413,-0.7177029665987682,0.0,True,0.010872364044189453,-1.2049999237060547,-0.8299995064735413,-0.7177030444145203,0.0,0.0,0.0
1759837282.3106108,0,-1.2049999237060547,-0.8299995064735413,-0.717702968117063,0.0,True,0.011525392532348633,-1.2049999237060547,-0.8299995064735413,-0.7177030444145203,0.0,0.0,0.0
1759837282.3206375,0,-1.2049999237060547,-0.8299995064735413,-0.7177029721896417,0.0,True,0.010026693344116211,-1.2049999237060547,-0.8299995064735413,-0.7177030444145203,0.0,0.0,0.0
1759837282.3314826,0,-1.2049999237060547,-0.8299995064735413,-0.717702974577012,0.0,True,0.010845184326171875,-1.2049999237060547,-0.8299995064735413,-0.7177030444145203,0.0,0.0,0.0
1759837282.3429043,0,-1.2049999237060547,-0.8299995064735413,-0.717702975981199,0.0,True,0.011421680450439453,-1.2049999237060547,-0.8299995064735413,-0.7177030444145203,0.0,0.0,0.0
1759837282.354248,0,-1.2049999237060547,-0.8299995064735413,-0.7177029777086972,0.0,True,0.011343717575073242,-1.2049999237060547,-0.8299995064735413,-0.7177030444145203,0.0,0.0,0.0
1759837282.3646677,0,-1.2049999237060547,-0.8299995064735413,-0.7177029808360746,0.0,True,0.010419607162475586,-1.2049999237060547,-0.8299995064735413,-0.7177030444145203,0.0,0.0,0.0
1759837282.3759634,0,-1.2049999237060547,-0.8299995064735413,-0.7177029825392616,0.0,True,0.011295795440673828,-1.2049999237060547,-0.8299995064735413,-0.7177030444145203,0.0,0.0,0.0
1759837282.3867927,0,-1.2049999237060547,-0.8299995064735413,-0.7177029848462801,0.0,True,0.01082921028137207,-1.2049999237060547,-0.8299995064735413,-0.7177030444145203,0.0,0.0,0.0
1759837282.3977072,0,-1.2049999237060547,-0.8299995064735413,-0.7177029869506875,0.0,True,0.01091456413269043,-1.2049999237060547,-0.8299995064735413,-0.7177030444145203,0.0,0.0,0.0
1759837282.408479,0,-1.2049999237060547,-0.8299995064735413,-0.7177029891219249,0.0,True,0.010771751403808594,-1.2049999237060547,-0.8299995064735413,-0.7177030444145203,0.0,0.0,0.0
1759837282.4197607,0,-1.2049999237060547,-0.8299995064735413,-0.71770299058789,0.0,True,0.011281728744506836,-1.2049999237060547,-0.8299995064735413,-0.7177030444145203,0.0,0.0,0.0
1759837282.430004,0,-1.2049999237060547,-0.8299995064735413,-0.7177029932319527,0.0,True,0.01024317741394043,-1.2049999237060547,-0.8299995064735413,-0.7177030444145203,0.0,0.0,0.0
1759837282.4424942,0,-1.2049999237060547,-0.8299995064735413,-0.7177029932456449,0.0,True,0.012490272521972656,-1.2049999237060547,-0.8299995064735413,-0.7177030444145203,0.0,0.0,0.0
1759837282.4538505,0,-1.2049999237060547,-0.8299995064735413,-0.7177029948354559,0.0,True,0.011356353759765625,-1.2049999237060547,-0.8299995064735413,-0.7177030444145203,0.0,0.0,0.0
1759837282.4726434,0,-1.2049999237060547,-0.8299995064735413,-0.7177029895204328,0.0,True,0.01879286766052246,-1.2049999237060547,-0.8299995064735413,-0.7177030444145203,0.0,0,0
1759837282.4829068,0,-1.2049999237060547,-0.8299995064735413,-0.7177029942538375,0.0,True,0.010263442993164062,-1.2049999237060547,-0.8299995064735413,-0.7177030444145203,0.0,0,0
1759837282.4938998,0,-1.2049999237060547,-0.8299995064735413,-0.717702997893646,0.0,True,0.010993003845214844,-1.2049999237060547,-0.8299995064735413,-0.7177030444145203,0.0,0,0
1759837282.5052223,0,-1.2049999237060547,-0.8299995064735413,-0.7177030005306335,0.0,True,0.011322498321533203,-1.2049999237060547,-0.8299995064735413,-0.7177030444145203,0.0,0,0
1759837282.5160766,0,-1.2049999237060547,-0.8299995064735413,-0.717703003122601,0.0,True,0.010854244232177734,-1.2049999237060547,-0.8299995064735413,-0.7177030444145203,0.0,0,0
1759837282.5273867,0,-1.2049999237060547,-0.8299995064735413,-0.7177030049568067,0.0,True,0.011310100555419922,-1.2049999237060547,-0.8299995064735413,-0.7177030444145203,0.0,0,0
1759837282.5387,0,-1.2049999237060547,-0.8299995064735413,-0.7177030065798569,0.0,True,0.011313438415527344,-1.2049999237060547,-0.8299995064735413,-0.7177030444145203,0.0,0,0
1759837282.5490856,0,-1.2049999237060547,-0.8299995064735413,-0.7177030087463301,0.0,True,0.010385513305664062,-1.2049999237060547,-0.8299995064735413,-0.7177030444145203,0.0,0,0
1759837282.55935,0,-1.2049999237060547,-0.8299995064735413,-0.7177030106876217,0.0,True,0.010264396667480469,-1.2049999237060547,-0.8299995064735413,-0.7177030444145203,0.0,0,0
1759837282.5698488,0,-1.2049999237060547,-0.8299995064735413,-0.7177030121613193,0.0,True,0.010498762130737305,-1.2049999237060547,-0.8299995064735413,-0.7177030444145203,0.0,0,0
1759837282.5806856,0,-1.2049999237060547,-0.8299995064735413,-0.7177030132258686,0.0,True,0.01083683967590332,-1.2049999237060547,-0.8299995064735413,-0.7177030444145203,0.0,0,0
1759837282.592164,0,-1.2049999237060547,-0.8299995064735413,-0.7177030138238898,0.0,True,0.011478424072265625,-1.2049999237060547,-0.8299995064735413,-0.7177030444145203,0.0,0,0
1759837282.6029987,0,-1.2049999237060547,-0.8299995064735413,-0.717703014917273,0.0,True,0.010834693908691406,-1.2049999237060547,-0.8299995064735413,-0.7177030444145203,0.0,0,0
1759837282.613921,0,-1.2049999237060547,-0.8299995064735413,-0.7177030159301676,0.0,True,0.01092219352722168,-1.2049999237060547,-0.8299995064735413,-0.7177030444145203,0.0,0,0
1759837282.6242955,0,-1.2049999237060547,-0.8299995064735413,-0.7177030172158343,0.0,True,0.01037454605102539,-1.2049999237060547,-0.8299995064735413,-0.7177030444145203,0.0,0,0
1759837282.6344872,0,-1.2049999237060547,-0.8299995064735413,-0.7177030184702051,0.0,True,0.010191679000854492,-1.2049999237060547,-0.8299995064735413,-0.7177030444145203,0.0,0,0
1759837282.645525,0,-1.2049999237060547,-0.8299995064735413,-0.7177030191080185,0.0,True,0.011037826538085938,-1.2049999237060547,-0.8299995064735413,-0.7177030444145203,0.0,0,0
1759837282.656768,0,-1.2049999237060547,-0.8299995064735413,-0.717703019651255,0.0,True,0.011243104934692383,-1.2049999237060547,-0.8299995064735413,-0.7177030444145203,0.0,0,0
1759837282.6675172,0,-1.2049999237060547,-0.8299995064735413,-0.7177030205165273,0.0,True,0.010749101638793945,-1.2049999237060547,-0.8299995064735413,-0.7177030444145203,0.0,0,0
1759837282.6782186,0,-1.2049999237060547,-0.8299995064735413,-0.7177030213827074,0.0,True,0.010701417922973633,-1.2049999237060547,-0.8299995064735413,-0.7177030444145203,0.0,0,0
1759837282.6894891,0,-1.2049999237060547,-0.8299995064735413,-0.7177030219303155,0.0,True,0.011270523071289062,-1.2049999237060547,-0.8299995064735413,-0.7177030444145203,0.0,0,0
1759837282.6997836,0,-1.2049999237060547,-0.8299995064735413,-0.7177030229610466,0.0,True,0.010294437408447266,-1.2049999237060547,-0.8299995064735413,-0.7177030444145203,0.0,0,0
1759837282.7102797,0,-1.2049999237060547,-0.8299995064735413,-0.7177030238066138,0.0,True,0.010496139526367188,-1.2049999237060547,-0.8299995064735413,-0.7177030444145203,0.0,0,0
1759837282.7210042,0,-1.2049999237060547,-0.8299995064735413,-0.7177030244733587,0.0,True,0.010724544525146484,-1.2049999237060547,-0.8299995064735413,-0.7177030444145203,0.0,0,0
1759837282.7322807,0,-1.2049999237060547,-0.8299995064735413,-0.7177030248843757,0.0,True,0.011276483535766602,-1.2049999237060547,-0.8299995064735413,-0.7177030444145203,0.0,0,0
1759837282.7434506,0,-1.2049999237060547,-0.8299995064735413,-0.717703025392403,0.0,True,0.011169910430908203,-1.2049999237060547,-0.8299995064735413,-0.7177030444145203,0.0,0,0
1759837282.75472,0,-1.2049999237060547,-0.8299995064735413,-0.7177030259007218,0.0,True,0.011269330978393555,-1.2049999237060547,-0.8299995064735413,-0.7177030444145203,0.0,0,0
1759837282.7651472,0,-1.2049999237060547,-0.8299995064735413,-0.7177030267518827,0.0,True,0.010427236557006836,-1.2049999237060547,-0.8299995064735413,-0.7177030444145203,0.0,0,0
1759837282.7760527,0,-1.2049999237060547,-0.8299995064735413,-0.7177030273514848,0.0,True,0.01090550422668457,-1.2049999237060547,-0.8299995064735413,-0.7177030444145203,0.0,0,0
1759837282.786534,0,-1.2049999237060547,-0.8299995064735413,-0.717703028064868,0.0,True,0.01048135757446289,-1.2049999237060547,-0.8299995064735413,-0.7177030444145203,0.0,0,0
1759837282.7977507,0,-1.2049999237060547,-0.8299995064735413,-0.7177030284693551,0.0,True,0.01121664047241211,-1.2049999237060547,-0.8299995064735413,-0.7177030444145203,0.0,0,0
1759837282.8086517,0,-1.2049999237060547,-0.8299995064735413,-0.7177030289935615,0.0,True,0.01090097427368164,-1.2049999237060547,-0.8299995064735413,-0.7177030444145203,0.0,0,0
1759837282.81887,0,-1.2049999237060547,-0.8299995064735413,-0.7177030297266178,0.0,True,0.010218381881713867,-1.2049999237060547,-0.8299995064735413,-0.7177030444145203,0.0,0,0
1759837282.8296018,0,-1.2049999237060547,-0.8299995064735413,-0.7177030302222569,0.0,True,0.010731697082519531,-1.2049999237060547,-0.8299995064735413,-0.7177030444145203,0.0,0,0
1759837282.8404307,0,-1.2049999237060547,-0.8299995064735413,-0.7177030306578658,0.0,True,0.010828971862792969,-1.2049999237060547,-0.8299995064735413,-0.7177030444145203,0.0,0,0
1759837282.8517678,0,-1.2049999237060547,-0.8299995064735413,-0.7177030309438948,0.0,True,0.011337041854858398,-1.2049999237060547,-0.8299995064735413,-0.7177030444145203,0.0,0,0
1759837282.8627524,0,-1.2049999237060547,-0.8299995064735413,-0.717703031366451,0.0,True,0.010984659194946289,-1.2049999237060547,-0.8299995064735413,-0.7177030444145203,0.0,0,0
1759837282.8740394,0,-1.2049999237060547,-0.8299995064735413,-0.7177030317150468,0.0,True,0.01128697395324707,-1.2049999237060547,-0.8299995064735413,-0.7177030444145203,0.0,0,0
1759837282.8842764,0,-1.2049999237060547,-0.8299995064735413,-0.7177030323484317,0.0,True,0.010236978530883789,-1.2049999237060547,-0.8299995064735413,-0.7177030444145203,0.0,0,0
1759837282.8950615,0,-1.2049999237060547,-0.8299995064735413,-0.7177030327771128,0.0,True,0.010785102844238281,-1.2049999237060547,-0.8299995064735413,-0.7177030444145203,0.0,0,0
1759837282.9052925,0,-1.2049999237060547,-0.8299995064735413,-0.7177030333060515,0.0,True,0.01023101806640625,-1.2049999237060547,-0.8299995064735413,-0.7177030444145203,0.0,0,0
1759837282.9164634,0,-1.2049999237060547,-0.8299995064735413,-0.7177030335608894,0.0,True,0.01117086410522461,-1.2049999237060547,-0.8299995064735413,-0.7177030444145203,0.0,0,0
1759837282.927136,0,-1.2049999237060547,-0.8299995064735413,-0.717703033940797,0.0,True,0.010672569274902344,-1.2049999237060547,-0.8299995064735413,-0.7177030444145203,0.0,0,0
1759837282.9373224,0,-1.2049999237060547,-0.8299995064735413,-0.7177030344148978,0.0,True,0.010186433792114258,-1.2049999237060547,-0.8299995064735413,-0.7177030444145203,0.0,0,0
1759837282.9486415,0,-1.2049999237060547,-0.8299995064735413,-0.7177030346015449,0.0,True,0.011319160461425781,-1.2049999237060547,-0.8299995064735413,-0.7177030444145203,0.0,0,0
1759837282.9599261,0,-1.2049999237060547,-0.8299995064735413,-0.7177030348207918,0.0,True,0.011284589767456055,-1.2049999237060547,-0.8299995064735413,-0.7177030444145203,0.0,0,0
1759837282.9710915,0,-1.2049999237060547,-0.8299995064735413,-0.7177030350948677,0.0,True,0.011165380477905273,-1.2049999237060547,-0.8299995064735413,-0.7177030444145203,0.0,0,0
1759837282.9823563,0,-1.2049999237060547,-0.8299995064735413,-0.7177030353628204,0.0,True,0.011264801025390625,-1.2049999237060547,-0.8299995064735413,-0.7177030444145203,0.0,0,0
1759837282.9936953,0,-1.2049999237060547,-0.8299995064735413,-0.7177030356268119,0.0,True,0.011338949203491211,-1.2049999237060547,-0.8299995064735413,-0.7177030444145203,0.0,0,0
1759837283.0049496,0,-1.2049999237060547,-0.8299995064735413,-0.7177030359143899,0.0,True,0.011254310607910156,-1.2049999237060547,-0.8299995064735413,-0.7177030444145203,0.0,0,0
1759837283.015591,0,-1.2049999237060547,-0.8299995064735413,-0.7177030363040586,0.0,True,0.010641336441040039,-1.2049999237060547,-0.8299995064735413,-0.7177030444145203,0.0,0,0
1759837283.0263035,0,-1.2049999237060547,-0.8299995064735413,-0.7177030366451156,0.0,True,0.010712623596191406,-1.2049999237060547,-0.8299995064735413,-0.7177030444145203,0.0,0,0
1759837283.0365212,0,-1.2049999237060547,-0.8299995064735413,-0.7177030370304216,0.0,True,0.010217666625976562,-1.2049999237060547,-0.8299995064735413,-0.7177030444145203,0.0,0,0
1759837283.0467072,0,-1.2049999237060547,-0.8299995064735413,-0.7177030373712867,0.0,True,0.010185956954956055,-1.2049999237060547,-0.8299995064735413,-0.7177030444145203,0.0,0,0
1759837283.0580928,0,-1.2049999237060547,-0.8299995064735413,-0.7177030374911624,0.0,True,0.011385679244995117,-1.2049999237060547,-0.8299995064735413,-0.7177030444145203,0.0,0,0
1759837283.0685174,0,-1.2049999237060547,-0.8299995064735413,-0.7177030377684446,0.0,True,0.010424613952636719,-1.2049999237060547,-0.8299995064735413,-0.7177030444145203,0.0,0,0
1759837283.0800016,0,-1.2049999237060547,-0.8299995064735413,-0.7177030378849683,0.0,True,0.011484146118164062,-1.2049999237060547,-0.8299995064735413,-0.7177030444145203,0.0,0,0
1759837283.0904233,0,-1.2049999237060547,-0.8299995064735413,-0.7177030381646325,0.0,True,0.0104217529296875,-1.2049999237060547,-0.8299995064735413,-0.7177030444145203,0.0,0,0
1759837283.1006756,0,-1.2049999237060547,-0.8299995064735413,-0.7177030384469951,0.0,True,0.010252237319946289,-1.2049999237060547,-0.8299995064735413,-0.7177030444145203,0.0,0,0
1759837283.111927,0,-1.2049999237060547,-0.8299995064735413,-0.7177030385725196,0.0,True,0.011251449584960938,-1.2049999237060547,-0.8299995064735413,-0.7177030444145203,0.0,0,0
1759837283.1227582,0,-1.2049999237060547,-0.8299995064735413,-0.7177030387595948,0.0,True,0.010831117630004883,-1.2049999237060547,-0.8299995064735413,-0.7177030444145203,0.0,0,0
1759837283.1331546,0,-1.2049999237060547,-0.8299995064735413,-0.7177030389974526,0.0,True,0.010396480560302734,-1.2049999237060547,-0.8299995064735413,-0.7177030444145203,0.0,0,0
1759837283.1444004,0,-1.2049999237060547,-0.8299995064735413,-0.7177030391197103,0.0,True,0.0112457275390625,-1.2049999237060547,-0.8299995064735413,-0.7177030444145203,0.0,0,0
1759837283.1554675,0,-1.2049999237060547,-0.8299995064735413,-0.7177030392704697,0.0,True,0.01106715202331543,-1.2049999237060547,-0.8299995064735413,-0.7177030444145203,0.0,0,0
1759837283.16665,0,-1.2049999237060547,-0.8299995064735413,-0.7177030394154862,0.0,True,0.011182546615600586,-1.2049999237060547,-0.8299995064735413,-0.7177030444145203,0.0,0,0
1759837283.1781197,0,-1.2049999237060547,-0.8299995064735413,-0.7177030395371453,0.0,True,0.011469602584838867,-1.2049999237060547,-0.8299995064735413,-0.7177030444145203,0.0,0,0
1759837283.188395,0,-1.2049999237060547,-0.8299995064735413,-0.7177030397864748,0.0,True,0.01027536392211914,-1.2049999237060547,-0.8299995064735413,-0.7177030444145203,0.0,0,0
1759837283.1997564,0,-1.2049999237060547,-0.8299995064735413,-0.7177030399067625,0.0,True,0.011361360549926758,-1.2049999237060547,-0.8299995064735413,-0.7177030444145203,0.0,0,0
1759837283.210647,0,-1.2049999237060547,-0.8299995064735413,-0.7177030400715037,0.0,True,0.010890722274780273,-1.2049999237060547,-0.8299995064735413,-0.7177030444145203,0.0,0,0
1759837283.2208393,0,-1.2049999237060547,-0.8299995064735413,-0.7177030402914681,0.0,True,0.010192155838012695,-1.2049999237060547,-0.8299995064735413,-0.7177030444145203,0.0,0,0
1759837283.2310326,0,-1.2049999237060547,-0.8299995064735413,-0.7177030404840465,0.0,True,0.010193347930908203,-1.2049999237060547,-0.8299995064735413,-0.7177030444145203,0.0,0,0
1759837283.2423446,0,-1.2049999237060547,-0.8299995064735413,-0.7177030405593889,0.0,True,0.011312007904052734,-1.2049999237060547,-0.8299995064735413,-0.7177030444145203,0.0,0,0
1759837283.2555246,0,-1.2049999237060547,-0.8299995064735413,-0.7177030404973408,0.0,True,0.013180017471313477,-1.2049999237060547,-0.8299995064735413,-0.7177030444145203,0.0,0,0
1759837283.2656994,0,-1.2049999237060547,-0.8299995064735413,-0.7177030407222276,0.0,True,0.010174751281738281,-1.2049999237060547,-0.8299995064735413,-0.7177030444145203,0.0,0,0
1759837283.2764034,0,-1.2049999237060547,-0.8299995064735413,-0.7177030408887433,0.0,True,0.01070404052734375,-1.2049999237060547,-0.8299995064735413,-0.7177030444145203,0.0,0,0
1759837283.2867284,0,-1.2049999237060547,-0.8299995064735413,-0.7177030410613252,0.0,True,0.010324954986572266,-1.2049999237060547,-0.8299995064735413,-0.7177030444145203,0.0,0,0
1759837283.297974,0,-1.2049999237060547,-0.8299995064735413,-0.717703041148761,0.0,True,0.0112457275390625,-1.2049999237060547,-0.8299995064735413,-0.7177030444145203,0.0,0,0
1759837283.309428,0,-1.2049999237060547,-0.8299995064735413,-0.7177030412237002,0.0,True,0.011453866958618164,-1.2049999237060547,-0.8299995064735413,-0.7177030444145203,0.0,0,0
1759837283.3207603,0,-1.2049999237060547,-0.8299995064735413,-0.7177030413156356,0.0,True,0.011332273483276367,-1.2049999237060547,-0.8299995064735413,-0.7177030444145203,0.0,0,0
1759837283.3307812,0,-1.2049999237060547,-0.8299995064735413,-0.7177030414924488,0.0,True,0.010020971298217773,-1.2049999237060547,-0.8299995064735413,-0.7177030444145203,0.0,0,0
1759837283.341008,0,-1.2049999237060547,-0.8299995064735413,-0.7177030416333423,0.0,True,0.010226726531982422,-1.2049999237060547,-0.8299995064735413,-0.7177030444145203,0.0,0,0
1759837283.3513522,0,-1.2049999237060547,-0.8299995064735413,-0.7177030417471784,0.0,True,0.010344266891479492,-1.2049999237060547,-0.8299995064735413,-0.7177030444145203,0.0,0,0
1759837283.362307,0,-1.2049999237060547,-0.8299995064735413,-0.717703041814552,0.0,True,0.010954856872558594,-1.2049999237060547,-0.8299995064735413,-0.7177030444145203,0.0,0,0
1759837283.3726573,0,-1.2049999237060547,-0.8299995064735413,-0.7177030419163941,0.0,True,0.010350227355957031,-1.2049999237060547,-0.8299995064735413,-0.7177030444145203,0.0,0,0
1759837283.3834689,0,-1.2049999237060547,-0.8299995064735413,-0.7177030419874466,0.0,True,0.010811567306518555,-1.2049999237060547,-0.8299995064735413,-0.7177030444145203,0.0,0,0
1759837283.394293,0,-1.2049999237060547,-0.8299995064735413,-0.7177030420574368,0.0,True,0.010824203491210938,-1.2049999237060547,-0.8299995064735413,-0.7177030444145203,0.0,0,0
1759837283.4055688,0,-1.2049999237060547,-0.8299995064735413,-0.7177030421064146,0.0,True,0.011275768280029297,-1.2049999237060547,-0.8299995064735413,-0.7177030444145203,0.0,0,0
1759837283.4162173,0,-1.2049999237060547,-0.8299995064735413,-0.7177030421919781,0.0,True,0.010648488998413086,-1.2049999237060547,-0.8299995064735413,-0.7177030444145203,0.0,0,0
1759837283.4272878,0,-1.2049999237060547,-0.8299995064735413,-0.7177030422551312,0.0,True,0.011070489883422852,-1.2049999237060547,-0.8299995064735413,-0.7177030444145203,0.0,0,0
1759837283.4386852,0,-1.2049999237060547,-0.8299995064735413,-0.717703042304688,0.0,True,0.011397361755371094,-1.2049999237060547,-0.8299995064735413,-0.7177030444145203,0.0,0,0
1759837283.4490502,0,-1.2049999237060547,-0.8299995064735413,-0.7177030424036488,0.0,True,0.010365009307861328,-1.2049999237060547,-0.8299995064735413,-0.7177030444145203,0.0,0,0
1759837283.4595008,0,-1.2049999237060547,-0.8299995064735413,-0.717703042489978,0.0,True,0.010450601577758789,-1.2049999237060547,-0.8299995064735413,-0.7177030444145203,0.0,0,0
1759837283.4698632,0,-1.2049999237060547,-0.8299995064735413,-0.7177030425703865,0.0,True,0.010362386703491211,-1.2049999237060547,-0.8299995064735413,-0.7177030444145203,0.0,0.5235987755982988,0.031248882667364242
1759837283.480366,0,-1.2049999237060547,-0.8299995064735413,-0.717703042637206,0.0,True,0.010502815246582031,-1.2049999237060547,-0.8299995064735413,-0.7177030444145203,0.0,0.5235987755982988,0.031073579471300076
1759837283.490634,0,-1.2049999237060547,-0.8299995064735413,-0.7177030427079227,0.0,True,0.010267972946166992,-1.2049999237060547,-0.8299995064735413,-0.7177030444145203,0.0,0.5235987755982988,0.03089458825510091
1759837283.5014396,0,-1.2049999237060547,-0.8299995064735413,-0.7177030427531239,0.0,True,0.010805606842041016,-1.2049999237060547,-0.8299995064735413,-0.7177030444145203,0.0,0.5235987755982988,0.030242251736874833
1759837283.5118315,0,-1.2049999237060547,-0.8299995064735413,-0.7177030428132571,0.0,True,0.010391950607299805,-1.2049999237060547,-0.8299995064735413,-0.7177030444145203,0.0,0.5235987755982988,0.03043223666494282
1759837283.5227723,0,-1.2049999237060547,-0.8299995064735413,-0.7177030428518876,0.0,True,0.010940790176391602,-1.2049999237060547,-0.8299995064735413,-0.7177030444145203,0.0,0.5235987755982988,0.03139220093594268
1759837283.5329728,0,-1.2049999237060547,-0.8299995064735413,-0.7177030429167353,0.0,True,0.01020050048828125,-1.2049999237060547,-0.8299995064735413,-0.7177030444145203,0.0,0.5235987755982988,0.03124242933701258
1759837283.5436597,0,-1.2049999237060547,-0.8299995064735413,-0.7177030429612348,0.0,True,0.010686874389648438,-1.2049999237060547,-0.8299995064735413,-0.7177030444145203,0.0,0.5235987755982988,0.033202882944132185
1759837283.5549946,0,-1.2049999237060547,-0.8299995064735413,-0.7177030429849012,0.0,True,0.011334896087646484,-1.2049999237060547,-0.8299995064735413,-0.7177030444145203,0.0,0.5235987755982988,0.030635547421797867
1759837283.5653243,0,-1.2049999237060547,-0.8299995064735413,-0.7177030430442279,0.0,True,0.010329723358154297,-1.2049999237060547,-0.8299995064735413,-0.7177030444145203,0.0,0.5235987755982988,0.032431062076216294
1759837283.5755637,0,-1.2049999237060547,-0.8299995064735413,-0.7177030431024711,0.0,True,0.010239362716674805,-1.2049999237060547,-0.8299995064735413,-0.7177030444145203,0.0,0.5235987755982988,0.030578804996583386
1759837283.58683,0,-1.2049999237060547,-0.8299995064735413,-0.7177030431263134,0.0,True,0.011266231536865234,-1.2049999237060547,-0.8299995064735413,-0.7177030444145203,0.0,0.5235987755982988,0.032037528248524245
1759837283.5977821,0,-1.2049999237060547,-0.8299995064735413,-0.7177030431622526,0.0,True,0.010952234268188477,-1.2049999237060547,-0.8299995064735413,-0.7177030444145203,0.0,0.5235987755982988,0.02894771048110983
1759837283.6081364,0,-1.2049999237060547,-0.8299995064735413,-0.7177030432154758,0.0,True,0.010354280471801758,-1.2049999237060547,-0.8299995064735413,-0.7177030444145203,0.0,0.5235987755982988,0.03237576300240054
1759837283.6189046,0,-1.2049999237060547,-0.8299995064735413,-0.7177030432540619,0.0,True,0.01076817512512207,-1.2049999237060547,-0.8299995064735413,-0.7177030444145203,0.0,0.5235987755982988,0.031302686964011964
1759837283.6296725,0,-1.2049999237060547,-0.8299995064735413,-0.7177030432911149,0.0,True,0.010767936706542969,-1.2049999237060547,-0.8299995064735413,-0.7177030444145203,0.0,0.5235987755982988,0.03093941775272513
1759837283.6396968,0,-1.2049999237060547,-0.8299995064735413,-0.7177030433447715,0.0,True,0.010024309158325195,-1.2049999237060547,-0.8299995064735413,-0.7177030444145203,0.0,0.5235987755982988,0.029845604371840133
1759837283.6586483,0,-1.2011524481314015,-0.833328544893767,-0.7146885374562277,0.03834062003541757,True,0.018951416015625,-1.199112892150879,-0.835090696811676,-0.7074902653694153,0.03834062003541757,0.5235987755982988,0.028662077292974115
1759837283.6689737,0,-1.1997777124032951,-0.8345167069976747,-0.712495604212469,0.03834062003541757,True,0.010325431823730469,-1.199112892150879,-0.835090696811676,-0.7074902653694153,0.03834062003541757,0.5235987755982988,0.030739621446571278
1759837283.6804605,0,-1.1992395283928066,-0.8349814184650002,-0.7108346756233779,0.03834062003541757,True,0.01148676872253418,-1.199112892150879,-0.835090696811676,-0.7074902653694153,0.03834062003541757,0.5235987755982988,0.029628965414143914
1759837283.690919,0,-1.1990451936746642,-0.8351488893657824,-0.7096643027849723,0.03834062003541757,True,0.01045846939086914,-1.199112892150879,-0.835090696811676,-0.7074902653694153,0.03834062003541757,0.5235987755982988,0.030137711270211667
1759837283.7017608,0,-1.1989665916869292,-0.8352163836397484,-0.7088078221791818,0.03834062003541757,True,0.010841846466064453,-1.199112892150879,-0.835090696811676,-0.7074902653694153,0.03834062003541757,0.5235987755982988,0.02794551814820864
1759837283.7129695,0,-1.1989324031790056,-0.8352455618384572,-0.7081833526353769,0.03834062003541757,True,0.011208772659301758,-1.199112892150879,-0.835090696811676,-0.7074902653694153,0.03834062003541757,0.5235987755982988,0.028373559586131462
1759837283.7240229,0,-1.1989210081851234,-0.8352551499913182,-0.7077414486077664,0.03834062003541757,True,0.011053323745727539,-1.199112892150879,-0.835090696811676,-0.7074902653694153,0.03834062003541757,0.5235987755982988,0.03065428873597243
1759837283.7342033,0,-1.1989263217932018,-0.8352504475810836,-0.7074491266394176,0.03834062003541757,True,0.010180473327636719,-1.199112892150879,-0.835090696811676,-0.7074902653694153,0.03834062003541757,0.5235987755982988,0.028901175043098856
1759837283.7448874,0,-1.1989227198916643,-0.8352534124507854,-0.7072247528437625,0.03834062003541757,True,0.010684013366699219,-1.199112892150879,-0.835090696811676,-0.7074902653694153,0.03834062003541757,0.5235987755982988,0.027367576532513822
1759837283.7551477,0,-1.1989260377525077,-0.8352504869387954,-0.7070803587525685,0.03834062003541757,True,0.010260343551635742,-1.199112892150879,-0.835090696811676,-0.7074902653694153,0.03834062003541757,0.5235987755982988,0.02853833898378407
1759837283.7659147,0,-1.1989216512484486,-0.8352541742719206,-0.7069657867198487,0.03834062003541757,True,0.010766983032226562,-1.199112892150879,-0.835090696811676,-0.7074902653694153,0.03834062003541757,0.5235987755982988,0.028236373870836707
1759837283.7774243,0,-1.1989116959822328,-0.8352626353701742,-0.7068717866299377,0.03834062003541757,True,0.01150965690612793,-1.199112892150879,-0.835090696811676,-0.7074902653694153,0.03834062003541757,0.5235987755982988,0.026755615301822057
1759837283.7879546,0,-1.1989187885397428,-0.8352565381465383,-0.7068383731250769,0.03834062003541757,True,0.010530233383178711,-1.199112892150879,-0.835090696811676,-0.7074902653694153,0.03834062003541757,0.5235987755982988,0.027960184741795763
1759837283.7992005,0,-1.1989135250584892,-0.8352610140085843,-0.7067978373636983,0.03834062003541757,True,0.011245965957641602,-1.199112892150879,-0.835090696811676,-0.7074902653694153,0.03834062003541757,0.5235987755982988,0.030387863199764602
1759837283.8100917,0,-1.1989154607277266,-0.8352593441114929,-0.7067862227070272,0.03834062003541757,True,0.010891199111938477,-1.199112892150879,-0.835090696811676,-0.7074902653694153,0.03834062003541757,0.5235987755982988,0.028485810385066396
1759837283.820869,0,-1.1989174679259054,-0.8352576208676782,-0.7067847082688914,0.03834062003541757,True,0.01077723503112793,-1.199112892150879,-0.835090696811676,-0.7074902653694153,0.03834062003541757,0.5235987755982988,0.02697194482287226
