timestamp,observer_vehicle_id,vehicle_0_x,vehicle_0_y,vehicle_0_theta,vehicle_0_velocity,vehicle_1_x,vehicle_1_y,vehicle_1_theta,vehicle_1_velocity,vehicle_2_x,vehicle_2_y,vehicle_2_theta,vehicle_2_velocity
1759830087.9340549,1,0.0,0.0,0.0,0.0,8.0,6.0,-0.05483113549895436,0.0,0.0,0.0,0.0,0.0
1759830087.9442651,1,0.0,0.0,0.0,0.0,8.0,6.0,-0.05483113549895436,0.0,0.0,0.0,0.0,0.0
1759830087.9543757,1,0.0,0.0,0.0,0.0,8.0,6.0,-0.05483113549895436,0.0,0.0,0.0,0.0,0.0
1759830087.9658992,1,0.0,0.0,0.0,0.0,8.0,6.0,-0.05483113549895436,0.0,0.0,0.0,0.0,0.0
1759830087.976553,1,0.0,0.0,0.0,0.0,8.0,6.0,-0.05483113549895436,0.0,0.0,0.0,0.0,0.0
1759830087.98712,1,0.0,0.0,0.0,0.0,8.0,6.0,-0.05483113549895436,0.0,0.0,0.0,0.0,0.0
1759830087.9985309,1,0.0,0.0,0.0,0.0,8.0,6.0,-0.05483113549895436,0.0,0.0,0.0,0.0,0.0
1759830088.0087717,1,0.0,0.0,0.0,0.0,8.0,6.0,-0.05483113549895436,0.0,0.0,0.0,0.0,0.0
1759830088.0190258,1,0.0,0.0,0.0,0.0,8.0,6.0,-0.05483113549895436,0.0,0.0,0.0,0.0,0.0
1759830088.029364,1,0.0,0.0,0.0,0.0,8.0,6.0,-0.05483113549895436,0.0,0.0,0.0,0.0,0.0
1759830088.0408347,1,0.0,0.0,0.0,0.0,8.0,6.0,-0.05483113549895436,0.0,0.0,0.0,0.0,0.0
1759830088.0516772,1,0.0,0.0,0.0,0.0,8.0,6.0,-0.05483113549895436,0.0,0.0,0.0,0.0,0.0
1759830088.0628762,1,0.0,0.0,0.0,0.0,8.0,6.0,-0.05483113549895436,0.0,0.0,0.0,0.0,0.0
1759830088.074049,1,0.0,0.0,0.0,0.0,8.0,6.0,-0.05483113549895436,0.0,0.0,0.0,0.0,0.0
1759830088.085131,1,0.0,0.0,0.0,0.0,8.0,6.0,-0.05483113549895436,0.0,0.0,0.0,0.0,0.0
1759830088.0956593,1,0.0,0.0,0.0,0.0,8.0,6.0,-0.05483113549895436,0.0,0.0,0.0,0.0,0.0
1759830088.1069417,1,0.0,0.0,0.0,0.0,8.0,6.0,-0.05483113549895436,0.0,0.0,0.0,0.0,0.0
1759830088.1184034,1,0.0,0.0,0.0,0.0,8.0,6.0,-0.05483113549895436,0.0,0.0,0.0,0.0,0.0
1759830088.130014,1,0.0,0.0,0.0,0.0,8.0,5.99999905427297,-2.879847501559066,0.0,0.0,0.0,0.0,0.0
1759830088.1410115,1,0.0,0.0,0.0,0.0,8.0,5.999999048982158,-3.1211931714375645,0.0,0.0,0.0,0.0,0.0
1759830088.1522844,1,0.0,0.0,0.0,0.0,8.0,5.999999047322208,3.139200021520004,0.0,0.0,0.0,0.0,0.0
1759830088.1624808,1,0.0,0.0,0.0,0.0,8.0,5.999999046705331,3.1364292356033694,0.0,0.0,0.0,0.0,0.0
1759830088.1734216,1,0.0,0.0,0.0,0.0,8.0,5.9999990464706405,3.136035416032568,0.0,0.0,0.0,0.0,0.0
1759830088.1838386,1,0.0,0.0,0.0,0.0,8.0,5.999999046381049,3.1364165822676853,0.0,0.0,0.0,0.0,0.0
1759830088.1940422,1,0.0,0.0,0.0,0.0,8.0,5.999999046346831,3.1369895155346406,0.0,0.0,0.0,0.0,0.0
1759830088.205365,1,0.0,0.0,0.0,0.0,8.0,5.999999046333762,3.1374651591375375,0.0,0.0,0.0,0.0,0.0
1759830088.2155013,1,0.0,0.0,0.0,0.0,8.0,5.999999046328769,3.1380214469262384,0.0,0.0,0.0,0.0,0.0
1759830088.2261736,1,0.0,0.0,0.0,0.0,8.0,5.999999046326862,3.1384476703445703,0.0,0.0,0.0,0.0,0.0
1759830088.2367754,1,0.0,0.0,0.0,0.0,8.0,5.999999046326134,3.1388118896706825,0.0,0.0,0.0,0.0,0.0
1759830088.2469122,1,0.0,0.0,0.0,0.0,8.0,5.999999046325856,3.1391393527660263,0.0,0.0,0.0,0.0,0.0
1759830088.2579548,1,0.0,0.0,0.0,0.0,8.0,5.999999046325749,3.139367753769992,0.0,0.0,0.0,0.0,0.0
1759830088.2681897,1,0.0,0.0,0.0,0.0,8.0,5.9999990463257085,3.139600409635438,0.0,0.0,0.0,0.0,0.0
1759830088.2787573,1,0.0,0.0,0.0,0.0,8.0,5.999999046325693,3.13978250219197,0.0,0.0,0.0,0.0,0.0
1759830088.2899904,1,0.0,0.0,0.0,0.0,8.0,5.999999046325687,3.1399171312672767,0.0,0.0,0.0,0.0,0.0
1759830088.3012614,1,0.0,0.0,0.0,0.0,8.0,5.999999046325685,3.140040849851662,0.0,0.0,0.0,0.0,0.0
1759830088.312928,1,0.0,0.0,0.0,0.0,8.0,5.9999990463256845,3.1401451394868243,0.0,0.0,0.0,0.0,0.0
1759830088.3238423,1,0.0,0.0,0.0,0.0,8.0,5.999999046325684,3.14026341354025,0.0,0.0,0.0,0.0,0.0
1759830088.3420267,1,0.0,0.0,0.0,0.0,8.0,5.999999046325684,3.1402059718857274,0.0,0.0,0.0,0.0,0.0
1759830088.3520331,1,0.0,0.0,0.0,0.0,8.0,5.999999046325684,3.14037973600084,0.0,0.0,0.0,0.0,0.0
1759830088.3622084,1,0.0,0.0,0.0,0.0,8.0,5.999999046325684,3.1405183493738473,0.0,0.0,0.0,0.0,0.0
1759830088.3732333,1,0.0,0.0,0.0,0.0,8.0,5.999999046325684,3.140607682717121,0.0,0.0,0.0,0.0,0.0
1759830088.3839836,1,0.0,0.0,0.0,0.0,8.0,5.999999046325684,3.140684691377789,0.0,0.0,0.0,0.0,0.0
1759830088.395183,1,0.0,0.0,0.0,0.0,8.0,5.999999046325684,3.1407415157002365,0.0,0.0,0.0,0.0,0.0
1759830088.4056942,1,0.0,0.0,0.0,0.0,8.0,5.999999046325684,3.140802157727304,0.0,0.0,0.0,0.0,0.0
1759830088.4171205,1,0.0,0.0,0.0,0.0,8.0,5.999999046325684,3.1408403299707004,0.0,0.0,0.0,0.0,0.0
1759830088.428562,1,0.0,0.0,0.0,0.0,8.0,5.999999046325684,3.140875835707984,0.0,0.0,0.0,0.0,0.0
1759830088.4389207,1,0.0,0.0,0.0,0.0,8.0,5.999999046325684,3.140924483329737,0.0,0.0,0.0,0.0,0.0
1759830088.4503405,1,0.0,0.0,0.0,0.0,8.0,5.999999046325684,3.140952861842356,0.0,0.0,0.0,0.0,0.0
1759830088.4615173,1,0.0,0.0,0.0,0.0,8.0,5.999999046325684,3.1409827915381427,0.0,0.0,0.0,0.0,0.0
1759830088.4720845,1,0.0,0.0,0.0,0.0,8.0,5.999999046325684,3.1410182767219954,0.0,0.0,0.0,0.0,0.0
1759830088.4837217,1,0.0,0.0,0.0,0.0,8.0,5.999999046325684,3.141037732777354,0.0,0.0,0.0,0.0,0.0
1759830088.4946265,1,0.0,0.0,0.0,0.0,8.0,5.999999046325684,3.1410652750729646,0.0,0.0,0.0,0.0,0.0
1759830088.506098,1,0.0,0.0,0.0,0.0,8.0,5.999999046325684,3.1410851313486106,0.0,0.0,0.0,0.0,0.0
1759830088.5161471,1,0.0,0.0,0.0,0.0,8.0,5.999999046325684,3.141118502037296,0.0,0.0,0.0,0.0,0.0
1759830088.5274057,1,0.0,0.0,0.0,0.0,8.0,5.999999046325684,3.1411357658112706,0.0,0.0,0.0,0.0,0.0
1759830088.5394745,1,0.0,0.0,0.0,0.0,8.0,5.999999046325684,3.1411449739017296,0.0,0.0,0.0,0.0,0.0
1759830088.5499833,1,0.0,0.0,0.0,0.0,8.0,5.999999046325684,3.1411699839592355,0.0,0.0,0.0,0.0,0.0
1759830088.5610266,1,0.0,0.0,0.0,0.0,8.0,5.999999046325684,3.141188161192945,0.0,0.0,0.0,0.0,0.0
1759830088.5718837,1,0.0,0.0,0.0,0.0,8.0,5.999999046325684,3.141206303693968,0.0,0.0,0.0,0.0,0.0
1759830088.5832489,1,0.0,0.0,0.0,0.0,8.0,5.999999046325684,3.141219147792196,0.0,0.0,0.0,0.0,0.0
1759830088.5940366,1,0.0,0.0,0.0,0.0,8.0,5.999999046325684,3.141236183386095,0.0,0.0,0.0,0.0,0.0
1759830088.604775,1,0.0,0.0,0.0,0.0,8.0,5.999999046325684,3.141252285393172,0.0,0.0,0.0,0.0,0.0
1759830088.615155,1,0.0,0.0,0.0,0.0,8.0,5.999999046325684,3.1412693189417027,0.0,0.0,0.0,0.0,0.0
1759830088.6257408,1,0.0,0.0,0.0,0.0,8.0,5.999999046325684,3.1412829945058274,0.0,0.0,0.0,0.0,0.0
1759830088.6371272,1,0.0,0.0,0.0,0.0,8.0,5.999999046325684,3.141290341892006,0.0,0.0,0.0,0.0,0.0
1759830088.647403,1,0.0,0.0,0.0,0.0,8.0,5.999999046325684,3.1413051097365816,0.0,0.0,0.0,0.0,0.0
1759830088.6586657,1,0.0,1.1901795387268068,-0.6231765485074212,0.0,8.0,5.999999046325684,3.1413127371505265,0.0,0.0,0.0,0.0,0.0
1759830088.669852,1,0.0,2.133510310480324,-1.1171033850173675,0.0,8.0,5.999999046325684,3.1413210490019488,0.0,0.0,0.0,0.0,0.0
1759830088.6813183,1,0.0,2.8829625673380876,-1.5095156686290778,0.0,8.0,5.999999046325684,3.1413282161255314,0.0,0.0,0.0,0.0,0.0
1759830088.6915722,1,0.0,3.4807540843874705,-1.8225185746615262,0.0,8.0,5.999999046325684,3.14134230366518,0.0,0.0,0.0,0.0,0.0
1759830088.7023675,1,0.0,3.9584607478862552,-2.072645198478827,0.0,8.0,5.999999046325684,3.1413520826907586,0.0,0.0,0.0,0.0,0.0
1759830088.7130802,1,0.0,4.363023419222923,-2.2844737176014345,0.0,8.0,5.999999046325684,3.141361416830673,0.0,0.0,0.0,0.0,0.0
1759830088.7242904,1,0.0,4.683745553612439,-2.4524034342831698,0.0,8.0,5.999999046325684,3.141367809232168,0.0,0.0,0.0,0.0,0.0
1759830088.8115106,1,0.0,4.946330266823841,-2.5898924684543863,0.0,8.0,5.999999046325684,3.141127570571715,0.0,0.0,0.0,0.0,0.0
1759830088.8223798,1,0.0,5.15424041241777,-2.6987539659974393,0.0,8.0,5.999999046325684,3.1412384021395194,0.0,0.0,0.0,0.0,0.0
1759830088.8324382,1,0.0,5.31942432324792,-2.7852440593578147,0.0,8.0,5.999999046325684,3.141323798367864,0.0,0.0,0.0,0.0,0.0
1759830088.8431823,1,0.0,5.450884002832208,-2.8540761865500404,0.0,8.0,5.999999046325684,3.141377030255665,0.0,0.0,0.0,0.0,0.0
1759830088.8536677,1,0.0,5.555799450809832,-2.9090097865897007,0.0,8.0,5.999999046325684,3.1414129552861105,0.0,0.0,0.0,0.0,0.0
1759830088.864417,1,0.0,5.639714523659716,-2.952947615937936,0.0,8.0,5.999999046325684,3.1414372566510753,0.0,0.0,0.0,0.0,0.0
1759830088.8753355,1,-2.7138211149127706e-07,5.710911285132481,-1.7485787714589414,0.0,8.0,5.999999046325684,3.141454257165753,0.0,0.0,0.0,0.0,0.0
1759830088.8858166,1,-4.868253537524609e-07,5.767432553413207,-0.7924614824192391,0.0,8.0,5.999999046325684,3.141467745204274,0.0,0.0,0.0,0.0,0.0
1759830088.8963323,1,-6.582811599897392e-07,5.812413772229424,-0.031556387744851255,0.0,8.0,5.999999046325684,3.1414778746307714,0.0,0.0,0.0,0.0,0.0
1759830088.9076755,1,-7.949527238833515e-07,5.848269388066343,0.574979439451621,0.0,8.0,5.999999046325684,3.141483976795204,0.0,0.0,0.0,0.0,0.0
1759830088.9185507,1,-9.042420957381728e-07,5.876941319671186,1.0599956174573588,0.0,8.0,5.999999046325684,3.1414898650062177,0.0,0.0,0.0,0.0,0.0
1759830088.9299471,1,-9.969827734466502e-07,5.901271721823891,1.4715702132705684,0.0,8.0,5.999999046325684,3.1414937956636777,0.0,0.0,0.0,0.0,0.0
1759830088.9422476,1,-1.0704609426263512e-06,5.920548628675988,1.7976595683245875,0.0,8.0,5.999999046325684,3.1414955799977644,0.0,0.0,0.0,0.0,0.0
1759830088.9528306,1,-1.1289507535292957e-06,5.935893358262477,2.057231968229209,0.0,8.0,5.999999046325684,3.141500725924441,0.0,0.0,0.0,0.0,0.0
1759830088.963684,1,-1.1756132156335823e-06,5.948135197512362,2.264315682245087,0.0,8.0,5.999999046325684,3.1415047704199406,0.0,3.12144775390625,1.170542907714844,-0.6128948325644303,0.0
1759830088.9737208,1,-1.2129675852749616e-06,5.957935070211076,2.4300909382264497,0.0,8.0,5.999999046325684,3.1415096586906426,0.0,5.608079101888579,2.1030296632082175,-1.1011437554444852,0.0
1759830088.9837668,1,-1.2429411276592049e-06,5.965798592002907,2.5631107618540425,0.0,8.0,5.999999046325684,3.141513738353053,0.0,7.593704394759681,2.8476391480348804,-1.491020369553107,0.0
1759830088.9942772,1,-1.267036905928985e-06,5.972120089645279,2.6700456090778615,0.0,8.0,5.999999046325684,3.1415163798935755,0.0,9.182257654301608,3.4433466203631036,-1.802932072322511,0.0
1759830089.0056865,1,-1.287528877967338e-06,5.977496133177787,2.7609870957856932,0.0,8.0,5.999999046325684,3.1415173155769818,0.0,10.455061950453485,3.9206482314200573,-2.0528466111774586,0.0
1759830089.016724,1,-1.303879482494596e-06,5.981785694063233,2.8335495744723533,0.0,8.0,5.999999046325684,3.1415190930886006,0.0,11.478005868264566,4.304252200599212,-2.2537011795248016,0.0
1759830089.0276244,1,-1.3169615114096398e-06,5.9852177481773605,2.891606415290908,0.0,8.0,5.999999046325684,3.1415212090832245,0.0,12.302376374679529,4.613391140504823,-2.415565949764178,0.0
1759830089.0378792,1,-1.3274624310978005e-06,5.98797265147653,2.9382085308146615,0.0,8.0,5.999999046325684,3.1415242412439213,0.0,13.00846603801738,4.878174764256517,-2.554206330800626,0.0
1759830089.049223,1,-1.33590179905123e-06,5.990186709226539,2.975661669396096,0.0,8.0,5.999999046325684,3.141525422560818,0.0,13.572935427539822,5.089850785327433,-2.6650396361302313,0.0
1759830089.0601757,1,-1.3427051465813754e-06,5.991971559040914,3.00585429984784,0.0,8.0,5.999999046325684,3.1415272711391466,0.0,14.025579095614452,5.259592160855419,-2.7539160124235003,0.0
1759830089.070613,1,-1.348206707653855e-06,5.993414886787363,3.030269721760812,0.0,8.0,5.999999046325684,3.141529842875469,0.0,14.389683937245424,5.396131476467033,-2.8254078308170802,0.0
1759830089.080932,1,-1.3526669176431576e-06,5.994585017364437,3.05006372336774,0.0,8.0,5.999999046325684,3.1415323462960423,0.0,14.68332048932327,5.506245183496226,-2.883063232928274,0.0
1759830089.0913947,1,-1.3565137085431603e-06,5.995594218201729,3.067135427489025,0.0,8.0,5.999999046325684,3.1415344000504692,0.0,14.920658031050994,5.595246761644123,-2.9296643502195794,0.0
1759830089.101982,1,-1.359607471237521e-06,5.996405863020149,3.0808652617099477,0.0,8.0,5.999999046325684,3.1415361371347537,0.0,15.11292889189711,5.667348334461416,-2.9674166454222872,0.0
1759830089.1132555,1,-1.362099885215427e-06,5.997059744746182,3.0919263656494764,0.0,8.0,5.999999046325684,3.1415370024539744,0.0,15.268949118270871,5.725855919351578,-2.998051145198984,0.0
1759830089.1235242,1,-1.3641153284490216e-06,5.997588493787067,3.100870717305593,0.0,8.0,5.999999046325684,3.141539199341805,0.0,15.396026740632113,5.773510027737044,-3.023002777973331,0.0
1759830089.133569,1,-1.365749369235917e-06,5.998017182367541,3.1081224399911105,0.0,8.0,5.999999046325684,3.1415414931093277,0.0,15.506200729498435,5.814825273561914,-3.044635390076057,0.0
1759830089.1471684,1,-1.367071899829977e-06,5.998364146634007,3.1139917090988023,0.0,8.0,5.999999046325684,3.1415397343925164,0.0,15.594934218129426,5.848100331798537,-3.0620581698068063,0.0
1759830089.1576393,1,-1.3681494810382237e-06,5.998646848731907,3.118773915366846,0.0,8.0,5.999999046325684,3.1415420956545557,0.0,15.666874423422886,5.875077908783584,-3.0761835960686454,0.0
1759830089.1681566,1,-1.3690295338910816e-06,5.9988777295099505,3.122679508965675,0.0,8.0,5.999999046325684,3.1415443622499524,0.0,15.725337235229883,5.8970014632112076,-3.087662742310595,0.0
1759830089.1792388,1,-1.3697967272036929e-06,5.999079001727125,3.1260842423076203,0.0,8.0,5.999999046325684,3.141545812163981,0.0,15.772931179109142,5.914849192165929,-3.09700779132782,0.0
1759830089.1895862,1,-1.3704185697979952e-06,5.999242141363031,3.1288439225335276,0.0,8.0,5.999999046325684,3.1415478868399926,0.0,15.811808065691581,5.929428024634344,-3.104641250149212,0.0
1759830089.2000206,1,-1.370923753265022e-06,5.999374675621109,3.131085880284868,0.0,8.0,5.999999046325684,3.1415496684401987,0.0,15.845657051411726,5.942121394279398,-3.1112874829459845,0.0
1759830089.2108412,1,-1.3713349642333448e-06,5.999482556310317,3.13291079673214,0.0,8.0,5.999999046325684,3.1415509233357035,0.0,15.873083799970106,5.95240642498879,-3.116672712426259,0.0
1759830089.2213593,1,-1.3716706283790446e-06,5.999570617384,3.1344004433306876,0.0,8.0,5.999999046325684,3.141552394133262,0.0,15.895369831340215,5.960763686752581,-3.121048564448135,0.0
1759830089.2323103,1,-1.3719451409773468e-06,5.999642635424818,3.1356187049876385,0.0,8.0,5.999999046325684,3.14155342475307,0.0,15.913513353331316,5.967567507499244,-3.124611036656407,0.0
1759830089.2426217,1,-1.3721703707870612e-06,5.999701724186973,3.136618254162701,0.0,8.0,5.999999046325684,3.141554978357906,0.0,15.928332316687353,5.973124618757758,-3.127520733303904,0.0
1759830089.2543752,1,-1.372367413186824e-06,5.9997534180169705,3.137492710205554,0.0,8.0,5.999999046325684,3.141555306966964,0.0,15.940443670309111,5.977666376365917,-3.1298987920238828,0.0
1759830089.264535,1,-1.3725279313056976e-06,5.999795529747027,3.138205074849941,0.0,8.0,5.999999046325684,3.1415570130273167,0.0,15.950387271849783,5.981395226943669,-3.1318512136185515,0.0
1759830089.2753623,1,-1.3726588979813197e-06,5.999829888692479,3.138786292907821,0.0,8.0,5.999999046325684,3.1415580995975905,0.0,15.958563242457968,5.984461215921739,-3.133456561691632,0.0
1759830089.2868123,1,-1.372765937939328e-06,5.999857970493141,3.1392613263941156,0.0,8.0,5.999999046325684,3.1415587027254634,0.0,15.965712674708959,5.987140792305188,-2.05049581660947,0.0
1759830089.2972798,1,-1.3728537514076353e-06,5.999881008247999,3.139651034487894,0.0,8.0,5.999999046325684,3.1415600787586477,0.0,15.971556484160592,5.989331026892529,-1.1653043754315362,0.0
1759830089.30882,1,-1.3729258683008547e-06,5.999899928025786,3.139971082625469,0.0,8.0,5.999999046325684,3.141560672277542,0.0,15.976338366328847,5.991123255712478,-0.4409684430069076,0.0
1759830089.319225,1,-1.3729853297738583e-06,5.999915527669724,3.1402349671723866,0.0,8.0,5.999999046325684,3.1415620606853025,0.0,15.980266810541004,5.992595619666012,0.1540929159451827,0.0
1759830089.3295083,1,-1.3730344782628425e-06,5.999928421715052,3.1404530836449887,0.0,8.0,5.999999046325684,3.141563409527553,0.0,15.983502179326903,5.993808221937926,0.6441706267325816,0.0
1759830089.3507493,1,-1.3730772907229653e-06,5.999939653511042,3.140643081404399,0.0,8.0,5.999999046325684,3.14155837635321,0.0,15.986136767517847,5.99479565423307,1.043245055314528,0.0
1759830089.361181,1,-1.3731125109593977e-06,5.999948893496532,3.1407993855735326,0.0,8.0,5.999999046325684,3.1415611350877146,0.0,15.988469242990869,5.9956698559840715,1.396556939037821,0.0
1759830089.372179,1,-1.373141533053984e-06,5.999956507407171,3.1409281829593634,0.0,8.0,5.999999046325684,3.141563452232745,0.0,15.990383644530997,5.996387365427518,1.6865410448382292,0.0
1759830089.382961,1,-1.3731655128253388e-06,5.999962798470542,3.141034602978571,0.0,8.0,5.999999046325684,3.141565410288557,0.0,15.991959202771788,5.9969778778632685,1.9251988384175647,0.0
1759830089.3933434,1,-1.3731853837939217e-06,5.999968011594586,3.1411227885090747,0.0,8.0,5.999999046325684,3.141567186300673,0.0,15.993259662458257,5.9974652845469265,2.122186059439612,0.0
1759830089.4048266,1,-1.3732018646295382e-06,5.999972335321437,3.1411959289413547,0.0,8.0,5.999999046325684,3.1415681136331592,0.0,15.994334064527104,5.997867965810129,2.2849311871851268,0.0
1759830089.4152806,1,-1.3732155863885374e-06,5.999975935207948,3.1412568248454336,0.0,8.0,5.999999046325684,3.141569410178935,0.0,15.995225116847207,5.998201928378001,2.419903399048992,0.0
1759830089.425318,1,-1.373227843330415e-06,5.999979150801497,3.1413112200258846,0.0,8.0,5.999999046325684,3.1415707134070985,0.0,15.995966213608046,5.998479688248782,2.532161082193642,0.0
1759830089.4363427,1,-1.3732379678463081e-06,5.999981806955725,3.1413561516959945,0.0,8.0,5.999999046325684,3.1415713792137865,0.0,15.996583162335138,5.99871091797177,2.625613433333279,0.0
1759830089.4474149,1,-1.3732463508636331e-06,5.999984006229958,3.141393354755672,0.0,8.0,5.999999046325684,3.1415719779807,0.0,15.99713469948052,5.998917631715949,2.7091575606058993,0.0
1759830089.458599,1,-1.3732533078783975e-06,5.999985831394182,3.1414242293471717,0.0,8.0,5.999999046325684,3.141572533306638,0.0,15.997590548980776,5.999088482143286,2.778207395209764,0.0
1759830089.4700599,1,-1.3732590935309247e-06,5.99998734925297,3.1414499055408243,0.0,8.0,5.999999046325684,3.1415729962225747,0.0,15.997968110690541,5.999229990644277,2.835398581330126,0.0
1759830089.480103,1,-1.3732639260724978e-06,5.999988617064278,3.141471351915747,0.0,8.0,5.999999046325684,3.1415740221012616,0.0,15.998282189406607,5.999347705992932,2.8829736765856695,0.0
1759830089.4909892,1,-1.373267966828401e-06,5.999989677151594,3.141489284418708,0.0,8.0,5.999999046325684,3.1415746157243376,0.0,15.99854375029875,5.999445737887608,2.9225936308274547,0.0
1759830089.5013278,1,-1.3732716048848364e-06,5.999990631591202,3.1415054297784777,0.0,8.0,5.999999046325684,3.1415753527112713,0.0,15.998762250738388,5.999527630910336,2.9556910000454746,0.0
1759830089.5123262,1,-1.3732746246606723e-06,5.9999914238256595,3.1415188312658273,0.0,8.0,5.999999046325684,3.1415757949693273,0.0,15.998945029179302,5.999596135481956,2.9833773770343894,0.0
1759830089.523278,1,-1.3732771374350152e-06,5.999992083048902,3.1415299827271936,0.0,8.0,5.999999046325684,3.1415762506521734,0.0,15.999109555940082,5.999657799402552,3.0082990795117697,0.0
1759830089.5338154,1,-1.3732792344772348e-06,5.999992633205336,3.1415392892076426,0.0,8.0,5.999999046325684,3.141576843208524,0.0,15.999246311930564,5.999709054958172,3.029014202636076,0.0
1759830089.5456579,1,-1.3732809855300093e-06,5.9999930925918665,3.1415470602187643,0.0,8.0,5.999999046325684,3.141577001364084,0.0,15.999360054038327,5.999751685009771,3.0462432962823516,0.0
1759830089.5568929,1,-1.3732824526033692e-06,5.99999347747675,3.1415535709553697,0.0,8.0,5.999999046325684,3.1415774172217077,0.0,15.99945497418705,5.999787260672272,3.060621332380423,0.0
1759830089.5674698,1,-1.3732837776638229e-06,5.999993825104721,3.141559451451761,0.0,8.0,5.999999046325684,3.1415780459498635,0.0,15.9995345354716,5.999817100334386,3.0725071219127176,1.174475759123776e-06
1759830089.5787327,1,-1.3732848800852408e-06,5.999994114323617,3.141564343896594,0.0,8.0,5.999999046325684,3.1415784324076483,0.0,15.999601230063014,5.999842083748262,3.0824700956013125,2.1769739106134514e-06
1759830089.5895913,1,-1.3732858000167598e-06,5.999994355666514,3.1415684264680452,0.0,8.0,5.999999046325684,3.141578923784021,0.0,15.999657351108514,5.999863095839146,3.090865203594025,3.03740475683731e-06
1759830089.6010451,1,-1.373286568864178e-06,5.999994557372684,3.1415718385421556,0.0,8.0,5.999999046325684,3.141579240207683,0.0,15.999708122104579,5.999882111628866,3.0984697407930843,4.3629456354835955e-06
1759830089.6115437,1,-1.3732872138615133e-06,5.999994726586937,3.1415747009809922,0.0,8.0,5.999999046325684,3.141579809143339,0.0,15.999750557367767,5.999897967674387,3.104826081279862,5.471196671212601e-06
1759830089.6216478,1,-1.37328775647895e-06,5.999994868941951,3.1415771090672573,0.0,8.0,5.999999046325684,3.141580419637366,0.0,15.999786131902022,5.999911230133073,3.1101646770564972,6.400385198344528e-06
1759830089.6318736,1,-1.3732882138819144e-06,5.9999949889410535,3.1415791389795333,0.0,8.0,5.999999046325684,3.1415809153489125,0.0,15.999816012569736,5.999922342480317,3.1146573761019622,7.181019853763223e-06
1759830089.6423216,1,-1.3732886001740295e-06,5.999995090284312,3.1415808533084024,0.0,8.0,5.999999046325684,3.1415812973239934,0.0,15.99984115719618,5.999931669066451,3.118445631654635,7.83809344079029e-06
1759830089.6537209,1,-1.3732889518666984e-06,5.999995182550449,3.1415824140881132,0.0,8.0,5.999999046325684,3.1415814432106863,0.0,15.999862334096957,5.999939501973522,3.1216356992264176,8.391656874888276e-06
1759830089.6638932,1,-1.3732892469893777e-06,5.999995259975519,3.1415837238154136,0.0,8.0,5.999999046325684,3.141581888102296,0.0,15.999880243900888,5.999946107539112,3.1243390130670172,8.859960117197116e-06
1759830089.674818,1,-1.373289494928948e-06,5.999995325022158,3.141584824148417,0.0,8.0,5.999999046325684,3.141582147036143,0.0,15.999896596373919,5.999952138731562,3.126812007994172,9.287479775967926e-06
1759830089.685273,1,-1.3732897038525364e-06,5.9999953798330035,3.1415857513320824,0.0,8.0,5.999999046325684,3.141582497892724,0.0,15.999910324523356,5.999957186099459,3.1288930085601563,9.646503991753092e-06
1759830089.6963685,1,-1.3732898801320274e-06,5.9999954260797095,3.141586533644247,0.0,8.0,5.999999046325684,3.141582708046478,0.0,15.999921864742507,5.999961414627983,3.1306465118936844,9.948416198013208e-06
1759830089.7067466,1,-1.3732900293704952e-06,5.999995465232237,3.1415871959508372,0.0,8.0,5.999999046325684,3.14158306324612,0.0,15.999931598061584,5.999964968428385,3.1321284845283315,1.0203158518750139e-05
1759830089.7181642,1,-1.3732901558000516e-06,5.9999954984008745,3.141587757033578,0.0,8.0,5.999999046325684,3.1415832114656013,0.0,15.99993981287698,5.999967955912148,3.1333818012893127,1.0418255103851667e-05
1759830089.7287521,1,-1.3732902725159633e-06,5.99999552902115,3.141588275008056,0.0,8.0,5.999999046325684,3.1415835285745253,0.0,15.999946770987005,5.9999704757376655,3.13444286316642,1.0600530660555491e-05
1759830089.7459168,1,-1.373290369870568e-06,5.99999555456201,3.1415887070588355,0.0,8.0,5.999999046325684,3.1415827692100855,0.0,15.99995261881044,5.999972580963136,3.1353364791959515,1.0753831552182271e-05
1759830089.7505426,1,-1.3732904528256684e-06,5.999995576325178,3.1415890752059394,0.0,8.0,5.999999046325684,3.141584285526271,0.0,15.999958073903585,5.999974562099679,3.136173732048711,1.0896633537607333e-05
1759830089.7620184,1,-1.3732905228942374e-06,5.99999559470758,3.141589386163802,0.0,8.0,5.999999046325684,3.14158444699237,0.0,15.999962666274657,5.999976220725906,3.1368854154821673,1.1016909801014104e-05
1759830089.7725751,1,-1.3732905822998755e-06,5.999995610292577,3.141589649800559,0.0,8.0,5.999999046325684,3.1415846901254003,0.0,15.99996654613461,5.999977613949508,3.1374862386810443,1.1118592415997473e-05
1759830089.7832346,1,-1.3732906327690919e-06,5.999995623533113,3.1415898737782983,0.0,8.0,5.999999046325684,3.1415849118392565,0.0,15.99996983048819,5.999978785666352,3.1379971984702917,1.1204734735269128e-05
1759830089.794127,1,-1.3732906757262958e-06,5.9999956348028824,3.1415900644184176,0.0,8.0,5.999999046325684,3.1415850940921253,0.0,15.999972615676453,5.999979771862483,3.138430037790106,1.1277849920866285e-05
1759830089.8054197,1,-1.3732907153332257e-06,5.999995645193712,3.141590240190329,0.0,8.0,5.999999046325684,3.141585226758764,0.0,15.999974980625552,5.999980602068236,3.1387985144212305,1.1340011310321328e-05
1759830089.8162577,1,-1.3732907488304467e-06,5.999995653981667,3.141590388847914,0.0,8.0,5.999999046325684,3.1415854381275334,0.0,15.999976994951114,5.999981302242417,3.139113848809047,1.1393019560940757e-05
1759830089.8270645,1,-1.3732907772263066e-06,5.999995661431286,3.1415905148661287,0.0,8.0,5.999999046325684,3.141585651737973,0.0,15.999978863470918,5.999981969909235,3.139408378727276,1.1441996512833095e-05
1759830089.8376195,1,-1.3732908013611188e-06,5.999995667763024,3.141590621974204,0.0,8.0,5.999999046325684,3.1415858867567827,0.0,15.999980445456536,5.999982528877329,3.139659726125695,1.1483514651477354e-05
1759830089.8482518,1,-1.373290821916999e-06,5.9999956731558335,3.1415907131993093,0.0,8.0,5.999999046325684,3.141586094643788,0.0,15.999981796113515,5.9999829213612115,3.1398712659959744,1.110521841583794e-05
1759830089.8586447,1,-1.373290839469608e-06,5.999995677760739,3.141590791096172,0.0,8.0,5.999999046325684,3.1415863153674763,0.0,15.99998294942707,5.99998322697909,3.140053904701156,1.0776664818757998e-05
1759830089.8701322,1,-1.3732908544642057e-06,5.999995681694553,3.141590857640817,0.0,8.0,5.999999046325684,3.1415863976733327,0.0,15.99998393346306,5.999983476857331,3.1402108973011433,1.048956056222288e-05
1759830089.8805563,1,-1.3732908684307876e-06,5.999995685358669,3.141590919623222,0.0,8.0,5.999999046325684,3.141586611570329,0.0,15.99998477618609,5.999983692261988,3.1403445066519926,1.023734362379543e-05
1759830089.8908246,1,-1.3732908803049024e-06,5.999995688473828,3.1415909723194515,0.0,8.0,5.999999046325684,3.141586828579136,0.0,15.99998549959773,5.999983872732554,3.140460403025326,1.0014452053836971e-05
1759830089.9019532,1,-1.3732908904086003e-06,5.999995691124521,3.141591017158733,0.0,8.0,5.999999046325684,3.1415869370297216,0.0,15.999986190660408,5.999984035609473,3.1405722278671475,9.687653693103239e-06
1759830089.912825,1,-1.3732908990289308e-06,5.9999956933860545,3.1415910554149664,0.0,8.0,5.999999046325684,3.1415870761032103,0.0,15.99998677946446,5.999984177480011,3.1406683812945024,9.409774758738436e-06
1759830089.9232278,1,-1.3732909064054544e-06,5.999995695321276,3.141591088151299,0.0,8.0,5.999999046325684,3.141587260518948,0.0,15.999987282588911,5.999984301744933,3.1407517098633475,9.17279149535361e-06
1759830089.9350913,1,-1.3732909127164384e-06,5.9999956969769555,3.141591116158865,0.0,8.0,5.999999046325684,3.141587300697804,0.0,15.999987711793642,5.999984409543984,3.1408234081945103,8.970707348249908e-06
1759830089.9493337,1,-1.3732909181077408e-06,5.999995698391357,3.1415911400849694,0.0,7.999999891194528,5.99999970904791,3.1415871659199794,7.046854554711084e-06,15.999988077168458,5.9999845012265665,3.1408856353410157,8.798618171416543e-06
1759830089.9607944,1,-1.373290923159215e-06,5.999995699716605,3.1415911625029476,0.0,7.999999884038828,6.0000000467458765,3.1415873496997033,7.046854554711084e-06,15.999988390381235,5.999984580155541,3.1409383829924886,8.651005403154445e-06
1759830089.9722023,1,-1.3732909274700883e-06,5.999995700847557,3.1415911816342073,0.0,7.999999881448087,6.000000175734998,3.1415875430444586,7.046854554711084e-06,15.99998865948355,5.999984647526589,3.140985122930918,8.52408780829544e-06
1759830089.9832423,1,-1.3732909311595934e-06,5.999995701815495,3.141591198007891,0.0,7.9999998814487485,6.000000225004429,3.141587746713233,7.046854554711084e-06,15.999988919385338,5.999984733328703,3.141031217506063,8.404995689233545e-06
1759830089.9941735,1,-1.3732909343248962e-06,5.999995702645909,3.1415912120552143,0.0,7.999999881741659,6.000000243823654,3.1415879340036046,7.046854554711084e-06,15.999989141084852,5.99998480593083,3.1410713714634038,8.303144330178997e-06
1759830090.0047286,1,-1.3732909370481111e-06,5.99999570336034,3.1415912241405914,0.0,7.999999882866235,6.000000251011931,3.1415881245227855,7.046854554711084e-06,15.999989330743064,5.99998486702732,3.141107954086273,8.215792147536006e-06
1759830090.016133,1,-1.373290939392634e-06,5.999995703975423,3.141591234545368,0.0,7.999999881009268,6.00000025375761,3.1415882312545254,7.046854554711084e-06,15.999989492780955,5.999984917477361,3.1411401190060158,8.140817935316106e-06
1759830090.0275133,1,-1.3732909415922525e-06,5.999995704552489,3.141591244307073,0.0,7.999999880365442,6.000000254806353,3.141588336069008,7.046854554711084e-06,15.999989631242396,5.999984958476205,3.1411672847878136,8.076319194419267e-06
1759830090.037785,1,-1.3732909434785377e-06,5.999995705047354,3.1415912526782335,0.0,7.9999998831030075,6.000000255206902,3.141588511161263,7.046854554711084e-06,15.999989749622571,5.9999849915829415,3.1411907098217897,8.020604195897987e-06
1759830090.0478587,1,-1.3732909451000252e-06,5.99999570547275,3.141591259874246,0.0,7.999999884681974,6.000000255359877,3.141588676064128,7.046854554711084e-06,15.99998985116922,5.999985017710036,3.141210536742249,7.97236221938786e-06
1759830090.0586276,1,-1.3732909464951499e-06,5.999995705838758,3.141591266065681,0.0,7.999999883413775,6.000000255418306,3.141588773904628,7.046854554711084e-06,15.999989954255957,5.999985062481688,3.1412323867710965,7.926647970470847e-06
1759830090.0696967,1,-1.373290947697491e-06,5.99999570615419,3.14159127140156,0.0,7.999999882121421,6.000000255440619,3.1415888469215716,7.046854554711084e-06,15.999990041571817,5.999985097958168,3.1412513884390574,7.88738961051594e-06
1759830090.080013,1,-1.3732909487372747e-06,5.999995706426977,3.1415912760160243,0.0,7.999999883653784,6.0000002554491205,3.1415889641018815,7.046854554711084e-06,15.999990115755432,5.9999851256051935,3.1412673420171164,7.853558985045804e-06
1759830090.0914514,1,-1.3732909496365683e-06,5.999995706662905,3.1415912800070065,0.0,7.999999881219059,6.000000255452375,3.1415890110560944,7.046854554711084e-06,15.99999017857424,5.999985145832338,3.1412817087254763,7.824400309257164e-06
1759830090.102999,1,-1.3732909504936875e-06,5.99999570688777,3.141591283810823,0.0,7.999999879995166,6.000000255453614,3.1415890598618876,7.046854554711084e-06,15.99999023152416,5.999985159439295,3.1412946437015297,7.799216915214653e-06
1759830090.1140454,1,-1.3732909512306032e-06,5.999995707081099,3.1415912870811873,0.0,7.9999998808766355,6.00000025545407,3.141589144474759,7.046854554711084e-06,15.999990276051296,5.999985167375108,3.1413054128783,7.777399252687231e-06
1759830090.1254938,1,-1.3732909518651414e-06,5.999995707247569,3.141591289897209,0.0,7.999999880131359,6.000000255454242,3.14158920957191,7.046854554711084e-06,15.999990325242896,5.999985216047608,3.141311961902612,7.232455550265719e-06
1759830090.136159,1,-1.3732909524134794e-06,5.999995707391425,3.1415912923306824,0.0,7.999999881954826,6.000000255454286,3.1415893138482947,7.046854554711084e-06,15.999990384578094,5.999985308143977,3.1413201452705204,6.641574131532149e-06
1759830090.1542094,1,-1.3732909528822734e-06,5.999995707514413,3.1415912944111475,0.0,7.999999862772685,5.999999371349693,3.1415890859070146,7.046854554742655e-06,15.999990439957301,5.999985413474559,3.1413315071992947,6.137683372396233e-06
1759830090.165166,1,-1.3732909532894472e-06,5.999995707621235,3.141591296218147,0.0,7.999999874540191,5.999999033651695,3.141589252922568,7.046854554742655e-06,15.999990491117321,5.999985516587912,3.141340968708665,5.701244244848262e-06
1759830090.1757195,1,-1.3732909536440997e-06,5.999995707714277,3.1415912977920617,0.0,7.999999880119547,5.999998904662513,3.1415894287959745,7.046854554742655e-06,15.999990538330861,5.999985617920612,3.1413494911785653,5.322156030672327e-06
1759830090.1861339,1,-1.3732909539591117e-06,5.99999570779692,3.141591299190056,0.0,7.999999882625466,5.999998855393011,3.141589576127835,7.046854554742655e-06,15.999990581749172,5.999985715355801,3.141357180131562,4.992129155907934e-06
1759830090.1974905,1,-1.3732909542560073e-06,5.99999570787481,3.1415913005076512,0.0,7.999999881046486,5.999998836573737,3.141589659241774,7.046854554742655e-06,15.99999062244724,5.999985810050744,3.141363782577494,4.7013796157641345e-06
1759830090.207568,1,-1.3732909545137797e-06,5.9999957079424355,3.1415913016516215,0.0,7.999999883886331,5.999998829385388,3.1415897787537634,7.046854554742655e-06,15.999990661260078,5.999985903701109,3.1413702420631675,4.442612525036153e-06
1759830090.218508,1,-1.3732909547376813e-06,5.999995708001175,3.1415913026452764,0.0,7.999999882649241,5.999998826639684,3.1415898488096303,7.046854554742655e-06,15.999990698109292,5.9999859951777115,3.1413759910054173,4.212309814288249e-06
1759830090.229561,1,-1.3732909549325291e-06,5.999995708052293,3.1415913035099936,0.0,7.999999881872535,5.999998825590912,3.14158990702874,7.046854554742655e-06,15.99999073292334,5.999986083917141,3.1413815369566107,4.007340401722615e-06
1759830090.239707,1,-1.3732909551058139e-06,5.999995708097755,3.1415913042790153,0.0,7.999999884017702,5.9999988251903,3.1415899924858017,7.046854554742655e-06,15.999990765731027,5.9999861693682055,3.1413869820441382,3.8249176245392e-06
1759830090.250623,1,-1.3732909552600372e-06,5.999995708138215,3.1415913049634447,0.0,7.99999988276426,5.99999882503728,3.1415900423822656,7.046854554742655e-06,15.999990790130596,5.999986232790554,3.1413897968083973,3.6773210139089826e-06
1759830090.2610157,1,-1.3732909553972959e-06,5.999995708174225,3.141591305572587,0.0,7.99999988369412,5.99999882497882,3.141590105429909,7.046854554742655e-06,15.99999081336996,5.999986294520111,3.14139266408913,3.544484064341787e-06
1759830090.2723415,1,-1.3732909555194562e-06,5.999995708206273,3.141591306114723,0.0,7.99999988153752,5.999998824956495,3.141590134989551,7.046854554742655e-06,15.999990835564793,5.999986354254226,3.141396041916827,3.424930809731311e-06
1759830090.2834153,1,-1.3732909556281852e-06,5.999995708234798,3.1415913065972525,0.0,7.9999998813921,5.99999882494796,3.141590174895974,7.046854554742655e-06,15.999990856617236,5.999986411770138,3.1413990819617545,3.3173328805818827e-06
1759830090.2943065,1,-1.3732909557249477e-06,5.999995708260183,3.1415913070266757,0.0,7.999999881828135,5.999998824944694,3.14159022158713,7.046854554742655e-06,15.999990876443649,5.999986466916091,3.141402090950736,3.2204947443473973e-06
1759830090.305061,1,-1.3732909558110664e-06,5.999995708282777,3.1415913074088624,0.0,7.9999998823624106,5.999998824943439,3.1415902706978933,7.046854554742655e-06,15.999990900416988,5.999986534972703,3.141406679315394,3.124624989475257e-06
1759830090.3152733,1,-1.3732909558877119e-06,5.999995708302884,3.1415913077490085,0.0,7.999999884026456,5.999998824942949,3.1415903310576514,7.046854554742655e-06,15.999990922660642,5.999986598554996,3.1414114120532584,3.039300907639052e-06
1759830090.3267264,1,-1.3732909559559264e-06,5.999995708320781,3.141591308051739,0.0,7.999999881321801,5.999998824942769,3.1415903530483007,7.046854554742655e-06,15.999990943216428,5.99998665782344,3.14141616842793,2.9633624748048294e-06
1759830090.33749,1,-1.3732909559559264e-06,5.999995708320781,3.141591308051739,0.0,7.999999882144638,5.99999882494269,3.1415903949956583,7.046854554742655e-06,15.999990962187805,5.9999867129575115,3.1414204016013874,2.8957772695823715e-06
1759830090.352941,1,-1.3732909559559264e-06,5.999995708320781,3.141591308051739,0.0,7.999999981900038,5.999999046325742,3.141590327238422,0.0,15.999990975340996,5.999986751226548,3.141423105692672,2.841094694447837e-06
1759830090.3633358,1,-1.3732909559559264e-06,5.999995708320781,3.141591308051739,0.0,7.99999999308643,5.999999046325706,3.1415904051933303,0.0,15.999990987645214,5.999986787386266,3.1414259908554394,2.791880376826756e-06
1759830090.374539,1,-1.3732909559559264e-06,5.999995708320781,3.141591308051739,0.0,7.999999997359251,5.9999990463256925,3.1415904604715497,0.0,15.999990999162454,5.999986821475816,3.14142858750193,2.7475874909677833e-06
1759830090.3849938,1,-1.3732909559559264e-06,5.999995708320781,3.141591308051739,0.0,7.999999998991323,5.999999046325687,3.1415905239213373,0.0,15.999991009981791,5.9999868535475915,3.141431567852811,2.7077238936947077e-06
1759830090.3954232,1,-1.3732909559559264e-06,5.999995708320781,3.141591308051739,0.0,7.99999999961472,5.999999046325685,3.141590578299054,0.0,15.99999098289085,5.999986768490661,3.141431567852811,2.7077238936947077e-06
1759830090.4069743,1,-1.3732909559559264e-06,5.999995708320781,3.141591308051739,0.0,7.999999999852836,5.9999990463256845,3.1415906025588427,0.0,15.999990955799909,5.999986683433731,3.141431567852811,2.7077238936947077e-06
1759830090.4184086,1,-1.3732909559559264e-06,5.999995708320781,3.141591308051739,0.0,7.999999999943788,5.999999046325684,3.141590629612299,0.0,15.999990928708968,5.9999865983768,3.141431567852811,2.7077238936947077e-06
1759830090.4299068,1,-1.3732909559559264e-06,5.999995708320781,3.141591308051739,0.0,7.999999999978529,5.999999046325684,3.141590656755559,0.0,15.999990901618027,5.99998651331987,3.141431567852811,2.7077238936947077e-06
1759830090.4412265,1,-1.3732909559559264e-06,5.999995708320781,3.141591308051739,0.0,7.999999999991799,5.999999046325684,3.1415906878621342,0.0,15.999990874527086,5.99998642826294,3.141431567852811,2.7077238936947077e-06
1759830090.4520009,1,-1.3732909559559264e-06,5.999995708320781,3.141591308051739,0.0,7.999999999996867,5.999999046325684,3.1415907274782793,0.0,15.999990847436145,5.999986343206009,3.141431567852811,2.7077238936947077e-06
1759830090.4634275,1,-1.3732909559559264e-06,5.999995708320781,3.141591308051739,0.0,7.999999999998804,5.999999046325684,3.1415907526534657,0.0,15.999990820345204,5.999986258149079,3.141431567852811,2.7077238936947077e-06
1759830090.4742715,1,-1.3732909559559264e-06,5.999995708320781,3.141591308051739,0.0,7.999999999999543,5.999999046325684,3.14159078650205,0.0,15.999990793254263,5.999986173092148,3.141431567852811,2.7077238936947077e-06
1759830090.4845655,1,-1.3732909559559264e-06,5.999995708320781,3.141591308051739,0.0,7.999999999999825,5.999999046325684,3.1415908260619005,0.0,15.999990766163322,5.999986088035218,3.141431567852811,2.7077238936947077e-06
1759830090.4951158,1,-1.3732909559559264e-06,5.999995708320781,3.141591308051739,0.0,7.999999999999933,5.999999046325684,3.1415908565442,0.0,15.99999073907238,5.999986002978288,3.141431567852811,2.7077238936947077e-06
1759830090.5059862,1,-1.3732909559559264e-06,5.999995708320781,3.141591308051739,0.0,7.999999999999974,5.999999046325684,3.14159087898196,0.0,15.99999071198144,5.999985917921357,3.141431567852811,2.7077238936947077e-06
1759830090.5169837,1,-1.3732909559559264e-06,5.999995708320781,3.141591308051739,0.0,7.99999999999999,5.999999046325684,3.141590898700562,0.0,15.999990684890498,5.999985832864427,3.141431567852811,2.7077238936947077e-06
1759830090.527872,1,-1.3732909559559264e-06,5.999995708320781,3.141591308051739,0.0,7.9999999999999964,5.999999046325684,3.141590919933293,0.0,15.999990657799557,5.9999857478074965,3.141431567852811,2.7077238936947077e-06
1759830090.5387845,1,-1.3732909559559264e-06,5.999995708320781,3.141591308051739,0.0,7.999999999999998,5.999999046325684,3.141590940437469,0.0,15.999990630708616,5.999985662750566,3.141431567852811,2.7077238936947077e-06
1759830090.551105,1,-1.3732909559559264e-06,5.999995708320781,3.141591308051739,0.0,7.999999999999999,5.999999046325684,3.1415909430910283,0.0,15.999990603617675,5.999985577693636,3.141431567852811,2.7077238936947077e-06
1759830090.5612288,1,-1.3732909559559264e-06,5.999995708320781,3.141591308051739,0.0,8.0,5.999999046325684,3.141590976801897,0.0,15.999990576526734,5.999985492636705,3.141431567852811,2.7077238936947077e-06
1759830090.5715282,1,-1.3732909559559264e-06,5.999995708320781,3.141591308051739,0.0,8.0,5.999999046325684,3.141591004971037,0.0,15.999990549435793,5.999985407579775,3.141431567852811,2.7077238936947077e-06
1759830090.5824924,1,-1.3732909559559264e-06,5.999995708320781,3.141591308051739,0.0,8.0,5.999999046325684,3.1415910216593304,0.0,15.999990522344852,5.9999853225228446,3.141431567852811,2.7077238936947077e-06
1759830090.5935133,1,-1.3732909559559264e-06,5.999995708320781,3.141591308051739,0.0,8.0,5.999999046325684,3.1415910370478475,0.0,15.999990495253911,5.999985237465914,3.141431567852811,2.7077238936947077e-06
1759830090.6038048,1,-1.3732909559559264e-06,5.999995708320781,3.141591308051739,0.0,8.0,5.999999046325684,3.141591060216536,0.0,15.99999046816297,5.999985152408984,3.141431567852811,2.7077238936947077e-06
1759830090.6142569,1,-1.3732909559559264e-06,5.999995708320781,3.141591308051739,0.0,8.0,5.999999046325684,3.141591079488986,0.0,15.999990441072029,5.999985067352053,3.141431567852811,2.7077238936947077e-06
1759830090.624739,1,-1.3732909559559264e-06,5.999995708320781,3.141591308051739,0.0,8.0,5.999999046325684,3.1415910966149525,0.0,15.999990413981088,5.999984982295123,3.141431567852811,2.7077238936947077e-06
1759830090.6353414,1,-1.3732909559559264e-06,5.999995708320781,3.141591308051739,0.0,8.0,5.999999046325684,3.1415911113544244,0.0,15.999990386890147,5.999984897238193,3.141431567852811,2.7077238936947077e-06
1759830090.6463625,1,-1.3732909559559264e-06,5.999995708320781,3.141591308051739,0.0,8.0,5.999999046325684,3.141591121647039,0.0,15.999990359799206,5.999984812181262,3.141431567852811,2.7077238936947077e-06
1759830090.6567354,1,-1.3732909559559264e-06,5.999995708320781,3.141591308051739,0.0,8.0,5.999999046325684,3.1415911384123643,0.0,15.999990332708265,5.999984727124332,3.141431567852811,2.7077238936947077e-06
1759830090.6675565,1,-1.3732909559559264e-06,5.999995708320781,3.141591308051739,0.0,8.0,5.999999046325684,3.1415911502795346,0.0,15.999990305617324,5.9999846420674015,3.141431567852811,2.7077238936947077e-06
1759830090.6784775,1,-1.3732909559559264e-06,5.999995708320781,3.141591308051739,0.0,8.0,5.999999046325684,3.1415911611946363,0.0,15.999990278526383,5.999984557010471,3.141431567852811,2.7077238936947077e-06
1759830090.6887498,1,-1.3732909559559264e-06,5.999995708320781,3.141591308051739,0.0,8.0,5.999999046325684,3.1415911776417804,0.0,15.999990251435442,5.999984471953541,3.141431567852811,2.7077238936947077e-06
1759830090.6991892,1,-1.3732909559559264e-06,5.999995708320781,3.141591308051739,0.0,8.0,5.999999046325684,3.1415911914014885,0.0,15.9999902243445,5.99998438689661,3.141431567852811,2.7077238936947077e-06
1759830090.7092342,1,-1.3732909559559264e-06,5.999995708320781,3.141591308051739,0.0,8.0,5.999999046325684,3.1415912070264547,0.0,15.99999019725356,5.99998430183968,3.141431567852811,2.7077238936947077e-06
1759830090.7194188,1,-1.3732909559559264e-06,5.999995708320781,3.141591308051739,0.0,8.0,5.999999046325684,3.1415912199417537,0.0,15.999990170162619,5.9999842167827495,3.141431567852811,2.7077238936947077e-06
1759830090.7308428,1,-1.3732909559559264e-06,5.999995708320781,3.141591308051739,0.0,8.0,5.999999046325684,3.1415912229035285,0.0,15.999990143071678,5.999984131725819,3.141431567852811,2.7077238936947077e-06
1759830090.741746,1,-1.3732909559559264e-06,5.999995708320781,3.141591308051739,0.0,8.0,5.999999046325684,3.141591231242728,0.0,15.999990115980737,5.999984046668889,3.141431567852811,2.7077238936947077e-06
1759830090.7527745,1,-1.3732909559559264e-06,5.999995708320781,3.141591308051739,0.0,8.0,5.999999046325684,3.141591239578256,0.0,15.999990088889795,5.999983961611958,3.141431567852811,2.7077238936947077e-06
1759830090.764235,1,-1.3732909559559264e-06,5.999995708320781,3.141591308051739,0.0,8.0,5.999999046325684,3.141591245672249,0.0,15.999990061798854,5.999983876555028,3.141431567852811,2.7077238936947077e-06
1759830090.775468,1,-1.3732909559559264e-06,5.999995708320781,3.141591308051739,0.0,8.0,5.999999046325684,3.141591254305931,0.0,15.999990034707913,5.999983791498098,3.141431567852811,2.7077238936947077e-06
1759830090.7860694,1,-1.3732909559559264e-06,5.999995708320781,3.141591308051739,0.0,8.0,5.999999046325684,3.1415912671391464,0.0,15.999990007616972,5.999983706441167,3.141431567852811,2.7077238936947077e-06
1759830090.7963398,1,-1.3732909559559264e-06,5.999995708320781,3.141591308051739,0.0,8.0,5.999999046325684,3.1415912808198154,0.0,15.999989980526031,5.999983621384237,3.141431567852811,2.7077238936947077e-06
1759830090.807145,1,-1.3732909559559264e-06,5.999995708320781,3.141591308051739,0.0,8.0,5.999999046325684,3.1415912898347162,0.0,15.99998995343509,5.999983536327306,3.141431567852811,2.7077238936947077e-06
1759830090.8183694,1,-1.3732909559559264e-06,5.999995708320781,3.141591308051739,0.0,8.0,5.999999046325684,3.1415912960787313,0.0,15.99998992634415,5.999983451270376,3.141431567852811,2.7077238936947077e-06
1759830090.8285267,1,-1.3732909559559264e-06,5.999995708320781,3.141591308051739,0.0,8.0,5.999999046325684,3.14159130827937,0.0,15.999989899253208,5.999983366213446,3.141431567852811,2.7077238936947077e-06
1759830090.8388104,1,-1.3732909559559264e-06,5.999995708320781,3.141591308051739,0.0,8.0,5.999999046325684,3.1415913186002378,0.0,15.999989872162267,5.999983281156515,3.141431567852811,2.7077238936947077e-06
1759830090.8489845,1,-1.3732909559559264e-06,5.999995708320781,3.141591308051739,0.0,8.0,5.999999046325684,3.141591328264436,0.0,15.999989845071326,5.999983196099585,3.141431567852811,2.7077238936947077e-06
1759830090.8591702,1,-1.3732909559559264e-06,5.999995708320781,3.141591308051739,0.0,8.0,5.999999046325684,3.141591336840296,0.0,15.999989817980385,5.9999831110426545,3.141431567852811,2.7077238936947077e-06
1759830090.8703134,1,-1.3732909559559264e-06,5.999995708320781,3.141591308051739,0.0,8.0,5.999999046325684,3.1415913402681195,0.0,15.999989790889444,5.999983025985724,3.141431567852811,2.7077238936947077e-06
1759830090.881775,1,-1.3732909559559264e-06,5.999995708320781,3.141591308051739,0.0,8.0,5.999999046325684,3.141591343026679,0.0,15.999989763798503,5.999982940928794,3.141431567852811,2.7077238936947077e-06
1759830090.8932772,1,-1.3732909559559264e-06,5.999995708320781,3.141591308051739,0.0,8.0,5.999999046325684,3.141591346860821,0.0,15.999989736707562,5.999982855871863,3.141431567852811,2.7077238936947077e-06
1759830090.9039822,1,-1.3732909559559264e-06,5.999995708320781,3.141591308051739,0.0,8.0,5.999999046325684,3.1415913549210135,0.0,15.99998970961662,5.999982770814933,3.141431567852811,2.7077238936947077e-06
1759830090.9142175,1,-1.3732909559559264e-06,5.999995708320781,3.141591308051739,0.0,8.0,5.999999046325684,3.1415913644464073,0.0,15.99998968252568,5.9999826857580025,3.141431567852811,2.7077238936947077e-06
1759830090.924595,1,-1.3732909559559264e-06,5.999995708320781,3.141591308051739,0.0,8.0,5.999999046325684,3.1415913722646565,0.0,15.999989655434739,5.999982600701072,3.141431567852811,2.7077238936947077e-06
1759830090.9359224,1,-1.3732909559559264e-06,5.999995708320781,3.141591308051739,0.0,8.0,5.999999046325684,3.1415913757204805,0.0,15.999989628343798,5.999982515644142,3.141431567852811,2.7077238936947077e-06
1759830090.9573147,1,-1.3732909559559264e-06,5.999995708320781,3.141591308051739,0.0,8.0,5.999999046325684,3.1415913451391013,0.0,15.999989601252857,5.999982430587211,3.141431567852811,2.7077238936947077e-06
1759830090.9711447,1,-1.3732909559559264e-06,5.999995708320781,3.141591308051739,0.0,8.0,5.999999046325684,3.1415913519733927,0.0,15.999989574161916,5.999982345530281,3.141431567852811,2.7077238936947077e-06
1759830090.9835818,1,-1.3732909559559264e-06,5.999995708320781,3.141591308051739,0.0,8.0,5.999999046325684,3.141591365672456,0.0,15.999989547070975,5.999982260473351,3.141431567852811,2.7077238936947077e-06
1759830090.99538,1,-1.3732909559559264e-06,5.999995708320781,3.141591308051739,0.0,8.0,5.999999046325684,3.141591379445167,0.0,15.999989519980033,5.99998217541642,3.141431567852811,2.7077238936947077e-06
1759830091.0080252,1,-1.3732909559559264e-06,5.999995708320781,3.141591308051739,0.0,8.0,5.999999046325684,3.1415913883883135,0.0,15.999989492889092,5.99998209035949,3.141431567852811,2.7077238936947077e-06
1759830091.0208943,1,-1.3732909559559264e-06,5.999995708320781,3.141591308051739,0.0,8.0,5.999999046325684,3.141591395590762,0.0,15.999989465798151,5.999982005302559,3.141431567852811,2.7077238936947077e-06
1759830091.0337415,1,-1.3732909559559264e-06,5.999995708320781,3.141591308051739,0.0,8.0,5.999999046325684,3.1415914023736953,0.0,15.99998943870721,5.999981920245629,3.141431567852811,2.7077238936947077e-06
1759830091.0461297,1,-1.3732909559559264e-06,5.999995708320781,3.141591308051739,0.0,8.0,5.999999046325684,3.1415914099107525,0.0,15.99998941161627,5.999981835188699,3.141431567852811,2.7077238936947077e-06
1759830091.058294,1,-1.3732909559559264e-06,5.999995708320781,3.141591308051739,0.0,8.0,5.999999046325684,3.1415914172567128,0.0,15.999989384525328,5.999981750131768,3.141431567852811,2.7077238936947077e-06
1759830091.0699904,1,-1.3732909559559264e-06,5.999995708320781,3.141591308051739,0.0,8.0,5.999999046325684,3.1415914248263963,0.0,15.999989357434387,5.999981665074838,3.141431567852811,2.7077238936947077e-06
1759830091.081991,1,-1.3732909559559264e-06,5.999995708320781,3.141591308051739,0.0,8.0,5.999999046325684,3.1415914306992505,0.0,15.999989330343446,5.9999815800179075,3.141431567852811,2.7077238936947077e-06
1759830091.0938997,1,-1.3732909559559264e-06,5.999995708320781,3.141591308051739,0.0,8.0,5.999999046325684,3.1415914361261734,0.0,15.999989303252505,5.999981494960977,3.141431567852811,2.7077238936947077e-06
1759830091.1062624,1,-1.3732909559559264e-06,5.999995708320781,3.141591308051739,0.0,8.0,5.999999046325684,3.1415914401352456,0.0,15.999989276161564,5.999981409904047,3.141431567852811,2.7077238936947077e-06
1759830091.118632,1,-1.3732909559559264e-06,5.999995708320781,3.141591308051739,0.0,8.0,5.999999046325684,3.141591444026435,0.0,15.999989249070623,5.999981324847116,3.141431567852811,2.7077238936947077e-06
1759830091.1313775,1,-1.3732909559559264e-06,5.999995708320781,3.141591308051739,0.0,8.0,5.999999046325684,3.141591447182474,0.0,15.999989221979682,5.999981239790186,3.141431567852811,2.7077238936947077e-06
1759830091.1437137,1,-1.3732909559559264e-06,5.999995708320781,3.141591308051739,0.0,8.0,5.999999046325684,3.141591451233605,0.0,15.999989194888741,5.9999811547332556,3.141431567852811,2.7077238936947077e-06
1759830091.1669533,1,-1.3732909559559264e-06,5.999995708320781,3.141591308051739,0.0,7.99999987613096,5.999999724279967,3.1415914371119005,6.561979241332008e-06,15.9999891677978,5.999981069676325,3.141431567852811,2.7077238936947077e-06
1759830091.1816976,1,-1.3732909559559264e-06,5.999995708320781,3.141591308051739,0.0,7.9999998751749715,6.000000061977919,3.1415914427864386,6.561979241332008e-06,15.999989140706859,5.999980984619395,3.141431567852811,2.7077238936947077e-06
1759830091.1950042,1,-1.3732909559559264e-06,5.999995708320781,3.141591308051739,0.0,7.999999878413255,6.000000190967054,3.1415914513388223,6.561979241332008e-06,15.999989113615918,5.999980899562464,3.141431567852811,2.7077238936947077e-06
1759830091.2067978,1,-1.3732909559559264e-06,5.999995708320781,3.141591308051739,0.0,7.999999883442444,6.000000240236513,3.1415914606292166,6.561979241332008e-06,15.999989086524977,5.999980814505534,3.141431567852811,2.7077238936947077e-06
1759830091.2201102,1,-1.3732909559559264e-06,5.999995708320781,3.141591308051739,0.0,7.999999881556808,6.000000259055776,3.1415914658970188,6.561979241332008e-06,15.999989059434036,5.999980729448604,3.141431567852811,2.7077238936947077e-06
1759830091.232502,1,-1.3732909559559264e-06,5.999995708320781,3.141591308051739,0.0,7.999999883143835,6.000000266244092,3.1415914714817017,6.561979241332008e-06,15.999989032343095,5.999980644391673,3.141431567852811,2.7077238936947077e-06
1759830091.2457507,1,-1.3732909559559264e-06,5.999995708320781,3.141591308051739,0.0,7.999999881602306,6.000000268989786,3.1415914751246063,6.561979241332008e-06,15.999989005252154,5.999980559334743,3.141431567852811,2.7077238936947077e-06
1759830091.26175,1,-1.3732909559559264e-06,5.999995708320781,3.141591308051739,0.0,7.999999874119156,6.000000270038556,3.141591475170234,6.561979241332008e-06,15.999988978161213,5.9999804742778124,3.141431567852811,2.7077238936947077e-06
1759830091.2744272,1,-1.3732909559559264e-06,5.999995708320781,3.141591308051739,0.0,7.999999879587597,6.0000002704391395,3.141591479874215,6.561979241332008e-06,15.999988951070272,5.999980389220882,3.141431567852811,2.7077238936947077e-06
1759830091.2877698,1,-1.3732909559559264e-06,5.999995708320781,3.141591308051739,0.0,7.999999880008495,6.0000002705921505,3.1415914834238237,6.561979241332008e-06,15.99998892397933,5.999980304163952,3.141431567852811,2.7077238936947077e-06
1759830091.3011315,1,-1.3732909559559264e-06,5.999995708320781,3.141591308051739,0.0,7.999999880121458,6.000000270650596,3.141591486567325,6.561979241332008e-06,15.99998889688839,5.999980219107021,3.141431567852811,2.7077238936947077e-06
1759830091.3156152,1,-1.3732909559559264e-06,5.999995708320781,3.141591308051739,0.0,7.999999877352372,6.000000270672923,3.141591488353388,6.561979241332008e-06,15.999988869797448,5.999980134050091,3.141431567852811,2.7077238936947077e-06
1759830091.3279192,1,-1.3732909559559264e-06,5.999995708320781,3.141591308051739,0.0,7.999999881757797,6.000000270681444,3.14159149236753,6.561979241332008e-06,15.999988842706507,5.9999800489931605,3.141431567852811,2.7077238936947077e-06
1759830091.341059,1,-1.3732909559559264e-06,5.999995708320781,3.141591308051739,0.0,7.999999881345985,6.000000270684701,3.1415914951018156,6.561979241332008e-06,15.999988815615566,5.99997996393623,3.141431567852811,2.7077238936947077e-06
1759830091.3543305,1,-1.3732909559559264e-06,5.999995708320781,3.141591308051739,0.0,7.9999998808582236,6.000000270685945,3.1415914974257326,6.561979241332008e-06,15.999988788524625,5.9999798788793,3.141431567852811,2.7077238936947077e-06
1759830091.3820488,1,-1.3732909559559264e-06,5.999995708320781,3.141591308051739,0.0,7.999999845078719,5.999999387523078,3.1415914881025646,6.532015865794714e-06,15.999988761433684,5.999979793822369,3.141431567852811,2.7077238936947077e-06
1759830091.398973,1,-1.3732909559559264e-06,5.999995708320781,3.141591308051739,0.0,7.999999858229238,5.999999049825292,3.1415914912377065,6.532015865794714e-06,15.999988734342743,5.999979708765439,3.141431567852811,2.7077238936947077e-06
1759830091.4124968,1,-1.3732909559559264e-06,5.999995708320781,3.141591308051739,0.0,7.99999987173613,5.999998920836207,3.1415914973032972,6.532015865794714e-06,15.999988707251802,5.999979623708509,3.141431567852811,2.7077238936947077e-06
1759830091.427562,1,-1.3732909559559264e-06,5.999995708320781,3.141591308051739,0.0,7.999999873049559,5.999998871566764,3.1415915011649673,6.532015865794714e-06,15.999988680160861,5.999979538651578,3.141431567852811,2.7077238936947077e-06
1759830091.4421704,1,-1.3732909559559264e-06,5.999995708320781,3.141591308051739,0.0,7.999999874690989,5.99999885274751,3.141591504612528,6.532015865794714e-06,15.99998865306992,5.999979453594648,3.141431567852811,2.7077238936947077e-06
1759830091.4567618,1,-1.3732909559559264e-06,5.999995708320781,3.141591308051739,0.0,7.999999875360194,5.999998845559193,3.141591507531329,6.532015865794714e-06,15.999988625978979,5.999979368537717,3.141431567852811,2.7077238936947077e-06
1759830091.472471,1,-1.3732909559559264e-06,5.999995708320781,3.141591308051739,0.0,7.999999872827122,5.999998842813504,3.1415915094053055,6.532015865794714e-06,15.999988598888038,5.999979283480787,3.141431567852811,2.7077238936947077e-06
1759830091.484362,1,-1.3732909559559264e-06,5.999995708320781,3.141591308051739,0.0,7.999999881386199,5.999998841764733,3.1415915132645917,6.532015865794714e-06,15.999988571797097,5.999979198423857,3.141431567852811,2.7077238936947077e-06
1759830091.4985516,1,-1.3732909559559264e-06,5.999995708320781,3.141591308051739,0.0,7.999999878919871,5.999998841364145,3.1415915151700293,6.532015865794714e-06,15.999988544706156,5.999979113366926,3.141431567852811,2.7077238936947077e-06
1759830091.51248,1,-1.3732909559559264e-06,5.999995708320781,3.141591308051739,0.0,7.99999987862978,5.9999988412111325,3.141591516919977,6.532015865794714e-06,15.999988517615215,5.999979028309996,3.141431567852811,2.7077238936947077e-06
1759830091.5264566,1,-1.3732909559559264e-06,5.999995708320781,3.141591308051739,0.0,7.999999878398815,5.999998841152686,3.1415915184782612,6.532015865794714e-06,15.999988490524274,5.9999789432530655,3.141431567852811,2.7077238936947077e-06
1759830091.541036,1,-1.3732909559559264e-06,5.999995708320781,3.141591308051739,0.0,7.999999876806797,5.999998841130363,3.1415915196335042,6.532015865794714e-06,15.999988463433333,5.999978858196135,3.141431567852811,2.7077238936947077e-06
1759830091.5545557,1,-1.3732909559559264e-06,5.999995708320781,3.141591308051739,0.0,7.9999998788422415,5.999998841121834,3.1415915212466423,6.532015865794714e-06,15.999988436342392,5.999978773139205,3.141431567852811,2.7077238936947077e-06
1759830091.5799582,1,-1.3732909559559264e-06,5.999995708320781,3.141591308051739,0.0,7.999999978672024,5.999999046327721,3.1415915178701574,0.0,15.99998840925145,5.999978688082274,3.141431567852811,2.7077238936947077e-06
1759830091.5956428,1,-1.3732909559559264e-06,5.999995708320781,3.141591308051739,0.0,7.999999991853438,5.999999046326462,3.1415915198819278,0.0,15.99998838216051,5.999978603025344,3.141431567852811,2.7077238936947077e-06
1759830091.609022,1,-1.3732909559559264e-06,5.999995708320781,3.141591308051739,0.0,7.99999999688829,5.999999046325981,3.141591522775599,0.0,15.999988355069569,5.9999785179684135,3.141431567852811,2.7077238936947077e-06
1759830091.623467,1,-1.3732909559559264e-06,5.999995708320781,3.141591308051739,0.0,7.9999999988114325,5.999999046325797,3.1415915247238466,0.0,15.999988327978627,5.999978432911483,3.141431567852811,2.7077238936947077e-06
1759830091.6359904,1,-1.3732909559559264e-06,5.999995708320781,3.141591308051739,0.0,7.999999999546008,5.999999046325727,3.1415915269407453,0.0,15.999988300887686,5.999978347854553,3.141431567852811,2.7077238936947077e-06
1759830091.6499846,1,-1.3732909559559264e-06,5.999995708320781,3.141591308051739,0.0,7.99999999982659,5.9999990463257005,3.141591528236976,0.0,15.999988273796745,5.999978262797622,3.141431567852811,2.7077238936947077e-06
1759830091.663637,1,-1.3732909559559264e-06,5.999995708320781,3.141591308051739,0.0,7.999999999933763,5.99999904632569,3.141591529428478,0.0,15.999988246705804,5.999978177740692,3.141431567852811,2.7077238936947077e-06
1759830091.6774113,1,-1.3732909559559264e-06,5.999995708320781,3.141591308051739,0.0,7.9999999999747,5.999999046325686,3.1415915304325104,0.0,15.999988219614863,5.999978092683762,3.141431567852811,2.7077238936947077e-06
1759830091.6903431,1,-1.3732909559559264e-06,5.999995708320781,3.141591308051739,0.0,7.999999999990337,5.9999990463256845,3.1415915315667284,0.0,15.999988192523922,5.999978007626831,3.141431567852811,2.7077238936947077e-06
1759830091.705455,1,-1.3732909559559264e-06,5.999995708320781,3.141591308051739,0.0,7.999999999996309,5.999999046325684,3.1415915319553402,0.0,15.999988165432981,5.999977922569901,3.141431567852811,2.7077238936947077e-06
1759830091.7191699,1,-1.3732909559559264e-06,5.999995708320781,3.141591308051739,0.0,7.9999999999985905,5.999999046325684,3.141591532766796,0.0,15.99998813834204,5.99997783751297,3.141431567852811,2.7077238936947077e-06
1759830091.7324772,1,-1.3732909559559264e-06,5.999995708320781,3.141591308051739,0.0,7.999999999999462,5.999999046325684,3.141591533639156,0.0,15.999988111251099,5.99997775245604,3.141431567852811,2.7077238936947077e-06
