timestamp,vehicle_id,x,y,theta,velocity,gps_available,dt,gps_x,gps_y,gps_theta,gps_velocity,control_steering,control_acceleration
1759830087.9340549,1,8.0,6.0,-0.05483113549895435,0.0,False,0.01,nan,nan,nan,nan,0.0,0.0
1759830087.9442651,1,8.0,6.0,-0.05483113549895435,0.0,False,0.010210275650024414,nan,nan,nan,nan,0.0,0.0
1759830087.9543757,1,8.0,6.0,-0.05483113549895435,0.0,False,0.010110616683959961,nan,nan,nan,nan,0.0,0.0
1759830087.9658992,1,8.0,6.0,-0.05483113549895435,0.0,False,0.01152348518371582,nan,nan,nan,nan,0.0,0.0
1759830087.976553,1,8.0,6.0,-0.05483113549895435,0.0,False,0.01065373420715332,nan,nan,nan,nan,0.0,0.0
1759830087.98712,1,8.0,6.0,-0.05483113549895435,0.0,False,0.010566949844360352,nan,nan,nan,nan,0.0,0.0
1759830087.9985309,1,8.0,6.0,-0.05483113549895435,0.0,False,0.011410951614379883,nan,nan,nan,nan,0.0,0.0
1759830088.0087717,1,8.0,6.0,-0.05483113549895435,0.0,False,0.010240793228149414,nan,nan,nan,nan,0.0,0.0
1759830088.0190258,1,8.0,6.0,-0.05483113549895435,0.0,False,0.010254144668579102,nan,nan,nan,nan,0.0,0.0
1759830088.029364,1,8.0,6.0,-0.05483113549895435,0.0,False,0.010338306427001953,nan,nan,nan,nan,0.0,0.0
1759830088.0408347,1,8.0,6.0,-0.05483113549895435,0.0,False,0.011470556259155273,nan,nan,nan,nan,0.0,0.0
1759830088.0516772,1,8.0,6.0,-0.05483113549895435,0.0,False,0.010842561721801758,nan,nan,nan,nan,0.0,0.0
1759830088.0628762,1,8.0,6.0,-0.05483113549895435,0.0,False,0.011198997497558594,nan,nan,nan,nan,0.0,0.0
1759830088.074049,1,8.0,6.0,-0.05483113549895435,0.0,False,0.011172771453857422,nan,nan,nan,nan,0.0,0.0
1759830088.085131,1,8.0,6.0,-0.05483113549895435,0.0,False,0.011081933975219727,nan,nan,nan,nan,0.0,0.0
1759830088.0956593,1,8.0,6.0,-0.05483113549895435,0.0,False,0.010528326034545898,nan,nan,nan,nan,0.0,0.0
1759830088.1069417,1,8.0,6.0,-0.05483113549895435,0.0,False,0.01128244400024414,nan,nan,nan,nan,0.0,0.0
1759830088.1184034,1,8.0,6.0,-0.05483113549895435,0.0,False,0.011461734771728516,nan,nan,nan,nan,0.0,0.0
1759830088.130014,1,8.0,5.99999905427297,-2.879847501559066,0.0,True,0.01161050796508789,8.0,5.999999046325684,3.1415915489196777,0.0,0.0,0.0
1759830088.1410115,1,8.0,5.999999048982158,-3.1211931714375645,0.0,True,0.010997533798217773,8.0,5.999999046325684,3.1415915489196777,0.0,0.0,0.0
1759830088.1522844,1,8.0,5.999999047322208,3.139200021520004,0.0,True,0.011272907257080078,8.0,5.999999046325684,3.1415915489196777,0.0,0.0,0.0
1759830088.1624808,1,8.0,5.999999046705331,3.1364292356033694,0.0,True,0.010196447372436523,8.0,5.999999046325684,3.1415915489196777,0.0,0.0,0.0
1759830088.1734216,1,8.0,5.9999990464706405,3.136035416032568,0.0,True,0.010940790176391602,8.0,5.999999046325684,3.1415915489196777,0.0,0.0,0.0
1759830088.1838386,1,8.0,5.999999046381049,3.1364165822676853,0.0,True,0.010416984558105469,8.0,5.999999046325684,3.1415915489196777,0.0,0.0,0.0
1759830088.1940422,1,8.0,5.999999046346831,3.1369895155346406,0.0,True,0.01020359992980957,8.0,5.999999046325684,3.1415915489196777,0.0,0.0,0.0
1759830088.205365,1,8.0,5.999999046333762,3.1374651591375375,0.0,True,0.011322736740112305,8.0,5.999999046325684,3.1415915489196777,0.0,0.0,0.0
1759830088.2155013,1,8.0,5.999999046328769,3.1380214469262384,0.0,True,0.01013636589050293,8.0,5.999999046325684,3.1415915489196777,0.0,0.0,0.0
1759830088.2261736,1,8.0,5.999999046326862,3.1384476703445703,0.0,True,0.010672330856323242,8.0,5.999999046325684,3.1415915489196777,0.0,0.0,0.0
1759830088.2367754,1,8.0,5.999999046326134,3.1388118896706825,0.0,True,0.01060175895690918,8.0,5.999999046325684,3.1415915489196777,0.0,0.0,0.0
1759830088.2469122,1,8.0,5.999999046325856,3.1391393527660263,0.0,True,0.010136842727661133,8.0,5.999999046325684,3.1415915489196777,0.0,0.0,0.0
1759830088.2579548,1,8.0,5.999999046325749,3.139367753769992,0.0,True,0.011042594909667969,8.0,5.999999046325684,3.1415915489196777,0.0,0.0,0.0
1759830088.2681897,1,8.0,5.9999990463257085,3.139600409635438,0.0,True,0.010234832763671875,8.0,5.999999046325684,3.1415915489196777,0.0,0.0,0.0
1759830088.2787573,1,8.0,5.999999046325693,3.13978250219197,0.0,True,0.010567665100097656,8.0,5.999999046325684,3.1415915489196777,0.0,0.0,0.0
1759830088.2899904,1,8.0,5.999999046325687,3.1399171312672767,0.0,True,0.011233091354370117,8.0,5.999999046325684,3.1415915489196777,0.0,0.0,0.0
1759830088.3012614,1,8.0,5.999999046325685,3.140040849851662,0.0,True,0.011270999908447266,8.0,5.999999046325684,3.1415915489196777,0.0,0.0,0.0
1759830088.312928,1,8.0,5.9999990463256845,3.1401451394868243,0.0,True,0.011666536331176758,8.0,5.999999046325684,3.1415915489196777,0.0,0.0,0.0
1759830088.3238423,1,8.0,5.999999046325684,3.14026341354025,0.0,True,0.010914325714111328,8.0,5.999999046325684,3.1415915489196777,0.0,0.0,0.0
1759830088.3420267,1,8.0,5.999999046325684,3.1402059718857274,0.0,True,0.018184423446655273,8.0,5.999999046325684,3.1415915489196777,0.0,0.0,0.0
1759830088.3520331,1,8.0,5.999999046325684,3.14037973600084,0.0,True,0.010006427764892578,8.0,5.999999046325684,3.1415915489196777,0.0,0.0,0.0
1759830088.3622084,1,8.0,5.999999046325684,3.1405183493738473,0.0,True,0.010175228118896484,8.0,5.999999046325684,3.1415915489196777,0.0,0.0,0.0
1759830088.3732333,1,8.0,5.999999046325684,3.140607682717121,0.0,True,0.011024951934814453,8.0,5.999999046325684,3.1415915489196777,0.0,0.0,0.0
1759830088.3839836,1,8.0,5.999999046325684,3.140684691377789,0.0,True,0.010750293731689453,8.0,5.999999046325684,3.1415915489196777,0.0,0.0,0.0
1759830088.395183,1,8.0,5.999999046325684,3.1407415157002365,0.0,True,0.011199474334716797,8.0,5.999999046325684,3.1415915489196777,0.0,0.0,0.0
1759830088.4056942,1,8.0,5.999999046325684,3.140802157727304,0.0,True,0.010511159896850586,8.0,5.999999046325684,3.1415915489196777,0.0,0.0,0.0
1759830088.4171205,1,8.0,5.999999046325684,3.1408403299707004,0.0,True,0.011426210403442383,8.0,5.999999046325684,3.1415915489196777,0.0,0.0,0.0
1759830088.428562,1,8.0,5.999999046325684,3.140875835707984,0.0,True,0.011441469192504883,8.0,5.999999046325684,3.1415915489196777,0.0,0.0,0.0
1759830088.4389207,1,8.0,5.999999046325684,3.140924483329737,0.0,True,0.010358810424804688,8.0,5.999999046325684,3.1415915489196777,0.0,0.0,0.0
1759830088.4503405,1,8.0,5.999999046325684,3.140952861842356,0.0,True,0.01141977310180664,8.0,5.999999046325684,3.1415915489196777,0.0,0.0,0.0
1759830088.4615173,1,8.0,5.999999046325684,3.1409827915381427,0.0,True,0.011176824569702148,8.0,5.999999046325684,3.1415915489196777,0.0,0.0,0.0
1759830088.4720845,1,8.0,5.999999046325684,3.1410182767219954,0.0,True,0.010567188262939453,8.0,5.999999046325684,3.1415915489196777,0.0,0.0,0.0
1759830088.4837217,1,8.0,5.999999046325684,3.141037732777354,0.0,True,0.011637210845947266,8.0,5.999999046325684,3.1415915489196777,0.0,0.0,0.0
1759830088.4946265,1,8.0,5.999999046325684,3.1410652750729646,0.0,True,0.010904788970947266,8.0,5.999999046325684,3.1415915489196777,0.0,0.0,0.0
1759830088.506098,1,8.0,5.999999046325684,3.1410851313486106,0.0,True,0.01147150993347168,8.0,5.999999046325684,3.1415915489196777,0.0,0.0,0.0
1759830088.5161471,1,8.0,5.999999046325684,3.141118502037296,0.0,True,0.010049104690551758,8.0,5.999999046325684,3.1415915489196777,0.0,0.0,0.0
1759830088.5274057,1,8.0,5.999999046325684,3.1411357658112706,0.0,True,0.011258602142333984,8.0,5.999999046325684,3.1415915489196777,0.0,0.0,0.0
1759830088.5394745,1,8.0,5.999999046325684,3.1411449739017296,0.0,True,0.012068748474121094,8.0,5.999999046325684,3.1415915489196777,0.0,0.0,0.0
1759830088.5499833,1,8.0,5.999999046325684,3.1411699839592355,0.0,True,0.01050877571105957,8.0,5.999999046325684,3.1415915489196777,0.0,0.0,0.0
1759830088.5610266,1,8.0,5.999999046325684,3.141188161192945,0.0,True,0.011043310165405273,8.0,5.999999046325684,3.1415915489196777,0.0,0.0,0.0
1759830088.5718837,1,8.0,5.999999046325684,3.141206303693968,0.0,True,0.010857105255126953,8.0,5.999999046325684,3.1415915489196777,0.0,0.0,0.0
1759830088.5832489,1,8.0,5.999999046325684,3.141219147792196,0.0,True,0.011365175247192383,8.0,5.999999046325684,3.1415915489196777,0.0,0.0,0.0
1759830088.5940366,1,8.0,5.999999046325684,3.141236183386095,0.0,True,0.010787725448608398,8.0,5.999999046325684,3.1415915489196777,0.0,0.0,0.0
1759830088.604775,1,8.0,5.999999046325684,3.141252285393172,0.0,True,0.010738372802734375,8.0,5.999999046325684,3.1415915489196777,0.0,0.0,0.0
1759830088.615155,1,8.0,5.999999046325684,3.1412693189417027,0.0,True,0.010380029678344727,8.0,5.999999046325684,3.1415915489196777,0.0,0.0,0.0
1759830088.6257408,1,8.0,5.999999046325684,3.1412829945058274,0.0,True,0.010585784912109375,8.0,5.999999046325684,3.1415915489196777,0.0,0.0,0.0
1759830088.6371272,1,8.0,5.999999046325684,3.141290341892006,0.0,True,0.011386394500732422,8.0,5.999999046325684,3.1415915489196777,0.0,0.0,0.0
1759830088.647403,1,8.0,5.999999046325684,3.1413051097365816,0.0,True,0.010275840759277344,8.0,5.999999046325684,3.1415915489196777,0.0,0.0,0.0
1759830088.6586657,1,8.0,5.999999046325684,3.1413127371505265,0.0,True,0.011262655258178711,8.0,5.999999046325684,3.1415915489196777,0.0,0.0,0.0
1759830088.669852,1,8.0,5.999999046325684,3.1413210490019488,0.0,True,0.011186361312866211,8.0,5.999999046325684,3.1415915489196777,0.0,0.0,0.0
1759830088.6813183,1,8.0,5.999999046325684,3.1413282161255314,0.0,True,0.011466264724731445,8.0,5.999999046325684,3.1415915489196777,0.0,0.0,0.0
1759830088.6915722,1,8.0,5.999999046325684,3.14134230366518,0.0,True,0.01025390625,8.0,5.999999046325684,3.1415915489196777,0.0,0.0,0.0
1759830088.7023675,1,8.0,5.999999046325684,3.1413520826907586,0.0,True,0.010795354843139648,8.0,5.999999046325684,3.1415915489196777,0.0,0.0,0.0
1759830088.7130802,1,8.0,5.999999046325684,3.141361416830673,0.0,True,0.010712623596191406,8.0,5.999999046325684,3.1415915489196777,0.0,0.0,0.0
1759830088.7242904,1,8.0,5.999999046325684,3.141367809232168,0.0,True,0.011210203170776367,8.0,5.999999046325684,3.1415915489196777,0.0,0.0,0.0
1759830088.8115106,1,8.0,5.999999046325684,3.141127570571715,0.0,True,0.0872201919555664,8.0,5.999999046325684,3.1415915489196777,0.0,0.0,0.0
1759830088.8223798,1,8.0,5.999999046325684,3.1412384021395194,0.0,True,0.010869264602661133,8.0,5.999999046325684,3.1415915489196777,0.0,0.0,0.0
1759830088.8324382,1,8.0,5.999999046325684,3.141323798367864,0.0,True,0.010058403015136719,8.0,5.999999046325684,3.1415915489196777,0.0,0.0,0.0
1759830088.8431823,1,8.0,5.999999046325684,3.141377030255665,0.0,True,0.010744094848632812,8.0,5.999999046325684,3.1415915489196777,0.0,0.0,0.0
1759830088.8536677,1,8.0,5.999999046325684,3.1414129552861105,0.0,True,0.010485410690307617,8.0,5.999999046325684,3.1415915489196777,0.0,0.0,0.0
1759830088.864417,1,8.0,5.999999046325684,3.1414372566510753,0.0,True,0.010749340057373047,8.0,5.999999046325684,3.1415915489196777,0.0,0.0,0.0
1759830088.8753355,1,8.0,5.999999046325684,3.141454257165753,0.0,True,0.010918378829956055,8.0,5.999999046325684,3.1415915489196777,0.0,0.0,0.0
1759830088.8858166,1,8.0,5.999999046325684,3.141467745204274,0.0,True,0.010481119155883789,8.0,5.999999046325684,3.1415915489196777,0.0,0.0,0.0
1759830088.8963323,1,8.0,5.999999046325684,3.1414778746307714,0.0,True,0.010515689849853516,8.0,5.999999046325684,3.1415915489196777,0.0,0.0,0.0
1759830088.9076755,1,8.0,5.999999046325684,3.141483976795204,0.0,True,0.011343240737915039,8.0,5.999999046325684,3.1415915489196777,0.0,0.0,0.0
1759830088.9185507,1,8.0,5.999999046325684,3.1414898650062177,0.0,True,0.010875225067138672,8.0,5.999999046325684,3.1415915489196777,0.0,0.0,0.0
1759830088.9299471,1,8.0,5.999999046325684,3.1414937956636777,0.0,True,0.011396408081054688,8.0,5.999999046325684,3.1415915489196777,0.0,0.0,0.0
1759830088.9422476,1,8.0,5.999999046325684,3.1414955799977644,0.0,True,0.012300491333007812,8.0,5.999999046325684,3.1415915489196777,0.0,0.0,0.0
1759830088.9528306,1,8.0,5.999999046325684,3.141500725924441,0.0,True,0.010582923889160156,8.0,5.999999046325684,3.1415915489196777,0.0,0.0,0.0
1759830088.963684,1,8.0,5.999999046325684,3.1415047704199406,0.0,True,0.01085352897644043,8.0,5.999999046325684,3.1415915489196777,0.0,0.0,0.0
1759830088.9737208,1,8.0,5.999999046325684,3.1415096586906426,0.0,True,0.010036706924438477,8.0,5.999999046325684,3.1415915489196777,0.0,0.0,0.0
1759830088.9837668,1,8.0,5.999999046325684,3.141513738353053,0.0,True,0.010046005249023438,8.0,5.999999046325684,3.1415915489196777,0.0,0.0,0.0
1759830088.9942772,1,8.0,5.999999046325684,3.1415163798935755,0.0,True,0.010510444641113281,8.0,5.999999046325684,3.1415915489196777,0.0,0.0,0.0
1759830089.0056865,1,8.0,5.999999046325684,3.1415173155769818,0.0,True,0.011409282684326172,8.0,5.999999046325684,3.1415915489196777,0.0,0.0,0.0
1759830089.016724,1,8.0,5.999999046325684,3.1415190930886006,0.0,True,0.011037588119506836,8.0,5.999999046325684,3.1415915489196777,0.0,0.0,0.0
1759830089.0276244,1,8.0,5.999999046325684,3.1415212090832245,0.0,True,0.010900259017944336,8.0,5.999999046325684,3.1415915489196777,0.0,0.0,0.0
1759830089.0378792,1,8.0,5.999999046325684,3.1415242412439213,0.0,True,0.010254859924316406,8.0,5.999999046325684,3.1415915489196777,0.0,0.0,0.0
1759830089.049223,1,8.0,5.999999046325684,3.141525422560818,0.0,True,0.011343717575073242,8.0,5.999999046325684,3.1415915489196777,0.0,0.0,0.0
1759830089.0601757,1,8.0,5.999999046325684,3.1415272711391466,0.0,True,0.01095271110534668,8.0,5.999999046325684,3.1415915489196777,0.0,0.0,0.0
1759830089.070613,1,8.0,5.999999046325684,3.141529842875469,0.0,True,0.010437250137329102,8.0,5.999999046325684,3.1415915489196777,0.0,0.0,0.0
1759830089.080932,1,8.0,5.999999046325684,3.1415323462960423,0.0,True,0.010318994522094727,8.0,5.999999046325684,3.1415915489196777,0.0,0.0,0.0
1759830089.0913947,1,8.0,5.999999046325684,3.1415344000504692,0.0,True,0.010462760925292969,8.0,5.999999046325684,3.1415915489196777,0.0,0.0,0.0
1759830089.101982,1,8.0,5.999999046325684,3.1415361371347537,0.0,True,0.010587453842163086,8.0,5.999999046325684,3.1415915489196777,0.0,0.0,0.0
1759830089.1132555,1,8.0,5.999999046325684,3.1415370024539744,0.0,True,0.011273384094238281,8.0,5.999999046325684,3.1415915489196777,0.0,0.0,0.0
1759830089.1235242,1,8.0,5.999999046325684,3.141539199341805,0.0,True,0.010268688201904297,8.0,5.999999046325684,3.1415915489196777,0.0,0.0,0.0
1759830089.133569,1,8.0,5.999999046325684,3.1415414931093277,0.0,True,0.01004481315612793,8.0,5.999999046325684,3.1415915489196777,0.0,0.0,0.0
1759830089.1471684,1,8.0,5.999999046325684,3.1415397343925164,0.0,True,0.013599395751953125,8.0,5.999999046325684,3.1415915489196777,0.0,0.0,0.0
1759830089.1576393,1,8.0,5.999999046325684,3.1415420956545557,0.0,True,0.010470867156982422,8.0,5.999999046325684,3.1415915489196777,0.0,0.0,0.0
1759830089.1681566,1,8.0,5.999999046325684,3.1415443622499524,0.0,True,0.010517358779907227,8.0,5.999999046325684,3.1415915489196777,0.0,0.0,0.0
1759830089.1792388,1,8.0,5.999999046325684,3.141545812163981,0.0,True,0.011082172393798828,8.0,5.999999046325684,3.1415915489196777,0.0,0.0,0.0
1759830089.1895862,1,8.0,5.999999046325684,3.1415478868399926,0.0,True,0.010347366333007812,8.0,5.999999046325684,3.1415915489196777,0.0,0.0,0.0
1759830089.2000206,1,8.0,5.999999046325684,3.1415496684401987,0.0,True,0.010434389114379883,8.0,5.999999046325684,3.1415915489196777,0.0,0.0,0.0
1759830089.2108412,1,8.0,5.999999046325684,3.1415509233357035,0.0,True,0.010820627212524414,8.0,5.999999046325684,3.1415915489196777,0.0,0.0,0.0
1759830089.2213593,1,8.0,5.999999046325684,3.141552394133262,0.0,True,0.010518074035644531,8.0,5.999999046325684,3.1415915489196777,0.0,0.0,0.0
1759830089.2323103,1,8.0,5.999999046325684,3.14155342475307,0.0,True,0.010951042175292969,8.0,5.999999046325684,3.1415915489196777,0.0,0.0,0.0
1759830089.2426217,1,8.0,5.999999046325684,3.141554978357906,0.0,True,0.010311365127563477,8.0,5.999999046325684,3.1415915489196777,0.0,0.0,0.0
1759830089.2543752,1,8.0,5.999999046325684,3.141555306966964,0.0,True,0.011753559112548828,8.0,5.999999046325684,3.1415915489196777,0.0,0.0,0.0
1759830089.264535,1,8.0,5.999999046325684,3.1415570130273167,0.0,True,0.010159730911254883,8.0,5.999999046325684,3.1415915489196777,0.0,0.0,0.0
1759830089.2753623,1,8.0,5.999999046325684,3.1415580995975905,0.0,True,0.010827302932739258,8.0,5.999999046325684,3.1415915489196777,0.0,0.0,0.0
1759830089.2868123,1,8.0,5.999999046325684,3.1415587027254634,0.0,True,0.011450052261352539,8.0,5.999999046325684,3.1415915489196777,0.0,0.0,0.0
1759830089.2972798,1,8.0,5.999999046325684,3.1415600787586477,0.0,True,0.010467529296875,8.0,5.999999046325684,3.1415915489196777,0.0,0.0,0.0
1759830089.30882,1,8.0,5.999999046325684,3.141560672277542,0.0,True,0.01154017448425293,8.0,5.999999046325684,3.1415915489196777,0.0,0.0,0.0
1759830089.319225,1,8.0,5.999999046325684,3.1415620606853025,0.0,True,0.01040506362915039,8.0,5.999999046325684,3.1415915489196777,0.0,0.0,0.0
1759830089.3295083,1,8.0,5.999999046325684,3.141563409527553,0.0,True,0.010283231735229492,8.0,5.999999046325684,3.1415915489196777,0.0,0.0,0.0
1759830089.3507493,1,8.0,5.999999046325684,3.14155837635321,0.0,True,0.021240949630737305,8.0,5.999999046325684,3.1415915489196777,0.0,0.0,0.0
1759830089.361181,1,8.0,5.999999046325684,3.1415611350877146,0.0,True,0.010431766510009766,8.0,5.999999046325684,3.1415915489196777,0.0,0.0,0.0
1759830089.372179,1,8.0,5.999999046325684,3.141563452232745,0.0,True,0.010998010635375977,8.0,5.999999046325684,3.1415915489196777,0.0,0.0,0.0
1759830089.382961,1,8.0,5.999999046325684,3.141565410288557,0.0,True,0.010782003402709961,8.0,5.999999046325684,3.1415915489196777,0.0,0.0,0.0
1759830089.3933434,1,8.0,5.999999046325684,3.141567186300673,0.0,True,0.010382413864135742,8.0,5.999999046325684,3.1415915489196777,0.0,0.0,0.0
1759830089.4048266,1,8.0,5.999999046325684,3.1415681136331592,0.0,True,0.011483192443847656,8.0,5.999999046325684,3.1415915489196777,0.0,0.0,0.0
1759830089.4152806,1,8.0,5.999999046325684,3.141569410178935,0.0,True,0.010453939437866211,8.0,5.999999046325684,3.1415915489196777,0.0,0.0,0.0
1759830089.425318,1,8.0,5.999999046325684,3.1415707134070985,0.0,True,0.010037422180175781,8.0,5.999999046325684,3.1415915489196777,0.0,0.0,0.0
1759830089.4363427,1,8.0,5.999999046325684,3.1415713792137865,0.0,True,0.011024713516235352,8.0,5.999999046325684,3.1415915489196777,0.0,0.0,0.0
1759830089.4474149,1,8.0,5.999999046325684,3.1415719779807,0.0,True,0.011072158813476562,8.0,5.999999046325684,3.1415915489196777,0.0,0.0,0.0
1759830089.458599,1,8.0,5.999999046325684,3.141572533306638,0.0,True,0.011184215545654297,8.0,5.999999046325684,3.1415915489196777,0.0,0.0,0.0
1759830089.4700599,1,8.0,5.999999046325684,3.1415729962225747,0.0,True,0.01146078109741211,8.0,5.999999046325684,3.1415915489196777,0.0,0.0,0.0
1759830089.480103,1,8.0,5.999999046325684,3.1415740221012616,0.0,True,0.010043144226074219,8.0,5.999999046325684,3.1415915489196777,0.0,0.0,0.0
1759830089.4909892,1,8.0,5.999999046325684,3.1415746157243376,0.0,True,0.010886192321777344,8.0,5.999999046325684,3.1415915489196777,0.0,0.0,0.0
1759830089.5013278,1,8.0,5.999999046325684,3.1415753527112713,0.0,True,0.010338544845581055,8.0,5.999999046325684,3.1415915489196777,0.0,0.0,0.0
1759830089.5123262,1,8.0,5.999999046325684,3.1415757949693273,0.0,True,0.01099848747253418,8.0,5.999999046325684,3.1415915489196777,0.0,0.0,0.0
1759830089.523278,1,8.0,5.999999046325684,3.1415762506521734,0.0,True,0.010951757431030273,8.0,5.999999046325684,3.1415915489196777,0.0,0.0,0.0
1759830089.5338154,1,8.0,5.999999046325684,3.141576843208524,0.0,True,0.010537385940551758,8.0,5.999999046325684,3.1415915489196777,0.0,0.0,0.0
1759830089.5456579,1,8.0,5.999999046325684,3.141577001364084,0.0,True,0.011842489242553711,8.0,5.999999046325684,3.1415915489196777,0.0,0.0,0.0
1759830089.5568929,1,8.0,5.999999046325684,3.1415774172217077,0.0,True,0.01123499870300293,8.0,5.999999046325684,3.1415915489196777,0.0,0.0,0.0
1759830089.5674698,1,8.0,5.999999046325684,3.1415780459498635,0.0,True,0.010576963424682617,8.0,5.999999046325684,3.1415915489196777,0.0,0.0,0.0
1759830089.5787327,1,8.0,5.999999046325684,3.1415784324076483,0.0,True,0.011262893676757812,8.0,5.999999046325684,3.1415915489196777,0.0,0.0,0.0
1759830089.5895913,1,8.0,5.999999046325684,3.141578923784021,0.0,True,0.010858535766601562,8.0,5.999999046325684,3.1415915489196777,0.0,0.0,0.0
1759830089.6010451,1,8.0,5.999999046325684,3.141579240207683,0.0,True,0.011453866958618164,8.0,5.999999046325684,3.1415915489196777,0.0,0.0,0.0
1759830089.6115437,1,8.0,5.999999046325684,3.141579809143339,0.0,True,0.010498523712158203,8.0,5.999999046325684,3.1415915489196777,0.0,0.0,0.0
1759830089.6216478,1,8.0,5.999999046325684,3.141580419637366,0.0,True,0.010104179382324219,8.0,5.999999046325684,3.1415915489196777,0.0,0.0,0.0
1759830089.6318736,1,8.0,5.999999046325684,3.1415809153489125,0.0,True,0.010225772857666016,8.0,5.999999046325684,3.1415915489196777,0.0,0.0,0.0
1759830089.6423216,1,8.0,5.999999046325684,3.1415812973239934,0.0,True,0.010447978973388672,8.0,5.999999046325684,3.1415915489196777,0.0,0.0,0.0
1759830089.6537209,1,8.0,5.999999046325684,3.1415814432106863,0.0,True,0.011399269104003906,8.0,5.999999046325684,3.1415915489196777,0.0,0.0,0.0
1759830089.6638932,1,8.0,5.999999046325684,3.141581888102296,0.0,True,0.010172367095947266,8.0,5.999999046325684,3.1415915489196777,0.0,0.0,0.0
1759830089.674818,1,8.0,5.999999046325684,3.141582147036143,0.0,True,0.010924816131591797,8.0,5.999999046325684,3.1415915489196777,0.0,0.0,0.0
1759830089.685273,1,8.0,5.999999046325684,3.141582497892724,0.0,True,0.010454893112182617,8.0,5.999999046325684,3.1415915489196777,0.0,0.0,0.0
1759830089.6963685,1,8.0,5.999999046325684,3.141582708046478,0.0,True,0.011095523834228516,8.0,5.999999046325684,3.1415915489196777,0.0,0.0,0.0
1759830089.7067466,1,8.0,5.999999046325684,3.14158306324612,0.0,True,0.010378122329711914,8.0,5.999999046325684,3.1415915489196777,0.0,0.0,0.0
1759830089.7181642,1,8.0,5.999999046325684,3.1415832114656013,0.0,True,0.011417627334594727,8.0,5.999999046325684,3.1415915489196777,0.0,0.0,0.0
1759830089.7287521,1,8.0,5.999999046325684,3.1415835285745253,0.0,True,0.010587930679321289,8.0,5.999999046325684,3.1415915489196777,0.0,0.0,0.0
1759830089.7459168,1,8.0,5.999999046325684,3.1415827692100855,0.0,True,0.01716470718383789,8.0,5.999999046325684,3.1415915489196777,0.0,0.0,0.0
1759830089.7505426,1,8.0,5.999999046325684,3.141584285526271,0.0,True,0.004625797271728516,8.0,5.999999046325684,3.1415915489196777,0.0,0.0,0.0
1759830089.7620184,1,8.0,5.999999046325684,3.14158444699237,0.0,True,0.011475801467895508,8.0,5.999999046325684,3.1415915489196777,0.0,0.0,0.0
1759830089.7725751,1,8.0,5.999999046325684,3.1415846901254003,0.0,True,0.010556697845458984,8.0,5.999999046325684,3.1415915489196777,0.0,0.0,0.0
1759830089.7832346,1,8.0,5.999999046325684,3.1415849118392565,0.0,True,0.010659456253051758,8.0,5.999999046325684,3.1415915489196777,0.0,0.0,0.0
1759830089.794127,1,8.0,5.999999046325684,3.1415850940921253,0.0,True,0.010892391204833984,8.0,5.999999046325684,3.1415915489196777,0.0,0.0,0.0
1759830089.8054197,1,8.0,5.999999046325684,3.141585226758764,0.0,True,0.011292695999145508,8.0,5.999999046325684,3.1415915489196777,0.0,0.0,0.0
1759830089.8162577,1,8.0,5.999999046325684,3.1415854381275334,0.0,True,0.010838031768798828,8.0,5.999999046325684,3.1415915489196777,0.0,0.0,0.0
1759830089.8270645,1,8.0,5.999999046325684,3.141585651737973,0.0,True,0.010806798934936523,8.0,5.999999046325684,3.1415915489196777,0.0,0.0,0.0
1759830089.8376195,1,8.0,5.999999046325684,3.1415858867567827,0.0,True,0.010555028915405273,8.0,5.999999046325684,3.1415915489196777,0.0,0.0,0.0
1759830089.8482518,1,8.0,5.999999046325684,3.141586094643788,0.0,True,0.01063227653503418,8.0,5.999999046325684,3.1415915489196777,0.0,0.0,0.0
1759830089.8586447,1,8.0,5.999999046325684,3.1415863153674763,0.0,True,0.010392904281616211,8.0,5.999999046325684,3.1415915489196777,0.0,0.0,0.0
1759830089.8701322,1,8.0,5.999999046325684,3.1415863976733327,0.0,True,0.011487483978271484,8.0,5.999999046325684,3.1415915489196777,0.0,0.0,0.0
1759830089.8805563,1,8.0,5.999999046325684,3.141586611570329,0.0,True,0.010424137115478516,8.0,5.999999046325684,3.1415915489196777,0.0,0.0,0.0
1759830089.8908246,1,8.0,5.999999046325684,3.141586828579136,0.0,True,0.010268211364746094,8.0,5.999999046325684,3.1415915489196777,0.0,0.0,0.0
1759830089.9019532,1,8.0,5.999999046325684,3.1415869370297216,0.0,True,0.011128664016723633,8.0,5.999999046325684,3.1415915489196777,0.0,0.0,0.0
1759830089.912825,1,8.0,5.999999046325684,3.1415870761032103,0.0,True,0.01087188720703125,8.0,5.999999046325684,3.1415915489196777,0.0,0.0,0.0
1759830089.9232278,1,8.0,5.999999046325684,3.141587260518948,0.0,True,0.010402679443359375,8.0,5.999999046325684,3.1415915489196777,0.0,0.0,0.0
1759830089.9350913,1,8.0,5.999999046325684,3.141587300697804,0.0,True,0.011863470077514648,8.0,5.999999046325684,3.1415915489196777,0.0,0.0,0.0
1759830089.9493337,1,7.9999999616642885,5.999999930430602,3.1415871659199794,7.046854554711084e-06,True,0.014242410659790039,8.0,6.000000476837158,3.1415915489196777,7.046854554711084e-06,0.0,0.0
1759830089.9607944,1,7.999999954508548,6.000000268128594,3.1415873496997033,7.046854554711084e-06,True,0.01146078109741211,8.0,6.000000476837158,3.1415915489196777,7.046854554711084e-06,0.0,0.0
1759830089.9722023,1,7.999999951917764,6.000000397117743,3.1415875430444586,7.046854554711084e-06,True,0.011407852172851562,8.0,6.000000476837158,3.1415915489196777,7.046854554711084e-06,0.0,0.0
1759830089.9832423,1,7.99999995191838,6.000000446387203,3.141587746713233,7.046854554711084e-06,True,0.011039972305297852,8.0,6.000000476837158,3.1415915489196777,7.046854554711084e-06,0.0,0.0
1759830089.9941735,1,7.999999952211249,6.000000465206454,3.1415879340036046,7.046854554711084e-06,True,0.010931253433227539,8.0,6.000000476837158,3.1415915489196777,7.046854554711084e-06,0.0,0.0
1759830090.0047286,1,7.9999999533357835,6.000000472394758,3.1415881245227855,7.046854554711084e-06,True,0.010555028915405273,8.0,6.000000476837158,3.1415915489196777,7.046854554711084e-06,0.0,0.0
1759830090.016133,1,7.9999999514787925,6.000000475140451,3.1415882312545254,7.046854554711084e-06,True,0.01140451431274414,8.0,6.000000476837158,3.1415915489196777,7.046854554711084e-06,0.0,0.0
1759830090.0275133,1,7.999999950834943,6.000000476189209,3.141588336069008,7.046854554711084e-06,True,0.011380195617675781,8.0,6.000000476837158,3.1415915489196777,7.046854554711084e-06,0.0,0.0
1759830090.037785,1,7.999999953572471,6.000000476589783,3.141588511161263,7.046854554711084e-06,True,0.010271787643432617,8.0,6.000000476837158,3.1415915489196777,7.046854554711084e-06,0.0,0.0
1759830090.0478587,1,7.9999999551514,6.000000476742781,3.141588676064128,7.046854554711084e-06,True,0.010073661804199219,8.0,6.000000476837158,3.1415915489196777,7.046854554711084e-06,0.0,0.0
1759830090.0586276,1,7.999999953883179,6.000000476801224,3.141588773904628,7.046854554711084e-06,True,0.010768890380859375,8.0,6.000000476837158,3.1415915489196777,7.046854554711084e-06,0.0,0.0
1759830090.0696967,1,7.99999995259081,6.000000476823548,3.1415888469215716,7.046854554711084e-06,True,0.011069059371948242,8.0,6.000000476837158,3.1415915489196777,7.046854554711084e-06,0.0,0.0
1759830090.080013,1,7.999999954123147,6.000000476832065,3.1415889641018815,7.046854554711084e-06,True,0.01031637191772461,8.0,6.000000476837158,3.1415915489196777,7.046854554711084e-06,0.0,0.0
1759830090.0914514,1,7.9999999516884115,6.000000476835327,3.1415890110560944,7.046854554711084e-06,True,0.011438369750976562,8.0,6.000000476837158,3.1415915489196777,7.046854554711084e-06,0.0,0.0
1759830090.102999,1,7.999999950464508,6.000000476836572,3.1415890598618876,7.046854554711084e-06,True,0.011547565460205078,8.0,6.000000476837158,3.1415915489196777,7.046854554711084e-06,0.0,0.0
1759830090.1140454,1,7.999999951345958,6.000000476837041,3.141589144474759,7.046854554711084e-06,True,0.011046409606933594,8.0,6.000000476837158,3.1415915489196777,7.046854554711084e-06,0.0,0.0
1759830090.1254938,1,7.9999999506006665,6.000000476837221,3.14158920957191,7.046854554711084e-06,True,0.011448383331298828,8.0,6.000000476837158,3.1415915489196777,7.046854554711084e-06,0.0,0.0
1759830090.136159,1,7.999999952424111,6.000000476837281,3.1415893138482947,7.046854554711084e-06,True,0.010665178298950195,8.0,6.000000476837158,3.1415915489196777,7.046854554711084e-06,0.0,0.0
1759830090.1542094,1,7.99999993324202,5.999999592732656,3.1415890859070146,7.046854554742655e-06,True,0.018050432205200195,8.0,5.999999046325684,3.1415915489196777,7.046854554742655e-06,0.0,0.0
1759830090.165166,1,7.99999994500949,5.99999925503468,3.141589252922568,7.046854554742655e-06,True,0.010956525802612305,8.0,5.999999046325684,3.1415915489196777,7.046854554742655e-06,0.0,0.0
1759830090.1757195,1,7.999999950588807,5.999999126045523,3.1415894287959745,7.046854554742655e-06,True,0.010553598403930664,8.0,5.999999046325684,3.1415915489196777,7.046854554742655e-06,0.0,0.0
1759830090.1861339,1,7.999999953094693,5.999999076776042,3.141589576127835,7.046854554742655e-06,True,0.010414361953735352,8.0,5.999999046325684,3.1415915489196777,7.046854554742655e-06,0.0,0.0
1759830090.1974905,1,7.9999999515156945,5.99999905795678,3.141589659241774,7.046854554742655e-06,True,0.011356592178344727,8.0,5.999999046325684,3.1415915489196777,7.046854554742655e-06,0.0,0.0
1759830090.207568,1,7.999999954355514,5.999999050768448,3.1415897787537634,7.046854554742655e-06,True,0.010077476501464844,8.0,5.999999046325684,3.1415915489196777,7.046854554742655e-06,0.0,0.0
1759830090.218508,1,7.999999953118407,5.999999048022754,3.1415898488096303,7.046854554742655e-06,True,0.010940074920654297,8.0,5.999999046325684,3.1415915489196777,7.046854554742655e-06,0.0,0.0
1759830090.229561,1,7.999999952341689,5.99999904697399,3.14158990702874,7.046854554742655e-06,True,0.011053085327148438,8.0,5.999999046325684,3.1415915489196777,7.046854554742655e-06,0.0,0.0
1759830090.239707,1,7.999999954486836,5.9999990465733894,3.1415899924858017,7.046854554742655e-06,True,0.010145902633666992,8.0,5.999999046325684,3.1415915489196777,7.046854554742655e-06,0.0,0.0
1759830090.250623,1,7.999999953233384,5.999999046420377,3.1415900423822656,7.046854554742655e-06,True,0.010915994644165039,8.0,5.999999046325684,3.1415915489196777,7.046854554742655e-06,0.0,0.0
1759830090.2610157,1,7.99999995416323,5.999999046361926,3.141590105429909,7.046854554742655e-06,True,0.01039266586303711,8.0,5.999999046325684,3.1415915489196777,7.046854554742655e-06,0.0,0.0
1759830090.2723415,1,7.999999952006624,5.999999046339605,3.141590134989551,7.046854554742655e-06,True,0.011325836181640625,8.0,5.999999046325684,3.1415915489196777,7.046854554742655e-06,0.0,0.0
1759830090.2834153,1,7.999999951861194,5.999999046331076,3.141590174895974,7.046854554742655e-06,True,0.011073827743530273,8.0,5.999999046325684,3.1415915489196777,7.046854554742655e-06,0.0,0.0
1759830090.2943065,1,7.999999952297219,5.999999046327816,3.14159022158713,7.046854554742655e-06,True,0.010891199111938477,8.0,5.999999046325684,3.1415915489196777,7.046854554742655e-06,0.0,0.0
1759830090.305061,1,7.999999952831484,5.999999046326568,3.1415902706978933,7.046854554742655e-06,True,0.010754585266113281,8.0,5.999999046325684,3.1415915489196777,7.046854554742655e-06,0.0,0.0
1759830090.3152733,1,7.999999954495516,5.999999046326087,3.1415903310576514,7.046854554742655e-06,True,0.010212182998657227,8.0,5.999999046325684,3.1415915489196777,7.046854554742655e-06,0.0,0.0
1759830090.3267264,1,7.999999951790856,5.999999046325909,3.1415903530483007,7.046854554742655e-06,True,0.01145315170288086,8.0,5.999999046325684,3.1415915489196777,7.046854554742655e-06,0.0,0.0
1759830090.33749,1,7.999999952613684,5.999999046325836,3.1415903949956583,7.046854554742655e-06,True,0.01076364517211914,8.0,5.999999046325684,3.1415915489196777,7.046854554742655e-06,0.0,0.0
1759830090.352941,1,7.999999981900038,5.999999046325742,3.141590327238422,0.0,True,0.01545095443725586,8.0,5.999999046325684,3.1415915489196777,0.0,0.0,0.0
1759830090.3633358,1,7.99999999308643,5.999999046325706,3.1415904051933303,0.0,True,0.010394811630249023,8.0,5.999999046325684,3.1415915489196777,0.0,0.0,0.0
1759830090.374539,1,7.999999997359251,5.9999990463256925,3.1415904604715497,0.0,True,0.01120305061340332,8.0,5.999999046325684,3.1415915489196777,0.0,0.0,0.0
1759830090.3849938,1,7.999999998991323,5.999999046325687,3.1415905239213373,0.0,True,0.010454893112182617,8.0,5.999999046325684,3.1415915489196777,0.0,0.0,0.0
1759830090.3954232,1,7.99999999961472,5.999999046325685,3.141590578299054,0.0,True,0.01042938232421875,8.0,5.999999046325684,3.1415915489196777,0.0,0.0,0.0
1759830090.4069743,1,7.999999999852836,5.9999990463256845,3.1415906025588427,0.0,True,0.011551141738891602,8.0,5.999999046325684,3.1415915489196777,0.0,0.0,0.0
1759830090.4184086,1,7.999999999943788,5.999999046325684,3.141590629612299,0.0,True,0.011434316635131836,8.0,5.999999046325684,3.1415915489196777,0.0,0.0,0.0
1759830090.4299068,1,7.999999999978529,5.999999046325684,3.141590656755559,0.0,True,0.011498212814331055,8.0,5.999999046325684,3.1415915489196777,0.0,0.0,0.0
1759830090.4412265,1,7.999999999991799,5.999999046325684,3.1415906878621342,0.0,True,0.011319637298583984,8.0,5.999999046325684,3.1415915489196777,0.0,0.0,0.0
1759830090.4520009,1,7.999999999996867,5.999999046325684,3.1415907274782793,0.0,True,0.010774374008178711,8.0,5.999999046325684,3.1415915489196777,0.0,0.0,0.0
1759830090.4634275,1,7.999999999998804,5.999999046325684,3.1415907526534657,0.0,True,0.011426687240600586,8.0,5.999999046325684,3.1415915489196777,0.0,0.0,0.0
1759830090.4742715,1,7.999999999999543,5.999999046325684,3.14159078650205,0.0,True,0.010843992233276367,8.0,5.999999046325684,3.1415915489196777,0.0,0.0,0.0
1759830090.4845655,1,7.999999999999825,5.999999046325684,3.1415908260619005,0.0,True,0.010293960571289062,8.0,5.999999046325684,3.1415915489196777,0.0,0.0,0.0
1759830090.4951158,1,7.999999999999933,5.999999046325684,3.1415908565442,0.0,True,0.010550260543823242,8.0,5.999999046325684,3.1415915489196777,0.0,0.0,0.0
1759830090.5059862,1,7.999999999999974,5.999999046325684,3.14159087898196,0.0,True,0.01087045669555664,8.0,5.999999046325684,3.1415915489196777,0.0,0.0,0.0
1759830090.5169837,1,7.99999999999999,5.999999046325684,3.141590898700562,0.0,True,0.010997533798217773,8.0,5.999999046325684,3.1415915489196777,0.0,0.0,0.0
1759830090.527872,1,7.9999999999999964,5.999999046325684,3.141590919933293,0.0,True,0.010888338088989258,8.0,5.999999046325684,3.1415915489196777,0.0,0.0,0.0
1759830090.5387845,1,7.999999999999998,5.999999046325684,3.141590940437469,0.0,True,0.010912418365478516,8.0,5.999999046325684,3.1415915489196777,0.0,0.0,0.0
1759830090.551105,1,7.999999999999999,5.999999046325684,3.1415909430910283,0.0,True,0.012320518493652344,8.0,5.999999046325684,3.1415915489196777,0.0,0.0,0.0
1759830090.5612288,1,8.0,5.999999046325684,3.141590976801897,0.0,True,0.010123729705810547,8.0,5.999999046325684,3.1415915489196777,0.0,0.0,0.0
1759830090.5715282,1,8.0,5.999999046325684,3.141591004971037,0.0,True,0.010299444198608398,8.0,5.999999046325684,3.1415915489196777,0.0,0.0,0.0
1759830090.5824924,1,8.0,5.999999046325684,3.1415910216593304,0.0,True,0.010964155197143555,8.0,5.999999046325684,3.1415915489196777,0.0,0.0,0.0
1759830090.5935133,1,8.0,5.999999046325684,3.1415910370478475,0.0,True,0.011020898818969727,8.0,5.999999046325684,3.1415915489196777,0.0,0.0,0.0
1759830090.6038048,1,8.0,5.999999046325684,3.141591060216536,0.0,True,0.010291576385498047,8.0,5.999999046325684,3.1415915489196777,0.0,0.0,0.0
1759830090.6142569,1,8.0,5.999999046325684,3.141591079488986,0.0,True,0.010452032089233398,8.0,5.999999046325684,3.1415915489196777,0.0,0.0,0.0
1759830090.624739,1,8.0,5.999999046325684,3.1415910966149525,0.0,True,0.010482072830200195,8.0,5.999999046325684,3.1415915489196777,0.0,0.0,0.0
1759830090.6353414,1,8.0,5.999999046325684,3.1415911113544244,0.0,True,0.010602474212646484,8.0,5.999999046325684,3.1415915489196777,0.0,0.0,0.0
1759830090.6463625,1,8.0,5.999999046325684,3.141591121647039,0.0,True,0.011021137237548828,8.0,5.999999046325684,3.1415915489196777,0.0,0.0,0.0
1759830090.6567354,1,8.0,5.999999046325684,3.1415911384123643,0.0,True,0.01037287712097168,8.0,5.999999046325684,3.1415915489196777,0.0,0.0,0.0
1759830090.6675565,1,8.0,5.999999046325684,3.1415911502795346,0.0,True,0.010821104049682617,8.0,5.999999046325684,3.1415915489196777,0.0,0.0,0.0
1759830090.6784775,1,8.0,5.999999046325684,3.1415911611946363,0.0,True,0.010921001434326172,8.0,5.999999046325684,3.1415915489196777,0.0,0.0,0.0
1759830090.6887498,1,8.0,5.999999046325684,3.1415911776417804,0.0,True,0.01027226448059082,8.0,5.999999046325684,3.1415915489196777,0.0,0.0,0.0
1759830090.6991892,1,8.0,5.999999046325684,3.1415911914014885,0.0,True,0.010439395904541016,8.0,5.999999046325684,3.1415915489196777,0.0,0.0,0.0
1759830090.7092342,1,8.0,5.999999046325684,3.1415912070264547,0.0,True,0.010045051574707031,8.0,5.999999046325684,3.1415915489196777,0.0,0.0,0.0
1759830090.7194188,1,8.0,5.999999046325684,3.1415912199417537,0.0,True,0.010184526443481445,8.0,5.999999046325684,3.1415915489196777,0.0,0.0,0.0
1759830090.7308428,1,8.0,5.999999046325684,3.1415912229035285,0.0,True,0.011424064636230469,8.0,5.999999046325684,3.1415915489196777,0.0,0.0,0.0
1759830090.741746,1,8.0,5.999999046325684,3.141591231242728,0.0,True,0.010903120040893555,8.0,5.999999046325684,3.1415915489196777,0.0,0.0,0.0
1759830090.7527745,1,8.0,5.999999046325684,3.141591239578256,0.0,True,0.011028528213500977,8.0,5.999999046325684,3.1415915489196777,0.0,0.0,0.0
1759830090.764235,1,8.0,5.999999046325684,3.141591245672249,0.0,True,0.011460542678833008,8.0,5.999999046325684,3.1415915489196777,0.0,0.0,0.0
1759830090.775468,1,8.0,5.999999046325684,3.141591254305931,0.0,True,0.011233091354370117,8.0,5.999999046325684,3.1415915489196777,0.0,0.0,0.0
1759830090.7860694,1,8.0,5.999999046325684,3.1415912671391464,0.0,True,0.010601282119750977,8.0,5.999999046325684,3.1415915489196777,0.0,0.0,0.0
1759830090.7963398,1,8.0,5.999999046325684,3.1415912808198154,0.0,True,0.010270357131958008,8.0,5.999999046325684,3.1415915489196777,0.0,0.0,0.0
1759830090.807145,1,8.0,5.999999046325684,3.1415912898347162,0.0,True,0.010805368423461914,8.0,5.999999046325684,3.1415915489196777,0.0,0.0,0.0
1759830090.8183694,1,8.0,5.999999046325684,3.1415912960787313,0.0,True,0.01122426986694336,8.0,5.999999046325684,3.1415915489196777,0.0,0.0,0.0
1759830090.8285267,1,8.0,5.999999046325684,3.14159130827937,0.0,True,0.010157346725463867,8.0,5.999999046325684,3.1415915489196777,0.0,0.0,0.0
1759830090.8388104,1,8.0,5.999999046325684,3.1415913186002378,0.0,True,0.010283708572387695,8.0,5.999999046325684,3.1415915489196777,0.0,0.0,0.0
1759830090.8489845,1,8.0,5.999999046325684,3.141591328264436,0.0,True,0.010174036026000977,8.0,5.999999046325684,3.1415915489196777,0.0,0.0,0.0
1759830090.8591702,1,8.0,5.999999046325684,3.141591336840296,0.0,True,0.010185718536376953,8.0,5.999999046325684,3.1415915489196777,0.0,0.0,0.0
1759830090.8703134,1,8.0,5.999999046325684,3.1415913402681195,0.0,True,0.011143207550048828,8.0,5.999999046325684,3.1415915489196777,0.0,0.0,0.0
1759830090.881775,1,8.0,5.999999046325684,3.141591343026679,0.0,True,0.011461496353149414,8.0,5.999999046325684,3.1415915489196777,0.0,0.0,0.0
1759830090.8932772,1,8.0,5.999999046325684,3.141591346860821,0.0,True,0.011502265930175781,8.0,5.999999046325684,3.1415915489196777,0.0,0.0,0.0
1759830090.9039822,1,8.0,5.999999046325684,3.1415913549210135,0.0,True,0.010704994201660156,8.0,5.999999046325684,3.1415915489196777,0.0,0.0,0.0
1759830090.9142175,1,8.0,5.999999046325684,3.1415913644464073,0.0,True,0.010235309600830078,8.0,5.999999046325684,3.1415915489196777,0.0,0.0,0.0
1759830090.924595,1,8.0,5.999999046325684,3.1415913722646565,0.0,True,0.010377645492553711,8.0,5.999999046325684,3.1415915489196777,0.0,0.0,0.0
1759830090.9359224,1,8.0,5.999999046325684,3.1415913757204805,0.0,True,0.011327266693115234,8.0,5.999999046325684,3.1415915489196777,0.0,0.0,0.0
1759830090.9573147,1,8.0,5.999999046325684,3.1415913451391013,0.0,True,0.021392345428466797,8.0,5.999999046325684,3.1415915489196777,0.0,0.0,0.0
1759830090.9711447,1,8.0,5.999999046325684,3.1415913519733927,0.0,True,0.013829946517944336,8.0,5.999999046325684,3.1415915489196777,0.0,0.0,0.0
1759830090.9835818,1,8.0,5.999999046325684,3.141591365672456,0.0,True,0.012437105178833008,8.0,5.999999046325684,3.1415915489196777,0.0,0.0,0.0
1759830090.99538,1,8.0,5.999999046325684,3.141591379445167,0.0,True,0.01179814338684082,8.0,5.999999046325684,3.1415915489196777,0.0,0.0,0.0
1759830091.0080252,1,8.0,5.999999046325684,3.1415913883883135,0.0,True,0.012645244598388672,8.0,5.999999046325684,3.1415915489196777,0.0,0.0,0.0
1759830091.0208943,1,8.0,5.999999046325684,3.141591395590762,0.0,True,0.012869119644165039,8.0,5.999999046325684,3.1415915489196777,0.0,0.0,0.0
1759830091.0337415,1,8.0,5.999999046325684,3.1415914023736953,0.0,True,0.012847185134887695,8.0,5.999999046325684,3.1415915489196777,0.0,0.0,0.0
1759830091.0461297,1,8.0,5.999999046325684,3.1415914099107525,0.0,True,0.012388229370117188,8.0,5.999999046325684,3.1415915489196777,0.0,0.0,0.0
1759830091.058294,1,8.0,5.999999046325684,3.1415914172567128,0.0,True,0.01216435432434082,8.0,5.999999046325684,3.1415915489196777,0.0,0.0,0.0
1759830091.0699904,1,8.0,5.999999046325684,3.1415914248263963,0.0,True,0.011696338653564453,8.0,5.999999046325684,3.1415915489196777,0.0,0.0,0.0
1759830091.081991,1,8.0,5.999999046325684,3.1415914306992505,0.0,True,0.012000560760498047,8.0,5.999999046325684,3.1415915489196777,0.0,0.0,0.0
1759830091.0938997,1,8.0,5.999999046325684,3.1415914361261734,0.0,True,0.011908769607543945,8.0,5.999999046325684,3.1415915489196777,0.0,0.0,0.0
1759830091.1062624,1,8.0,5.999999046325684,3.1415914401352456,0.0,True,0.01236271858215332,8.0,5.999999046325684,3.1415915489196777,0.0,0.0,0.0
1759830091.118632,1,8.0,5.999999046325684,3.141591444026435,0.0,True,0.012369632720947266,8.0,5.999999046325684,3.1415915489196777,0.0,0.0,0.0
1759830091.1313775,1,8.0,5.999999046325684,3.141591447182474,0.0,True,0.012745380401611328,8.0,5.999999046325684,3.1415915489196777,0.0,0.0,0.0
1759830091.1437137,1,8.0,5.999999046325684,3.141591451233605,0.0,True,0.012336254119873047,8.0,5.999999046325684,3.1415915489196777,0.0,0.0,0.0
1759830091.1669533,1,7.999999941751002,5.999999930430466,3.1415914371119005,6.561979241332008e-06,True,0.023239612579345703,8.0,6.000000476837158,3.1415915489196777,6.561979241332008e-06,0.0,0.0
1759830091.1816976,1,7.999999940795013,6.000000268128418,3.1415914427864386,6.561979241332008e-06,True,0.014744281768798828,8.0,6.000000476837158,3.1415915489196777,6.561979241332008e-06,0.0,0.0
1759830091.1950042,1,7.999999944033295,6.000000397117554,3.1415914513388223,6.561979241332008e-06,True,0.013306617736816406,8.0,6.000000476837158,3.1415915489196777,6.561979241332008e-06,0.0,0.0
1759830091.2067978,1,7.999999949062483,6.0000004463870145,3.1415914606292166,6.561979241332008e-06,True,0.01179361343383789,8.0,6.000000476837158,3.1415915489196777,6.561979241332008e-06,0.0,0.0
1759830091.2201102,1,7.999999947176845,6.000000465206278,3.1415914658970188,6.561979241332008e-06,True,0.013312339782714844,8.0,6.000000476837158,3.1415915489196777,6.561979241332008e-06,0.0,0.0
1759830091.232502,1,7.999999948763871,6.0000004723945946,3.1415914714817017,6.561979241332008e-06,True,0.012391805648803711,8.0,6.000000476837158,3.1415915489196777,6.561979241332008e-06,0.0,0.0
1759830091.2457507,1,7.999999947222341,6.000000475140289,3.1415914751246063,6.561979241332008e-06,True,0.013248682022094727,8.0,6.000000476837158,3.1415915489196777,6.561979241332008e-06,0.0,0.0
1759830091.26175,1,7.999999939739191,6.000000476189059,3.141591475170234,6.561979241332008e-06,True,0.015999317169189453,8.0,6.000000476837158,3.1415915489196777,6.561979241332008e-06,0.0,0.0
1759830091.2744272,1,7.999999945207631,6.000000476589643,3.141591479874215,6.561979241332008e-06,True,0.012677192687988281,8.0,6.000000476837158,3.1415915489196777,6.561979241332008e-06,0.0,0.0
1759830091.2877698,1,7.999999945628529,6.000000476742655,3.1415914834238237,6.561979241332008e-06,True,0.013342618942260742,8.0,6.000000476837158,3.1415915489196777,6.561979241332008e-06,0.0,0.0
1759830091.3011315,1,7.999999945741491,6.000000476801101,3.141591486567325,6.561979241332008e-06,True,0.013361692428588867,8.0,6.000000476837158,3.1415915489196777,6.561979241332008e-06,0.0,0.0
1759830091.3156152,1,7.999999942972404,6.000000476823428,3.141591488353388,6.561979241332008e-06,True,0.01448369026184082,8.0,6.000000476837158,3.1415915489196777,6.561979241332008e-06,0.0,0.0
1759830091.3279192,1,7.999999947377829,6.00000047683195,3.14159149236753,6.561979241332008e-06,True,0.012304067611694336,8.0,6.000000476837158,3.1415915489196777,6.561979241332008e-06,0.0,0.0
1759830091.341059,1,7.999999946966017,6.000000476835207,3.1415914951018156,6.561979241332008e-06,True,0.013139724731445312,8.0,6.000000476837158,3.1415915489196777,6.561979241332008e-06,0.0,0.0
1759830091.3543305,1,7.999999946478254,6.000000476836451,3.1415914974257326,6.561979241332008e-06,True,0.013271570205688477,8.0,6.000000476837158,3.1415915489196777,6.561979241332008e-06,0.0,0.0
1759830091.3820488,1,7.999999910399117,5.999999592732256,3.1415914881025646,6.532015865794714e-06,True,0.027718305587768555,8.0,5.999999046325684,3.1415915489196777,6.532015865794714e-06,0.0,0.0
1759830091.398973,1,7.999999923549636,5.999999255034472,3.1415914912377065,6.532015865794714e-06,True,0.016924142837524414,8.0,5.999999046325684,3.1415915489196777,6.532015865794714e-06,0.0,0.0
1759830091.4124968,1,7.9999999370565265,5.999999126045386,3.1415914973032972,6.532015865794714e-06,True,0.01352381706237793,8.0,5.999999046325684,3.1415915489196777,6.532015865794714e-06,0.0,0.0
1759830091.427562,1,7.999999938369954,5.999999076775944,3.1415915011649673,6.532015865794714e-06,True,0.015065193176269531,8.0,5.999999046325684,3.1415915489196777,6.532015865794714e-06,0.0,0.0
1759830091.4421704,1,7.999999940011383,5.99999905795669,3.141591504612528,6.532015865794714e-06,True,0.014608383178710938,8.0,5.999999046325684,3.1415915489196777,6.532015865794714e-06,0.0,0.0
1759830091.4567618,1,7.999999940680588,5.999999050768374,3.141591507531329,6.532015865794714e-06,True,0.014591455459594727,8.0,5.999999046325684,3.1415915489196777,6.532015865794714e-06,0.0,0.0
1759830091.472471,1,7.999999938147516,5.999999048022685,3.1415915094053055,6.532015865794714e-06,True,0.01570916175842285,8.0,5.999999046325684,3.1415915489196777,6.532015865794714e-06,0.0,0.0
1759830091.484362,1,7.999999946706592,5.999999046973914,3.1415915132645917,6.532015865794714e-06,True,0.011890888214111328,8.0,5.999999046325684,3.1415915489196777,6.532015865794714e-06,0.0,0.0
1759830091.4985516,1,7.999999944240264,5.999999046573326,3.1415915151700293,6.532015865794714e-06,True,0.014189720153808594,8.0,5.999999046325684,3.1415915489196777,6.532015865794714e-06,0.0,0.0
1759830091.51248,1,7.999999943950173,5.999999046420315,3.141591516919977,6.532015865794714e-06,True,0.013928413391113281,8.0,5.999999046325684,3.1415915489196777,6.532015865794714e-06,0.0,0.0
1759830091.5264566,1,7.999999943719207,5.999999046361869,3.1415915184782612,6.532015865794714e-06,True,0.013976573944091797,8.0,5.999999046325684,3.1415915489196777,6.532015865794714e-06,0.0,0.0
1759830091.541036,1,7.999999942127189,5.999999046339546,3.1415915196335042,6.532015865794714e-06,True,0.014579296112060547,8.0,5.999999046325684,3.1415915489196777,6.532015865794714e-06,0.0,0.0
1759830091.5545557,1,7.999999944162633,5.999999046331017,3.1415915212466423,6.532015865794714e-06,True,0.013519763946533203,8.0,5.999999046325684,3.1415915489196777,6.532015865794714e-06,0.0,0.0
1759830091.5799582,1,7.999999978672024,5.999999046327721,3.1415915178701574,0.0,True,0.025402545928955078,8.0,5.999999046325684,3.1415915489196777,0.0,0.0,0.0
1759830091.5956428,1,7.999999991853438,5.999999046326462,3.1415915198819278,0.0,True,0.01568460464477539,8.0,5.999999046325684,3.1415915489196777,0.0,0.0,0.0
1759830091.609022,1,7.99999999688829,5.999999046325981,3.141591522775599,0.0,True,0.013379096984863281,8.0,5.999999046325684,3.1415915489196777,0.0,0.0,0.0
1759830091.623467,1,7.9999999988114325,5.999999046325797,3.1415915247238466,0.0,True,0.014445066452026367,8.0,5.999999046325684,3.1415915489196777,0.0,0.0,0.0
1759830091.6359904,1,7.999999999546008,5.999999046325727,3.1415915269407453,0.0,True,0.012523412704467773,8.0,5.999999046325684,3.1415915489196777,0.0,0.0,0.0
1759830091.6499846,1,7.99999999982659,5.9999990463257005,3.141591528236976,0.0,True,0.013994216918945312,8.0,5.999999046325684,3.1415915489196777,0.0,0.0,0.0
1759830091.663637,1,7.999999999933763,5.99999904632569,3.141591529428478,0.0,True,0.013652324676513672,8.0,5.999999046325684,3.1415915489196777,0.0,0.0,0.0
1759830091.6774113,1,7.9999999999747,5.999999046325686,3.1415915304325104,0.0,True,0.013774394989013672,8.0,5.999999046325684,3.1415915489196777,0.0,0.0,0.0
1759830091.6903431,1,7.999999999990337,5.9999990463256845,3.1415915315667284,0.0,True,0.01293182373046875,8.0,5.999999046325684,3.1415915489196777,0.0,0.0,0.0
1759830091.705455,1,7.999999999996309,5.999999046325684,3.1415915319553402,0.0,True,0.015111923217773438,8.0,5.999999046325684,3.1415915489196777,0.0,0.0,0.0
1759830091.7191699,1,7.9999999999985905,5.999999046325684,3.141591532766796,0.0,True,0.013714790344238281,8.0,5.999999046325684,3.1415915489196777,0.0,0.0,0.0
1759830091.7324772,1,7.999999999999462,5.999999046325684,3.141591533639156,0.0,True,0.013307332992553711,8.0,5.999999046325684,3.1415915489196777,0.0,0.0,0.0
1759830091.7463474,1,7.999999999999795,5.999999046325684,3.141591534282277,0.0,True,0.0138702392578125,8.0,5.999999046325684,3.1415915489196777,0.0,0.0,0.0
1759830091.7598546,1,7.999999999999922,5.999999046325684,3.1415915349695442,0.0,True,0.01350712776184082,8.0,5.999999046325684,3.1415915489196777,0.0,0.0,0.0
1759830091.7857273,1,7.99999999999997,5.999999046325684,3.141591532999154,0.0,True,0.02587270736694336,8.0,5.999999046325684,3.1415915489196777,0.0,0.0,0.0
1759830091.8007069,1,7.9999999999999885,5.999999046325684,3.1415915341205203,0.0,True,0.01497960090637207,8.0,5.999999046325684,3.1415915489196777,0.0,0.0,0.0
1759830091.8145535,1,7.999999999999996,5.999999046325684,3.141591535457355,0.0,True,0.013846635818481445,8.0,5.999999046325684,3.1415915489196777,0.0,0.0,0.0
1759830091.8278606,1,7.999999999999998,5.999999046325684,3.141591536636291,0.0,True,0.01330709457397461,8.0,5.999999046325684,3.1415915489196777,0.0,0.0,0.0
1759830091.8407557,1,7.999999999999999,5.999999046325684,3.1415915376434604,0.0,True,0.01289510726928711,8.0,5.999999046325684,3.1415915489196777,0.0,0.0,0.0
1759830091.8538496,1,8.0,5.999999046325684,3.141591538414259,0.0,True,0.013093948364257812,8.0,5.999999046325684,3.1415915489196777,0.0,0.0,0.0
1759830091.8795693,1,8.0,5.999999046325684,3.141591537098803,0.0,True,0.025719642639160156,8.0,5.999999046325684,3.1415915489196777,0.0,0.0,0.0
1759830091.8924854,1,8.0,5.999999046325684,3.1415915382645654,0.0,True,0.012916088104248047,8.0,5.999999046325684,3.1415915489196777,0.0,0.0,0.0
1759830091.9062324,1,8.0,5.999999046325684,3.1415915391926035,0.0,True,0.013746976852416992,8.0,5.999999046325684,3.1415915489196777,0.0,0.0,0.0
1759830091.919996,1,8.0,5.999999046325684,3.1415915399252583,0.0,True,0.013763666152954102,8.0,5.999999046325684,3.1415915489196777,0.0,0.0,0.0
1759830091.934106,1,8.0,5.999999046325684,3.141591540477803,0.0,True,0.014110088348388672,8.0,5.999999046325684,3.1415915489196777,0.0,0.0,0.0
1759830091.9476078,1,8.0,5.999999046325684,3.1415915410230735,0.0,True,0.013501644134521484,8.0,5.999999046325684,3.1415915489196777,0.0,0.0,0.0
1759830091.9612734,1,8.0,5.999999046325684,3.1415915414681894,0.0,True,0.01366567611694336,8.0,5.999999046325684,3.1415915489196777,0.0,0.0,0.0
1759830091.987941,1,8.0,5.999999046325684,3.1415915404456083,0.0,True,0.02666759490966797,8.0,5.999999046325684,3.1415915489196777,0.0,0.0,0.0
1759830092.006213,1,8.0,5.999999046325684,3.1415915407784745,0.0,True,0.018271923065185547,8.0,5.999999046325684,3.1415915489196777,0.0,0.0,0.0
1759830092.0174944,1,8.0,5.999999046325684,3.141591541875325,0.0,True,0.011281490325927734,8.0,5.999999046325684,3.1415915489196777,0.0,0.0,0.0
1759830092.0313516,1,8.0,5.999999046325684,3.141591542489852,0.0,True,0.013857126235961914,8.0,5.999999046325684,3.1415915489196777,0.0,0.0,0.0
1759830092.0465364,1,8.0,5.999999046325684,3.1415915428425674,0.0,True,0.015184879302978516,8.0,5.999999046325684,3.1415915489196777,0.0,0.0,0.0
1759830092.059809,1,8.0,5.999999046325684,3.141591543310014,0.0,True,0.013272523880004883,8.0,5.999999046325684,3.1415915489196777,0.0,0.0,0.0
1759830092.073345,1,8.0,5.999999046325684,3.141591543677995,0.0,True,0.01353597640991211,8.0,5.999999046325684,3.1415915489196777,0.0,0.0,0.0
1759830092.0871966,1,8.0,5.999999046325684,3.141591543960333,0.0,True,0.013851642608642578,8.0,5.999999046325684,3.1415915489196777,0.0,0.0,0.0
1759830092.102212,1,8.0,5.999999046325684,3.14159154412137,0.0,True,0.015015363693237305,8.0,5.999999046325684,3.1415915489196777,0.0,0.0,0.0
1759830092.1147535,1,8.0,5.999999046325684,3.141591544463564,0.0,True,0.012541532516479492,8.0,5.999999046325684,3.1415915489196777,0.0,0.0,0.0
1759830092.1287138,1,8.0,5.999999046325684,3.141591544658029,0.0,True,0.01396036148071289,8.0,5.999999046325684,3.1415915489196777,0.0,0.0,0.0
1759830092.143053,1,8.0,5.999999046325684,3.1415915448092555,0.0,True,0.014339208602905273,8.0,5.999999046325684,3.1415915489196777,0.0,0.0,0.0
1759830092.156533,1,8.0,5.999999046325684,3.141591545015503,0.0,True,0.013479948043823242,8.0,5.999999046325684,3.1415915489196777,0.0,0.0,0.0
1759830092.1719956,1,8.0,5.999999046325684,3.141591545085763,0.0,True,0.015462636947631836,8.0,5.999999046325684,3.1415915489196777,0.0,0.0,0.0
1759830092.198288,1,8.0,5.999999046325684,3.141591544582674,0.0,True,0.02629232406616211,8.0,5.999999046325684,3.1415915489196777,0.0,0.0,0.0
1759830092.2137306,1,8.0,5.999999046325684,3.1415915448987644,0.0,True,0.015442609786987305,8.0,5.999999046325684,3.1415915489196777,0.0,0.0,0.0
1759830092.2270007,1,8.0,5.999999046325684,3.1415915453181995,0.0,True,0.013270139694213867,8.0,5.999999046325684,3.1415915489196777,0.0,0.0,0.0
1759830092.241958,1,8.0,5.999999046325684,3.141591545570167,0.0,True,0.014957189559936523,8.0,5.999999046325684,3.1415915489196777,0.0,0.0,0.0
1759830092.2552743,1,8.0,5.999999046325684,3.1415915458502575,0.0,True,0.01331639289855957,8.0,5.999999046325684,3.1415915489196777,0.0,0.0,0.0
1759830092.2723293,1,8.0,5.999999046325684,3.141591545917853,0.0,True,0.017055034637451172,8.0,5.999999046325684,3.1415915489196777,0.0,0.0,0.0
1759830092.286527,1,8.0,5.999999046325684,3.141591546115528,0.0,True,0.014197587966918945,8.0,5.999999046325684,3.1415915489196777,0.0,0.0,0.0
1759830092.2993226,1,8.0,5.999999046325684,3.1415915463469446,0.0,True,0.012795686721801758,8.0,5.999999046325684,3.1415915489196777,0.0,0.0,0.0
1759830092.3138797,1,8.0,5.999999046325684,3.14159154646881,0.0,True,0.014557123184204102,8.0,5.999999046325684,3.1415915489196777,0.0,0.0,0.0
1759830092.3284276,1,8.0,5.999999046325684,3.1415915465775317,0.0,True,0.01454782485961914,8.0,5.999999046325684,3.1415915489196777,0.0,0.0,0.0
1759830092.3426096,1,8.0,5.999999046325684,3.1415915466934745,0.0,True,0.014182090759277344,8.0,5.999999046325684,3.1415915489196777,0.0,0.0,0.0
1759830092.3574786,1,8.0,5.999999046325684,3.1415915467780984,0.0,True,0.014868974685668945,8.0,5.999999046325684,3.1415915489196777,0.0,0.0,0.0
1759830092.3735507,1,8.0,5.999999046325684,3.141591546824932,0.0,True,0.01607203483581543,8.0,5.999999046325684,3.1415915489196777,0.0,0.0,0.0
1759830092.4037414,1,8.0,5.999999046325684,3.141591546487785,0.0,True,0.030190706253051758,8.0,5.999999046325684,3.1415915489196777,0.0,0.0,0.0
1759830092.4223127,1,8.0,5.999999046325684,3.1415915466336113,0.0,True,0.01857137680053711,8.0,5.999999046325684,3.1415915489196777,0.0,0.0,0.0
1759830092.4384289,1,8.0,5.999999046325684,3.141591546856665,0.0,True,0.01611614227294922,8.0,5.999999046325684,3.1415915489196777,0.0,0.0,0.0
1759830092.4545891,1,8.0,5.999999046325684,3.1415915470390114,0.0,True,0.016160249710083008,8.0,5.999999046325684,3.1415915489196777,0.0,0.0,0.0
1759830092.4712713,1,8.0,5.999999046325684,3.141591547175535,0.0,True,0.016682147979736328,8.0,5.999999046325684,3.1415915489196777,0.0,0.0,0.0
1759830092.4870608,1,8.0,5.999999046325684,3.1415915473099005,0.0,True,0.015789508819580078,8.0,5.999999046325684,3.1415915489196777,0.0,0.0,0.0
1759830092.5038736,1,8.0,5.999999046325684,3.1415915474032676,0.0,True,0.016812801361083984,8.0,5.999999046325684,3.1415915489196777,0.0,0.0,0.0
1759830092.52438,1,8.0,5.999999046325684,3.141591547420182,0.0,True,0.02050638198852539,8.0,5.999999046325684,3.1415915489196777,0.0,0.0,0.0
1759830092.5361834,1,8.0,5.999999046325684,3.141591547607888,0.0,True,0.011803388595581055,8.0,5.999999046325684,3.1415915489196777,0.0,0.0,0.0
1759830092.5519605,1,8.0,5.999999046325684,3.1415915476905685,0.0,True,0.015777111053466797,8.0,5.999999046325684,3.1415915489196777,0.0,0.0,0.0
1759830092.5675318,1,8.0,5.999999046325684,3.141591547761319,0.0,True,0.015571355819702148,8.0,5.999999046325684,3.1415915489196777,0.0,0.0,0.0
1759830092.5837035,1,8.0,5.999999046325684,3.141591547815475,0.0,True,0.016171693801879883,8.0,5.999999046325684,3.1415915489196777,0.0,0.0,0.0
1759830092.613378,1,8.0,5.999999046325684,3.141591547680445,0.0,True,0.029674530029296875,8.0,5.999999046325684,3.1415915489196777,0.0,0.0,0.0
1759830092.6300328,1,8.0,5.999999046325684,3.1415915477880603,0.0,True,0.01665472984313965,8.0,5.999999046325684,3.1415915489196777,0.0,0.0,0.0
1759830092.644767,1,8.0,5.999999046325684,3.141591547912924,0.0,True,0.014734268188476562,8.0,5.999999046325684,3.1415915489196777,0.0,0.0,0.0
1759830092.658184,1,8.0,5.999999046325684,3.141591548025909,0.0,True,0.01341700553894043,8.0,5.999999046325684,3.1415915489196777,0.0,0.0,0.0
1759830092.6720393,1,8.0,5.999999046325684,3.1415915481070087,0.0,True,0.013855218887329102,8.0,5.999999046325684,3.1415915489196777,0.0,0.0,0.0
1759830092.6872268,1,8.0,5.999999046325684,3.141591548155567,0.0,True,0.015187501907348633,8.0,5.999999046325684,3.1415915489196777,0.0,0.0,0.0
1759830092.7021186,1,8.0,5.999999046325684,3.1415915481998216,0.0,True,0.014891862869262695,8.0,5.999999046325684,3.1415915489196777,0.0,0.0,0.0
1759830092.71553,1,8.0,5.999999046325684,3.1415915482535457,0.0,True,0.013411283493041992,8.0,5.999999046325684,3.1415915489196777,0.0,0.0,0.0
1759830092.7294924,1,8.0,5.999999046325684,3.141591548293004,0.0,True,0.013962507247924805,8.0,5.999999046325684,3.1415915489196777,0.0,0.0,0.0
1759830092.7435086,1,8.0,5.999999046325684,3.141591548326037,0.0,True,0.014016151428222656,8.0,5.999999046325684,3.1415915489196777,0.0,0.0,0.0
1759830092.757962,1,8.0,5.999999046325684,3.1415915483514034,0.0,True,0.014453411102294922,8.0,5.999999046325684,3.1415915489196777,0.0,0.0,0.0
1759830092.772184,1,8.0,5.999999046325684,3.1415915483772157,0.0,True,0.014221906661987305,8.0,5.999999046325684,3.1415915489196777,0.0,0.0,0.0
1759830092.7860665,1,8.0,5.999999046325684,3.1415915484041648,0.0,True,0.013882637023925781,8.0,5.999999046325684,3.1415915489196777,0.0,0.0,0.0
1759830092.8112643,1,8.0,5.999999046325684,3.141591548343328,0.0,True,0.025197744369506836,8.0,5.999999046325684,3.1415915489196777,0.0,0.0,0.0
1759830092.8268666,1,8.0,5.999999046325684,3.1415915483801893,0.0,True,0.015602350234985352,8.0,5.999999046325684,3.1415915489196777,0.0,0.0,0.0
1759830092.839818,1,8.0,5.999999046325684,3.1415915484356614,0.0,True,0.012951374053955078,8.0,5.999999046325684,3.1415915489196777,0.0,0.0,0.0
