timestamp,observer_vehicle_id,vehicle_0_x,vehicle_0_y,vehicle_0_theta,vehicle_0_velocity,vehicle_1_x,vehicle_1_y,vehicle_1_theta,vehicle_1_velocity
1759827357.7756913,0,-1.205,-0.83,-0.7801621756414646,0.0,0.0,0.0,0.0,0.0
1759827357.7867775,0,-1.205,-0.83,-0.7801621756414646,0.0,0.0,0.0,0.0,0.0
1759827357.7971041,0,-1.205,-0.83,-0.7801621756414646,0.0,0.0,0.0,0.0,0.0
1759827357.8074307,0,-1.205,-0.83,-0.7801621756414646,0.0,0.0,0.0,0.0,0.0
1759827357.818169,0,-1.205,-0.83,-0.7801621756414646,0.0,0.0,0.0,0.0,0.0
1759827357.829378,0,-1.205,-0.83,-0.7801621756414646,0.0,0.0,0.0,0.0,0.0
1759827357.840028,0,-1.205,-0.83,-0.7801621756414646,0.0,0.0,0.0,0.0,0.0
1759827357.8508027,0,-1.205,-0.83,-0.7801621756414646,0.0,0.0,0.0,0.0,0.0
1759827357.8612914,0,-1.205,-0.83,-0.7801621756414646,0.0,0.0,0.0,0.0,0.0
1759827357.871952,0,-1.205,-0.83,-0.7801621756414646,0.0,0.0,0.0,0.0,0.0
1759827357.8831959,0,-1.205,-0.83,-0.7801621756414646,0.0,0.0,0.0,0.0,0.0
1759827357.8937948,0,-1.205,-0.83,-0.7801621756414646,0.0,0.0,0.0,0.0,0.0
1759827357.9050353,0,-1.205,-0.83,-0.7801621756414646,0.0,0.0,0.0,0.0,0.0
1759827357.9151933,0,-1.205,-0.83,-0.7801621756414646,0.0,0.0,0.0,0.0,0.0
1759827357.925846,0,-1.205,-0.83,-0.7801621756414646,0.0,0.0,0.0,0.0,0.0
1759827357.9361184,0,-1.205,-0.83,-0.7801621756414646,0.0,0.0,0.0,0.0,0.0
1759827357.9463933,0,-1.205,-0.83,-0.7801621756414646,0.0,0.0,0.0,0.0,0.0
1759827357.9578583,0,-1.205,-0.83,-0.7801621756414646,0.0,0.0,0.0,0.0,0.0
1759827357.9722164,0,-1.2050001607735952,-0.8299996879100799,-0.7229995577703399,0.0,0.0,0.0,0.0,0.0
1759827357.983698,0,-1.205000161673033,-0.8299996861641121,-0.7181136089032023,0.0,0.0,0.0,0.0,0.0
1759827357.9939318,0,-1.2050001619552244,-0.8299996856163288,-0.7176584761991691,0.0,0.0,0.0,0.0,0.0
1759827358.004221,0,-1.2050001620600936,-0.8299996854127593,-0.7175995279184519,0.0,0.0,0.0,0.0,0.0
1759827358.015237,0,-1.205000162099991,-0.8299996853353115,-0.7175899482444805,0.0,0.0,0.0,0.0,0.0
1759827358.025601,0,-1.2050001621152215,-0.8299996853057463,-0.717597534543323,0.0,0.0,0.0,0.0,0.0
1759827358.0358799,0,-1.2050001621210387,-0.8299996852944543,-0.717608994731032,0.0,0.0,0.0,0.0,0.0
1759827358.0472448,0,-1.2050001621232607,-0.8299996852901412,-0.7176187653488366,0.0,0.0,0.0,0.0,0.0
1759827358.0576606,0,-1.2050001621241093,-0.8299996852884938,-0.7176299234486087,0.0,0.0,0.0,0.0,0.0
1759827358.0680425,0,-1.2050001621244335,-0.8299996852878645,-0.7176393009981794,0.0,0.0,0.0,0.0,0.0
1759827358.0781546,0,-1.2050001621245572,-0.8299996852876241,-0.7176472425231282,0.0,0.0,0.0,0.0,0.0
1759827358.0883992,0,-1.2050001621246045,-0.8299996852875323,-0.7176535152639438,0.0,0.0,0.0,0.0,0.0
1759827358.0994294,0,-1.2050001621246227,-0.8299996852874972,-0.7176580256315362,0.0,0.0,0.0,0.0,0.0
1759827358.109686,0,-1.2050001621246296,-0.8299996852874838,-0.7176626774844905,0.0,0.0,0.0,0.0,0.0
1759827358.1201766,0,-1.2050001621246322,-0.8299996852874787,-0.7176664167351543,0.0,0.0,0.0,0.0,0.0
1759827358.130951,0,-1.2050001621246331,-0.8299996852874768,-0.7176694249548241,0.0,0.0,0.0,0.0,0.0
1759827358.141258,0,-1.2050001621246336,-0.829999685287476,-0.7176723756931978,0.0,0.0,0.0,0.0,0.0
1759827358.1514845,0,-1.2050001621246338,-0.8299996852874758,-0.7176749450768654,0.0,0.0,0.0,0.0,0.0
1759827358.16228,0,-1.2050001621246338,-0.8299996852874757,-0.7176768321219491,0.0,0.0,0.0,0.0,0.0
1759827358.172867,0,-1.2050001621246338,-0.8299996852874756,-0.7176786539678428,0.0,0.0,0.0,0.0,0.0
1759827358.18336,0,-1.2050001621246338,-0.8299996852874756,-0.7176803388557644,0.0,0.0,0.0,0.0,0.0
1759827358.1942694,0,-1.2050001621246338,-0.8299996852874756,-0.717681657069253,0.0,0.0,0.0,0.0,0.0
1759827358.2057643,0,-1.2050001621246338,-0.8299996852874756,-0.7176826522845339,0.0,0.0,0.0,0.0,0.0
1759827358.2168484,0,-1.2050001621246338,-0.8299996852874756,-0.7176838302115627,0.0,0.0,0.0,0.0,0.0
1759827358.226853,0,-1.2050001621246338,-0.8299996852874756,-0.7176853374649462,0.0,0.0,0.0,0.0,0.0
1759827358.2375708,0,-1.2050001621246338,-0.8299996852874756,-0.717686364113316,0.0,0.0,0.0,0.0,0.0
1759827358.2477415,0,-1.2050001621246338,-0.8299996852874756,-0.7176874565816984,0.0,0.0,0.0,0.0,0.0
1759827358.2579765,0,-1.2050001621246338,-0.8299996852874756,-0.7176883865364019,0.0,0.0,0.0,0.0,0.0
1759827358.268304,0,-1.2050001621246338,-0.8299996852874756,-0.7176891731874289,0.0,0.0,0.0,0.0,0.0
1759827358.27909,0,-1.2050001621246338,-0.8299996852874756,-0.717689749697179,0.0,0.0,0.0,0.0,0.0
1759827358.2901359,0,-1.2050001621246338,-0.8299996852874756,-0.7176902404915673,0.0,-0.34664889144607974,-0.06992911582773331,-0.14339531990486878,0.0
1759827358.3004532,0,-1.2050001621246338,-0.8299996852874756,-0.7176909354371794,0.0,-0.6211733417175016,-0.1253086440890004,-0.2569555312304024,0.0
1759827358.3107853,0,-1.2050001621246338,-0.8299996852874756,-0.7176915655762741,0.0,-0.839113293596509,-0.16927344107669917,-0.34710891089180274,0.0
1759827358.3210418,0,-1.2050001621246338,-0.8299996852874756,-0.7176921492158996,0.0,-1.0125716892327608,-0.20426502056550017,-0.4188619807737947,0.0
1759827358.3314006,0,-1.2050001621246338,-0.8299996852874756,-0.7176926507563479,0.0,-1.1509489885670066,-0.23217972743995893,-0.4761033497648518,0.0
1759827358.3419142,0,-1.2050001621246338,-0.8299996852874756,-0.7176930778897237,0.0,-1.2615927637173328,-0.25449977968598886,-0.5218724259819362,0.0
1759827358.3532815,0,-1.2050001621246338,-0.8299996852874756,-0.7176933051144623,0.0,-1.3501996900281183,-0.27237436162184414,-0.5585257050134042,0.0
1759827358.3636672,0,-1.2050001621246338,-0.8299996852874756,-0.7176937741681542,0.0,-1.4214229024766596,-0.286742145266443,-0.5879880099153646,0.0
1759827358.388323,0,-1.2050001621246338,-0.8299996852874756,-0.717691594183206,0.0,-1.4779170141078128,-0.2981386429138451,-0.611357452051171,0.0
1759827358.3991022,0,-1.2050001621246338,-0.8299996852874756,-0.7176927727655205,0.0,-1.5236789090759664,-0.30737014179553807,-0.6302873887402433,0.0
1759827358.4092844,0,-1.2050001621246338,-0.8299996852874756,-0.7176939575651993,0.0,-1.56574981102028,-0.315857060541386,-0.6476905035109987,0.0
1759827358.420509,0,-1.2050001621246338,-0.8299996852874756,-0.7176946946369025,0.0,-1.5990650614130855,-0.322577710920015,-0.6614717418350516,0.0
1759827358.430802,0,-1.2050001621246338,-0.8299996852874756,-0.717695411405927,0.0,-1.6255426940889814,-0.32791901587706523,-0.6724245205733453,0.0
1759827358.4409213,0,-1.2050001621246338,-0.8299996852874756,-0.717696006753064,0.0,-1.6466414460257692,-0.3321752448869241,-0.6811522631342638,0.0
1759827358.4511535,0,-1.2050001621246338,-0.8299996852874756,-0.7176964651748641,0.0,-1.6634924283266812,-0.3355745758013138,-0.6881228666970518,0.0
1759827358.4616184,0,-1.2050001621246338,-0.8299996852874756,-0.7176968090133116,0.0,-1.6769800729133633,-0.3382954241404238,-0.6937021867468067,0.0
1759827358.471931,0,-1.2050001621246338,-0.8299996852874756,-0.7176971244212993,0.0,-1.6878040331176514,-0.34047893023410525,-0.6981796429696053,0.0
1759827358.482144,0,-1.2050001621246338,-0.8299996852874756,-0.7176974131340916,0.0,-1.6965123162898992,-0.34223564302805787,-0.7017819249388263,0.0
1759827358.4922574,0,-1.2050001621246338,-0.8299996852874756,-0.7176976793925309,0.0,-1.7035359589019998,-0.3436525150558474,-0.7046873358722299,0.0
1759827358.5031164,0,-1.2050001621246338,-0.8299996852874756,-0.7176978264042209,0.0,-1.7092095191344554,-0.34479703638691506,-0.7070342696274156,0.0
1759827358.5134811,0,-1.2050001621246338,-0.8299996852874756,-0.7176980329497695,0.0,-1.7138065673660814,-0.3457243940856921,-0.7089358917530257,0.0
1759827358.5240018,0,-1.2050001621246338,-0.8299996852874756,-0.717698212162725,0.0,-1.71800493249891,-0.34657132586278777,-0.7106725940075403,0.0
1759827358.534327,0,-1.2050001621246338,-0.8299996852874756,-0.7176984046312374,0.0,-1.721336517230874,-0.34724340294239286,-0.712050742532514,0.0
1759827358.5445132,0,-1.2050001621246338,-0.8299996852874756,-0.7176985990698608,0.0,-1.7239871679827237,-0.34777811592725694,-0.7131472148475759,0.0
1759827358.554832,0,-1.2050001621246338,-0.8299996852874756,-0.7176987639884729,0.0,-1.726100877843365,-0.348204512391571,-0.7140215753579712,0.0
1759827358.565315,0,-1.2050001621246338,-0.8299996852874756,-0.717698903006676,0.0,-1.7277902426556857,-0.34854530617615015,-0.7147204006352947,0.0
1759827358.5928948,0,-1.2050001621246338,-0.8299996852874756,-0.7176975262183056,0.0,-1.7291191386328804,-0.34881338296221626,-0.7152701138133036,0.0
1759827358.6030731,0,-1.2050001621246338,-0.8299996852874756,-0.7176981464535145,0.0,-1.7301911226911968,-0.34902963317743196,-0.7157135524071325,0.0
1759827358.6134517,0,-1.2050001621246338,-0.8299996852874756,-0.7176987069241001,0.0,-1.731146794141352,-0.349222419772688,-0.7161088769464591,0.0
1759827358.6237364,0,-1.2050001621246338,-0.8299996852874756,-0.7176991376077435,0.0,-1.7319046191072176,-0.34937529500501335,-0.7164223600011974,0.0
1759827358.6338255,0,-1.2050001621246338,-0.8299996852874756,-0.7176994799340548,0.0,-1.7325071542593653,-0.34949684378674767,-0.7166716056299248,0.0
1759827358.6441524,0,-1.2050001621246338,-0.8299996852874756,-0.7176997288456981,0.0,-1.732987254052333,-0.34959369381240696,-0.7168702044574349,0.0
1759827358.6543818,0,-1.2050001621246338,-0.8299996852874756,-0.7176999353684756,0.0,-1.7333707736044377,-0.3496710608077822,-0.7170288517522074,0.0
1759827358.665758,0,-1.2050001621246338,-0.8299996852874756,-0.7177000291512066,0.0,-1.733677508881167,-0.34973293819214474,-0.7171557363441333,0.0
1759827358.6760852,0,-1.2050001621246338,-0.8299996852874756,-0.7177001888612294,0.0,-1.7339237638669927,-0.34978261495111296,-0.7172576025648022,0.0
1759827358.6869068,0,-1.2050001621246338,-0.8299996852874756,-0.7177003002593203,0.0,-1.734121835994798,-0.3498225718328724,-0.7173395373894382,0.0
1759827358.6975536,0,-1.2050001621246338,-0.8299996852874756,-0.7177004137938958,0.0,-1.7342815851514701,-0.3498547978620216,-0.7174056194741953,0.0
1759827358.7077146,0,-1.2050001621246338,-0.8299996852874756,-0.717700548054637,0.0,-1.7344108144056416,-0.34988086714337885,-0.7174590766485878,0.0
1759827358.718958,0,-1.2050001621246338,-0.8299996852874756,-0.7177006047882699,0.0,-1.7345285353460018,-0.34990461486471003,-0.7175077732759795,0.0
1759827358.7293582,0,-1.2050001621246338,-0.8299996852874756,-0.7177007126937465,0.0,-1.73462175517807,-0.34992342000326665,-0.7175463347367854,0.0
1759827358.7398107,0,-1.2050001621246338,-0.8299996852874756,-0.717700810978954,0.0,-1.734695753028853,-0.34993834751178055,-0.7175769448028988,0.0
1759827358.7507074,0,-1.2050001621246338,-0.8299996852874756,-0.7177008782008141,0.0,-1.734754611784521,-0.3499502210265794,-0.7176012924073668,0.0
1759827358.7613742,0,-1.2050001621246338,-0.8299996852874756,-0.7177009575199271,0.0,-1.7348015608934566,-0.34995969202088456,-0.7176207134488333,0.0
1759827358.7795637,0,-1.2050001621246338,-0.8299996852874756,-0.7177006793752837,0.0,-1.734838805996932,-0.34996720543638715,-0.7176361203162993,0.0
1759827358.7906055,0,-1.2050001621246338,-0.8299996852874756,-0.7177008390517017,0.0,-1.7348687050496059,-0.34997323694079746,-0.7176484884049585,0.0
1759827358.8018389,0,-1.2050001621246338,-0.8299996852874756,-0.7177009897678701,0.0,-1.73489276376373,-0.3499780902798623,-0.7176584405700843,0.0
1759827358.812061,0,-1.2050001621246338,-0.8299996852874756,-0.7177011588608995,0.0,-1.734912195130461,-0.3499820101490105,-0.717666478579486,0.0
1759827358.8220646,0,-1.2050001621246338,-0.8299996852874756,-0.7177013049717527,0.0,-1.734927930273054,-0.34998518438275567,-0.7176729876030585,0.0
1759827358.8334777,0,-1.2050001621246338,-0.8299996852874756,-0.7177013669943104,0.0,-1.734940681505619,-0.3499877566754731,-0.7176782622977654,0.0
1759827358.8448822,0,-1.2050001621246338,-0.8299996852874756,-0.7177014250220068,0.0,-1.734952516884813,-0.3499901442140545,-0.7176831581391415,0.0
1759827358.8562965,0,-1.2050001621246338,-0.8299996852874756,-0.7177014835420152,0.0,-1.734961882978062,-0.34999203362618253,-0.7176870325318508,0.0
1759827358.8672426,0,-1.2050001621246338,-0.8299996852874756,-0.7177015588838317,0.0,-1.7349693186788404,-0.34999353362227026,-0.7176901083954066,0.0
1759827358.8777096,0,-1.2050001621246338,-0.8299996852874756,-0.7177016449928253,0.0,-1.73497524014148,-0.3499947281526929,-0.7176925578768574,0.0
1759827358.8884091,0,-1.2050001621246338,-0.8299996852874756,-0.7177017126468144,0.0,-1.7349799662863845,-0.34999568155292754,-0.7176945129013137,0.0
1759827358.89905,0,-1.2050001621246338,-0.8299996852874756,-0.7177017750649846,0.0,-1.7349837481632477,-0.3499964444669646,-0.7176960773183825,0.0
1759827358.909097,0,-1.2050001621246338,-0.8299996852874756,-0.7177018503702399,0.0,-1.734986783938297,-0.3499970568706684,-0.7176973331018137,0.0
1759827358.9193032,0,-1.2050001621246338,-0.8299996852874756,-0.7177019110195992,0.0,-1.7349892261355708,-0.34999754953255263,-0.7176983433449388,0.0
1759827358.9295995,0,-1.2050001621246338,-0.8299996852874756,-0.7177019617054192,0.0,-1.7349911953111943,-0.34999794677227747,-0.7176991579171916,0.0
1759827358.9400299,0,-1.2050001621246338,-0.8299996852874756,-0.7177020042154503,0.0,-1.7349927866541626,-0.34999826779221865,-0.7176998161946004,0.0
1759827358.9507098,0,-1.2050001621246338,-0.8299996852874756,-0.717702037897654,0.0,-1.7349940754091144,-0.3499985277713979,-0.7177003493029794,0.0
1759827358.9616146,0,-1.2050001621246338,-0.8299996852874756,-0.7177020663237332,0.0,-1.7349952520343639,-0.34999876513077044,-0.7177008360276111,0.0
1759827358.9953337,0,-1.2050001621246338,-0.8299996852874756,-0.7177015561293576,0.0,-1.734996163428544,-0.3499989489853586,-0.7177012130363459,0.0
1759827359.005814,0,-1.2050001621246338,-0.8299996852874756,-0.7177017671818327,0.0,-1.7349968923301173,-0.34999909602590545,-0.7177015145549052,0.0
1759827359.0162122,0,-1.2050001621246338,-0.8299996852874756,-0.7177019630585484,0.0,-1.7349974767711993,-0.34999921392458944,-0.7177017563157126,0.0
1759827359.0267665,0,-1.2050001621246338,-0.8299996852874756,-0.7177021044354976,0.0,-1.7349979464471468,-0.34999930867182366,-0.7177019506025959,0.0
1759827359.037139,0,-1.2050001621246338,-0.8299996852874756,-0.7177022129611714,0.0,-1.7349983249003404,-0.3499993850167879,-0.717702107154133,0.0
1759827359.0475712,0,-1.2050001621246338,-0.8299996852874756,-0.7177022945490847,0.0,-1.7349986305653038,-0.3499994466782591,-0.7177022335959774,0.0
1759827359.058658,0,-1.2050001621246338,-0.8299996852874756,-0.7177023463567931,0.0,-1.73499887785791,-0.3499994965643361,-0.7177023358914217,0.0
1759827359.068933,0,-1.2050001621246338,-0.8299996852874756,-0.7177024039954353,0.0,-1.734999078620629,-0.34999953706398795,-0.7177024189392406,0.0
1759827359.0799973,0,-1.2050001621246338,-0.8299996852874756,-0.7177024383430286,0.0,-1.7349992646022159,-0.34999957458185765,-0.7177024958726733,0.0
1759827359.090275,0,-1.2050001621246338,-0.8299996852874756,-0.7177024819871994,0.0,-1.7349994120760694,-0.3499996043316028,-0.7177025568769371,0.0
1759827359.1005068,0,-1.2050001621246338,-0.8299996852874756,-0.7177025205213461,0.0,-1.7349995293080118,-0.34999962798067913,-0.7177026053712848,0.0
1759827359.11085,0,-1.2050001621246338,-0.8299996852874756,-0.7177025517856439,0.0,-1.7349996227158926,-0.34999964682375256,-0.7177026440105341,0.0
1759827359.1210296,0,-1.2050001621246338,-0.8299996852874756,-0.7177025819302595,0.0,-1.7349996973366708,-0.3499996618769236,-0.7177026748782813,0.0
1759827359.1314332,0,-1.2050001621246338,-0.8299996852874756,-0.7177026054219304,0.0,-1.7349997570782774,-0.3499996739285349,-0.7177026995910872,0.0
1759827359.1416936,0,-1.2050001621246338,-0.8299996852874756,-0.7177026293084978,0.0,-1.7349998050320528,-0.3499996836021995,-0.7177027194277206,0.0
1759827359.1527731,0,-1.2050001621246338,-0.8299996852874756,-0.7177026400407751,0.0,-1.7349998435822664,-0.3499996913788936,-0.7177027353744619,0.0
1759827359.1630795,0,-1.2050001621246338,-0.8299996852874756,-0.7177026632268682,0.0,-1.734999874679235,-0.3499996976520523,-0.7177027482380824,0.0
1759827359.182155,0,-1.2050001621246338,-0.8299996852874756,-0.7177025726900226,0.0,-1.734999899579243,-0.3499997026751047,-0.7177027585382585,0.0
1759827359.1930227,0,-1.2050001621246338,-0.8299996852874756,-0.7177026180762063,0.0,-1.7349999197893746,-0.3499997067520733,-0.717702766898413,0.0
1759827359.2034369,0,-1.2050001621246338,-0.8299996852874756,-0.7177026687026321,0.0,-1.7349999384058412,-0.34999971050755346,-0.7177027745993295,0.0
1759827359.213802,0,-1.2050001621246338,-0.8299996852874756,-0.7177027101758906,0.0,-1.7349999531981382,-0.349999713491588,-0.7177027807183342,0.0
1759827359.2239926,0,-1.2050001621246338,-0.8299996852874756,-0.7177027454964229,0.0,-1.7349999649829664,-0.349999715868929,-0.7177027855932645,0.0
1759827359.2342312,0,-1.2050001621246338,-0.8299996852874756,-0.717702773856571,0.0,-1.734999974394025,-0.3499997177674119,-0.7177027894862577,0.0
1759827359.2452035,0,-1.2050001621246338,-0.8299996852874756,-0.7177027899742701,0.0,-1.7349999819217958,-0.34999971928598117,-0.717702792600207,0.0
1759827359.2561052,0,-1.2050001621246338,-0.8299996852874756,-0.7177028058244588,0.0,-1.7349999879591207,-0.34999972050388434,-0.7177027950976163,0.0
1759827359.2671013,0,-1.2050001621246338,-0.8299996852874756,-0.7177028203682383,0.0,-1.7349999928129474,-0.3499997214830417,-0.7177027971054577,0.0
1759827359.277986,0,-1.2050001621246338,-0.8299996852874756,-0.7177028358290443,0.0,-1.734999996725747,-0.34999972227236664,-0.7177027987240325,0.0
1759827359.2882404,0,-1.2050001621246338,-0.8299996852874756,-0.7177028565538901,0.0,-1.7349999998901406,-0.34999972291071646,-0.7177028000330206,0.0
1759827359.2986681,0,-1.2050001621246338,-0.8299996852874756,-0.7177028734606523,0.0,-1.735000002454861,-0.3499997234280949,-0.7177028010939468,0.0
1759827359.308763,0,-1.2050001621246338,-0.8299996852874756,-0.717702891490962,0.0,-1.7350000045393397,-0.34999972384859457,-0.7177028019562155,0.0
1759827359.31921,0,-1.2050001621246338,-0.8299996852874756,-0.7177029045184201,0.0,-1.7350000064864135,-0.3499997242413757,-0.7177028027616449,0.0
1759827359.3295143,0,-1.2050001621246338,-0.8299996852874756,-0.7177029178008922,0.0,-1.7350000080291719,-0.3499997245525947,-0.7177028033998247,0.0
1759827359.3398817,0,-1.2050001621246338,-0.8299996852874756,-0.7177029297522814,0.0,-1.7350000092545055,-0.34999972479978003,-0.7177028039066983,0.0
1759827359.3506806,0,-1.2050001621246338,-0.8299996852874756,-0.7177029378379968,0.0,-1.7350000102296932,-0.3499997249965036,-0.717702804310096,0.0
1759827359.3611963,0,-1.2050001621246338,-0.8299996852874756,-0.717702948508947,0.0,-1.7350000110080175,-0.34999972515351413,-0.7177028046320588,0.0
1759827359.3797238,0,-1.2050001621246338,-0.8299996852874756,-0.7177029035997293,0.0,-1.73500001162548,-0.3499997252780742,-0.7177028048874793,0.0
1759827359.3900402,0,-1.2050001621246338,-0.8299996852874756,-0.7177029309524556,0.0,-1.7350000121217786,-0.34999972537819196,-0.7177028050927788,0.0
1759827359.4007285,0,-1.2050001621246338,-0.8299996852874756,-0.7177029547198899,0.0,-1.7350000125214897,-0.3499997254588253,-0.7177028052581241,0.0
1759827359.411047,0,-1.2050001621246338,-0.8299996852874756,-0.7177029763589964,0.0,-1.7350000128443435,-0.34999972552395425,-0.7177028053916764,0.0
1759827359.4212458,0,-1.2050001621246338,-0.8299996852874756,-0.7177029947286258,0.0,-1.735000013105778,-0.3499997255766931,-0.7177028054998217,0.0
1759827359.4325495,0,-1.2050001621246338,-0.8299996852874756,-0.7177030034685536,0.0,-1.735000013317712,-0.34999972561944637,-0.7177028055874907,0.0
1759827359.443373,0,-1.2050001621246338,-0.8299996852874756,-0.7177030144492775,0.0,-1.7350000134900578,-0.34999972565421356,-0.7177028056587836,0.0
1759827359.4540176,0,-1.2050001621246338,-0.8299996852874756,-0.717703025700704,0.0,-1.735000013651334,-0.34999972568674764,-0.7177028057254974,0.0
1759827359.4642854,0,-1.2050001621246338,-0.8299996852874756,-0.7177030378782359,0.0,-1.7350000137793558,-0.34999972571257326,-0.717702805778455,0.0
1759827359.474714,0,-1.2050001621246338,-0.8299996852874756,-0.7177030477461308,0.0,-1.735000013881212,-0.3499997257331206,-0.717702805820589,0.0
1759827359.485759,0,-1.2050001621246338,-0.8299996852874756,-0.7177030535644864,0.0,-1.7350000139623991,-0.34999972574949834,-0.7177028058541729,0.0
1759827359.4962409,0,-1.2050001621246338,-0.8299996852874756,-0.7177030622457501,0.0,-1.7350000140273185,-0.34999972576259447,-0.7177028058810276,0.0
1759827359.507338,0,-1.2050001621246338,-0.8299996852874756,-0.7177030676191762,0.0,-1.7350000140793238,-0.34999972577308547,-0.7177028059025403,0.0
1759827359.5182457,0,-1.2050001621246338,-0.8299996852874756,-0.7177030740928423,0.0,-1.7350000141211008,-0.3499997257815131,-0.7177028059198218,0.0
1759827359.528518,0,-1.2050001621246338,-0.8299996852874756,-0.7177030833613394,0.0,-1.7350000141547701,-0.3499997257883052,-0.7177028059337495,0.0
1759827359.539087,0,-1.2050001621246338,-0.8299996852874756,-0.7177030905019652,0.0,-1.735000014181961,-0.3499997257937904,-0.7177028059449971,0.0
1759827359.5500405,0,-1.2050001621246338,-0.8299996852874756,-0.7177030955653549,0.0,-1.7350000142039645,-0.34999972579822913,-0.7177028059540991,0.0
1759827359.5604389,0,-1.2050001621246338,-0.8299996852874756,-0.7177031029101748,0.0,-1.7350000142218263,-0.34999972580183236,-0.7177028059614878,0.0
1759827359.5974898,0,-1.2050001621246338,-0.8299996852874756,-0.7177030176198417,0.0,-1.7350000142379705,-0.3499997258050891,-0.717702805968166,0.0
1759827359.6079407,0,-1.2050001621246338,-0.8299996852874756,-0.7177030526995267,0.0,-1.7350000142508448,-0.34999972580768623,-0.7177028059734918,0.0
1759827359.6189313,0,-1.2050001621246338,-0.8299996852874756,-0.7177030829316298,0.0,-1.7350000142611315,-0.34999972580976135,-0.7177028059777469,0.0
1759827359.6295104,0,-1.2050001621246338,-0.8299996852874756,-0.7177031062682726,0.0,-1.7350000142693751,-0.34999972581142436,-0.7177028059811571,0.0
1759827359.6409352,0,-1.2050001621246338,-0.8299996852874756,-0.717703121120941,0.0,-1.735000014275992,-0.3499997258127592,-0.7177028059838944,0.0
1759827359.651658,0,-1.2050001621246338,-0.8299996852874756,-0.7177031343985316,0.0,-1.7350000142813216,-0.34999972581383426,-0.7177028059860989,0.0
1759827359.6618137,0,-1.2050001621246338,-0.8299996852874756,-0.7177031463527079,0.0,-1.7350000142856274,-0.3499997258147029,-0.71770280598788,0.0
1759827359.6731818,0,-1.2050001621246338,-0.8299996852874756,-0.7177031526455799,0.0,-1.7350000142891095,-0.3499997258154054,-0.7177028059893206,0.0
1759827359.6834214,0,-1.2050001621246338,-0.8299996852874756,-0.7177031607435627,0.0,-1.7350000142922875,-0.34999972581604644,-0.7177028059906351,0.0
1759827359.6946619,0,-1.2050001621246338,-0.8299996852874756,-0.7177031651186496,0.0,-1.7350000142948057,-0.34999972581655436,-0.7177028059916767,0.0
1759827359.7056687,0,-1.2050001621246338,-0.8299996852874756,-0.7177031696046932,0.0,-1.7350000142968067,-0.34999972581695804,-0.7177028059925045,0.0
1759827359.715974,0,-1.2050001621246338,-0.8299996852874756,-0.7177031753534369,0.0,-1.7350000142984023,-0.3499997258172799,-0.7177028059931645,0.0
1759827359.7261288,0,-1.2050001621246338,-0.8299996852874756,-0.7177031806767964,0.0,-1.7350000142996778,-0.3499997258175372,-0.7177028059936921,0.0
1759827359.736554,0,-1.2050001621246338,-0.8299996852874756,-0.7177031846428896,0.0,-1.7350000143006996,-0.3499997258177433,-0.7177028059941147,0.0
1759827359.746807,0,-1.2050001621246338,-0.8299996852874756,-0.7177031885260092,0.0,-1.7350000143015203,-0.3499997258179089,-0.7177028059944542,0.0
1759827359.757494,0,-1.2050001621246338,-0.8299996852874756,-0.7177031911541344,0.0,-1.7350000143021809,-0.3499997258180421,-0.7177028059947274,0.0
1759827359.767663,0,-1.2050001621246338,-0.8299996852874756,-0.717703194726866,0.0,-1.735000014302714,-0.34999972581814964,-0.7177028059949478,0.0
1759827359.792036,0,-1.2050001621246338,-0.8299996852874756,-0.7177031722425227,0.0,-1.7350000143031385,-0.3499997258182353,-0.7177028059951235,0.0
1759827359.797084,0,-1.2050001621246338,-0.8299996852874756,-0.7177031913729035,0.0,-1.735000014303486,-0.3499997258183054,-0.7177028059952673,0.0
1759827359.808325,0,-1.2050001621246338,-0.8299996852874756,-0.7177031968513372,0.0,-1.73499911025216,-0.35000051506609225,-0.7182523369545307,0.0013314659032442275
1759827359.819674,0,-1.2050001621246338,-0.8299996852874756,-0.7177032005492716,0.0,-1.734995733842727,-0.3500161669484662,-0.7187422654814625,0.0025193057137908805
1759827359.8311307,0,-1.2050001621246338,-0.8299996852874756,-0.7177032036568393,0.0,-1.7349914405756763,-0.3500415084896516,-0.7191370160202539,0.003476384737149604
1759827359.8420215,0,-1.2050001621246338,-0.8299996852874756,-0.7177032074262062,0.0,-1.7349866756350105,-0.35007230812033585,-0.7194570221156876,0.0042522444843296515
1759827359.853434,0,-1.2050001621246338,-0.8299996852874756,-0.7177032100217815,0.0,-1.734981726643537,-0.3501057311825748,-0.7197183465739542,0.004885829511508868
1759827359.8649247,0,-1.2050001621246338,-0.8299996852874756,-0.7177032123687431,0.0,-1.734976776601166,-0.3501399211079961,-0.7199334917921107,0.005407452106957615
1759827359.8762963,0,-1.2050001621246338,-0.8299996852874756,-0.7177032148512907,0.0,-1.7349719380747743,-0.35017369802153,-0.72011218135549,0.005840687282623004
1759827359.887562,0,-1.2050001621246338,-0.8299996852874756,-0.7177032173940424,0.0,-1.7349672749518725,-0.3502063501630108,-0.7202620318923626,0.0062040016939606465
1759827359.898446,0,-1.2050001621246338,-0.8299996852874756,-0.7177032202879197,0.0,-1.7349628224239662,-0.3502374716349208,-0.7203889101769438,0.006511619447774689
1759827359.9084816,0,-1.2050001621246338,-0.8299996852874756,-0.7177032239498189,0.0,-1.7349586022215313,-0.35026683913663376,-0.720497206443356,0.006774184759649722
1759827359.9190848,0,-1.2050001621246338,-0.8299996852874756,-0.7177032263600065,0.0,-1.734954600454808,-0.3502944419906749,-0.7205909799557578,0.007001539375759832
1759827359.929579,0,-1.2050001621246338,-0.8299996852874756,-0.7177032285991167,0.0,-1.7353781673642543,-0.349965276787585,-0.7202541053200309,0.009445352488842573
1759827359.9411376,0,-1.2050001621246338,-0.8299996852874756,-0.7177032294336279,0.0,-1.735872534875876,-0.3496160940986461,-0.7198882090806588,0.01360244977044504
1759827359.9519613,0,-1.2050001621246338,-0.8299996852874756,-0.7177032312629006,0.0,-1.736256558693788,-0.34938700118423727,-0.7196058488153396,0.016916260323936023
1759827359.9626672,0,-1.2050001621246338,-0.8299996852874756,-0.7177032331927826,0.0,-1.7365546572505313,-0.3492443685124523,-0.7193892455746508,0.019567263917622917
1759827359.9734643,0,-1.2050001621246338,-0.8299996852874756,-0.717703234902979,0.0,-1.7367855613631997,-0.349163784476049,-0.7192247629536567,0.021695696377237856
1759827360.0199618,0,-1.2050001621246338,-0.8299996852874756,-0.7177032053592783,0.0,-1.7369448475579394,-0.3491474200554731,-0.7191349774696061,0.02338571642776111
1759827360.0238829,0,-1.2050001621246338,-0.8299996852874756,-0.7177032224943858,0.0,-1.7370708830088053,-0.3491544472767248,-0.7190650328203073,0.02476834248506075
1759827360.0353775,0,-1.2050001621246338,-0.8299996852874756,-0.7177032306652968,0.0,-1.7371666802443773,-0.34918159975787433,-0.7190180542544824,0.0259006047387561
1759827360.0463476,0,-1.2050001621246338,-0.8299996852874756,-0.7177032366243576,0.0,-1.7372932781928048,-0.34915511687091083,-0.7188837772968232,0.026860822361084946
1759827360.0576603,0,-1.2050001621246338,-0.8299996852874756,-0.7177032407718329,0.0,-1.7374793674351112,-0.349078258246723,-0.7186724332595117,0.02781462978577444
1759827360.0690525,0,-1.2050001621246338,-0.8299996852874756,-0.7177032438806634,0.0,-1.7376228414776982,-0.3490329759961092,-0.7185121210355692,0.02858611154115163
1759827360.0797644,0,-1.2050001621246338,-0.8299996852874756,-0.7177032468063977,0.0,-1.7377332414989033,-0.3490105541260735,-0.718391513287852,0.029214277471620764
1759827360.090564,0,-1.2050001621246338,-0.8299996852874756,-0.717703249090551,0.0,-1.7378176408063222,-0.34900498191166535,-0.7183024247645516,0.029729810067123566
1759827360.1017628,0,-1.2050001621246338,-0.8299996852874756,-0.7177032506911623,0.0,-1.7378814288979758,-0.3490120182387753,-0.7182386960178788,0.030156991619276582
1759827360.1126654,0,-1.2050001621246338,-0.8299996852874756,-0.7177032522450038,0.0,-1.7379290333833506,-0.3490282025599549,-0.718194991802711,0.03051428288798027
1759827360.1228578,0,-1.2050001621246338,-0.8299996852874756,-0.717703254020705,0.0,-1.7379640287824987,-0.349050760212819,-0.7181668345095027,0.030815664096606955
1759827360.1330085,0,-1.2050001621246338,-0.8299996852874756,-0.7177032555342251,0.0,-1.7379889944853733,-0.34907798455170114,-0.71815118578863,0.031072723554485784
1759827360.1437082,0,-1.2050001621246338,-0.8299996852874756,-0.7177032564898091,0.0,-1.7380057720405893,-0.3491089647756796,-0.7181460741703298,0.03129529495972752
1759827360.1537085,0,-1.2050001621246338,-0.8299996852874756,-0.7177032577341507,0.0,-1.7380161831675216,-0.34914239375754147,-0.7181490576552416,0.03148977339090526
1759827360.1645968,0,-1.2050001621246338,-0.8299996852874756,-0.7177032583491503,0.0,-1.7380211873991447,-0.3491781738681774,-0.7181593296337677,0.03166308638761693
1759827360.1759973,0,-1.2050001621246338,-0.8299996852874756,-0.7177032586953693,0.0,-1.7393769148143727,-0.34806415797652596,-0.7170282172593299,0.036209822262469195
1759827360.1934588,0,-1.2050001621246338,-0.8299996852874756,-0.7177032561969447,0.0,-1.7404266434938387,-0.34725037143170967,-0.7161549012661711,0.039813186158328316
1759827360.2049153,0,-1.2050001621246338,-0.8299996852874756,-0.7177032575571118,0.0,-1.7412488491628215,-0.3466518895172173,-0.7154715874011325,0.042695934147357055
1759827360.2157342,0,-1.2050001621246338,-0.8299996852874756,-0.7177032592520369,0.0,-1.7418933112516983,-0.3462156188960202,-0.7149372223551721,0.04501192144636966
1759827360.2264254,0,-1.2050001621246338,-0.8299996852874756,-0.7177032607196985,0.0,-1.742397851247554,-0.3459024198382339,-0.7145207369621772,0.04687994433204084
1759827360.2377784,0,-1.2050001621246338,-0.8299996852874756,-0.7177032616487793,0.0,-1.742790992831152,-0.3456838494407859,-0.7141989750211216,0.04839260665579686
1759827360.248518,0,-1.2050001621246338,-0.8299996852874756,-0.7177032627184747,0.0,-1.743096622522881,-0.3455366029596746,-0.7139518604059855,0.04962348071351162
1759827360.2599764,0,-1.2050001621246338,-0.8299996852874756,-0.7177032633701259,0.0,-1.7433319101397675,-0.3454448474751319,-0.7137654829237542,0.05063009328205687
1759827360.2709105,0,-1.2050001621246338,-0.8299996852874756,-0.7177032641890159,0.0,-1.7435116952787544,-0.34539495456120156,-0.7136271824479373,0.051457949272102094
1759827360.2814777,0,-1.2050001621246338,-0.8299996852874756,-0.7177032650754427,0.0,-1.7439844112765235,-0.3450446000037863,-0.713105043928119,0.052380141113995686
1759827360.2927392,0,-1.2050001621246338,-0.8299996852874756,-0.7177032656066356,0.0,-1.744351593599985,-0.34478727481673455,-0.7126996206486237,0.053126767449794596
1759827360.303582,0,-1.2050001621246338,-0.8299996852874756,-0.7177032662649836,0.0,-1.7446364522711588,-0.3446011009948588,-0.712385516212702,0.05373562798230938
1759827360.314365,0,-1.2050001621246338,-0.8299996852874756,-0.7177032669020633,0.0,-1.7448566346885441,-0.34446986405735,-0.7121434316881495,0.05423627558420501
1759827360.3251858,0,-1.2050001621246338,-0.8299996852874756,-0.7177032674771056,0.0,-1.7450257835961598,-0.34438129968522785,-0.7119584198406503,0.05465185380162881
1759827360.336495,0,-1.2050001621246338,-0.8299996852874756,-0.7177032678621504,0.0,-1.7451542190093943,-0.3443265342808234,-0.7118192219085664,0.05500097068947349
1759827360.3475988,0,-1.2050001621246338,-0.8299996852874756,-0.7177032683261526,0.0,-1.745250493006435,-0.34429801710734537,-0.7117163477492273,0.05529754758280822
1759827360.3591027,0,-1.2050001621246338,-0.8299996852874756,-0.7177032686753044,0.0,-1.7453208867410293,-0.3442906197482466,-0.7116429111831034,0.055553208634766926
1759827360.3704154,0,-1.2050001621246338,-0.8299996852874756,-0.7177032691067655,0.0,-1.7453707092210784,-0.3442997782522649,-0.7115929647299172,0.05577644955748679
1759827360.3804746,0,-1.2050001621246338,-0.8299996852874756,-0.7177032698860053,0.0,-1.7454047963577264,-0.34432079562422047,-0.7115608906408167,0.055972563319981246
1759827360.3946607,0,-1.2050001621246338,-0.8299996852874756,-0.7177032694801041,0.0,-1.745423591462974,-0.3443559296889766,-0.7115469527538334,0.056152764233987885
1759827360.4062135,0,-1.2050001621246338,-0.8299996852874756,-0.7177032699682577,0.0,-1.7464206977234893,-0.3434858852546581,-0.7106581324757041,0.056454714440819856
1759827360.4174597,0,-1.2050001621246338,-0.8299996852874756,-0.7177032705629038,0.0,-1.747779158232377,-0.3423305498195636,-0.7095231708103278,0.057049390788352146
1759827360.4283433,0,-1.2050001621246338,-0.8299996852874756,-0.7177032711871139,0.0,-1.7488463305283517,-0.34143326042567784,-0.7086339517792256,0.057536804536660054
1759827360.439226,0,-1.2050001621246338,-0.8299996852874756,-0.7177032717325496,0.0,-1.7496846448404255,-0.34073823254302,-0.7079381608287902,0.057940220617269354
1759827360.4504602,0,-1.2050001621246338,-0.8299996852874756,-0.7177032721352337,0.0,-1.7503420940408072,-0.3402029052605566,-0.707395660835645,0.05827815474010265
1759827360.4612005,0,-1.2050001621246338,-0.8299996852874756,-0.717703272615303,0.0,-1.7508574552352671,-0.33979257100617744,-0.7069736749658475,0.05856417487778456
1759827360.4713025,0,-1.2050001621246338,-0.8299996852874756,-0.7177032731778041,0.0,-1.751261070838381,-0.339480050855331,-0.7066464639725375,0.05880862306495247
1759827360.482013,0,-1.2050001621246338,-0.8299996852874756,-0.7177032735364186,0.0,-1.75157498926952,-0.33924629612666063,-0.7063957330927182,0.05902108920798354
1759827360.4927151,0,-1.2050001621246338,-0.8299996852874756,-0.7177032738609057,0.0,-1.7518173996160018,-0.3390753177266811,-0.7062061440418012,0.05920843263507779
1759827360.5030334,0,-1.2050001621246338,-0.8299996852874756,-0.7177032742377348,0.0,-1.7520030575778145,-0.3389539708341051,-0.7060651003073207,0.05937556615767555
1759827360.5138154,0,-1.2050001621246338,-0.8299996852874756,-0.7177032744949408,0.0,-1.7521426107926488,-0.3388732672082301,-0.7059637982881535,0.059527499455697123
1759827360.5251522,0,-1.2050001621246338,-0.8299996852874756,-0.7177032746478176,0.0,-1.752372836215773,-0.33864466446850466,-0.7057435967571852,0.0595998467906822
1759827360.5365176,0,-1.2050001621246338,-0.8299996852874756,-0.7177032748242151,0.0,-1.752828286601298,-0.33823913416832874,-0.705223193171602,0.05971619568015342
1759827360.5479517,0,-1.2050001621246338,-0.8299996852874756,-0.7177032750170369,0.0,-1.753182425802049,-0.33793071983086614,-0.7048183276388921,0.05982605287199816
1759827360.5591145,0,-1.2050001621246338,-0.8299996852874756,-0.7177032752730774,0.0,-1.7534571434216086,-0.33769855078653,-0.70450415539316,0.05993080188513974
1759827360.5703528,0,-1.2050001621246338,-0.8299996852874756,-0.7177032755175006,0.0,-1.7536691188211846,-0.3375268822872648,-0.7042617396953875,0.06003201377747994
1759827360.5811167,0,-1.2050001621246338,-0.8299996852874756,-0.7177032758278354,0.0,-1.75383180395705,-0.3374027160545544,-0.7040757567738486,0.06013011335909496
1759827360.615873,0,-1.2050001621246338,-0.8299996852874756,-0.7177032729948518,0.0,-1.7539367632989866,-0.33734710661576817,-0.7039570926223252,0.060262443378273904
1759827360.6270409,0,-1.2050001621246338,-0.8299996852874756,-0.7177032741882261,0.0,-1.7540140219917904,-0.3373170073208653,-0.7038700166370769,0.06038808100217618
1759827360.6383529,0,-1.2050001621246338,-0.8299996852874756,-0.7177032752688195,0.0,-1.7540688603612307,-0.3373078074708231,-0.703808563797932,0.06050902195193377
1759827360.6499538,0,-1.2050001621246338,-0.8299996852874756,-0.7177032760392628,0.0,-1.7557044029634248,-0.33589938097267075,-0.70235935625518,0.06042637355253607
1759827360.660671,0,-1.2050001621246338,-0.8299996852874756,-0.7177032767117524,0.0,-1.7569906969584907,-0.3347951373160773,-0.7012211440010706,0.06037714348147239
1759827360.6718454,0,-1.2050001621246338,-0.8299996852874756,-0.7177032771791971,0.0,-1.7580017996998958,-0.3339316514919096,-0.7003283621201547,0.060355223995237677
1759827360.6832225,0,-1.2050001621246338,-0.8299996852874756,-0.7177032775252278,0.0,-1.758795997844846,-0.3332587370108119,-0.6996293009799859,0.06035548538361295
1759827360.6946197,0,-1.2050001621246338,-0.8299996852874756,-0.7177032778079742,0.0,-1.7594190480787761,-0.3327367949033905,-0.6990832885845304,0.060373663885475465
1759827360.705469,0,-1.2050001621246338,-0.8299996852874756,-0.7177032780999326,0.0,-1.7599074936864174,-0.3323337912219968,-0.6986576733231454,0.0604055468132419
1759827360.7168624,0,-1.2050001621246338,-0.8299996852874756,-0.7177032782977868,0.0,-1.7602882536076947,-0.3320266667380503,-0.698328647698175,0.06044954388346397
1759827360.7275782,0,-1.2050001621246338,-0.8299996852874756,-0.7177032785322179,0.0,-1.7605841653783647,-0.3317951027632616,-0.6980756846855843,0.06050250920004106
1759827360.7387052,0,-1.2050001621246338,-0.8299996852874756,-0.7177032787013058,0.0,-1.7608117108603254,-0.33162498169418914,-0.6978842172878356,0.06056367379651657
1759827360.7497265,0,-1.2050001621246338,-0.8299996852874756,-0.7177032788622686,0.0,-1.7609845570130063,-0.33150427752362993,-0.6977420255116576,0.06063164216205926
1759827360.7605207,0,-1.2050001621246338,-0.8299996852874756,-0.7177032790282105,0.0,-1.7612495067519334,-0.33123552887971514,-0.6974881206738074,0.06062066350422213
1759827360.771275,0,-1.2050001621246338,-0.8299996852874756,-0.7177032791812117,0.0,-1.7617428507845767,-0.33078921954563223,-0.6969084405028731,0.06064040021190871
1759827360.7827365,0,-1.2050001621246338,-0.8299996852874756,-0.717401155990083,0.005235987755982988,-1.7621266715122959,-0.330447682180611,-0.6964560019234046,0.060674755724124924
1759827360.796369,0,-1.2050001621246338,-0.8299996852874756,-0.7174013512530787,0.005235987755982988,-1.762422335403354,-0.33019201753107513,-0.6961059612417265,0.06072452919008566
1759827360.8064768,0,-1.2050001621246338,-0.8299996852874756,-0.7173853211718366,0.005235987755982988,-1.7626518236204811,-0.32999952974318236,-0.6958330188365741,0.06078124130002573
1759827360.8165057,0,-1.2050001621246338,-0.8299996852874756,-0.7173990215926909,0.005235987755982988,-1.762828892582483,-0.3298573299017703,-0.695621203909641,0.06084366028495373
1759827360.827891,0,-1.2050001621246338,-0.8299996852874756,-0.7174075659387148,0.005235987755982988,-1.7629631569592783,-0.329757155294356,-0.6954592621495854,0.06091319844780283
1759827360.8391502,0,-1.2050001621246338,-0.8299996852874756,-0.7174031109431591,0.005235987755982988,-1.7630634034629658,-0.32969059806274026,-0.6953369791611302,0.0609886241714772
1759827360.8502083,0,-1.2050001621246338,-0.8299996852874756,-0.7173853523996969,0.005235987755982988,-1.7631365767574942,-0.32965095187455107,-0.6952462777574286,0.061068846026786756
1759827360.8610477,0,-1.2050001621246338,-0.8299996852874756,-0.7173667761312019,0.005235987755982988,-1.7631881478909615,-0.32963290361025815,-0.6951807897099749,0.06115296786191956
1759827360.871353,0,-1.2050001621246338,-0.8299996852874756,-0.7173571983086249,0.005235987755982988,-1.7632226628803687,-0.32963185148214563,-0.6951352384272239,0.061239730640951236
1759827360.881674,0,-1.2050001621246338,-0.8299996852874756,-0.7173841249490833,0.005235987755982988,-1.7632433171828736,-0.32964481121424916,-0.6951058810576759,0.06132904711509274
1759827360.8919022,0,-1.2050001621246338,-0.8299996852874756,-0.7173687596031926,0.005235987755982988,-1.7642811014610706,-0.32873545269172666,-0.6941042798565964,0.06092018106559582
1759827360.9022033,0,-1.2041456314073429,-0.8294196481901751,-0.7168281012416101,0.0058616710055785295,-1.7657265389657428,-0.3274995558936244,-0.6927914213019902,0.060381026393606006
1759827360.912376,0,-1.2041456314073433,-0.8294196481901756,-0.7168112273479903,0.0058616710055785295,-1.7668649806807162,-0.3265252492080184,-0.6917589060522574,0.0599696280307452
1759827360.923073,0,-1.2041456314073435,-0.8294196481901759,-0.7168373209797118,0.0058616710055785295,-1.7677607367107426,-0.32575957605341394,-0.6909482058310366,0.05966016227798672
1759827360.9342573,0,-1.2041456314073435,-0.829419648190176,-0.7168278015025683,0.0058616710055785295,-1.7684642642091677,-0.3251606835377473,-0.6903133751686057,0.05943235241183831
1759827360.9450142,0,-1.2041456314073438,-0.8294196481901763,-0.7168048335092578,0.0058616710055785295,-1.7690165417973749,-0.3246938144055766,-0.6898169234281106,0.05926859145178607
1759827360.956335,0,-1.204145631407344,-0.8294196481901764,-0.7168235825880174,0.0058616710055785295,-1.7694480325088684,-0.324333516702074,-0.6894311419114154,0.05915700659313549
1759827360.9676795,0,-1.2041456314073442,-0.8294196481901767,-0.7168267713073454,0.0058616710055785295,-1.7697834741378062,-0.3240586886064559,-0.6891334276546522,0.05908728785143264
1759827360.9787972,0,-1.2041456314073444,-0.829419648190177,-0.7168307506500129,0.0058616710055785295,-1.7700426043050244,-0.3238522489336559,-0.6889056972249631,0.05905089352387005
1759827360.9922426,0,-1.2007593158308931,-0.832696375186776,-0.7141887484633845,0.03918131561611618,-1.7702377551596522,-0.32370487840136297,-0.6887371087773523,0.05904579371321669
1759827360.9999657,0,-1.1995490405933809,-0.8337394140595961,-0.7122243684912355,0.03918131561611618,-1.7703884867628383,-0.3235961979468054,-0.6886086537395626,0.059055771505348915
1759827361.0110307,0,-1.1990538968741122,-0.8341651828995098,-0.7107553531059778,0.03918131561611618,-1.7706393339132462,-0.3233346764441979,-0.6883665026054407,0.05898034894828365
1759827361.0222023,0,-1.1989612786917605,-0.8344929617330792,-0.7096612887551889,0.04002476330805974,-1.7711325094554862,-0.32288675429087277,-0.6877730614757245,0.0589278802849809
1759827361.0328562,0,-1.1988930755695313,-0.834550715048276,-0.7088807422248574,0.04002476330805974,-1.7715170389354915,-0.3225416926870314,-0.6873082902624494,0.058904823837874064
1759827361.0441563,0,-1.198860507173965,-0.8345779330288351,-0.7082949599641624,0.04002476330805974,-1.771815454671389,-0.3222789940044275,-0.6869454709112038,0.05890643258219218
1759827361.055443,0,-1.1988479996848218,-0.8345880757186286,-0.7078946098539929,0.04002476330805974,-1.7720459736545175,-0.32208169406225423,-0.6866630574303407,0.058927877080139045
1759827361.0666718,0,-1.198843642955556,-0.834591368596697,-0.7075886614704752,0.04002476330805974,-1.7722228201318655,-0.3219364655762704,-0.686444216800427,0.05896532479876833
1759827361.0778787,0,-1.19884209261095,-0.8345923729813339,-0.7073932965154751,0.04002476330805974,-1.772357066335324,-0.3218329060848518,-0.6862758303412965,0.05901585413574986
1759827361.088127,0,-1.1988507207760621,-0.8345847858747775,-0.7072838683235053,0.04002476330805974,-1.772458104740351,-0.32176168650906434,-0.6861468819331844,0.059075495320887114
1759827361.0994852,0,-1.1988432175048966,-0.8345910276567339,-0.7071656217468844,0.04002476330805974,-1.772531709219737,-0.3217179665677245,-0.6860503510870631,0.05914481585124237
1759827361.110736,0,-1.1988413606630368,-0.834592498567859,-0.7070829025202825,0.04002476330805974,-1.7725833537941134,-0.3216964767963567,-0.6859797518865038,0.05922215189899548
1759827361.1219501,0,-1.1988409840684664,-0.8345927433186449,-0.707043298208971,0.04002476330805974,-1.772617296531348,-0.32169313561155555,-0.6859300255128173,0.05930632684339743
1759827361.1327484,0,-1.1988566747292506,-0.8347929542955157,-0.7069094353104693,0.041052786678661586,-1.7742678406423151,-0.3203198794478409,-0.68429164902903,0.060175462733975386
1759827361.144096,0,-1.1988528269259855,-0.8347962067207252,-0.7068856053208863,0.041052786678661586,-1.775561805530476,-0.3192548593428002,-0.683004653412524,0.06088745448299588
1759827361.1553912,0,-1.198851860824801,-0.8347970151610996,-0.7068797383056084,0.041052786678661586,-1.7765765166289242,-0.3184305270493828,-0.6819933607275074,0.061476639922469274
1759827361.1666207,0,-1.1988521304817743,-0.8347967805905607,-0.7068743186401325,0.041052786678661586,-1.7773719302332822,-0.317794694155785,-0.6811989943615769,0.061969666319979654
1759827361.1779835,0,-1.198850945487201,-0.8347977936895653,-0.7068875333748812,0.041052786678661586,-1.7779942998422105,-0.3173073431313528,-0.6805761471163567,0.06238762268986423
1759827361.1892078,0,-1.198851840010522,-0.8347970394708993,-0.7068762903768062,0.041052786678661586,-1.7784801330714621,-0.3169368728026268,-0.6800888957680546,0.06274654879664512
1759827361.229879,0,-1.1872228500753805,-0.8448181931682281,-0.6909623313898561,0.10070676809433991,-1.7788154849764648,-0.31671085588694114,-0.6797527580682121,0.0631141577196048
1759827361.240112,0,-1.183648393583571,-0.8476504147923802,-0.6807553923081123,0.10070676809433991,-1.7790756822353166,-0.31654651109800236,-0.6794911839615276,0.06343579697131195
1759827361.250895,0,-1.1822586770867194,-0.8487372175565607,-0.6733281943881885,0.10070676809433991,-1.7794383253178316,-0.3162230209443454,-0.6791220578829501,0.06358944603376102
1759827361.2623506,0,-1.1813866567730393,-0.8496175328213944,-0.6672722658488016,0.10281168080925568,-1.7800051522639235,-0.3157466871049942,-0.6784114486264797,0.06378498310955881
1759827361.2725322,0,-1.1812054799514071,-0.8497480974276878,-0.6637292119439303,0.10281168080925568,-1.780447441806576,-0.3153815001995632,-0.6778527031273699,0.06396280884097753
1759827361.28343,0,-1.181112930022831,-0.8498109128063136,-0.6610629721478742,0.10281168080925568,-1.780791017320348,-0.3151049829258433,-0.6774143020228327,0.0641286386150528
1759827361.294277,0,-1.1810767269302238,-0.8498318814106168,-0.6591978679406507,0.10281168080925568,-1.7810568534735935,-0.3148984869318216,-0.6770707748099225,0.06428543076418418
1759827361.305429,0,-1.1810526173440183,-0.8498450884318539,-0.6578593768892546,0.10281168080925568,-1.781260951532911,-0.3147479700476566,-0.6768025678105389,0.06443626818649506
1759827361.3158495,0,-1.1810630324845524,-0.8498334572873444,-0.657006601334479,0.10281168080925568,-1.7814167438865989,-0.31464108521180384,-0.6765934999649381,0.0645813652515922
1759827361.3265069,0,-1.1810595542196483,-0.8498334761143957,-0.6563861056270455,0.10281168080925568,-1.7815338668241614,-0.314569438582279,-0.6764317182882814,0.0647229339011752
1759827361.3371978,0,-1.1810567614573373,-0.8498337684572846,-0.6559561806960327,0.10281168080925568,-1.7816200634690729,-0.314526184825303,-0.6763077294699741,0.06486231168133905
1759827361.3473172,0,-1.1810716252095395,-0.8498213678721451,-0.65572391801001,0.10281168080925568,-1.781681912598195,-0.3145051695197366,-0.6762136178598299,0.06499920339625773
1759827361.3587809,0,-1.1810389007731292,-0.849845248604266,-0.6554293573436266,0.10281168080925568,-1.7817230670145143,-0.31450396492298865,-0.6761444905404421,0.06513770090290186
1759827361.369664,0,-1.1810427445646001,-0.8498417904490035,-0.6553490776587312,0.10281168080925568,-1.7817479250462007,-0.31451828538798743,-0.6760951256757883,0.06527680145205998
1759827361.3807192,0,-1.1810392772739533,-0.8498441095027635,-0.6552877915825107,0.10281168080925568,-1.7817593773982814,-0.3145456708731299,-0.6760619044249276,0.06541740768668974
1759827361.3917308,0,-1.1807257321447011,-0.8502732337516973,-0.654274619855596,0.1044952744496531,-1.7834721860188545,-0.3131445993268673,-0.6739860752376133,0.06676938604928402
1759827361.4175985,0,-1.1690942988232282,-0.8587810425936977,-0.6372509321693538,0.1275729527352829,-1.7847805040458509,-0.31209812206727483,-0.6723921248529515,0.06792467947346031
1759827361.4290438,0,-1.1651752098546095,-0.8615236776890772,-0.6258019955279781,0.1275729527352829,-1.7858091405869172,-0.3112900788502585,-0.6711325868594293,0.06889179895220085
1759827361.4404476,0,-1.1636672392414602,-0.8625583874037485,-0.6174387280128578,0.1275729527352829,-1.7866172374028406,-0.3106692130547084,-0.6701374395953335,0.06971114674425222
1759827361.4519002,0,-1.1630806890834047,-0.8629463717744372,-0.611464490980967,0.1275729527352829,-1.7872507604442087,-0.3101959670215963,-0.6693521214811731,0.07041463480842149
1759827361.462257,0,-1.162890896068186,-0.8630612828155915,-0.6074209607904402,0.1275729527352829,-1.7877475601968413,-0.3098373264446769,-0.6687316635633487,0.07102343335172297
1759827361.4731646,0,-1.1627939127960674,-0.8631147915604058,-0.6044141275951062,0.1275729527352829,-1.7881345027127653,-0.309570789556491,-0.6682439684126561,0.07155953602900032
1759827361.484612,0,-1.1627338229808413,-0.8631455001373626,-0.6021748772700307,0.1275729527352829,-1.788432867924246,-0.3093786882263278,-0.6678635218543949,0.07204055212366658
1759827361.495627,0,-1.1627247168752202,-0.863144425730944,-0.6007132134486649,0.1275729527352829,-1.7886608697517776,-0.30924542425390195,-0.6675685078380755,0.07247701980620995
1759827361.5065002,0,-1.1627250668109856,-0.8631391190578178,-0.5997297951564852,0.1275729527352829,-1.7888324465603023,-0.30915926729831167,-0.6673421628936073,0.07287826907554101
1759827361.517264,0,-1.1620924151537941,-0.8637660817950186,-0.5971686417809104,0.1294167597769358,-1.7894338233604516,-0.30864565694208124,-0.6664116852345849,0.07457334527946505
1759827361.528623,0,-1.1620709160193687,-0.8637778248611693,-0.5966307294527156,0.1294167597769358,-1.7898980420207062,-0.3082687352045211,-0.6656794165066131,0.07597930868993075
1759827361.5400088,0,-1.1620612866445617,-0.8637824974995847,-0.5963041187193759,0.1294167597769358,-1.7902550022761174,-0.3079970968173319,-0.665102987779447,0.07715965181864602
1759827361.5514953,0,-1.1620536274160846,-0.8637864845718889,-0.5960873327169229,0.1294167597769358,-1.7905277470374776,-0.30780697358895004,-0.6646495125187263,0.07816416549243815
1759827361.5628405,0,-1.1620558752579477,-0.8637844553378342,-0.5960147924721584,0.1294167597769358,-1.790734383362865,-0.30767989668318885,-0.6642930948473652,0.07903066389811178
1759827361.5736084,0,-1.1620782532322185,-0.863769655598248,-0.5961137199169643,0.1294167597769358,-1.7908893760725884,-0.30760112448687843,-0.6640131423400032,0.079786538032757
1759827361.5850399,0,-1.1620622975419082,-0.8637803150082521,-0.5961162849469962,0.1294167597769358,-1.7910028019339523,-0.30756114253277034,-0.6637946182940897,0.08045916447178755
1759827361.604411,0,-1.1500903902507595,-0.8712342692512414,-0.5791645887076741,0.13124692000563784,-1.7910759231193114,-0.3075632583979699,-0.6636312861355991,0.08110791280072317
1759827361.6089308,0,-1.1460668102819465,-0.8736922297746519,-0.5684702853199551,0.13124692000563784,-1.7911300990830747,-0.3075780776644161,-0.6635006747078694,0.08166390863474303
1759827361.6193378,0,-1.144293395232067,-0.8747598476087629,-0.5594976393270753,0.13124692000563784,-1.7911638667692626,-0.30761096942642857,-0.6634009040005544,0.08217651150438034
1759827361.6303055,0,-1.143585546076941,-0.8751708202475919,-0.5529418566813051,0.13124692000563784,-1.791180647107224,-0.307659247974098,-0.6633264368706793,0.08265868942574446
1759827361.641254,0,-1.1433095972618483,-0.8753200861665026,-0.5482629456418601,0.1309091606145161,-1.7923289996853942,-0.3067430423672419,-0.6603889567784235,0.08231925073103151
1759827361.652637,0,-1.1424823327379146,-0.876017802368855,-0.5427796206092175,0.132746700192678,-1.793909426557195,-0.3055072438328118,-0.6568087714815208,0.08216513326632036
1759827361.6637745,0,-1.1424401718988129,-0.8760319079792348,-0.5403619736026627,0.132746700192678,-1.7951477477006181,-0.30453929928930756,-0.6539889673066668,0.08210359483322337
1759827361.6745815,0,-1.1424348655884091,-0.876027321377004,-0.5387720863459792,0.13253635277456655,-1.7961182969425697,-0.30378291160328075,-0.6517658873319017,0.08211430123747168
1759827361.6853707,0,-1.142432091420397,-0.8760234530639824,-0.5376559626347038,0.13258510299823617,-1.7968780000135898,-0.3031948066113832,-0.6500137597597038,0.08218314407249831
1759827361.6961362,0,-1.1424309941269297,-0.8760202978939599,-0.5368865696741584,0.132746700192678,-1.7974712027262716,-0.302740977306792,-0.6486343327716909,0.08229910388856505
1759827361.707386,0,-1.1424110285010107,-0.8760291986431926,-0.5364023307598303,0.13191919875049785,-1.7979316650732209,-0.302395695278426,-0.6475524073150306,0.0824564366997728
1759827361.718762,0,-1.1423979252784848,-0.876034799468361,-0.5359715771009242,0.13254015413560227,-1.7982864891785497,-0.30213789982605577,-0.6467075622079859,0.08264878164568643
1759827361.7301142,0,-1.142393619066189,-0.8760361109312639,-0.5357421219428163,0.132746700192678,-1.7985571594796506,-0.30195066222468503,-0.6460518272489666,0.08287037367740299
1759827361.741444,0,-1.1423928464392215,-0.8760360582208359,-0.5357106900568191,0.13248623609124568,-1.7987605399639948,-0.30182059159766506,-0.6455474497061019,0.08311672234732385
1759827361.7516735,0,-1.142435901694975,-0.876011680151027,-0.5358985058466131,0.13265012083690744,-1.7989114541612172,-0.30173505007194173,-0.6451616613658258,0.08337809536016813
1759827361.7629879,0,-1.142410015061154,-0.8760268041302892,-0.5359589109929804,0.1320533582561576,-1.7991873897068071,-0.30146509400778226,-0.6445512465334473,0.08401207298467657
1759827361.773323,0,-1.141669585623667,-0.8766581152551227,-0.533796551561283,0.13398471623126218,-1.799721065006677,-0.3010168737011954,-0.6429950732468697,0.08468016262166567
1759827361.7846034,0,-1.1416438387348518,-0.8766735004762555,-0.5339630846724567,0.1328065408105198,-1.8001319118370886,-0.3006814878604004,-0.6417704182573417,0.0852834127451471
1759827361.807983,0,-1.1253668228284683,-0.8853637246265826,-0.511483542921818,0.15445166652879422,-1.8004323521545642,-0.3004548070160999,-0.6408308854629468,0.0859101510993493
1759827361.8119853,0,-1.1200761121248932,-0.8880687607222608,-0.49781719982450484,0.15489493040539382,-1.8006684185527253,-0.30028299170906625,-0.6400769250203203,0.08644256743093255
1759827361.8232586,0,-1.1176973935860754,-0.8892629981291313,-0.486327073414421,0.15423431225983242,-1.8008454472125344,-0.30016598684989165,-0.6394842779523086,0.08694487831987764
1759827361.8336153,0,-1.1168209658600097,-0.88968104728953,-0.47823386558154674,0.15435937103036754,-1.8009766033521792,-0.30009133618571254,-0.6390183674249968,0.08741921279090069
1759827361.8450017,0,-1.116428653313931,-0.8898532203026673,-0.4721581196520621,0.15447835932818543,-1.8010701837209957,-0.30005223960823474,-0.6386551065395139,0.08787939902998268
1759827361.8564048,0,-1.1162720828517785,-0.8899107383349283,-0.46788547405693104,0.15388535628625916,-1.8011336904074278,-0.30004193824770087,-0.6383739125472412,0.08833025421830523
1759827361.8664408,0,-1.1162741902608733,-0.8898956757824381,-0.46510753400930277,0.1543743883751905,-1.8011743450532807,-0.3000530404672308,-0.6381567176520583,0.08876647157037275
1759827361.8776457,0,-1.1162159310185682,-0.889912549472527,-0.4629859931753182,0.15358653746649237,-1.8011954067262408,-0.3000834403770982,-0.6379926320464566,0.08920029098397579
1759827361.8889968,0,-1.116184456928528,-0.8899191283073736,-0.4613707800373982,0.1541656414788398,-1.8023170592822495,-0.29922836202427294,-0.6343330572769538,0.08880177991680041
1759827361.9003916,0,-1.1149669645280522,-0.8907555879066178,-0.4568359599234724,0.1554293164547399,-1.8038589945168073,-0.2980770830315577,-0.6296621931006008,0.08864487003735252
1759827361.911835,0,-1.1149578716807675,-0.8907559322077363,-0.45618501869182143,0.15505348928780496,-1.8050639442431797,-0.2971756318468815,-0.6259830853539073,0.08859475383455938
1759827361.922097,0,-1.1150112452844183,-0.8907290871253869,-0.4560249490404661,0.15508105898020952,-1.8060073431287644,-0.29646987155908444,-0.6230772076762098,0.08862237935807546
1759827361.933025,0,-1.1149992655361365,-0.8907335136634768,-0.4558137035046132,0.15522178040135337,-1.8067433674566826,-0.295921818449135,-0.62078579987273,0.08871717168192277
1759827361.9434729,0,-1.1150180338747666,-0.8907245681394306,-0.4559044097445316,0.15457886103093713,-1.8073166223830566,-0.2954989426069976,-0.6189784863156186,0.08886344065086225
1759827361.9537287,0,-1.1150346435361298,-0.8907170520955248,-0.4560039122205381,0.15481767489818768,-1.8077612627755448,-0.29517623330636616,-0.617554884113599,0.08905073029211093
1759827361.9640462,0,-1.1150382495041595,-0.8907158956942949,-0.4561433973994484,0.1547165700812768,-1.808103563467062,-0.2949344120835676,-0.6164372753344115,0.08927251322524435
1759827361.97469,0,-1.1150239989018675,-0.8907229788624812,-0.45618814614061,0.15517073112365035,-1.8083637339337841,-0.29475869227359663,-0.6155653918637802,0.08952549748521717
1759827361.9849145,0,-1.115039199862195,-0.890716763911899,-0.4564555923665197,0.15446684146367046,-1.8085588483213206,-0.2946359138191432,-0.6148888325151709,0.089802168122607
1759827362.0024414,0,-1.0986358907023077,-0.8978197290213493,-0.4378645947760184,0.1635816631424591,-1.8086906945836945,-0.2945700365451596,-0.6143946879458491,0.0901495065213705
1759827362.0071526,0,-1.093043816831239,-0.9001698482248204,-0.4257622991627258,0.16427556875350152,-1.8087905502687391,-0.2945274298693277,-0.6140034895719207,0.09046833792185825
1759827362.0184634,0,-1.0895743152860868,-0.9018749595226848,-0.41273908409921145,0.16456016779095237,-1.8093525620423474,-0.2940530603045315,-0.6118629805283897,0.08997069888234718
1759827362.0299077,0,-1.0886047865536188,-0.9022527099795276,-0.4051352394946608,0.16558216957354743,-1.8097869754929663,-0.2936854400381338,-0.6101772376306511,0.08965014816507813
1759827362.0405445,0,-1.088270638075759,-0.9023680880447117,-0.4000363330068725,0.16473530482811724,-1.8101220542552703,-0.29340261571750026,-0.6088468532772844,0.08946478720250228
1759827362.0510573,0,-1.0881450294108332,-0.9024014346804903,-0.39639625398360534,0.16462633215040362,-1.8103787985387951,-0.293188294087853,-0.6077966479800962,0.08938664366544914
1759827362.0618546,0,-1.0880787444840292,-0.9024142896592536,-0.39378294144280584,0.16425475272135134,-1.8105731017253688,-0.2930301157530827,-0.6069687952048596,0.08939665661311715
1759827362.072456,0,-1.08806167164847,-0.9024111843485548,-0.39201403774871035,0.16392787603330392,-1.810717937232407,-0.2929174500952851,-0.6063169666722988,0.08947673552553197
1759827362.0831614,0,-1.0880480704795958,-0.9024093332480587,-0.39072896355014625,0.16420373859026535,-1.8108231345827948,-0.29284224303675155,-0.6058054093376448,0.08961472474554598
1759827362.0934029,0,-1.0880667185773927,-0.9023975463487682,-0.3899989279347783,0.16416498930468837,-1.8108970121174477,-0.29279718483863393,-0.6054050277256965,0.08979725541930535
1759827362.1040797,0,-1.0880499837947955,-0.9024006855993381,-0.3893848192316654,0.1647314462440378,-1.810945182618453,-0.2927777297767657,-0.6050943898700514,0.09001986089532077
1759827362.1144993,0,-1.088057103081103,-0.902396213965627,-0.38918591681753234,0.16391795481007973,-1.8109727778498446,-0.2927792226359063,-0.6048554337777149,0.09027441446351074
1759827362.1252518,0,-1.0880419206883811,-0.9024009310149352,-0.389007822752781,0.1637466450472662,-1.8109832545261897,-0.29279878004302806,-0.6046747479889424,0.09055854361840272
1759827362.1357043,0,-1.08805205490475,-0.902396552203897,-0.388940844624831,0.16427818893324136,-1.8121151839370906,-0.291983454608225,-0.6007279180771705,0.09026007971386318
1759827362.1465614,0,-1.0867158420828495,-0.9031735598310612,-0.38545669251742914,0.16411723180963145,-1.8136631558977692,-0.290896159479884,-0.5955059732513541,0.09034370893820516
1759827362.1574783,0,-1.086705986181447,-0.9031774119717871,-0.38543930381590497,0.16473753276788528,-1.8148720629065918,-0.2900450165368242,-0.5913863224296166,0.09048103624315901
