timestamp,vehicle_id,x,y,theta,velocity,gps_available,dt,gps_x,gps_y,gps_theta,gps_velocity,control_steering,control_acceleration
1759827357.7756913,0,-1.205,-0.83,-0.7801621756414647,0.0,False,0.01,nan,nan,nan,nan,0.0,0.0
1759827357.7867775,0,-1.205,-0.83,-0.7801621756414647,0.0,False,0.011086225509643555,nan,nan,nan,nan,0.0,0.0
1759827357.7971041,0,-1.205,-0.83,-0.7801621756414647,0.0,False,0.010326623916625977,nan,nan,nan,nan,0.0,0.0
1759827357.8074307,0,-1.205,-0.83,-0.7801621756414647,0.0,False,0.010326623916625977,nan,nan,nan,nan,0.0,0.0
1759827357.818169,0,-1.205,-0.83,-0.7801621756414647,0.0,False,0.010738372802734375,nan,nan,nan,nan,0.0,0.0
1759827357.829378,0,-1.205,-0.83,-0.7801621756414647,0.0,False,0.011208772659301758,nan,nan,nan,nan,0.0,0.0
1759827357.840028,0,-1.205,-0.83,-0.7801621756414647,0.0,False,0.010650157928466797,nan,nan,nan,nan,0.0,0.0
1759827357.8508027,0,-1.205,-0.83,-0.7801621756414647,0.0,False,0.010774612426757812,nan,nan,nan,nan,0.0,0.0
1759827357.8612914,0,-1.205,-0.83,-0.7801621756414647,0.0,False,0.010488748550415039,nan,nan,nan,nan,0.0,0.0
1759827357.871952,0,-1.205,-0.83,-0.7801621756414647,0.0,False,0.010660648345947266,nan,nan,nan,nan,0.0,0.0
1759827357.8831959,0,-1.205,-0.83,-0.7801621756414647,0.0,False,0.011243820190429688,nan,nan,nan,nan,0.0,0.0
1759827357.8937948,0,-1.205,-0.83,-0.7801621756414647,0.0,False,0.010598897933959961,nan,nan,nan,nan,0.0,0.0
1759827357.9050353,0,-1.205,-0.83,-0.7801621756414647,0.0,False,0.011240482330322266,nan,nan,nan,nan,0.0,0.0
1759827357.9151933,0,-1.205,-0.83,-0.7801621756414647,0.0,False,0.010158061981201172,nan,nan,nan,nan,0.0,0.0
1759827357.925846,0,-1.205,-0.83,-0.7801621756414647,0.0,False,0.010652780532836914,nan,nan,nan,nan,0.0,0.0
1759827357.9361184,0,-1.205,-0.83,-0.7801621756414647,0.0,False,0.01027226448059082,nan,nan,nan,nan,0.0,0.0
1759827357.9463933,0,-1.205,-0.83,-0.7801621756414647,0.0,False,0.010274887084960938,nan,nan,nan,nan,0.0,0.0
1759827357.9578583,0,-1.205,-0.83,-0.7801621756414647,0.0,False,0.011465072631835938,nan,nan,nan,nan,0.0,0.0
1759827357.9722164,0,-1.2050001607735952,-0.8299996879100799,-0.7229995577703399,0.0,True,0.014358043670654297,-1.2050001621246338,-0.8299996852874756,-0.7177032828330994,0.0,0.0,0.0
1759827357.983698,0,-1.205000161673033,-0.8299996861641121,-0.7181136089032023,0.0,True,0.011481523513793945,-1.2050001621246338,-0.8299996852874756,-0.7177032828330994,0.0,0.0,0.0
1759827357.9939318,0,-1.2050001619552244,-0.8299996856163288,-0.7176584761991691,0.0,True,0.010233879089355469,-1.2050001621246338,-0.8299996852874756,-0.7177032828330994,0.0,0.0,0.0
1759827358.004221,0,-1.2050001620600936,-0.8299996854127593,-0.7175995279184519,0.0,True,0.010289192199707031,-1.2050001621246338,-0.8299996852874756,-0.7177032828330994,0.0,0.0,0.0
1759827358.015237,0,-1.205000162099991,-0.8299996853353115,-0.7175899482444805,0.0,True,0.011016130447387695,-1.2050001621246338,-0.8299996852874756,-0.7177032828330994,0.0,0.0,0.0
1759827358.025601,0,-1.2050001621152215,-0.8299996853057463,-0.717597534543323,0.0,True,0.01036381721496582,-1.2050001621246338,-0.8299996852874756,-0.7177032828330994,0.0,0.0,0.0
1759827358.0358799,0,-1.2050001621210387,-0.8299996852944543,-0.717608994731032,0.0,True,0.010278940200805664,-1.2050001621246338,-0.8299996852874756,-0.7177032828330994,0.0,0.0,0.0
1759827358.0472448,0,-1.2050001621232607,-0.8299996852901412,-0.7176187653488366,0.0,True,0.011364936828613281,-1.2050001621246338,-0.8299996852874756,-0.7177032828330994,0.0,0.0,0.0
1759827358.0576606,0,-1.2050001621241093,-0.8299996852884938,-0.7176299234486088,0.0,True,0.010415792465209961,-1.2050001621246338,-0.8299996852874756,-0.7177032828330994,0.0,0.0,0.0
1759827358.0680425,0,-1.2050001621244335,-0.8299996852878645,-0.7176393009981794,0.0,True,0.010381937026977539,-1.2050001621246338,-0.8299996852874756,-0.7177032828330994,0.0,0.0,0.0
1759827358.0781546,0,-1.2050001621245572,-0.8299996852876241,-0.7176472425231282,0.0,True,0.01011204719543457,-1.2050001621246338,-0.8299996852874756,-0.7177032828330994,0.0,0.0,0.0
1759827358.0883992,0,-1.2050001621246045,-0.8299996852875323,-0.7176535152639438,0.0,True,0.010244607925415039,-1.2050001621246338,-0.8299996852874756,-0.7177032828330994,0.0,0.0,0.0
1759827358.0994294,0,-1.2050001621246227,-0.8299996852874972,-0.7176580256315361,0.0,True,0.011030197143554688,-1.2050001621246338,-0.8299996852874756,-0.7177032828330994,0.0,0.0,0.0
1759827358.109686,0,-1.2050001621246296,-0.8299996852874838,-0.7176626774844905,0.0,True,0.010256528854370117,-1.2050001621246338,-0.8299996852874756,-0.7177032828330994,0.0,0.0,0.0
1759827358.1201766,0,-1.2050001621246322,-0.8299996852874787,-0.7176664167351543,0.0,True,0.010490655899047852,-1.2050001621246338,-0.8299996852874756,-0.7177032828330994,0.0,0.0,0.0
1759827358.130951,0,-1.2050001621246331,-0.8299996852874768,-0.7176694249548241,0.0,True,0.010774374008178711,-1.2050001621246338,-0.8299996852874756,-0.7177032828330994,0.0,0.0,0.0
1759827358.141258,0,-1.2050001621246336,-0.829999685287476,-0.7176723756931978,0.0,True,0.010307073593139648,-1.2050001621246338,-0.8299996852874756,-0.7177032828330994,0.0,0.0,0.0
1759827358.1514845,0,-1.2050001621246338,-0.8299996852874758,-0.7176749450768654,0.0,True,0.01022648811340332,-1.2050001621246338,-0.8299996852874756,-0.7177032828330994,0.0,0.0,0.0
1759827358.16228,0,-1.2050001621246338,-0.8299996852874757,-0.7176768321219491,0.0,True,0.01079559326171875,-1.2050001621246338,-0.8299996852874756,-0.7177032828330994,0.0,0.0,0.0
1759827358.172867,0,-1.2050001621246338,-0.8299996852874756,-0.7176786539678428,0.0,True,0.010586977005004883,-1.2050001621246338,-0.8299996852874756,-0.7177032828330994,0.0,0.0,0.0
1759827358.18336,0,-1.2050001621246338,-0.8299996852874756,-0.7176803388557644,0.0,True,0.010493040084838867,-1.2050001621246338,-0.8299996852874756,-0.7177032828330994,0.0,0.0,0.0
1759827358.1942694,0,-1.2050001621246338,-0.8299996852874756,-0.717681657069253,0.0,True,0.010909318923950195,-1.2050001621246338,-0.8299996852874756,-0.7177032828330994,0.0,0.0,0.0
1759827358.2057643,0,-1.2050001621246338,-0.8299996852874756,-0.7176826522845339,0.0,True,0.011494874954223633,-1.2050001621246338,-0.8299996852874756,-0.7177032828330994,0.0,0.0,0.0
1759827358.2168484,0,-1.2050001621246338,-0.8299996852874756,-0.7176838302115627,0.0,True,0.01108407974243164,-1.2050001621246338,-0.8299996852874756,-0.7177032828330994,0.0,0.0,0.0
1759827358.226853,0,-1.2050001621246338,-0.8299996852874756,-0.7176853374649461,0.0,True,0.010004520416259766,-1.2050001621246338,-0.8299996852874756,-0.7177032828330994,0.0,0.0,0.0
1759827358.2375708,0,-1.2050001621246338,-0.8299996852874756,-0.717686364113316,0.0,True,0.01071786880493164,-1.2050001621246338,-0.8299996852874756,-0.7177032828330994,0.0,0.0,0.0
1759827358.2477415,0,-1.2050001621246338,-0.8299996852874756,-0.7176874565816984,0.0,True,0.010170698165893555,-1.2050001621246338,-0.8299996852874756,-0.7177032828330994,0.0,0.0,0.0
1759827358.2579765,0,-1.2050001621246338,-0.8299996852874756,-0.7176883865364019,0.0,True,0.010235071182250977,-1.2050001621246338,-0.8299996852874756,-0.7177032828330994,0.0,0.0,0.0
1759827358.268304,0,-1.2050001621246338,-0.8299996852874756,-0.7176891731874289,0.0,True,0.010327577590942383,-1.2050001621246338,-0.8299996852874756,-0.7177032828330994,0.0,0.0,0.0
1759827358.27909,0,-1.2050001621246338,-0.8299996852874756,-0.717689749697179,0.0,True,0.010785818099975586,-1.2050001621246338,-0.8299996852874756,-0.7177032828330994,0.0,0.0,0.0
1759827358.2901359,0,-1.2050001621246338,-0.8299996852874756,-0.7176902404915673,0.0,True,0.01104593276977539,-1.2050001621246338,-0.8299996852874756,-0.7177032828330994,0.0,0.0,0.0
1759827358.3004532,0,-1.2050001621246338,-0.8299996852874756,-0.7176909354371794,0.0,True,0.010317325592041016,-1.2050001621246338,-0.8299996852874756,-0.7177032828330994,0.0,0.0,0.0
1759827358.3107853,0,-1.2050001621246338,-0.8299996852874756,-0.7176915655762741,0.0,True,0.010332107543945312,-1.2050001621246338,-0.8299996852874756,-0.7177032828330994,0.0,0.0,0.0
1759827358.3210418,0,-1.2050001621246338,-0.8299996852874756,-0.7176921492158996,0.0,True,0.010256528854370117,-1.2050001621246338,-0.8299996852874756,-0.7177032828330994,0.0,0.0,0.0
1759827358.3314006,0,-1.2050001621246338,-0.8299996852874756,-0.7176926507563479,0.0,True,0.010358810424804688,-1.2050001621246338,-0.8299996852874756,-0.7177032828330994,0.0,0.0,0.0
1759827358.3419142,0,-1.2050001621246338,-0.8299996852874756,-0.7176930778897237,0.0,True,0.010513544082641602,-1.2050001621246338,-0.8299996852874756,-0.7177032828330994,0.0,0.0,0.0
1759827358.3532815,0,-1.2050001621246338,-0.8299996852874756,-0.7176933051144623,0.0,True,0.011367321014404297,-1.2050001621246338,-0.8299996852874756,-0.7177032828330994,0.0,0.0,0.0
1759827358.3636672,0,-1.2050001621246338,-0.8299996852874756,-0.7176937741681542,0.0,True,0.010385751724243164,-1.2050001621246338,-0.8299996852874756,-0.7177032828330994,0.0,0.0,0.0
1759827358.388323,0,-1.2050001621246338,-0.8299996852874756,-0.717691594183206,0.0,True,0.024655818939208984,-1.2050001621246338,-0.8299996852874756,-0.7177032828330994,0.0,0.0,0.0
1759827358.3991022,0,-1.2050001621246338,-0.8299996852874756,-0.7176927727655205,0.0,True,0.010779142379760742,-1.2050001621246338,-0.8299996852874756,-0.7177032828330994,0.0,0.0,0.0
1759827358.4092844,0,-1.2050001621246338,-0.8299996852874756,-0.7176939575651993,0.0,True,0.01018214225769043,-1.2050001621246338,-0.8299996852874756,-0.7177032828330994,0.0,0.0,0.0
1759827358.420509,0,-1.2050001621246338,-0.8299996852874756,-0.7176946946369025,0.0,True,0.011224746704101562,-1.2050001621246338,-0.8299996852874756,-0.7177032828330994,0.0,0.0,0.0
1759827358.430802,0,-1.2050001621246338,-0.8299996852874756,-0.7176954114059271,0.0,True,0.010293006896972656,-1.2050001621246338,-0.8299996852874756,-0.7177032828330994,0.0,0.0,0.0
1759827358.4409213,0,-1.2050001621246338,-0.8299996852874756,-0.717696006753064,0.0,True,0.010119199752807617,-1.2050001621246338,-0.8299996852874756,-0.7177032828330994,0.0,0.0,0.0
1759827358.4511535,0,-1.2050001621246338,-0.8299996852874756,-0.7176964651748641,0.0,True,0.010232210159301758,-1.2050001621246338,-0.8299996852874756,-0.7177032828330994,0.0,0.0,0.0
1759827358.4616184,0,-1.2050001621246338,-0.8299996852874756,-0.7176968090133116,0.0,True,0.010464906692504883,-1.2050001621246338,-0.8299996852874756,-0.7177032828330994,0.0,0.0,0.0
1759827358.471931,0,-1.2050001621246338,-0.8299996852874756,-0.7176971244212993,0.0,True,0.010312557220458984,-1.2050001621246338,-0.8299996852874756,-0.7177032828330994,0.0,0.0,0.0
1759827358.482144,0,-1.2050001621246338,-0.8299996852874756,-0.7176974131340916,0.0,True,0.010213136672973633,-1.2050001621246338,-0.8299996852874756,-0.7177032828330994,0.0,0.0,0.0
1759827358.4922574,0,-1.2050001621246338,-0.8299996852874756,-0.7176976793925309,0.0,True,0.010113239288330078,-1.2050001621246338,-0.8299996852874756,-0.7177032828330994,0.0,0.0,0.0
1759827358.5031164,0,-1.2050001621246338,-0.8299996852874756,-0.7176978264042209,0.0,True,0.010859012603759766,-1.2050001621246338,-0.8299996852874756,-0.7177032828330994,0.0,0.0,0.0
1759827358.5134811,0,-1.2050001621246338,-0.8299996852874756,-0.7176980329497695,0.0,True,0.010364770889282227,-1.2050001621246338,-0.8299996852874756,-0.7177032828330994,0.0,0.0,0.0
1759827358.5240018,0,-1.2050001621246338,-0.8299996852874756,-0.7176982121627251,0.0,True,0.010520696640014648,-1.2050001621246338,-0.8299996852874756,-0.7177032828330994,0.0,0.0,0.0
1759827358.534327,0,-1.2050001621246338,-0.8299996852874756,-0.7176984046312374,0.0,True,0.010325193405151367,-1.2050001621246338,-0.8299996852874756,-0.7177032828330994,0.0,0.0,0.0
1759827358.5445132,0,-1.2050001621246338,-0.8299996852874756,-0.7176985990698608,0.0,True,0.010186195373535156,-1.2050001621246338,-0.8299996852874756,-0.7177032828330994,0.0,0.0,0.0
1759827358.554832,0,-1.2050001621246338,-0.8299996852874756,-0.7176987639884729,0.0,True,0.010318756103515625,-1.2050001621246338,-0.8299996852874756,-0.7177032828330994,0.0,0.0,0.0
1759827358.565315,0,-1.2050001621246338,-0.8299996852874756,-0.717698903006676,0.0,True,0.010483026504516602,-1.2050001621246338,-0.8299996852874756,-0.7177032828330994,0.0,0.0,0.0
1759827358.5928948,0,-1.2050001621246338,-0.8299996852874756,-0.7176975262183056,0.0,True,0.027579784393310547,-1.2050001621246338,-0.8299996852874756,-0.7177032828330994,0.0,0.0,0.0
1759827358.6030731,0,-1.2050001621246338,-0.8299996852874756,-0.7176981464535146,0.0,True,0.010178327560424805,-1.2050001621246338,-0.8299996852874756,-0.7177032828330994,0.0,0.0,0.0
1759827358.6134517,0,-1.2050001621246338,-0.8299996852874756,-0.7176987069241001,0.0,True,0.010378599166870117,-1.2050001621246338,-0.8299996852874756,-0.7177032828330994,0.0,0.0,0.0
1759827358.6237364,0,-1.2050001621246338,-0.8299996852874756,-0.7176991376077435,0.0,True,0.010284662246704102,-1.2050001621246338,-0.8299996852874756,-0.7177032828330994,0.0,0.0,0.0
1759827358.6338255,0,-1.2050001621246338,-0.8299996852874756,-0.7176994799340548,0.0,True,0.01008915901184082,-1.2050001621246338,-0.8299996852874756,-0.7177032828330994,0.0,0.0,0.0
1759827358.6441524,0,-1.2050001621246338,-0.8299996852874756,-0.7176997288456981,0.0,True,0.010326862335205078,-1.2050001621246338,-0.8299996852874756,-0.7177032828330994,0.0,0.0,0.0
1759827358.6543818,0,-1.2050001621246338,-0.8299996852874756,-0.7176999353684756,0.0,True,0.010229349136352539,-1.2050001621246338,-0.8299996852874756,-0.7177032828330994,0.0,0.0,0.0
1759827358.665758,0,-1.2050001621246338,-0.8299996852874756,-0.7177000291512066,0.0,True,0.011376142501831055,-1.2050001621246338,-0.8299996852874756,-0.7177032828330994,0.0,0.0,0.0
1759827358.6760852,0,-1.2050001621246338,-0.8299996852874756,-0.7177001888612295,0.0,True,0.010327339172363281,-1.2050001621246338,-0.8299996852874756,-0.7177032828330994,0.0,0.0,0.0
1759827358.6869068,0,-1.2050001621246338,-0.8299996852874756,-0.7177003002593203,0.0,True,0.01082158088684082,-1.2050001621246338,-0.8299996852874756,-0.7177032828330994,0.0,0.0,0.0
1759827358.6975536,0,-1.2050001621246338,-0.8299996852874756,-0.7177004137938958,0.0,True,0.010646820068359375,-1.2050001621246338,-0.8299996852874756,-0.7177032828330994,0.0,0.0,0.0
1759827358.7077146,0,-1.2050001621246338,-0.8299996852874756,-0.717700548054637,0.0,True,0.01016092300415039,-1.2050001621246338,-0.8299996852874756,-0.7177032828330994,0.0,0.0,0.0
1759827358.718958,0,-1.2050001621246338,-0.8299996852874756,-0.7177006047882699,0.0,True,0.011243343353271484,-1.2050001621246338,-0.8299996852874756,-0.7177032828330994,0.0,0.0,0.0
1759827358.7293582,0,-1.2050001621246338,-0.8299996852874756,-0.7177007126937465,0.0,True,0.01040029525756836,-1.2050001621246338,-0.8299996852874756,-0.7177032828330994,0.0,0.0,0.0
1759827358.7398107,0,-1.2050001621246338,-0.8299996852874756,-0.717700810978954,0.0,True,0.010452508926391602,-1.2050001621246338,-0.8299996852874756,-0.7177032828330994,0.0,0.0,0.0
1759827358.7507074,0,-1.2050001621246338,-0.8299996852874756,-0.7177008782008141,0.0,True,0.010896682739257812,-1.2050001621246338,-0.8299996852874756,-0.7177032828330994,0.0,0.0,0.0
1759827358.7613742,0,-1.2050001621246338,-0.8299996852874756,-0.7177009575199271,0.0,True,0.010666847229003906,-1.2050001621246338,-0.8299996852874756,-0.7177032828330994,0.0,0.0,0.0
1759827358.7795637,0,-1.2050001621246338,-0.8299996852874756,-0.7177006793752838,0.0,True,0.018189430236816406,-1.2050001621246338,-0.8299996852874756,-0.7177032828330994,0.0,0.0,0.0
1759827358.7906055,0,-1.2050001621246338,-0.8299996852874756,-0.7177008390517017,0.0,True,0.011041879653930664,-1.2050001621246338,-0.8299996852874756,-0.7177032828330994,0.0,0.0,0.0
1759827358.8018389,0,-1.2050001621246338,-0.8299996852874756,-0.7177009897678701,0.0,True,0.011233329772949219,-1.2050001621246338,-0.8299996852874756,-0.7177032828330994,0.0,0.0,0.0
1759827358.812061,0,-1.2050001621246338,-0.8299996852874756,-0.7177011588608995,0.0,True,0.010222196578979492,-1.2050001621246338,-0.8299996852874756,-0.7177032828330994,0.0,0.0,0.0
1759827358.8220646,0,-1.2050001621246338,-0.8299996852874756,-0.7177013049717527,0.0,True,0.01000356674194336,-1.2050001621246338,-0.8299996852874756,-0.7177032828330994,0.0,0.0,0.0
1759827358.8334777,0,-1.2050001621246338,-0.8299996852874756,-0.7177013669943104,0.0,True,0.011413097381591797,-1.2050001621246338,-0.8299996852874756,-0.7177032828330994,0.0,0.0,0.0
1759827358.8448822,0,-1.2050001621246338,-0.8299996852874756,-0.7177014250220068,0.0,True,0.01140451431274414,-1.2050001621246338,-0.8299996852874756,-0.7177032828330994,0.0,0.0,0.0
1759827358.8562965,0,-1.2050001621246338,-0.8299996852874756,-0.7177014835420152,0.0,True,0.011414289474487305,-1.2050001621246338,-0.8299996852874756,-0.7177032828330994,0.0,0.0,0.0
1759827358.8672426,0,-1.2050001621246338,-0.8299996852874756,-0.7177015588838316,0.0,True,0.010946035385131836,-1.2050001621246338,-0.8299996852874756,-0.7177032828330994,0.0,0.0,0.0
1759827358.8777096,0,-1.2050001621246338,-0.8299996852874756,-0.7177016449928253,0.0,True,0.010467052459716797,-1.2050001621246338,-0.8299996852874756,-0.7177032828330994,0.0,0.0,0.0
1759827358.8884091,0,-1.2050001621246338,-0.8299996852874756,-0.7177017126468144,0.0,True,0.01069951057434082,-1.2050001621246338,-0.8299996852874756,-0.7177032828330994,0.0,0.0,0.0
1759827358.89905,0,-1.2050001621246338,-0.8299996852874756,-0.7177017750649846,0.0,True,0.010640859603881836,-1.2050001621246338,-0.8299996852874756,-0.7177032828330994,0.0,0.0,0.0
1759827358.909097,0,-1.2050001621246338,-0.8299996852874756,-0.7177018503702399,0.0,True,0.010046958923339844,-1.2050001621246338,-0.8299996852874756,-0.7177032828330994,0.0,0.0,0.0
1759827358.9193032,0,-1.2050001621246338,-0.8299996852874756,-0.7177019110195992,0.0,True,0.010206222534179688,-1.2050001621246338,-0.8299996852874756,-0.7177032828330994,0.0,0.0,0.0
1759827358.9295995,0,-1.2050001621246338,-0.8299996852874756,-0.7177019617054192,0.0,True,0.010296344757080078,-1.2050001621246338,-0.8299996852874756,-0.7177032828330994,0.0,0.0,0.0
1759827358.9400299,0,-1.2050001621246338,-0.8299996852874756,-0.7177020042154503,0.0,True,0.010430335998535156,-1.2050001621246338,-0.8299996852874756,-0.7177032828330994,0.0,0.0,0.0
1759827358.9507098,0,-1.2050001621246338,-0.8299996852874756,-0.717702037897654,0.0,True,0.010679960250854492,-1.2050001621246338,-0.8299996852874756,-0.7177032828330994,0.0,0.0,0.0
1759827358.9616146,0,-1.2050001621246338,-0.8299996852874756,-0.7177020663237332,0.0,True,0.010904788970947266,-1.2050001621246338,-0.8299996852874756,-0.7177032828330994,0.0,0.0,0.0
1759827358.9953337,0,-1.2050001621246338,-0.8299996852874756,-0.7177015561293576,0.0,True,0.03371906280517578,-1.2050001621246338,-0.8299996852874756,-0.7177032828330994,0.0,0.0,0.0
1759827359.005814,0,-1.2050001621246338,-0.8299996852874756,-0.7177017671818327,0.0,True,0.010480403900146484,-1.2050001621246338,-0.8299996852874756,-0.7177032828330994,0.0,0.0,0.0
1759827359.0162122,0,-1.2050001621246338,-0.8299996852874756,-0.7177019630585484,0.0,True,0.010398149490356445,-1.2050001621246338,-0.8299996852874756,-0.7177032828330994,0.0,0.0,0.0
1759827359.0267665,0,-1.2050001621246338,-0.8299996852874756,-0.7177021044354976,0.0,True,0.010554313659667969,-1.2050001621246338,-0.8299996852874756,-0.7177032828330994,0.0,0.0,0.0
1759827359.037139,0,-1.2050001621246338,-0.8299996852874756,-0.7177022129611714,0.0,True,0.010372400283813477,-1.2050001621246338,-0.8299996852874756,-0.7177032828330994,0.0,0.0,0.0
1759827359.0475712,0,-1.2050001621246338,-0.8299996852874756,-0.7177022945490847,0.0,True,0.010432243347167969,-1.2050001621246338,-0.8299996852874756,-0.7177032828330994,0.0,0.0,0.0
1759827359.058658,0,-1.2050001621246338,-0.8299996852874756,-0.7177023463567931,0.0,True,0.011086702346801758,-1.2050001621246338,-0.8299996852874756,-0.7177032828330994,0.0,0.0,0.0
1759827359.068933,0,-1.2050001621246338,-0.8299996852874756,-0.7177024039954354,0.0,True,0.010275125503540039,-1.2050001621246338,-0.8299996852874756,-0.7177032828330994,0.0,0.0,0.0
1759827359.0799973,0,-1.2050001621246338,-0.8299996852874756,-0.7177024383430286,0.0,True,0.011064291000366211,-1.2050001621246338,-0.8299996852874756,-0.7177032828330994,0.0,0.0,0.0
1759827359.090275,0,-1.2050001621246338,-0.8299996852874756,-0.7177024819871995,0.0,True,0.010277748107910156,-1.2050001621246338,-0.8299996852874756,-0.7177032828330994,0.0,0.0,0.0
1759827359.1005068,0,-1.2050001621246338,-0.8299996852874756,-0.7177025205213461,0.0,True,0.010231733322143555,-1.2050001621246338,-0.8299996852874756,-0.7177032828330994,0.0,0.0,0.0
1759827359.11085,0,-1.2050001621246338,-0.8299996852874756,-0.7177025517856439,0.0,True,0.010343313217163086,-1.2050001621246338,-0.8299996852874756,-0.7177032828330994,0.0,0.0,0.0
1759827359.1210296,0,-1.2050001621246338,-0.8299996852874756,-0.7177025819302596,0.0,True,0.010179519653320312,-1.2050001621246338,-0.8299996852874756,-0.7177032828330994,0.0,0.0,0.0
1759827359.1314332,0,-1.2050001621246338,-0.8299996852874756,-0.7177026054219304,0.0,True,0.010403633117675781,-1.2050001621246338,-0.8299996852874756,-0.7177032828330994,0.0,0.0,0.0
1759827359.1416936,0,-1.2050001621246338,-0.8299996852874756,-0.7177026293084978,0.0,True,0.010260343551635742,-1.2050001621246338,-0.8299996852874756,-0.7177032828330994,0.0,0.0,0.0
1759827359.1527731,0,-1.2050001621246338,-0.8299996852874756,-0.7177026400407751,0.0,True,0.011079549789428711,-1.2050001621246338,-0.8299996852874756,-0.7177032828330994,0.0,0.0,0.0
1759827359.1630795,0,-1.2050001621246338,-0.8299996852874756,-0.7177026632268682,0.0,True,0.010306358337402344,-1.2050001621246338,-0.8299996852874756,-0.7177032828330994,0.0,0.0,0.0
1759827359.182155,0,-1.2050001621246338,-0.8299996852874756,-0.7177025726900226,0.0,True,0.019075393676757812,-1.2050001621246338,-0.8299996852874756,-0.7177032828330994,0.0,0.0,0.0
1759827359.1930227,0,-1.2050001621246338,-0.8299996852874756,-0.7177026180762063,0.0,True,0.010867834091186523,-1.2050001621246338,-0.8299996852874756,-0.7177032828330994,0.0,0.0,0.0
1759827359.2034369,0,-1.2050001621246338,-0.8299996852874756,-0.717702668702632,0.0,True,0.01041412353515625,-1.2050001621246338,-0.8299996852874756,-0.7177032828330994,0.0,0.0,0.0
1759827359.213802,0,-1.2050001621246338,-0.8299996852874756,-0.7177027101758906,0.0,True,0.01036524772644043,-1.2050001621246338,-0.8299996852874756,-0.7177032828330994,0.0,0.0,0.0
1759827359.2239926,0,-1.2050001621246338,-0.8299996852874756,-0.7177027454964229,0.0,True,0.010190486907958984,-1.2050001621246338,-0.8299996852874756,-0.7177032828330994,0.0,0.0,0.0
1759827359.2342312,0,-1.2050001621246338,-0.8299996852874756,-0.7177027738565709,0.0,True,0.0102386474609375,-1.2050001621246338,-0.8299996852874756,-0.7177032828330994,0.0,0.0,0.0
1759827359.2452035,0,-1.2050001621246338,-0.8299996852874756,-0.7177027899742701,0.0,True,0.010972261428833008,-1.2050001621246338,-0.8299996852874756,-0.7177032828330994,0.0,0.0,0.0
1759827359.2561052,0,-1.2050001621246338,-0.8299996852874756,-0.7177028058244588,0.0,True,0.010901689529418945,-1.2050001621246338,-0.8299996852874756,-0.7177032828330994,0.0,0.0,0.0
1759827359.2671013,0,-1.2050001621246338,-0.8299996852874756,-0.7177028203682383,0.0,True,0.010996103286743164,-1.2050001621246338,-0.8299996852874756,-0.7177032828330994,0.0,0.0,0.0
1759827359.277986,0,-1.2050001621246338,-0.8299996852874756,-0.7177028358290443,0.0,True,0.010884761810302734,-1.2050001621246338,-0.8299996852874756,-0.7177032828330994,0.0,0.0,0.0
1759827359.2882404,0,-1.2050001621246338,-0.8299996852874756,-0.7177028565538901,0.0,True,0.010254383087158203,-1.2050001621246338,-0.8299996852874756,-0.7177032828330994,0.0,0.0,0.0
1759827359.2986681,0,-1.2050001621246338,-0.8299996852874756,-0.7177028734606523,0.0,True,0.010427713394165039,-1.2050001621246338,-0.8299996852874756,-0.7177032828330994,0.0,0.0,0.0
1759827359.308763,0,-1.2050001621246338,-0.8299996852874756,-0.717702891490962,0.0,True,0.010094881057739258,-1.2050001621246338,-0.8299996852874756,-0.7177032828330994,0.0,0.0,0.0
1759827359.31921,0,-1.2050001621246338,-0.8299996852874756,-0.7177029045184202,0.0,True,0.010447025299072266,-1.2050001621246338,-0.8299996852874756,-0.7177032828330994,0.0,0.0,0.0
1759827359.3295143,0,-1.2050001621246338,-0.8299996852874756,-0.7177029178008922,0.0,True,0.01030421257019043,-1.2050001621246338,-0.8299996852874756,-0.7177032828330994,0.0,0.0,0.0
1759827359.3398817,0,-1.2050001621246338,-0.8299996852874756,-0.7177029297522814,0.0,True,0.010367393493652344,-1.2050001621246338,-0.8299996852874756,-0.7177032828330994,0.0,0.0,0.0
1759827359.3506806,0,-1.2050001621246338,-0.8299996852874756,-0.7177029378379967,0.0,True,0.010798931121826172,-1.2050001621246338,-0.8299996852874756,-0.7177032828330994,0.0,0.0,0.0
1759827359.3611963,0,-1.2050001621246338,-0.8299996852874756,-0.717702948508947,0.0,True,0.010515689849853516,-1.2050001621246338,-0.8299996852874756,-0.7177032828330994,0.0,0.0,0.0
1759827359.3797238,0,-1.2050001621246338,-0.8299996852874756,-0.7177029035997293,0.0,True,0.018527507781982422,-1.2050001621246338,-0.8299996852874756,-0.7177032828330994,0.0,0.0,0.0
1759827359.3900402,0,-1.2050001621246338,-0.8299996852874756,-0.7177029309524556,0.0,True,0.01031637191772461,-1.2050001621246338,-0.8299996852874756,-0.7177032828330994,0.0,0.0,0.0
1759827359.4007285,0,-1.2050001621246338,-0.8299996852874756,-0.7177029547198899,0.0,True,0.010688304901123047,-1.2050001621246338,-0.8299996852874756,-0.7177032828330994,0.0,0.0,0.0
1759827359.411047,0,-1.2050001621246338,-0.8299996852874756,-0.7177029763589964,0.0,True,0.010318517684936523,-1.2050001621246338,-0.8299996852874756,-0.7177032828330994,0.0,0.0,0.0
1759827359.4212458,0,-1.2050001621246338,-0.8299996852874756,-0.7177029947286258,0.0,True,0.010198831558227539,-1.2050001621246338,-0.8299996852874756,-0.7177032828330994,0.0,0.0,0.0
1759827359.4325495,0,-1.2050001621246338,-0.8299996852874756,-0.7177030034685536,0.0,True,0.01130366325378418,-1.2050001621246338,-0.8299996852874756,-0.7177032828330994,0.0,0.0,0.0
1759827359.443373,0,-1.2050001621246338,-0.8299996852874756,-0.7177030144492775,0.0,True,0.010823488235473633,-1.2050001621246338,-0.8299996852874756,-0.7177032828330994,0.0,0.0,0.0
1759827359.4540176,0,-1.2050001621246338,-0.8299996852874756,-0.717703025700704,0.0,True,0.010644674301147461,-1.2050001621246338,-0.8299996852874756,-0.7177032828330994,0.0,0.0,0.0
1759827359.4642854,0,-1.2050001621246338,-0.8299996852874756,-0.7177030378782359,0.0,True,0.01026773452758789,-1.2050001621246338,-0.8299996852874756,-0.7177032828330994,0.0,0.0,0.0
1759827359.474714,0,-1.2050001621246338,-0.8299996852874756,-0.7177030477461308,0.0,True,0.010428667068481445,-1.2050001621246338,-0.8299996852874756,-0.7177032828330994,0.0,0.0,0.0
1759827359.485759,0,-1.2050001621246338,-0.8299996852874756,-0.7177030535644864,0.0,True,0.011044979095458984,-1.2050001621246338,-0.8299996852874756,-0.7177032828330994,0.0,0.0,0.0
1759827359.4962409,0,-1.2050001621246338,-0.8299996852874756,-0.7177030622457501,0.0,True,0.010481834411621094,-1.2050001621246338,-0.8299996852874756,-0.7177032828330994,0.0,0.0,0.0
1759827359.507338,0,-1.2050001621246338,-0.8299996852874756,-0.7177030676191762,0.0,True,0.011097192764282227,-1.2050001621246338,-0.8299996852874756,-0.7177032828330994,0.0,0.0,0.0
1759827359.5182457,0,-1.2050001621246338,-0.8299996852874756,-0.7177030740928423,0.0,True,0.010907649993896484,-1.2050001621246338,-0.8299996852874756,-0.7177032828330994,0.0,0.0,0.0
1759827359.528518,0,-1.2050001621246338,-0.8299996852874756,-0.7177030833613394,0.0,True,0.01027226448059082,-1.2050001621246338,-0.8299996852874756,-0.7177032828330994,0.0,0.0,0.0
1759827359.539087,0,-1.2050001621246338,-0.8299996852874756,-0.7177030905019652,0.0,True,0.010569095611572266,-1.2050001621246338,-0.8299996852874756,-0.7177032828330994,0.0,0.0,0.0
1759827359.5500405,0,-1.2050001621246338,-0.8299996852874756,-0.7177030955653549,0.0,True,0.010953426361083984,-1.2050001621246338,-0.8299996852874756,-0.7177032828330994,0.0,0.0,0.0
1759827359.5604389,0,-1.2050001621246338,-0.8299996852874756,-0.7177031029101748,0.0,True,0.010398387908935547,-1.2050001621246338,-0.8299996852874756,-0.7177032828330994,0.0,0.0,0.0
1759827359.5974898,0,-1.2050001621246338,-0.8299996852874756,-0.7177030176198418,0.0,True,0.03705096244812012,-1.2050001621246338,-0.8299996852874756,-0.7177032828330994,0.0,0.0,0.0
1759827359.6079407,0,-1.2050001621246338,-0.8299996852874756,-0.7177030526995267,0.0,True,0.01045083999633789,-1.2050001621246338,-0.8299996852874756,-0.7177032828330994,0.0,0.0,0.0
1759827359.6189313,0,-1.2050001621246338,-0.8299996852874756,-0.7177030829316298,0.0,True,0.010990619659423828,-1.2050001621246338,-0.8299996852874756,-0.7177032828330994,0.0,0.0,0.0
1759827359.6295104,0,-1.2050001621246338,-0.8299996852874756,-0.7177031062682726,0.0,True,0.010579109191894531,-1.2050001621246338,-0.8299996852874756,-0.7177032828330994,0.0,0.0,0.0
1759827359.6409352,0,-1.2050001621246338,-0.8299996852874756,-0.717703121120941,0.0,True,0.011424779891967773,-1.2050001621246338,-0.8299996852874756,-0.7177032828330994,0.0,0.0,0.0
1759827359.651658,0,-1.2050001621246338,-0.8299996852874756,-0.7177031343985316,0.0,True,0.010722875595092773,-1.2050001621246338,-0.8299996852874756,-0.7177032828330994,0.0,0.0,0.0
1759827359.6618137,0,-1.2050001621246338,-0.8299996852874756,-0.7177031463527079,0.0,True,0.010155677795410156,-1.2050001621246338,-0.8299996852874756,-0.7177032828330994,0.0,0.0,0.0
1759827359.6731818,0,-1.2050001621246338,-0.8299996852874756,-0.7177031526455799,0.0,True,0.011368036270141602,-1.2050001621246338,-0.8299996852874756,-0.7177032828330994,0.0,0.0,0.0
1759827359.6834214,0,-1.2050001621246338,-0.8299996852874756,-0.7177031607435627,0.0,True,0.010239601135253906,-1.2050001621246338,-0.8299996852874756,-0.7177032828330994,0.0,0.0,0.0
1759827359.6946619,0,-1.2050001621246338,-0.8299996852874756,-0.7177031651186496,0.0,True,0.011240482330322266,-1.2050001621246338,-0.8299996852874756,-0.7177032828330994,0.0,0.0,0.0
1759827359.7056687,0,-1.2050001621246338,-0.8299996852874756,-0.7177031696046932,0.0,True,0.011006832122802734,-1.2050001621246338,-0.8299996852874756,-0.7177032828330994,0.0,0.0,0.0
1759827359.715974,0,-1.2050001621246338,-0.8299996852874756,-0.7177031753534369,0.0,True,0.010305404663085938,-1.2050001621246338,-0.8299996852874756,-0.7177032828330994,0.0,0.0,0.0
1759827359.7261288,0,-1.2050001621246338,-0.8299996852874756,-0.7177031806767964,0.0,True,0.01015472412109375,-1.2050001621246338,-0.8299996852874756,-0.7177032828330994,0.0,0.0,0.0
1759827359.736554,0,-1.2050001621246338,-0.8299996852874756,-0.7177031846428896,0.0,True,0.010425090789794922,-1.2050001621246338,-0.8299996852874756,-0.7177032828330994,0.0,0.0,0.0
1759827359.746807,0,-1.2050001621246338,-0.8299996852874756,-0.7177031885260092,0.0,True,0.010253190994262695,-1.2050001621246338,-0.8299996852874756,-0.7177032828330994,0.0,0.0,0.0
1759827359.757494,0,-1.2050001621246338,-0.8299996852874756,-0.7177031911541345,0.0,True,0.010686874389648438,-1.2050001621246338,-0.8299996852874756,-0.7177032828330994,0.0,0.0,0.0
1759827359.767663,0,-1.2050001621246338,-0.8299996852874756,-0.717703194726866,0.0,True,0.010169029235839844,-1.2050001621246338,-0.8299996852874756,-0.7177032828330994,0.0,0.0,0.0
1759827359.792036,0,-1.2050001621246338,-0.8299996852874756,-0.7177031722425227,0.0,True,0.02437305450439453,-1.2050001621246338,-0.8299996852874756,-0.7177032828330994,0.0,0,0
1759827359.797084,0,-1.2050001621246338,-0.8299996852874756,-0.7177031913729035,0.0,True,0.005048036575317383,-1.2050001621246338,-0.8299996852874756,-0.7177032828330994,0.0,0,0
1759827359.808325,0,-1.2050001621246338,-0.8299996852874756,-0.7177031968513372,0.0,True,0.011240959167480469,-1.2050001621246338,-0.8299996852874756,-0.7177032828330994,0.0,0,0
1759827359.819674,0,-1.2050001621246338,-0.8299996852874756,-0.7177032005492716,0.0,True,0.011348962783813477,-1.2050001621246338,-0.8299996852874756,-0.7177032828330994,0.0,0,0
1759827359.8311307,0,-1.2050001621246338,-0.8299996852874756,-0.7177032036568392,0.0,True,0.011456727981567383,-1.2050001621246338,-0.8299996852874756,-0.7177032828330994,0.0,0,0
1759827359.8420215,0,-1.2050001621246338,-0.8299996852874756,-0.7177032074262062,0.0,True,0.010890722274780273,-1.2050001621246338,-0.8299996852874756,-0.7177032828330994,0.0,0,0
1759827359.853434,0,-1.2050001621246338,-0.8299996852874756,-0.7177032100217815,0.0,True,0.011412620544433594,-1.2050001621246338,-0.8299996852874756,-0.7177032828330994,0.0,0,0
1759827359.8649247,0,-1.2050001621246338,-0.8299996852874756,-0.7177032123687432,0.0,True,0.011490583419799805,-1.2050001621246338,-0.8299996852874756,-0.7177032828330994,0.0,0,0
1759827359.8762963,0,-1.2050001621246338,-0.8299996852874756,-0.7177032148512907,0.0,True,0.011371612548828125,-1.2050001621246338,-0.8299996852874756,-0.7177032828330994,0.0,0,0
1759827359.887562,0,-1.2050001621246338,-0.8299996852874756,-0.7177032173940425,0.0,True,0.011265754699707031,-1.2050001621246338,-0.8299996852874756,-0.7177032828330994,0.0,0,0
1759827359.898446,0,-1.2050001621246338,-0.8299996852874756,-0.7177032202879197,0.0,True,0.01088404655456543,-1.2050001621246338,-0.8299996852874756,-0.7177032828330994,0.0,0,0
1759827359.9084816,0,-1.2050001621246338,-0.8299996852874756,-0.7177032239498189,0.0,True,0.010035514831542969,-1.2050001621246338,-0.8299996852874756,-0.7177032828330994,0.0,0,0
1759827359.9190848,0,-1.2050001621246338,-0.8299996852874756,-0.7177032263600065,0.0,True,0.010603189468383789,-1.2050001621246338,-0.8299996852874756,-0.7177032828330994,0.0,0,0
1759827359.929579,0,-1.2050001621246338,-0.8299996852874756,-0.7177032285991167,0.0,True,0.010494232177734375,-1.2050001621246338,-0.8299996852874756,-0.7177032828330994,0.0,0,0
1759827359.9411376,0,-1.2050001621246338,-0.8299996852874756,-0.7177032294336279,0.0,True,0.01155853271484375,-1.2050001621246338,-0.8299996852874756,-0.7177032828330994,0.0,0,0
1759827359.9519613,0,-1.2050001621246338,-0.8299996852874756,-0.7177032312629006,0.0,True,0.010823726654052734,-1.2050001621246338,-0.8299996852874756,-0.7177032828330994,0.0,0,0
1759827359.9626672,0,-1.2050001621246338,-0.8299996852874756,-0.7177032331927826,0.0,True,0.010705947875976562,-1.2050001621246338,-0.8299996852874756,-0.7177032828330994,0.0,0,0
1759827359.9734643,0,-1.2050001621246338,-0.8299996852874756,-0.717703234902979,0.0,True,0.01079702377319336,-1.2050001621246338,-0.8299996852874756,-0.7177032828330994,0.0,0,0
1759827360.0199618,0,-1.2050001621246338,-0.8299996852874756,-0.7177032053592782,0.0,True,0.04649758338928223,-1.2050001621246338,-0.8299996852874756,-0.7177032828330994,0.0,0,0
1759827360.0238829,0,-1.2050001621246338,-0.8299996852874756,-0.7177032224943858,0.0,True,0.003921031951904297,-1.2050001621246338,-0.8299996852874756,-0.7177032828330994,0.0,0,0
1759827360.0353775,0,-1.2050001621246338,-0.8299996852874756,-0.7177032306652968,0.0,True,0.011494636535644531,-1.2050001621246338,-0.8299996852874756,-0.7177032828330994,0.0,0,0
1759827360.0463476,0,-1.2050001621246338,-0.8299996852874756,-0.7177032366243576,0.0,True,0.010970115661621094,-1.2050001621246338,-0.8299996852874756,-0.7177032828330994,0.0,0,0
1759827360.0576603,0,-1.2050001621246338,-0.8299996852874756,-0.7177032407718329,0.0,True,0.011312723159790039,-1.2050001621246338,-0.8299996852874756,-0.7177032828330994,0.0,0,0
1759827360.0690525,0,-1.2050001621246338,-0.8299996852874756,-0.7177032438806634,0.0,True,0.01139211654663086,-1.2050001621246338,-0.8299996852874756,-0.7177032828330994,0.0,0,0
1759827360.0797644,0,-1.2050001621246338,-0.8299996852874756,-0.7177032468063977,0.0,True,0.010711908340454102,-1.2050001621246338,-0.8299996852874756,-0.7177032828330994,0.0,0,0
1759827360.090564,0,-1.2050001621246338,-0.8299996852874756,-0.717703249090551,0.0,True,0.010799646377563477,-1.2050001621246338,-0.8299996852874756,-0.7177032828330994,0.0,0,0
1759827360.1017628,0,-1.2050001621246338,-0.8299996852874756,-0.7177032506911623,0.0,True,0.011198759078979492,-1.2050001621246338,-0.8299996852874756,-0.7177032828330994,0.0,0,0
1759827360.1126654,0,-1.2050001621246338,-0.8299996852874756,-0.7177032522450038,0.0,True,0.010902643203735352,-1.2050001621246338,-0.8299996852874756,-0.7177032828330994,0.0,0,0
1759827360.1228578,0,-1.2050001621246338,-0.8299996852874756,-0.7177032540207051,0.0,True,0.010192394256591797,-1.2050001621246338,-0.8299996852874756,-0.7177032828330994,0.0,0,0
1759827360.1330085,0,-1.2050001621246338,-0.8299996852874756,-0.7177032555342251,0.0,True,0.010150671005249023,-1.2050001621246338,-0.8299996852874756,-0.7177032828330994,0.0,0,0
1759827360.1437082,0,-1.2050001621246338,-0.8299996852874756,-0.7177032564898091,0.0,True,0.010699748992919922,-1.2050001621246338,-0.8299996852874756,-0.7177032828330994,0.0,0,0
1759827360.1537085,0,-1.2050001621246338,-0.8299996852874756,-0.7177032577341507,0.0,True,0.010000228881835938,-1.2050001621246338,-0.8299996852874756,-0.7177032828330994,0.0,0,0
1759827360.1645968,0,-1.2050001621246338,-0.8299996852874756,-0.7177032583491503,0.0,True,0.010888338088989258,-1.2050001621246338,-0.8299996852874756,-0.7177032828330994,0.0,0,0
1759827360.1759973,0,-1.2050001621246338,-0.8299996852874756,-0.7177032586953693,0.0,True,0.011400461196899414,-1.2050001621246338,-0.8299996852874756,-0.7177032828330994,0.0,0,0
1759827360.1934588,0,-1.2050001621246338,-0.8299996852874756,-0.7177032561969447,0.0,True,0.017461538314819336,-1.2050001621246338,-0.8299996852874756,-0.7177032828330994,0.0,0,0
1759827360.2049153,0,-1.2050001621246338,-0.8299996852874756,-0.7177032575571118,0.0,True,0.011456489562988281,-1.2050001621246338,-0.8299996852874756,-0.7177032828330994,0.0,0,0
1759827360.2157342,0,-1.2050001621246338,-0.8299996852874756,-0.7177032592520369,0.0,True,0.010818958282470703,-1.2050001621246338,-0.8299996852874756,-0.7177032828330994,0.0,0,0
1759827360.2264254,0,-1.2050001621246338,-0.8299996852874756,-0.7177032607196985,0.0,True,0.010691165924072266,-1.2050001621246338,-0.8299996852874756,-0.7177032828330994,0.0,0,0
1759827360.2377784,0,-1.2050001621246338,-0.8299996852874756,-0.7177032616487793,0.0,True,0.011353015899658203,-1.2050001621246338,-0.8299996852874756,-0.7177032828330994,0.0,0,0
1759827360.248518,0,-1.2050001621246338,-0.8299996852874756,-0.7177032627184747,0.0,True,0.010739564895629883,-1.2050001621246338,-0.8299996852874756,-0.7177032828330994,0.0,0,0
1759827360.2599764,0,-1.2050001621246338,-0.8299996852874756,-0.7177032633701259,0.0,True,0.011458396911621094,-1.2050001621246338,-0.8299996852874756,-0.7177032828330994,0.0,0,0
1759827360.2709105,0,-1.2050001621246338,-0.8299996852874756,-0.7177032641890158,0.0,True,0.010934114456176758,-1.2050001621246338,-0.8299996852874756,-0.7177032828330994,0.0,0,0
1759827360.2814777,0,-1.2050001621246338,-0.8299996852874756,-0.7177032650754427,0.0,True,0.010567188262939453,-1.2050001621246338,-0.8299996852874756,-0.7177032828330994,0.0,0,0
1759827360.2927392,0,-1.2050001621246338,-0.8299996852874756,-0.7177032656066356,0.0,True,0.011261463165283203,-1.2050001621246338,-0.8299996852874756,-0.7177032828330994,0.0,0,0
1759827360.303582,0,-1.2050001621246338,-0.8299996852874756,-0.7177032662649836,0.0,True,0.01084280014038086,-1.2050001621246338,-0.8299996852874756,-0.7177032828330994,0.0,0,0
1759827360.314365,0,-1.2050001621246338,-0.8299996852874756,-0.7177032669020633,0.0,True,0.010782957077026367,-1.2050001621246338,-0.8299996852874756,-0.7177032828330994,0.0,0,0
1759827360.3251858,0,-1.2050001621246338,-0.8299996852874756,-0.7177032674771056,0.0,True,0.010820865631103516,-1.2050001621246338,-0.8299996852874756,-0.7177032828330994,0.0,0,0
1759827360.336495,0,-1.2050001621246338,-0.8299996852874756,-0.7177032678621504,0.0,True,0.011309146881103516,-1.2050001621246338,-0.8299996852874756,-0.7177032828330994,0.0,0,0
1759827360.3475988,0,-1.2050001621246338,-0.8299996852874756,-0.7177032683261526,0.0,True,0.01110386848449707,-1.2050001621246338,-0.8299996852874756,-0.7177032828330994,0.0,0,0
1759827360.3591027,0,-1.2050001621246338,-0.8299996852874756,-0.7177032686753044,0.0,True,0.011503934860229492,-1.2050001621246338,-0.8299996852874756,-0.7177032828330994,0.0,0,0
1759827360.3704154,0,-1.2050001621246338,-0.8299996852874756,-0.7177032691067655,0.0,True,0.011312723159790039,-1.2050001621246338,-0.8299996852874756,-0.7177032828330994,0.0,0,0
1759827360.3804746,0,-1.2050001621246338,-0.8299996852874756,-0.7177032698860053,0.0,True,0.010059118270874023,-1.2050001621246338,-0.8299996852874756,-0.7177032828330994,0.0,0,0
1759827360.3946607,0,-1.2050001621246338,-0.8299996852874756,-0.7177032694801042,0.0,True,0.01418614387512207,-1.2050001621246338,-0.8299996852874756,-0.7177032828330994,0.0,0,0
1759827360.4062135,0,-1.2050001621246338,-0.8299996852874756,-0.7177032699682577,0.0,True,0.011552810668945312,-1.2050001621246338,-0.8299996852874756,-0.7177032828330994,0.0,0,0
1759827360.4174597,0,-1.2050001621246338,-0.8299996852874756,-0.7177032705629038,0.0,True,0.011246204376220703,-1.2050001621246338,-0.8299996852874756,-0.7177032828330994,0.0,0,0
1759827360.4283433,0,-1.2050001621246338,-0.8299996852874756,-0.7177032711871139,0.0,True,0.010883569717407227,-1.2050001621246338,-0.8299996852874756,-0.7177032828330994,0.0,0,0
1759827360.439226,0,-1.2050001621246338,-0.8299996852874756,-0.7177032717325496,0.0,True,0.01088261604309082,-1.2050001621246338,-0.8299996852874756,-0.7177032828330994,0.0,0,0
1759827360.4504602,0,-1.2050001621246338,-0.8299996852874756,-0.7177032721352337,0.0,True,0.011234283447265625,-1.2050001621246338,-0.8299996852874756,-0.7177032828330994,0.0,0,0
1759827360.4612005,0,-1.2050001621246338,-0.8299996852874756,-0.717703272615303,0.0,True,0.010740280151367188,-1.2050001621246338,-0.8299996852874756,-0.7177032828330994,0.0,0,0
1759827360.4713025,0,-1.2050001621246338,-0.8299996852874756,-0.7177032731778041,0.0,True,0.010102033615112305,-1.2050001621246338,-0.8299996852874756,-0.7177032828330994,0.0,0,0
1759827360.482013,0,-1.2050001621246338,-0.8299996852874756,-0.7177032735364186,0.0,True,0.010710477828979492,-1.2050001621246338,-0.8299996852874756,-0.7177032828330994,0.0,0,0
1759827360.4927151,0,-1.2050001621246338,-0.8299996852874756,-0.7177032738609057,0.0,True,0.010702133178710938,-1.2050001621246338,-0.8299996852874756,-0.7177032828330994,0.0,0,0
1759827360.5030334,0,-1.2050001621246338,-0.8299996852874756,-0.717703274237735,0.0,True,0.010318279266357422,-1.2050001621246338,-0.8299996852874756,-0.7177032828330994,0.0,0,0
1759827360.5138154,0,-1.2050001621246338,-0.8299996852874756,-0.7177032744949408,0.0,True,0.010782003402709961,-1.2050001621246338,-0.8299996852874756,-0.7177032828330994,0.0,0,0
1759827360.5251522,0,-1.2050001621246338,-0.8299996852874756,-0.7177032746478176,0.0,True,0.011336803436279297,-1.2050001621246338,-0.8299996852874756,-0.7177032828330994,0.0,0,0
1759827360.5365176,0,-1.2050001621246338,-0.8299996852874756,-0.7177032748242151,0.0,True,0.011365413665771484,-1.2050001621246338,-0.8299996852874756,-0.7177032828330994,0.0,0,0
1759827360.5479517,0,-1.2050001621246338,-0.8299996852874756,-0.7177032750170369,0.0,True,0.011434078216552734,-1.2050001621246338,-0.8299996852874756,-0.7177032828330994,0.0,0,0
1759827360.5591145,0,-1.2050001621246338,-0.8299996852874756,-0.7177032752730774,0.0,True,0.011162757873535156,-1.2050001621246338,-0.8299996852874756,-0.7177032828330994,0.0,0,0
1759827360.5703528,0,-1.2050001621246338,-0.8299996852874756,-0.7177032755175006,0.0,True,0.011238336563110352,-1.2050001621246338,-0.8299996852874756,-0.7177032828330994,0.0,0,0
1759827360.5811167,0,-1.2050001621246338,-0.8299996852874756,-0.7177032758278354,0.0,True,0.010763883590698242,-1.2050001621246338,-0.8299996852874756,-0.7177032828330994,0.0,0,0
1759827360.615873,0,-1.2050001621246338,-0.8299996852874756,-0.7177032729948518,0.0,True,0.03475642204284668,-1.2050001621246338,-0.8299996852874756,-0.7177032828330994,0.0,0,0
1759827360.6270409,0,-1.2050001621246338,-0.8299996852874756,-0.7177032741882261,0.0,True,0.011167764663696289,-1.2050001621246338,-0.8299996852874756,-0.7177032828330994,0.0,0,0
1759827360.6383529,0,-1.2050001621246338,-0.8299996852874756,-0.7177032752688195,0.0,True,0.011312007904052734,-1.2050001621246338,-0.8299996852874756,-0.7177032828330994,0.0,0,0
1759827360.6499538,0,-1.2050001621246338,-0.8299996852874756,-0.7177032760392628,0.0,True,0.011600971221923828,-1.2050001621246338,-0.8299996852874756,-0.7177032828330994,0.0,0,0
1759827360.660671,0,-1.2050001621246338,-0.8299996852874756,-0.7177032767117524,0.0,True,0.010717153549194336,-1.2050001621246338,-0.8299996852874756,-0.7177032828330994,0.0,0,0
1759827360.6718454,0,-1.2050001621246338,-0.8299996852874756,-0.7177032771791971,0.0,True,0.011174440383911133,-1.2050001621246338,-0.8299996852874756,-0.7177032828330994,0.0,0,0
1759827360.6832225,0,-1.2050001621246338,-0.8299996852874756,-0.7177032775252279,0.0,True,0.011377096176147461,-1.2050001621246338,-0.8299996852874756,-0.7177032828330994,0.0,0,0
1759827360.6946197,0,-1.2050001621246338,-0.8299996852874756,-0.7177032778079742,0.0,True,0.011397123336791992,-1.2050001621246338,-0.8299996852874756,-0.7177032828330994,0.0,0,0
1759827360.705469,0,-1.2050001621246338,-0.8299996852874756,-0.7177032780999326,0.0,True,0.010849237442016602,-1.2050001621246338,-0.8299996852874756,-0.7177032828330994,0.0,0,0
1759827360.7168624,0,-1.2050001621246338,-0.8299996852874756,-0.7177032782977868,0.0,True,0.011393547058105469,-1.2050001621246338,-0.8299996852874756,-0.7177032828330994,0.0,0,0
1759827360.7275782,0,-1.2050001621246338,-0.8299996852874756,-0.7177032785322179,0.0,True,0.010715723037719727,-1.2050001621246338,-0.8299996852874756,-0.7177032828330994,0.0,0,0
1759827360.7387052,0,-1.2050001621246338,-0.8299996852874756,-0.7177032787013058,0.0,True,0.011126995086669922,-1.2050001621246338,-0.8299996852874756,-0.7177032828330994,0.0,0,0
1759827360.7497265,0,-1.2050001621246338,-0.8299996852874756,-0.7177032788622686,0.0,True,0.01102137565612793,-1.2050001621246338,-0.8299996852874756,-0.7177032828330994,0.0,0,0
1759827360.7605207,0,-1.2050001621246338,-0.8299996852874756,-0.7177032790282105,0.0,True,0.01079416275024414,-1.2050001621246338,-0.8299996852874756,-0.7177032828330994,0.0,0,0
1759827360.771275,0,-1.2050001621246338,-0.8299996852874756,-0.7177032791812117,0.0,True,0.01075434684753418,-1.2050001621246338,-0.8299996852874756,-0.7177032828330994,0.0,0,0
1759827360.7827365,0,-1.2050001621246338,-0.8299996852874756,-0.7177032792675728,0.0,True,0.011461496353149414,-1.2050001621246338,-0.8299996852874756,-0.7177032828330994,0.0,0.5235987755982988,0.03021232774897472
1759827360.796369,0,-1.2050001621246338,-0.8299996852874756,-0.7177032792052298,0.0,True,0.013632535934448242,-1.2050001621246338,-0.8299996852874756,-0.7177032828330994,0.0,0.5235987755982988,0.030192795215106812
1759827360.8064768,0,-1.2050001621246338,-0.8299996852874756,-0.7177032794375648,0.0,True,0.010107755661010742,-1.2050001621246338,-0.8299996852874756,-0.7177032828330994,0.0,0.5235987755982988,0.0317958265728175
1759827360.8165057,0,-1.2050001621246338,-0.8299996852874756,-0.7177032796498413,0.0,True,0.010028839111328125,-1.2050001621246338,-0.8299996852874756,-0.7177032828330994,0.0,0.5235987755982988,0.030425805715034993
1759827360.827891,0,-1.2050001621246338,-0.8299996852874756,-0.7177032797360674,0.0,True,0.011385440826416016,-1.2050001621246338,-0.8299996852874756,-0.7177032828330994,0.0,0.5235987755982988,0.02957137973525854
1759827360.8391502,0,-1.2050001621246338,-0.8299996852874756,-0.7177032798267238,0.0,True,0.011259078979492188,-1.2050001621246338,-0.8299996852874756,-0.7177032828330994,0.0,0.5235987755982988,0.030016888356462167
1759827360.8502083,0,-1.2050001621246338,-0.8299996852874756,-0.7177032799308947,0.0,True,0.01105809211730957,-1.2050001621246338,-0.8299996852874756,-0.7177032828330994,0.0,0.5235987755982988,0.03179275311977114
1759827360.8610477,0,-1.2050001621246338,-0.8299996852874756,-0.7177032800440823,0.0,True,0.010839462280273438,-1.2050001621246338,-0.8299996852874756,-0.7177032828330994,0.0,0.5235987755982988,0.03365039128803716
1759827360.871353,0,-1.2050001621246338,-0.8299996852874756,-0.7177032801789469,0.0,True,0.010305166244506836,-1.2050001621246338,-0.8299996852874756,-0.7177032828330994,0.0,0.5235987755982988,0.034608187032200845
1759827360.881674,0,-1.2050001621246338,-0.8299996852874756,-0.717703280296174,0.0,True,0.01032114028930664,-1.2050001621246338,-0.8299996852874756,-0.7177032828330994,0.0,0.5235987755982988,0.031915534709071235
1759827360.8919022,0,-1.2050001621246338,-0.8299996852874756,-0.7177032804036543,0.0,True,0.010228157043457031,-1.2050001621246338,-0.8299996852874756,-0.7177032828330994,0.0,0.5235987755982988,0.03345208004617186
1759827360.9022033,0,-1.2050001621246338,-0.8299996852874756,-0.7177032804949608,0.0,True,0.01030111312866211,-1.2050001621246338,-0.8299996852874756,-0.7177032828330994,0.0,0.5235987755982988,0.03294475154586309
1759827360.912376,0,-1.2050001621246338,-0.8299996852874756,-0.7177032805841321,0.0,True,0.010172605514526367,-1.2050001621246338,-0.8299996852874756,-0.7177032828330994,0.0,0.5235987755982988,0.0346321489332676
1759827360.923073,0,-1.2050001621246338,-0.8299996852874756,-0.71770328063986,0.0,True,0.010697126388549805,-1.2050001621246338,-0.8299996852874756,-0.7177032828330994,0.0,0.5235987755982988,0.0320227907766261
1759827360.9342573,0,-1.2050001621246338,-0.8299996852874756,-0.7177032806737635,0.0,True,0.011184215545654297,-1.2050001621246338,-0.8299996852874756,-0.7177032828330994,0.0,0.5235987755982988,0.03297474154228563
1759827360.9450142,0,-1.2050001621246338,-0.8299996852874756,-0.7177032807360302,0.0,True,0.010756969451904297,-1.2050001621246338,-0.8299996852874756,-0.7177032828330994,0.0,0.5235987755982988,0.035271546477333396
1759827360.956335,0,-1.2050001621246338,-0.8299996852874756,-0.7177032807757158,0.0,True,0.011320829391479492,-1.2050001621246338,-0.8299996852874756,-0.7177032828330994,0.0,0.5235987755982988,0.03339664217307659
1759827360.9676795,0,-1.2050001621246338,-0.8299996852874756,-0.7177032808213575,0.0,True,0.011344432830810547,-1.2050001621246338,-0.8299996852874756,-0.7177032828330994,0.0,0.5235987755982988,0.03307777434803786
1759827360.9787972,0,-1.2050001621246338,-0.8299996852874756,-0.7177032808826542,0.0,True,0.011117696762084961,-1.2050001621246338,-0.8299996852874756,-0.7177032828330994,0.0,0.5235987755982988,0.032679845597997775
1759827360.9922426,0,-1.2013245498656704,-0.8331758649498429,-0.7147844471002625,0.037021827345041836,True,0.013445377349853516,-1.1992846727371216,-0.8349365592002869,-0.7074083089828491,0.037021827345041836,0.5235987755982988,0.03418502384557628
1759827360.9999657,0,-1.1999813465686227,-0.8343356080614929,-0.7126091500629155,0.037021827345041836,True,0.007723093032836914,-1.1992846727371216,-0.8349365592002869,-0.7074083089828491,0.037021827345041836,0.5235987755982988,0.03484628769925
1759827361.0110307,0,-1.1994323788727164,-0.8348093136698768,-0.710930032414856,0.037021827345041836,True,0.011065006256103516,-1.1992846727371216,-0.8349365592002869,-0.7074083089828491,0.037021827345041836,0.5235987755982988,0.030627237899664247
1759827361.0222023,0,-1.1992213824903253,-0.8349910424549843,-0.7097189897735383,0.037021827345041836,True,0.011171579360961914,-1.1992846727371216,-0.8349365592002869,-0.7074083089828491,0.037021827345041836,0.5235987755982988,0.0324289624985498
1759827361.0328562,0,-1.199146218960866,-0.8350555449725525,-0.7088542874688404,0.037021827345041836,True,0.010653972625732422,-1.1992846727371216,-0.8349365592002869,-0.7074083089828491,0.037021827345041836,0.5235987755982988,0.03266040810887527
1759827361.0441563,0,-1.1991104911598613,-0.8350860347939599,-0.7082108841938481,0.037021827345041836,True,0.011300086975097656,-1.1992846727371216,-0.8349365592002869,-0.7074083089828491,0.037021827345041836,0.5235987755982988,0.03333233942908699
1759827361.055443,0,-1.199096922486348,-0.8350974819039635,-0.7077504267233152,0.037021827345041836,True,0.011286735534667969,-1.1992846727371216,-0.8349365592002869,-0.7074083089828491,0.037021827345041836,0.5235987755982988,0.03192617809807209
1759827361.0666718,0,-1.1990923155225166,-0.8351012671362608,-0.7074225606094764,0.037021827345041836,True,0.011228799819946289,-1.1992846727371216,-0.8349365592002869,-0.7074083089828491,0.037021827345041836,0.5235987755982988,0.03301306620435379
1759827361.0778787,0,-1.1990907585401,-0.8351024727838948,-0.7071902872528657,0.037021827345041836,True,0.011206865310668945,-1.1992846727371216,-0.8349365592002869,-0.7074083089828491,0.037021827345041836,0.5235987755982988,0.03164495960939393
1759827361.088127,0,-1.1991004448489013,-0.835094096544469,-0.7070507796759067,0.037021827345041836,True,0.010248184204101562,-1.1992846727371216,-0.8349365592002869,-0.7074083089828491,0.037021827345041836,0.5235987755982988,0.030032096880059866
1759827361.0994852,0,-1.1990921988741188,-0.8351010811732004,-0.7069231304178771,0.037021827345041836,True,0.011358261108398438,-1.1992846727371216,-0.8349365592002869,-0.7074083089828491,0.037021827345041836,0.5235987755982988,0.03036832131949934
1759827361.110736,0,-1.1990901923087292,-0.835102746200919,-0.7068437326288013,0.037021827345041836,True,0.011250734329223633,-1.1992846727371216,-0.8349365592002869,-0.7074083089828491,0.037021827345041836,0.5235987755982988,0.03149444296285352
1759827361.1219501,0,-1.199089810102462,-0.835103037794197,-0.7067928965402235,0.037021827345041836,True,0.011214256286621094,-1.1992846727371216,-0.8349365592002869,-0.7074083089828491,0.037021827345041836,0.5235987755982988,0.03087962612198852
1759827361.1327484,0,-1.1990941322925144,-0.8350993218772864,-0.7067712235494579,0.037021827345041836,True,0.010798215866088867,-1.1992846727371216,-0.8349365592002869,-0.7074083089828491,0.037021827345041836,0.5235987755982988,0.029027723136323687
1759827361.144096,0,-1.1990898748241487,-0.8351029454919778,-0.7067464081578692,0.037021827345041836,True,0.011347532272338867,-1.1992846727371216,-0.8349365592002869,-0.7074083089828491,0.037021827345041836,0.5235987755982988,0.029177336851645835
1759827361.1553912,0,-1.199088807598276,-0.8351038471736386,-0.7067377700210926,0.037021827345041836,True,0.011295318603515625,-1.1992846727371216,-0.8349365592002869,-0.7074083089828491,0.037021827345041836,0.5235987755982988,0.028986606069551786
1759827361.1666207,0,-1.1990891066731513,-0.8351035862410677,-0.7067385255047789,0.037021827345041836,True,0.011229515075683594,-1.1992846727371216,-0.8349365592002869,-0.7074083089828491,0.037021827345041836,0.5235987755982988,0.029596566148903342
1759827361.1779835,0,-1.19908778799794,-0.8351047108006645,-0.7067413233370505,0.037021827345041836,True,0.011362791061401367,-1.1992846727371216,-0.8349365592002869,-0.7074083089828491,0.037021827345041836,0.5235987755982988,0.028526897578482542
1759827361.1892078,0,-1.1990887740766565,-0.8351038684781584,-0.7067522059895062,0.037021827345041836,True,0.01122426986694336,-1.1992846727371216,-0.8349365592002869,-0.7074083089828491,0.037021827345041836,0.5235987755982988,0.030630636106982228
1759827361.229879,0,-1.18636825375249,-0.8454312792807868,-0.6890402938318658,0.10330402891801777,True,0.04067111015319824,-1.180482029914856,-0.850128710269928,-0.6544782519340515,0.10330402891801777,0.5235987755982988,0.027954440614367006
1759827361.240112,0,-1.1824185007967924,-0.848590934200574,-0.6777274371607653,0.10330402891801777,True,0.010233163833618164,-1.180482029914856,-0.850128710269928,-0.6544782519340515,0.10330402891801777,0.5235987755982988,0.03049124838969819
1759827361.250895,0,-1.1808901303681363,-0.8498079744822981,-0.6694930526481286,0.10330402891801777,True,0.010782957077026367,-1.180482029914856,-0.850128710269928,-0.6544782519340515,0.10330402891801777,0.5235987755982988,0.03211643424477912
1759827361.2623506,0,-1.1802834058145744,-0.8502866432371106,-0.6636269580010072,0.10330402891801777,True,0.011455535888671875,-1.180482029914856,-0.850128710269928,-0.6544782519340515,0.10330402891801777,0.5235987755982988,0.03053304466704309
1759827361.2725322,0,-1.180089654676013,-0.8504364815974782,-0.6596578077706852,0.10330402891801777,True,0.010181665420532227,-1.180482029914856,-0.850128710269928,-0.6544782519340515,0.10330402891801777,0.5235987755982988,0.027614914425190602
1759827361.28343,0,-1.1799923645245092,-0.8505098113840284,-0.6567355080285111,0.10330402891801777,True,0.01089787483215332,-1.180482029914856,-0.850128710269928,-0.6544782519340515,0.10330402891801777,0.5235987755982988,0.031231917235130607
1759827361.294277,0,-1.1799560477930144,-0.8505356223055234,-0.6546692212202316,0.10330402891801777,True,0.010846853256225586,-1.180482029914856,-0.850128710269928,-0.6544782519340515,0.10330402891801777,0.5235987755982988,0.03177652521233737
1759827361.305429,0,-1.179932100446686,-0.8505521331729724,-0.6531645109938395,0.10330402891801777,True,0.011152029037475586,-1.180482029914856,-0.850128710269928,-0.6544782519340515,0.10330402891801777,0.5235987755982988,0.030201709976668253
1759827361.3158495,0,-1.179945476792437,-0.8505403802302726,-0.6522078101874076,0.10330402891801777,True,0.010420560836791992,-1.180482029914856,-0.850128710269928,-0.6544782519340515,0.10330402891801777,0.5235987755982988,0.029376192875354222
1759827361.3265069,0,-1.1799429309269995,-0.8505412591609386,-0.6515077409596337,0.10330402891801777,True,0.010657310485839844,-1.180482029914856,-0.850128710269928,-0.6544782519340515,0.10330402891801777,0.5235987755982988,0.028419533119034154
1759827361.3371978,0,-1.1799407303820315,-0.8505421722224296,-0.6510283661011425,0.10330402891801777,True,0.010690927505493164,-1.180482029914856,-0.850128710269928,-0.6544782519340515,0.10330402891801777,0.5235987755982988,0.028268288956115186
1759827361.3473172,0,-1.179957703299422,-0.8505286924052677,-0.6507851969614133,0.10330402891801777,True,0.010119438171386719,-1.180482029914856,-0.850128710269928,-0.6544782519340515,0.10330402891801777,0.5235987755982988,0.029609334982756676
1759827361.3587809,0,-1.1799219431766037,-0.8505556186366033,-0.6504660920696796,0.10330402891801777,True,0.011463642120361328,-1.180482029914856,-0.850128710269928,-0.6544782519340515,0.10330402891801777,0.5235987755982988,0.03034596136505919
1759827361.369664,0,-1.1799264239666432,-0.8505519134227597,-0.6503544940209309,0.10330402891801777,True,0.010883092880249023,-1.180482029914856,-0.850128710269928,-0.6544782519340515,0.10330402891801777,0.5235987755982988,0.02833010546722754
1759827361.3807192,0,-1.1799227037265534,-0.8505545766378533,-0.6502841476389598,0.10330402891801777,True,0.011055231094360352,-1.180482029914856,-0.850128710269928,-0.6544782519340515,0.10330402891801777,0.5235987755982988,0.028127538711864016
1759827361.3917308,0,-1.1799226352214778,-0.8505545283033453,-0.6502746731562574,0.10330402891801777,True,0.011011600494384766,-1.180482029914856,-0.850128710269928,-0.6544782519340515,0.10330402891801777,0.5235987755982988,0.031487962756418575
1759827361.4175985,0,-1.167134028184308,-0.8597336949699811,-0.6313423578062736,0.12894589367982864,True,0.025867700576782227,-1.160871982574463,-0.8641600012779236,-0.5941869616508484,0.12894589367982864,0.5235987755982988,0.029948349882085133
1759827361.4290438,0,-1.1628085665945458,-0.8628016760233619,-0.6186085767235561,0.12894589367982864,True,0.011445283889770508,-1.160871982574463,-0.8641600012779236,-0.5941869616508484,0.12894589367982864,0.5235987755982988,0.028801716575081255
1759827361.4404476,0,-1.1611539640099273,-0.8639666812905831,-0.6093283201767772,0.12894589367982864,True,0.011403799057006836,-1.160871982574463,-0.8641600012779236,-0.5941869616508484,0.12894589367982864,0.5235987755982988,0.029905378877001284
