timestamp,observer_vehicle_id,vehicle_0_x,vehicle_0_y,vehicle_0_theta,vehicle_0_velocity,vehicle_1_x,vehicle_1_y,vehicle_1_theta,vehicle_1_velocity
1759839077.9925578,1,0.0,0.0,0.0,0.0,-1.735,-0.35,-0.7801621756414646,0.0
1759839078.0038972,1,0.0,0.0,0.0,0.0,-1.735,-0.35,-0.7801621756414646,0.0
1759839078.014231,1,0.0,0.0,0.0,0.0,-1.735,-0.35,-0.7801621756414646,0.0
1759839078.0253437,1,0.0,0.0,0.0,0.0,-1.735,-0.35,-0.7801621756414646,0.0
1759839078.0354083,1,0.0,0.0,0.0,0.0,-1.735,-0.35,-0.7801621756414646,0.0
1759839078.0469942,1,0.0,0.0,0.0,0.0,-1.735,-0.35,-0.7801621756414646,0.0
1759839078.0583606,1,0.0,0.0,0.0,0.0,-1.735,-0.35,-0.7801621756414646,0.0
1759839078.069051,1,0.0,0.0,0.0,0.0,-1.735,-0.35,-0.7801621756414646,0.0
1759839078.0792248,1,0.0,0.0,0.0,0.0,-1.735,-0.35,-0.7801621756414646,0.0
1759839078.0892594,1,0.0,0.0,0.0,0.0,-1.735,-0.35,-0.7801621756414646,0.0
1759839078.099342,1,0.0,0.0,0.0,0.0,-1.735,-0.35,-0.7801621756414646,0.0
1759839078.1107116,1,0.0,0.0,0.0,0.0,-1.735,-0.35,-0.7801621756414646,0.0
1759839078.1209219,1,0.0,0.0,0.0,0.0,-1.735,-0.35,-0.7801621756414646,0.0
1759839078.132284,1,0.0,0.0,0.0,0.0,-1.735,-0.35,-0.7801621756414646,0.0
1759839078.1437886,1,0.0,0.0,0.0,0.0,-1.735,-0.35,-0.7801621756414646,0.0
1759839078.1548064,1,0.0,0.0,0.0,0.0,-1.735,-0.35,-0.7801621756414646,0.0
1759839078.1651886,1,0.0,0.0,0.0,0.0,-1.735,-0.35,-0.7801621756414646,0.0
1759839078.1752715,1,0.0,0.0,0.0,0.0,-1.735,-0.35,-0.7801621756414646,0.0
1759839078.1887002,1,0.0,0.0,0.0,0.0,-1.734999777754148,-0.34999981676538783,-0.7229998935156665,0.0
1759839078.1988258,1,0.0,0.0,0.0,0.0,-1.7349997765108072,-0.3499998157402931,-0.7181206266673286,0.0
1759839078.2098382,1,0.0,0.0,0.0,0.0,-1.734999776120719,-0.34999981541867786,-0.7176581174391962,0.0
1759839078.221277,1,0.0,0.0,0.0,0.0,-1.7349997759757527,-0.34999981529915786,-0.7175951185104275,0.0
1759839078.2322607,1,0.0,0.0,0.0,0.0,-1.7349997759206006,-0.3499998152536867,-0.7175895262180738,0.0
1759839078.2437737,1,0.0,0.0,0.0,0.0,-1.7349997758995466,-0.3499998152363283,-0.7175967263171952,0.0
1759839078.2539542,1,0.0,0.0,0.0,0.0,-1.7349997758915052,-0.34999981522969853,-0.7176108331998279,0.0
1759839078.264924,1,0.0,0.0,0.0,0.0,-1.734999775888434,-0.3499998152271662,-0.7176220901759436,0.0
1759839078.2761226,1,0.0,0.0,0.0,0.0,-1.7349997758872606,-0.349999815226199,-0.7176319130720898,0.0
1759839078.2872844,1,0.0,0.0,0.0,0.0,-1.7349997758868125,-0.3499998152258295,-0.7176406239925265,0.0
1759839078.2981436,1,-0.2392943906784058,-0.16482518196105958,1.7424308899817744,0.0,-1.7349997758866413,-0.3499998152256884,-0.7176483435645018,0.0
1759839078.3090494,1,-0.42896226352268746,-0.29546778317330336,-3.138977475785975,0.0,-1.734999775886576,-0.3499998152256345,-0.7176546540033151,0.0
1759839078.3202894,1,-0.5796341860584747,-0.39925010326019417,-0.7839183232703861,0.0,-1.7349997758865512,-0.3499998152256139,-0.7176596219061616,0.0
1759839078.3316548,1,-0.699630831924525,-0.4819033946036147,1.113742847843188,0.0,-1.7349997758865416,-0.349999815225606,-0.7176638035928757,0.0
1759839078.3418264,1,-0.8008253236237528,-0.5516058245707177,-1.776758554005436,0.0,-1.7349997758865379,-0.34999981522560303,-0.7176682282410898,0.0
1759839078.3527656,1,-0.8808724934009898,-0.6067420493965323,0.31794400330401396,0.0,-1.7349997758865365,-0.3499998152256019,-0.7176713132955079,0.0
1759839078.3632815,1,-0.9443845465889542,-0.6504889408040099,1.9999669326153084,0.0,-1.734999775886536,-0.3499998152256015,-0.7176741790019374,0.0
1759839078.3735354,1,-0.9949170910502848,-0.6852955896860882,-2.9252106947877667,0.0,-1.7349997758865359,-0.3499998152256013,-0.7176767383214653,0.0
1759839078.3875844,1,-1.0350612355057263,-0.7129467431284255,-0.618428718655111,0.0,-1.7349997758865356,-0.34999981522560125,-0.7176770371229287,0.0
1759839078.3990095,1,-1.0689659618723597,-0.7363002061029532,1.2467205493805837,0.0,-1.7349997758865356,-0.3499998152256012,-0.717679036550793,0.0
1759839078.4105346,1,-1.09579274505723,-0.7547784053091293,2.744279271332577,0.0,-1.7349997758865356,-0.3499998152256012,-0.7176808599683167,0.0
1759839078.4205427,1,-1.1171105235042222,-0.7694620203390079,-2.3297459106079614,0.0,-1.7349997758865356,-0.3499998152256012,-0.7176830613227931,0.0
1759839078.43061,1,-1.1340900090281263,-0.7811574336044357,-0.13335756328022239,0.0,-1.7349997758865356,-0.3499998152256012,-0.7176848111270715,0.0
1759839078.4408512,1,-1.1476439633585804,-0.7904933523548728,1.6399044689481868,0.0,-1.7349997758865356,-0.3499998152256012,-0.7176861559852696,0.0
1759839078.4518588,1,-1.1584809032055572,-0.797957800548226,3.0794100232067163,0.0,-1.7349997758865356,-0.3499998152256012,-0.7176870206061706,0.0
1759839078.4631906,1,-1.1676716163735,-0.8042883332697134,-2.069009994003689,0.0,-1.7349997758865356,-0.3499998152256012,-0.7176877226792584,0.0
1759839078.4744337,1,-1.1749625957536485,-0.8093103356643386,0.07988289111292193,0.0,-1.7349997758865356,-0.3499998152256012,-0.7176884569132422,0.0
1759839078.4865139,1,-1.1807569296153415,-0.8133014535939694,1.8109810451226347,0.0,-1.7349997758865356,-0.3499998152256012,-0.7176889384767335,0.0
1759839078.4980788,1,-1.1853774395236465,-0.8164840454810177,-3.0691929453522304,0.0,-1.7349997758865356,-0.3499998152256012,-0.7176896241663719,0.0
1759839078.509511,1,-1.1893001725589847,-0.8191859495677664,-2.5991120445393934,0.0,-1.7349997758865356,-0.3499998152256012,-0.7176903371822263,0.0
1759839078.519531,1,-1.1924072582825702,-0.8213260512618675,-2.226774278321815,0.0,-1.7349997758865356,-0.3499998152256012,-0.7176913534273783,0.0
1759839078.5298994,1,-1.194873326785115,-0.8230246324564591,-1.9312528414309331,0.0,-1.7349997758865356,-0.3499998152256012,-0.7176921179787961,0.0
1759839078.540406,1,-1.1968351852824899,-0.8243759233661202,-1.6961534346129568,0.0,-1.7349997758865356,-0.3499998152256012,-0.7176927282310359,0.0
1759839078.5506358,1,-1.198400270253834,-0.8254539241992356,-1.508601402254305,0.0,-1.7349997758865356,-0.3499998152256012,-0.7176933238909307,0.0
1759839078.5620172,1,-1.1996503322949055,-0.8263149432150679,-1.3588001578043043,0.0,-1.7349997758865356,-0.3499998152256012,-0.7176936041654756,0.0
1759839078.5727654,1,-1.200709176676384,-0.8270442551350418,-1.231913490732639,0.0,-1.7349997758865356,-0.3499998152256012,-0.7176940312706499,0.0
1759839078.582803,1,-1.201549839087053,-0.8276232874531987,-1.1311726705629372,0.0,-1.7349997758865356,-0.3499998152256012,-0.7176945791870484,0.0
1759839078.5930746,1,-1.202218716265104,-0.828083997362496,-1.0510177419560733,0.0,-1.7349997758865356,-0.3499998152256012,-0.7176950128185046,0.0
1759839078.6042252,1,-1.20275172243038,-0.8284511218961436,-0.9871449226602568,0.0,-1.7349997758865356,-0.3499998152256012,-0.7176952387160931,0.0
1759839078.6147537,1,-1.2032016103232652,-0.8287609961408129,-0.9332325855098483,0.0,-1.7349997758865356,-0.3499998152256012,-0.7176955863723826,0.0
1759839078.6261582,1,-1.2035573783070324,-0.8290060423778662,-0.8905991121679213,0.0,-1.7349997758865356,-0.3499998152256012,-0.717695774490096,0.0
1759839078.636209,1,-1.2038398723090586,-0.8292006188865608,-0.8567464299306972,0.0,-1.7349997758865356,-0.3499998152256012,-0.7176962014032888,0.0
1759839078.6476471,1,-1.204064400277023,-0.8293552694908124,-0.829840110156294,0.0,-1.7349997758865356,-0.3499998152256012,-0.7176963714185884,0.0
1759839078.657932,1,-1.204243554939081,-0.8294786678228461,-0.8083711026642495,0.0,-1.7349997758865356,-0.3499998152256012,-0.7176967271588897,0.0
1759839078.6681464,1,-1.204386864209035,-0.8295773765289113,-0.7911976294485278,0.0,-1.7349997758865356,-0.3499998152256012,-0.7176970623666127,0.0
1759839078.6796632,1,-1.2045083806315484,-0.8296610747351462,-0.7766357031476445,0.0,-1.7349997758865356,-0.3499998152256012,-0.7176971803621425,0.0
1759839078.6910174,1,-1.204604703513007,-0.8297274201083121,-0.7650928460434264,0.0,-1.7349997758865356,-0.3499998152256012,-0.7176973450113131,0.0
1759839078.7023137,1,-1.2046812666522058,-0.8297801553459213,-0.7559178985974853,0.0,-1.7349997758865356,-0.3499998152256012,-0.7176975393232752,0.0
1759839078.7125695,1,-1.2047423526057923,-0.8298222301917372,-0.7485976604292678,0.0,-1.7349997758865356,-0.3499998152256012,-0.7176978681797053,0.0
1759839078.7225776,1,-1.2047940305092888,-0.8298578249511547,-0.7424048363933451,0.0,-1.7349997758865356,-0.3499998152256012,-0.7176981880506954,0.0
1759839078.7334921,1,-1.2048348996126,-0.8298859748140852,-0.7375072854443405,0.0,-1.7349997758865356,-0.3499998152256012,-0.7176983576348803,0.0
1759839078.7447152,1,-1.2048672947693444,-0.8299082879834011,-0.7336252102872419,0.0,-1.7349997758865356,-0.3499998152256012,-0.7176984877412593,0.0
1759839078.756133,1,-1.204893036336899,-0.8299260182867251,-0.7305404683087617,0.0,-1.7349997758865356,-0.3499998152256012,-0.7176986105164627,0.0
1759839078.767514,1,-1.2049135469251557,-0.8299401455907586,-0.7280825809845304,0.0,-1.7349997758865356,-0.3499998152256012,-0.7176987539399899,0.0
1759839078.7789817,1,-1.2049308248846327,-0.8299520463214228,-0.7260120758846579,0.0,-1.7349997758865356,-0.3499998152256012,-0.7176988992968596,0.0
1759839078.7916033,1,-1.2049444812148826,-0.8299614525425905,-0.7243755688963314,0.0,-1.7349997758865356,-0.3499998152256012,-0.7176989460787073,0.0
1759839078.8031504,1,-1.2049553192693423,-0.8299689175888664,-0.7230767901220606,0.0,-1.7349997758865356,-0.3499998152256012,-0.7176991266412358,0.0
1759839078.8141606,1,-1.204963948996678,-0.8299748615813191,-0.7220426463342555,0.0,-1.7349997758865356,-0.3499998152256012,-0.7176993542604819,0.0
1759839078.8243842,1,-1.2049708439410007,-0.8299796106881473,-0.7212163903517316,0.0,-1.7349997758865356,-0.3499998152256012,-0.7176996228066503,0.0
1759839078.8345618,1,-1.2049766848308705,-0.8299836337822674,-0.7205164470349817,0.0,-1.7349997758865356,-0.3499998152256012,-0.7176998521016209,0.0
1759839078.8451662,1,-1.204981312282053,-0.8299868210828428,-0.7199619162013168,0.0,-1.7349997758865356,-0.3499998152256012,-0.7177000108085068,0.0
1759839078.8563385,1,-1.204984985528314,-0.8299893511451731,-0.7195217325600384,0.0,-1.7349997758865356,-0.3499998152256012,-0.7177001095340749,0.0
1759839078.866518,1,-1.2049879120753806,-0.8299913668952659,-0.7191710296523909,0.0,-1.7349997758865356,-0.3499998152256012,-0.7177002816852678,0.0
1759839078.8766272,1,-1.2049902495202864,-0.8299929768829676,-0.7188909218303593,0.0,-1.7349997758865356,-0.3499998152256012,-0.7177004406894589,0.0
1759839078.8877926,1,-1.204992118819248,-0.8299942644206251,-0.7186669142999463,0.0,-1.7349997758865356,-0.3499998152256012,-0.7177005080412844,0.0
1759839078.8982012,1,-1.2049937168203622,-0.8299953650934727,-0.7184754177600517,0.0,-1.7349997758865356,-0.3499998152256012,-0.7177006301886024,0.0
1759839078.9088025,1,-1.2049949836734204,-0.8299962376778226,-0.7183236043632603,0.0,-1.7349997758865356,-0.3499998152256012,-0.7177007338652128,0.0
1759839078.919628,1,-1.204995990309151,-0.8299969310294144,-0.7182029741223702,0.0,-1.7349997758865356,-0.3499998152256012,-0.7177008186814255,0.0
1759839078.9297233,1,-1.2049967928424288,-0.8299974837991093,-0.7181068025086489,0.0,-1.7349997758865356,-0.3499998152256012,-0.7177009466054827,0.0
1759839078.9401135,1,-1.2049974339906036,-0.8299979254098074,-0.7180299704864528,0.0,-1.7349997758865356,-0.3499998152256012,-0.7177010451230856,0.0
1759839078.950761,1,-1.204997978246807,-0.8299983002831539,-0.717964749518296,0.0,-1.7349997758865356,-0.3499998152256012,-0.7177011215629108,0.0
1759839078.96111,1,-1.204998409404996,-0.8299985972567339,-0.7179130816561109,0.0,-1.7349997758865356,-0.3499998152256012,-0.7177012130359248,0.0
1759839078.971525,1,-1.204998751789715,-0.829998833084832,-0.7178720519669513,0.0,-1.7349997758865356,-0.3499998152256012,-0.7177012961998042,0.0
1759839078.9819288,1,-1.2049990243567608,-0.8299990208238416,-0.7178393888820003,0.0,-1.7349997758865356,-0.3499998152256012,-0.7177013755843902,0.0
1759839078.9949343,1,-1.204999241286947,-0.8299991702412379,-0.7178133930427639,0.0,-1.7349997758865356,-0.3499998152256012,-0.7177013268172292,0.0
1759839079.0053213,1,-1.2049994249849658,-0.8299992967689479,-0.7177913795818915,0.0,-1.7349997758865356,-0.3499998152256012,-0.7177014345950069,0.0
1759839079.0157375,1,-1.204999570501396,-0.8299993969979041,-0.7177739416135053,0.0,-1.7349997758865356,-0.3499998152256012,-0.7177015373895853,0.0
1759839079.026282,1,-1.2049996860442054,-0.829999476581599,-0.7177600955354243,0.0,-1.7349997758865356,-0.3499998152256012,-0.7177016224826502,0.0
1759839079.0376554,1,-1.2049997779388208,-0.8299995398768666,-0.7177490833397889,0.0,-1.7349997758865356,-0.3499998152256012,-0.7177016651021174,0.0
1759839079.0488648,1,-1.204999851234329,-0.8299995903614219,-0.7177402999690525,0.0,-1.7349997758865356,-0.3499998152256012,-0.7177017192669446,0.0
1759839079.059729,1,-1.2049999131921585,-0.8299996330367994,-0.7177328752495816,0.0,-1.7349997758865356,-0.3499998152256012,-0.7177017903559388,0.0
1759839079.071059,1,-1.2049999622382368,-0.8299996668188077,-0.717726997810425,0.0,-1.7349997758865356,-0.3499998152256012,-0.7177018414159022,0.0
1759839079.0819213,1,-1.2050000011867334,-0.8299996936457932,-0.7177223304154741,0.0,-1.7349997758865356,-0.3499998152256012,-0.7177019110220186,0.0
1759839079.0932775,1,-1.2050000321804666,-0.8299997149936884,-0.7177186162800013,0.0,-1.7349997758865356,-0.3499998152256012,-0.7177019601805679,0.0
1759839079.1040318,1,-1.2050000569258734,-0.8299997320378552,-0.7177156509129907,0.0,-1.7349997758865356,-0.3499998152256012,-0.7177020305473824,0.0
1759839079.1141393,1,-1.2050000779156584,-0.8299997464952208,-0.7177131356010996,0.0,-1.7349997758865356,-0.3499998152256012,-0.7177021169441389,0.0
1759839079.1250231,1,-1.2050000945341532,-0.8299997579417248,-0.717711144122978,0.0,-1.7349997758865356,-0.3499998152256012,-0.7177021671068111,0.0
1759839079.1353981,1,-1.2050001077327663,-0.8299997670326792,-0.7177095624665324,0.0,-1.7349997758865356,-0.3499998152256012,-0.7177022295188512,0.0
1759839079.1466506,1,-1.2050001182316354,-0.8299997742641011,-0.7177083043340411,0.0,-1.7349997758865356,-0.3499998152256012,-0.7177022607910288,0.0
1759839079.1580791,1,-1.2050001266036567,-0.8299997800305905,-0.717707301072473,0.0,-1.7349997758865356,-0.3499998152256012,-0.7177022897163088,0.0
1759839079.1696296,1,-1.2050001336777996,-0.8299997849031258,-0.7177064533422371,0.0,-1.7349997758865356,-0.3499998152256012,-0.7177023203526112,0.0
1759839079.1800413,1,-1.2050001392838627,-0.8299997887644756,-0.7177057815393978,0.0,-1.7349997758865356,-0.3499998152256012,-0.717702385313185,0.0
1759839079.1956403,1,-1.2050001437138713,-0.8299997918157814,-0.7177052506691078,0.0,-1.7349997758865356,-0.3499998152256012,-0.7177023144497152,0.0
1759839079.206043,1,-1.2050001472463674,-0.8299997942488978,-0.7177048273522567,0.0,-1.7349997758865356,-0.3499998152256012,-0.7177024026584071,0.0
1759839079.2164483,1,-1.2050001502282583,-0.8299997963027675,-0.7177044700172391,0.0,-1.7349997758865356,-0.3499998152256012,-0.7177024840079635,0.0
1759839079.2278311,1,-1.205000152585438,-0.8299997979263481,-0.7177041875445078,0.0,-1.7349997758865356,-0.3499998152256012,-0.7177025289084256,0.0
1759839079.2389252,1,-1.205000154454394,-0.8299997992136496,-0.7177039635780763,0.0,-1.7349997758865356,-0.3499998152256012,-0.7177025756159487,0.0
1759839079.250196,1,-1.205000155939887,-0.829999800236829,-0.7177037855639455,0.0,-1.7349997758865356,-0.3499998152256012,-0.7177026150244572,0.0
1759839079.2612686,1,-1.2050001571239888,-0.8299998010524158,-0.7177036436670537,0.0,-1.7349997758865356,-0.3499998152256012,-0.7177026562686386,0.0
1759839079.2724044,1,-1.20500015812456,-0.8299998017415903,-0.7177035237635412,0.0,-1.7349997758865356,-0.3499998152256012,-0.7177026934770829,0.0
1759839079.2831583,1,-1.2050001589163253,-0.8299998022869433,-0.7177034288823084,0.0,-1.7349997758865356,-0.3499998152256012,-0.7177027355665864,0.0
1759839079.2944446,1,-1.2050001595441284,-0.8299998027193622,-0.7177033536494872,0.0,-1.7349997758865356,-0.3499998152256012,-0.7177027640531186,0.0
1759839079.3056128,1,-1.205000160043319,-0.8299998030631951,-0.7177032938289789,0.0,-1.7349997758865356,-0.3499998152256012,-0.7177027939125651,0.0
1759839079.3164954,1,-1.2050001604414124,-0.8299998033373944,-0.7177032461234115,0.0,-1.7349997758865356,-0.3499998152256012,-0.7177028278932056,0.0
1759839079.327888,1,-1.205000160777187,-0.8299998035686694,-0.7177032058858756,0.0,-1.7349997758865356,-0.3499998152256012,-0.7177028512679708,0.0
1759839079.3391652,1,-1.2050001610429408,-0.8299998037517157,-0.7177031740392412,0.0,-1.7349997758865356,-0.3499998152256012,-0.7177028767169418,0.0
1759839079.350045,1,-1.205000161253927,-0.829999803897039,-0.7177031487557044,0.0,-1.7349997758865356,-0.3499998152256012,-0.7177029081430248,0.0
1759839079.360255,1,-1.205000161421982,-0.8299998040127919,-0.7177031286168326,0.0,-1.7349997758865356,-0.3499998152256012,-0.7177029470723824,0.0
1759839079.3709686,1,-1.205000161556095,-0.8299998041051665,-0.7177031125453822,0.0,-1.7349997758865356,-0.3499998152256012,-0.7177029735729796,0.0
1759839079.3819895,1,-1.2050001616698975,-0.8299998041835516,-0.7177030989078458,0.0,-1.7349997758865356,-0.3499998152256012,-0.7177029933141554,0.0
1759839079.3985,1,-1.205000161759419,-0.8299998042452122,-0.7177030881800336,0.0,-1.7349997758865356,-0.3499998152256012,-0.7177029417346237,0.0
1759839079.409681,1,-1.2050001618305002,-0.8299998042941716,-0.7177030796620184,0.0,-1.7349997758865356,-0.3499998152256012,-0.7177029798267345,0.0
1759839079.419804,1,-1.2050001618871515,-0.829999804333192,-0.7177030728732137,0.0,-1.7349997758865356,-0.3499998152256012,-0.7177030304356578,0.0
1759839079.4304276,1,-1.2050001619323871,-0.8299998043643493,-0.717703067452425,0.0,-1.7349997758865356,-0.3499998152256012,-0.7177030658162167,0.0
1759839079.4421515,1,-1.2050001619706279,-0.8299998043906888,-0.7177030628698422,0.0,-1.7349997758865356,-0.3499998152256012,-0.7177030825730988,0.0
1759839079.45288,1,-1.2050001620009314,-0.8299998044115613,-0.7177030592384026,0.0,-1.7349997758865356,-0.3499998152256012,-0.7177031097223932,0.0
1759839079.4636815,1,-1.205000162025005,-0.8299998044281427,-0.7177030563535428,0.0,-1.7349997758865356,-0.3499998152256012,-0.7177031333720869,0.0
1759839079.4749358,1,-1.2050001620441695,-0.8299998044413428,-0.7177030540569754,0.0,-1.7349997758865356,-0.3499998152256012,-0.7177031498246009,0.0
1759839079.4856951,1,-1.2050001620594744,-0.8299998044518845,-0.7177030522229206,0.0,-1.7349997758865356,-0.3499998152256012,-0.7177031705137136,0.0
1759839079.4969718,1,-1.205000162071721,-0.8299998044603198,-0.7177030507553253,0.0,-1.7349997758865356,-0.3499998152256012,-0.717703184667954,0.0
1759839079.50801,1,-1.2050001620821773,-0.829999804467522,-0.7177030495022968,0.0,-1.7349997758865356,-0.3499998152256012,-0.7177032008175566,0.0
1759839079.5184011,1,-1.205000162090479,-0.8299998044732401,-0.7177030485074573,0.0,-1.7349997758865356,-0.3499998152256012,-0.7177032220702255,0.0
1759839079.5296977,1,-1.2050001620970805,-0.829999804477787,-0.717703047716391,0.0,-1.7349997758865356,-0.3499998152256012,-0.7177032332005009,0.0
1759839079.540118,1,-1.2050001621023485,-0.8299998044814154,-0.7177030470851002,0.0,-1.7349997758865356,-0.3499998152256012,-0.7177032515802146,0.0
1759839079.5503645,1,-1.2050001621065636,-0.8299998044843188,-0.7177030465799799,0.0,-1.7349997758865356,-0.3499998152256012,-0.7177032696472736,0.0
1759839079.5611963,1,-1.205000162110163,-0.829999804486798,-0.7177030461486367,0.0,-1.7349997758865356,-0.3499998152256012,-0.7177032809447361,0.0
1759839079.5719013,1,-1.2050001621130144,-0.8299998044887621,-0.7177030458069266,0.0,-1.7349997758865356,-0.3499998152256012,-0.7177032927278688,0.0
1759839079.58313,1,-1.205000162115278,-0.8299998044903212,-0.7177030455356779,0.0,-1.7349997758865356,-0.3499998152256012,-0.7177033003995028,0.0
1759839079.5957606,1,-1.205000162117077,-0.8299998044915602,-0.7177030453201021,0.0,-1.7349997758865356,-0.3499998152256012,-0.7177032991723173,0.0
1759839079.6065605,1,-1.2050001621185136,-0.8299998044925497,-0.7177030451479331,0.0,-1.7349997758865356,-0.3499998152256012,-0.7177033139492403,0.0
1759839079.617264,1,-1.205000162119729,-0.829999804493387,-0.7177030450022658,0.0,-1.7349997758865356,-0.3499998152256012,-0.7177033288377288,0.0
1759839079.627485,1,-1.2050001621206932,-0.829999804494051,-0.7177030448867318,0.0,-1.7349997758865356,-0.3499998152256012,-0.7177033451158473,0.0
1759839079.6386948,1,-1.205000162121459,-0.8299998044945784,-0.7177030447949672,0.0,-1.7349997758865356,-0.3499998152256012,-0.7177033531597417,0.0
1759839079.6495793,1,-1.2050001621220692,-0.8299998044949987,-0.7177030447218633,0.0,-1.7349997758865356,-0.3499998152256012,-0.7177033630111005,0.0
1759839079.6603467,1,-1.2050001621225563,-0.8299998044953343,-0.7177030446634683,0.0,-1.7349997758865356,-0.3499998152256012,-0.7177033732617701,0.0
1759839079.6711779,1,-1.2050001621229693,-0.8299998044956187,-0.7177030446139795,0.0,-1.7349997758865356,-0.3499998152256012,-0.7177033825758876,0.0
1759839079.6819143,1,-1.2050001621232966,-0.8299998044958442,-0.7177030445747569,0.0,-1.7349997758865356,-0.3499998152256012,-0.7177033919363982,0.0
1759839079.6929727,1,-1.2050001621235567,-0.8299998044960233,-0.7177030445436016,0.0,-1.7349997758865356,-0.3499998152256012,-0.717703399139479,0.0
1759839079.7041774,1,-1.2050001621237636,-0.8299998044961658,-0.7177030445187932,0.0,-1.7349997758865356,-0.3499998152256012,-0.7177034056549944,0.0
1759839079.7142646,1,-1.205000162123929,-0.8299998044962799,-0.717703044498963,0.0,-1.7349997758865356,-0.3499998152256012,-0.7177034177641186,0.0
1759839079.7253244,1,-1.2050001621240694,-0.8299998044963764,-0.7177030444821466,0.0,-1.7349997758865356,-0.3499998152256012,-0.7177034239743847,0.0
1759839079.7365727,1,-1.2050001621241804,-0.8299998044964529,-0.7177030444688313,0.0,-1.7349997758865356,-0.3499998152256012,-0.7177034292281483,0.0
1759839079.746779,1,-1.2050001621242687,-0.8299998044965138,-0.7177030444582485,0.0,-1.7349997758865356,-0.3499998152256012,-0.7177034393861881,0.0
1759839079.7582347,1,-1.205000162124339,-0.8299998044965622,-0.717703044449828,0.0,-1.7349997758865356,-0.3499998152256012,-0.7177034433293876,0.0
1759839079.7686493,1,-1.205000162124395,-0.8299998044966008,-0.7177030444431026,0.0,-1.7349997758865356,-0.3499998152256012,-0.7177034518848515,0.0
1759839079.7797797,1,-1.2050001621244426,-0.8299998044966335,-0.7177030444374224,0.0,-1.7349997758865356,-0.3499998152256012,-0.7177034570364071,0.0
1759839079.792142,1,-1.2050001621244801,-0.8299998044966593,-0.7177030444329275,0.0,-1.7349997758865356,-0.3499998152256012,-0.7177034576594217,0.0
1759839079.8020873,1,-1.2050001621245099,-0.8299998044966799,-0.7177030444293514,0.0,-1.7349997758865356,-0.3499998152256012,-0.7177034685596907,0.0
1759839079.812884,1,-1.2050001621245336,-0.8299998044966963,-0.7177030444265021,0.0,-1.7349997758865356,-0.3499998152256012,-0.7177034752400537,0.0
1759839079.8237894,1,-1.2050001621245527,-0.8299998044967094,-0.7177030444242264,0.0,-1.7349997758865356,-0.3499998152256012,-0.7177034808488578,0.0
1759839079.8349383,1,-1.205000162124569,-0.8299998044967204,-0.7177030444223014,0.0,-1.7349997758865356,-0.3499998152256012,-0.7177034854301674,0.0
1759839079.8450787,1,-1.2050001621245816,-0.8299998044967292,-0.7177030444207739,0.0,-1.7349997758865356,-0.3499998152256012,-0.7177034932442545,0.0
1759839079.8563013,1,-1.2050001621245918,-0.829999804496736,-0.7177030444195603,0.0,-1.7349997758865356,-0.3499998152256012,-0.7177034968717848,0.0
1759839079.8669903,1,-1.2050001621245998,-0.8299998044967416,-0.717703044418593,0.0,-1.7349997758865356,-0.3499998152256012,-0.7177035021433866,0.0
1759839079.8785396,1,-1.2050001621246065,-0.8299998044967463,-0.717703044417778,0.0,-1.7349997758865356,-0.3499998152256012,-0.7177035047669627,0.0
1759839079.8894796,1,-1.2050001621246118,-0.82999980449675,-0.7177030444171331,0.0,-1.7349997758865356,-0.3499998152256012,-0.7177035095035649,0.0
1759839079.8997195,1,-1.205000162124616,-0.829999804496753,-0.7177030444166212,0.0,-1.7349997758865356,-0.3499998152256012,-0.7177035160253045,0.0
1759839079.9098966,1,-1.2050001621246196,-0.8299998044967554,-0.717703044416214,0.0,-1.7349997758865356,-0.3499998152256012,-0.7177035219296926,0.0
1759839079.9213555,1,-1.2050001621246222,-0.8299998044967573,-0.7177030444158895,0.0,-1.7349997758865356,-0.3499998152256012,-0.7177035238780753,0.0
1759839079.9317327,1,-1.2050001621246245,-0.8299998044967588,-0.7177030444156155,0.0,-1.7349997758865356,-0.3499998152256012,-0.7177035287727147,0.0
1759839079.9420698,1,-1.2050001621246262,-0.8299998044967601,-0.7177030444153985,0.0,-1.7349997758865356,-0.3499998152256012,-0.7177035334439985,0.0
1759839079.9522223,1,-1.2050001621246276,-0.8299998044967611,-0.7177030444152263,0.0,-1.7349997758865356,-0.3499998152256012,-0.7177035380536836,0.0
1759839079.9626894,1,-1.205000162124629,-0.8299998044967619,-0.7177030444150894,0.0,-1.7349997758865356,-0.3499998152256012,-0.7177035414713959,0.0
1759839079.9728463,1,-1.2050001621246298,-0.8299998044967626,-0.71770304441498,0.0,-1.7349997758865356,-0.3499998152256012,-0.7177035453301102,0.0
1759839079.983911,1,-1.2050001621246307,-0.829999804496763,-0.7177030444148929,0.0,-1.7349997758865356,-0.3499998152256012,-0.7177035470236782,0.0
1759839079.9972687,1,-1.2050001621246311,-0.8299998044967635,-0.7177030444148191,0.0,-1.7349997758865356,-0.3499998152256012,-0.7177035445210347,0.0
1759839080.0084176,1,-1.2050001621246316,-0.8299998044967638,-0.7177030444147607,0.0,-1.7349997758865356,-0.3499998152256012,-0.717703547898248,0.0
1759839080.0193586,1,-1.205000162124632,-0.829999804496764,-0.7177030444147142,0.0,-1.7349997758865356,-0.3499998152256012,-0.7177035518790227,0.0
1759839080.0304463,1,-1.2050001621246325,-0.8299998044967642,-0.7177030444146772,0.0,-1.7349997758865356,-0.3499998152256012,-0.717703555289166,0.0
1759839080.041715,1,-1.205000162124633,-0.8299998044967645,-0.7177030444146459,0.0,-1.7349997758865356,-0.3499998152256012,-0.7177035581679654,0.0
1759839080.0522077,1,-1.205000162124633,-0.8299998044967647,-0.7177030444146211,0.0,-1.7349997758865356,-0.3499998152256012,-0.7177035622269567,0.0
1759839080.0624528,1,-1.205000162124633,-0.8299998044967647,-0.7177030444146013,0.0,-1.7349997758865356,-0.3499998152256012,-0.7177035662246762,0.0
1759839080.0737228,1,-1.205000162124633,-0.8299998044967647,-0.7177030444145857,0.0,-1.7349997758865356,-0.3499998152256012,-0.7177035681058967,0.0
1759839080.0839267,1,-1.205000162124633,-0.8299998044967647,-0.7177030444145731,0.0,-1.7349997758865356,-0.3499998152256012,-0.7177035715820459,0.0
1759839080.0953522,1,-1.205000162124633,-0.8299998044967647,-0.7177030444145626,0.0,-1.7349997758865356,-0.3499998152256012,-0.7177035729655296,0.0
1759839080.105629,1,-1.205000162124633,-0.8299998044967647,-0.7177030444145542,0.0,-1.7349997758865356,-0.3499998152256012,-0.7177035760691659,0.0
1759839080.1165159,1,-1.205000162124633,-0.8299998044967647,-0.7177030444145476,0.0,-1.7349997758865356,-0.3499998152256012,-0.7177035780907435,0.0
1759839080.126919,1,-1.205000162124633,-0.8299998044967647,-0.7177030444145422,0.0,-1.7349997758865356,-0.3499998152256012,-0.7177035806524668,0.0
1759839080.1383564,1,-1.205000162124633,-0.8299998044967647,-0.717703044414538,0.0,-1.7349997758865356,-0.3499998152256012,-0.7177035817241588,0.0
1759839080.1487846,1,-1.205000162124633,-0.8299998044967647,-0.7177030444145345,0.0,-1.7349997758865356,-0.3499998152256012,-0.7177035841904953,0.0
1759839080.1595984,1,-1.205000162124633,-0.8299998044967647,-0.7177030444145317,0.0,-1.7349997758865356,-0.3499998152256012,-0.7177035860503977,0.0
1759839080.1710062,1,-1.205000162124633,-0.8299998044967647,-0.7177030444145295,0.0,-1.7349997758865356,-0.3499998152256012,-0.7177035871638502,0.0
1759839080.1815047,1,-1.205000162124633,-0.8299998044967647,-0.7177030444145277,0.0,-1.7349997758865356,-0.3499998152256012,-0.7177035894189814,0.0
1759839080.1937723,1,-1.205000162124633,-0.8299998044967647,-0.7177030444145263,0.0,-1.7349997758865356,-0.3499998152256012,-0.717703589683298,0.0
1759839080.2022872,1,-1.205000162124633,-0.8299998044967647,-0.7177030444145251,0.0,-1.7349997758865356,-0.3499998152256012,-0.7177035940907714,0.0
1759839080.2126286,1,-1.205000162124633,-0.8299998044967647,-0.7177030444145243,0.0,-1.7349997758865356,-0.3499998152256012,-0.7177035959404208,0.0
1759839080.2237194,1,-1.205000162124633,-0.8299998044967647,-0.7177030444145235,0.0,-1.7349997758865356,-0.3499998152256012,-0.7177035967703524,0.0
1759839080.2338653,1,-1.205000162124633,-0.8299998044967647,-0.7177030444145228,0.0,-1.7349997758865356,-0.3499998152256012,-0.7177035985793783,0.0
1759839080.2452466,1,-1.205000162124633,-0.8299998044967647,-0.7177030444145224,0.0,-1.7349997758865356,-0.3499998152256012,-0.7177035991661178,0.0
1759839080.2567782,1,-1.205000162124633,-0.8299998044967647,-0.7177030444145219,0.0,-1.7349997758865356,-0.3499998152256012,-0.7177035997960495,0.0
1759839080.2682474,1,-1.205000162124633,-0.8299998044967647,-0.7177030444145216,0.0,-1.7349997758865356,-0.3499998152256012,-0.7177036007110758,0.0
1759839080.2825196,1,-1.205000162124633,-0.8299998044967647,-0.7177030444145214,0.0,-1.7349997758865356,-0.3499998152256012,-0.71770359958564,0.0012114685612419152
1759839080.2932897,1,-1.205000162124633,-0.8299998044967647,-0.7177030444145212,0.0,-1.7349997758865356,-0.3499998152256012,-0.7177036018947156,0.0012114685612419152
1759839080.3034627,1,-1.205000162124633,-0.8299998044967647,-0.7177030444145209,0.0,-1.734998503204619,-0.35000092629368196,-0.7177036076801737,0.0013565137529487886
1759839080.3138692,1,-1.205000162124633,-0.8299998044967647,-0.7177030444145207,0.0,-1.7349985032046207,-0.3500009262936841,-0.7177036094586583,0.0013565137529487886
1759839080.324864,1,-1.205000162124633,-0.8299998044967647,-0.7177030444145207,0.0,-1.7349961147360633,-0.35000661745933787,-0.7177036100863936,0.0015684192309277708
1759839080.3359313,1,-1.205000162124633,-0.8299998044967647,-0.7177030444145207,0.0,-1.7349950290250282,-0.35001027619418107,-0.7177036109363678,0.001645905321703676
1759839080.346031,1,-1.205000162124633,-0.8299998044967647,-0.7177030444145207,0.0,-1.734993975348399,-0.3500141764516791,-0.7177036123397766,0.0017113720268619407
1759839080.3570118,1,-1.205000162124633,-0.8299998044967647,-0.7177030444145207,0.0,-1.734993073811979,-0.3500179514361382,-0.7177036130990374,0.0017619886586973893
1759839080.3690536,1,-1.205000162124633,-0.8299998044967647,-0.7177030444145207,0.0,-1.7349922442013932,-0.35002161070215076,-0.7177036132798771,0.0018041521390816015
1759839080.3802776,1,-1.205000162124633,-0.8299998044967647,-0.7177030444145207,0.0,-1.7349914823221921,-0.35002510038391055,-0.7177036140749665,0.0018395672845053293
1759839080.3921542,1,-1.205000162124633,-0.8299998044967647,-0.7177030444145207,0.0,-1.7349907800598354,-0.35002839876676894,-0.7177036145868836,0.0018696896517075973
1759839080.4090266,1,-1.205000162124633,-0.8299998044967647,-0.7177030444145207,0.0,-1.734989545497101,-0.3500343511017066,-0.7177036128528678,0.0019176078740329103
1759839080.4191055,1,-1.205000162124633,-0.8299998044967647,-0.7177030444145207,0.0,-1.7349895454971123,-0.35003435110171954,-0.7177036150415236,0.0019176078740329103
1759839080.4298115,1,-1.205000162124633,-0.8299998044967647,-0.7177030444145207,0.0,-1.7349887748482116,-0.3500386819325716,-0.7177036167021499,0.001942323025882813
1759839080.4404275,1,-1.205000162124633,-0.8299998044967647,-0.7177030444145207,0.0,-1.7349884191757738,-0.35004058747732764,-0.7177036180862426,0.001953350739200039
1759839080.4507656,1,-1.205000162124633,-0.8299998044967647,-0.7177030444145207,0.0,-1.734988065088878,-0.3500424142447296,-0.7177036193662416,0.001964056054865256
1759839080.461535,1,-1.205000162124633,-0.8299998044967647,-0.7177030444145207,0.0,-1.734988065088883,-0.35004241424473503,-0.7177036202338453,0.001964056054865256
1759839080.4722767,1,-1.205000162124633,-0.8299998044967647,-0.7177030444145207,0.0,-1.7349879052512573,-0.3500435900826285,-0.7177036210409894,0.001966971594106821
1759839080.483463,1,-1.205000162124633,-0.8299998044967647,-0.7177030444145207,0.0,-1.7349875556457097,-0.35004571400365775,-0.7177036216621571,0.0019752949016955306
1759839080.494368,1,-1.205000162124633,-0.8299998044967647,-0.7177030444145207,0.0,-1.7349873625461578,-0.35004673701093003,-0.7177036223338619,0.001980488536400999
1759839080.504518,1,-1.205000162124633,-0.8299998044967647,-0.7177030444145207,0.0,-1.7349873625461627,-0.3500467370109356,-0.7177036231971681,0.001980488536400999
1759839080.5145946,1,-1.205000162124633,-0.8299998044967647,-0.7177030444145207,0.0,-1.7349871557049068,-0.3500477562103231,-0.7177036240127671,0.0019863598765738418
1759839080.5251074,1,-1.205000162124633,-0.8299998044967647,-0.7177030444145207,0.0,-1.734987125186239,-0.35004819593460335,-0.7177036245804882,0.0019854101941731714
1759839080.5360656,1,-1.205000162124633,-0.8299998044967647,-0.7177030444145207,0.0,-1.7349870622926806,-0.35004866359355685,-0.7177036249740472,0.0019861474191807628
1759839080.5469196,1,-1.205000162124633,-0.8299998044967647,-0.7177030444145207,0.0,-1.7349869744730906,-0.3500491646816076,-0.717703625414351,0.001988142183115043
1759839080.5575209,1,-1.205000162124633,-0.8299998044967647,-0.7177030444145207,0.0,-1.7349868636272705,-0.35004970972691196,-0.7177036259357182,0.0019911845300484383
1759839080.5682006,1,-1.205000162124633,-0.8299998044967647,-0.7177030444145207,0.0,-1.7349867306261921,-0.3500503080370958,-0.7177036264116874,0.0019951420732639597
1759839080.5785096,1,-1.205000162124633,-0.8299998044967647,-0.7177030444145207,0.0,-1.7349867639992065,-0.35005037249652676,-0.7177036269744512,0.001992676042641576
1759839080.5893197,1,-1.205000162124633,-0.8299998044967647,-0.7177030444145207,0.0,-1.7349867518592843,-0.350050532695522,-0.7177036273613212,0.001992263608146169
1759839080.602492,1,-1.205000162124633,-0.8299998044967647,-0.7177030444145207,0.0,-1.734986706426829,-0.35005077470870477,-0.7177036271432349,0.001993333543027134
1759839080.6136603,1,-1.205000162124633,-0.8299998044967647,-0.7177030444145207,0.0,-1.7349866302801258,-0.35005110374462584,-0.7177036276059612,0.0019956578711179456
1759839080.6243665,1,-1.205000162124633,-0.8299998044967647,-0.7177030444145207,0.0,-1.7349865264325188,-0.35005151977338633,-0.7177036281939537,0.0019990290318961
1759839080.6350024,1,-1.205000162124633,-0.8299998044967647,-0.7177030444145207,0.0,-1.734986596395221,-0.35005138730090773,-0.7177036287436046,0.0019956641103880887
1759839080.646522,1,-1.205000162124633,-0.8299998044967647,-0.7177030444145207,0.0,-1.7349866153342297,-0.3500513776743358,-0.7177036290424165,0.001994518742681295
1759839080.656841,1,-1.205000162124633,-0.8299998044967647,-0.7177030444145207,0.0,-1.7349865955411257,-0.3500514766534455,-0.7177036296069901,0.001995014382013598
1759839080.6675134,1,-1.205000162124633,-0.8299998044967647,-0.7177030444145207,0.0,-1.7349865418091395,-0.35005168138574655,-0.7177036300372038,0.0019968406978489363
1759839080.677714,1,-1.205000162124633,-0.8299998044967647,-0.7177030444145207,0.0,-1.7349864567583064,-0.35005199181017327,-0.7177036305200072,0.0019998113791499152
1759839080.6892602,1,-1.205000162124633,-0.8299998044967647,-0.7177030444145207,0.0,-1.7349865343107802,-0.35005179352416604,-0.7177036306897965,0.00199645537420749
1759839080.699983,1,-1.205000162124633,-0.8299998044967647,-0.7177030444145207,0.0,-1.7349865605721682,-0.3500517270340802,-0.717703631046597,0.001995277238356693
1759839080.7106156,1,-1.205000162124633,-0.8299998044967647,-0.7177030444145207,0.0,-1.7349865403470714,-0.3500518003044572,-0.7177036314067281,0.0019959898154478634
1759839080.7210639,1,-1.205000162124633,-0.8299998044967647,-0.7177030444145207,0.0,-1.7349864866970273,-0.35005198427887224,-0.7177036317728531,0.001997962698976361
1759839080.7319522,1,-1.205000162124633,-0.8299998044967647,-0.7177030444145207,0.0,-1.7349864039802514,-0.35005227146875684,-0.717703632032177,0.002000954867307023
1759839080.7432063,1,-1.205000162124633,-0.8299998044967647,-0.7177030444145207,0.0,-1.7349864768860748,-0.35005207464878846,-0.7177036322290311,0.001997874945311162
1759839080.7543685,1,-1.205000162124633,-0.8299998044967647,-0.7177030444145207,0.0,-1.734986498443579,-0.35005201405952147,-0.7177036324605993,0.001996941099510872
1759839080.7645223,1,-1.205000162124633,-0.8299998044967647,-0.7177030444145207,0.0,-1.7349864829630204,-0.3500520661988031,-0.7177036328531405,0.001997507955712425
1759839080.7757456,1,-1.205000162124633,-0.8299998044967647,-0.7177030444145207,0.0,-1.7349864347416066,-0.3500522269978656,-0.7177036330446971,0.0019993064249177973
1759839080.7860954,1,-1.205000162124633,-0.8299998044967647,-0.7177030444145207,0.0,-1.7349863556450025,-0.3500524969121617,-0.7177036333635973,0.00200219505163831
1759839080.7988603,1,-1.205000162124633,-0.8299998044967647,-0.7177030444145207,0.0,-1.7349864441094782,-0.35005224397278,-0.7177036333312656,0.0019985520436873183
1759839080.8080776,1,-1.205000162124633,-0.8299998044967647,-0.7177030444145207,0.0,-1.734986444109481,-0.35005224397278323,-0.7177036338199485,0.0019985520436873183
1759839080.819576,1,-1.205000162124633,-0.8299998044967647,-0.7177030444145207,0.0,-1.7349864755741933,-0.3500521369468419,-0.7177036339778978,0.001997357573275646
1759839080.8307185,1,-1.205000162124633,-0.8299998044967647,-0.7177030444145207,0.0,-1.7349864339755354,-0.3500522665074436,-0.7177036341668578,0.0019989797061694082
1759839080.8418028,1,-1.205000162124633,-0.8299998044967647,-0.7177030444145207,0.0,-1.7349863596562347,-0.35005251254202685,-0.7177036343683004,0.0020017670920832653
1759839080.8533354,1,-1.205000162124633,-0.8299998044967647,-0.7177030444145207,0.0,-1.7349864521535459,-0.3500522393524155,-0.7177036345191213,0.001998053591165172
1759839080.8641648,1,-1.205000162124633,-0.8299998044967647,-0.7177030444145207,0.0,-1.7349864907107047,-0.35005210931620695,-0.7177036347605201,0.001996597523510351
1759839080.8753214,1,-1.205000162124633,-0.8299998044967647,-0.7177030444145207,0.0,-1.7349864856600852,-0.35005211291722105,-0.7177036349518758,0.001996898474932166
1759839080.8855395,1,-1.205000162124633,-0.8299998044967647,-0.7177030444145207,0.0,-1.7349864463522982,-0.35005223144543707,-0.7177036352326022,0.0019984807170925697
1759839080.8968058,1,-1.205000162124633,-0.8299998044967647,-0.7177030444145207,0.0,-1.7349863733260535,-0.3500524695468128,-0.7177036353745124,0.0020012520109055844
1759839080.908342,1,-1.205000162124633,-0.8299998044967647,-0.7177030444145207,0.0,-1.7349864630229976,-0.3500522020961313,-0.7177036354912952,0.001997671884672813
1759839080.9193914,1,-1.205000162124633,-0.8299998044967647,-0.7177030444145207,0.0,-1.734986502214864,-0.35005206822253704,-0.7177036356687435,0.0019962075141691247
1759839080.929775,1,-1.205000162124633,-0.8299998044967647,-0.7177030444145207,0.0,-1.7349864994250963,-0.35005206298105185,-0.7177036359005409,0.001996435106828837
1759839080.9399002,1,-1.205000162124633,-0.8299998044967647,-0.7177030444145207,0.0,-1.7349864597123257,-0.35005218106867353,-0.7177036361281071,0.0019980477569281375
1759839080.9503112,1,-1.205000162124633,-0.8299998044967647,-0.7177030444145207,0.0,-1.73498638978478,-0.35005240801478954,-0.7177036363004548,0.0020007121732389336
1759839080.9608054,1,-1.205000162124633,-0.8299998044967647,-0.7177030444145207,0.0,-1.7349864809302935,-0.35005213426751164,-0.717703636448937,0.0019970897277047125
1759839080.9717467,1,-1.205000162124633,-0.8299998044967647,-0.7177030444145207,0.0,-1.734986519397133,-0.3500520011165835,-0.7177036365542119,0.001995666711682782
1759839080.9826035,1,-1.205000162124633,-0.8299998044967647,-0.7177030444145207,0.0,-1.7349865154816113,-0.3500519984585038,-0.7177036366683779,0.0019959471161258625
1759839080.9927921,1,-1.205000162124633,-0.8299998044967647,-0.7177030444145207,0.0,-1.7349864733280365,-0.3500521238546296,-0.7177036368326758,0.001997658722255179
1759839081.0045469,1,-1.205000162124633,-0.8299998044967647,-0.7177030444145207,0.0,-1.734986399050488,-0.35005236492633357,-0.7177036368702963,0.002000489091248978
1759839081.0153196,1,-1.205000162124633,-0.8299998044967647,-0.7177030444145207,0.0,-1.7349864853889756,-0.35005210715819157,-0.7177036369963716,0.001997030678686093
1759839081.0267146,1,-1.205000162124633,-0.8299998044967647,-0.7177030444145207,0.0,-1.7349865205222363,-0.3500519867972312,-0.7177036370796238,0.001995718819063704
1759839081.0382771,1,-1.205000162124633,-0.8299998044967647,-0.7177030444145207,0.0,-1.7349865137903135,-0.35005199549539684,-0.717703637158626,0.0019960872323049397
1759839081.049761,1,-1.205000162124633,-0.8299998044967647,-0.7177030444145207,0.0,-1.7349863982292983,-0.350052363532123,-0.717703637256993,0.0020005562205858175
1759839081.0607834,1,-1.205000162124633,-0.8299998044967647,-0.7177030444145207,0.0,-1.7349864943933457,-0.35005207603505517,-0.7177036373827435,0.001996721009527568
1759839081.070793,1,-1.205000162124633,-0.8299998044967647,-0.7177030444145207,0.0,-1.7349864943933466,-0.3500520760350563,-0.7177036375537507,0.001996721009527568
1759839081.0812724,1,-1.205000162124633,-0.8299998044967647,-0.7177030444145207,0.0,-1.7349865364987525,-0.35005193321642375,-0.7177036376798603,0.0019951721088961086
1759839081.0918653,1,-1.205000162124633,-0.8299998044967647,-0.7177030444145207,0.0,-1.7349865339514066,-0.35005192550031416,-0.7177036377843271,0.001995398317665548
1759839081.1028657,1,-1.205000162124633,-0.8299998044967647,-0.7177030444145207,0.0,-1.7349864975248002,-0.35005203167303084,-0.7177036378594187,0.001996893670467824
1759839081.113594,1,-1.205000162124633,-0.8299998044967647,-0.7177030444145207,0.0,-1.734986428263433,-0.35005225462292794,-0.7177036379484786,0.001999547027214754
1759839081.1237156,1,-1.205000162124633,-0.8299998044967647,-0.7177030444145207,0.0,-1.734986521964735,-0.3500519711951715,-0.7177036380647148,0.001995833904531443
1759839081.134955,1,-1.205000162124633,-0.8299998044967647,-0.7177030444145207,0.0,-1.734986560628295,-0.35005183560723585,-0.7177036381162988,0.001994415607928566
1759839081.1459978,1,-1.205000162124633,-0.8299998044967647,-0.7177030444145207,0.0,-1.734986521066725,-0.35005193396089673,-0.7177036381855478,0.0019961879597336515
1759839081.1574142,1,-1.205000162124633,-0.8299998044967647,-0.7177030444145207,0.0,-1.734986448074401,-0.3500521680444988,-0.7177036382359501,0.001998982665951322
1759839081.1679459,1,-1.205000162124633,-0.8299998044967647,-0.7177030444145207,0.0,-1.7349865329854606,-0.35005191314779427,-0.7177036383304041,0.0019955939158517615
1759839081.1791046,1,-1.205000162124633,-0.8299998044967647,-0.7177030444145207,0.0,-1.734986532985461,-0.3500519131477946,-0.7177036383883305,0.0019955939158517615
1759839081.1907291,1,-1.205000162124633,-0.8299998044967647,-0.7177030444145207,0.0,-1.734986568742489,-0.3500517897818937,-0.7177036384318622,0.0019942685180665263
1759839081.2057755,1,-1.205000162124633,-0.8299998044967647,-0.7177030444145207,0.0,-1.7349865145692138,-0.3500519421481319,-0.7177036383594718,0.0019965446926852957
1759839081.2158463,1,-1.205000162124633,-0.8299998044967647,-0.7177030444145207,0.0,-1.7349864374545059,-0.3500521948871843,-0.7177036385067387,0.0019994678606041873
1759839081.2268176,1,-1.205000162124633,-0.8299998044967647,-0.7177030444145207,0.0,-1.7349865348057139,-0.3500519044025986,-0.7177036386072388,0.0019955625472224485
1759839081.237864,1,-1.205000162124633,-0.8299998044967647,-0.7177030444145207,0.0,-1.7349865348057143,-0.3500519044025991,-0.7177036386870486,0.0019955625472224485
1759839081.2485526,1,-1.205000162124633,-0.8299998044967647,-0.7177030444145207,0.0,-1.7349865820655863,-0.3500517285073515,-0.7177036387759581,0.0019939231102406177
1759839081.2587786,1,-1.205000162124633,-0.8299998044967647,-0.7177030444145207,0.0,-1.7349865488760732,-0.35005182260969125,-0.7177036388657084,0.0019953017731211002
1759839081.268796,1,-1.205000162124633,-0.8299998044967647,-0.7177030444145207,0.0,-1.7349864848114032,-0.3500520273420499,-0.7177036389489043,0.0019977812696225336
1759839081.279532,1,-1.205000162124633,-0.8299998044967647,-0.7177030444145207,0.0,-1.7349865789970804,-0.3500517395653218,-0.7177036389996395,0.0019940646409669794
1759839081.2903516,1,-1.205000162124633,-0.8299998044967647,-0.7177030444145207,0.0,-1.7349865789970806,-0.3500517395653221,-0.7177036390402024,0.0019940646409669794
1759839081.3005972,1,-1.205000162124633,-0.8299998044967647,-0.7177030444145207,0.0,-1.7349866213138916,-0.3500515905799824,-0.717703639100484,0.0019925291188880555
1759839081.3107946,1,-1.2049962177591234,-0.8300032479758931,-0.717673437429528,0.0005235987755982988,-1.7349866232116058,-0.3500515656524423,-0.7177036391569234,0.001992624529960345
1759839081.3217304,1,-1.2049871730229262,-0.8300165059044451,-0.7176489472949734,0.000985965223762952,-1.7349865021543474,-0.3500519427725988,-0.7177036391917279,0.0019974041895856323
1759839081.3319085,1,-1.204979213511806,-0.8300321919396073,-0.7176290940010004,0.0013607174979669515,-1.7349865021543476,-0.3500519427725991,-0.7177036392398206,0.0019974041895856323
1759839081.3425064,1,-1.2049716788776244,-0.8300494305060441,-0.7176110053714112,0.0016664779582408339,-1.7349865897884107,-0.35005168009911636,-0.7177036392776874,0.001993917148170846
1759839081.3538766,1,-1.2049550482215916,-0.8300757118279255,-0.7172335885182698,0.007692537454526164,-1.7349866276325978,-0.35005154927092946,-0.7177036392959343,0.001992679768508156
1759839081.36495,1,-1.2049322512005518,-0.8301627570266903,-0.7169280668489609,0.012596635862994254,-1.7349865857582345,-0.3500516584919317,-0.7177036393286711,0.0019945145068604743
1759839081.3760762,1,-1.2049061373025003,-0.830287021231516,-0.7166767579995174,0.016604775440341096,-1.7349865121886447,-0.35005189564764155,-0.7177036393596842,0.001997324788074703
1759839081.3869238,1,-1.2048792754530626,-0.8304307499949313,-0.7164730696779881,0.01986062330429013,-1.7349864107309065,-0.35005223972868005,-0.7177036393974776,0.002001055883988018
1759839081.3976412,1,-1.2048526123041672,-0.8305828189729403,-0.7163064749262394,0.0225236053207662,-1.7349864107309068,-0.35005223972868027,-0.7177036394352281,0.002001055883988018
1759839081.4128208,1,-1.204827991330206,-0.8307314495526609,-0.7161692649586712,0.024591044340898607,-1.7349864713675585,-0.3500520830245209,-0.7177036393866455,0.0019984176245581063
1759839081.4229658,1,-1.2048034324509536,-0.8308781856764167,-0.7160555978843481,0.026348659483607186,-1.7349864596899756,-0.350052138524441,-0.7177036394586592,0.001998636090943245
1759839081.433575,1,-1.2047800284859744,-0.8310188507539951,-0.7159580904913795,0.02782805971298252,-1.7349864011231029,-0.3500523380111564,-0.717703639513542,0.0020007742699960683
1759839081.4442174,1,-1.2047583480857604,-0.8311505428038146,-0.7158764215017549,0.02906926881286457,-1.734986401123103,-0.3500523380111567,-0.7177036395579802,0.0020007742699960683
1759839081.4544861,1,-1.2047416267695938,-0.8312612439060834,-0.7158562826161171,0.029887484571495697,-1.7349863124831908,-0.35005264535384994,-0.7177036396037666,0.0020039634311798805
1759839081.465382,1,-1.2047263125078345,-0.8313615388898186,-0.7158371480129272,0.030595329636825708,-1.734986406797309,-0.3500523817919027,-0.7177036396332648,0.002000044692009476
1759839081.4767308,1,-1.2047109746252633,-0.8314572293465977,-0.7158151652920096,0.03125555858258655,-1.7349864417671335,-0.35005226862104694,-0.717703639656233,0.0019986439184169376
1759839081.4870386,1,-1.2046965841840853,-0.8315456294548097,-0.7157934744539965,0.03184691896110306,-1.7349864015846872,-0.3500523955999091,-0.7177036396938969,0.0020001908647254854
1759839081.4974537,1,-1.2046829661906386,-0.8316277946641565,-0.715776585342113,0.032385369165399094,-1.7349863296416876,-0.35005263525193353,-0.7177036397262181,0.0020028736855417276
1759839081.5081384,1,-1.2046702014779227,-0.8317037693610725,-0.7157594824385238,0.032878204987130184,-1.7349863296416879,-0.35005263525193364,-0.7177036397496441,0.0020028736855417276
1759839081.5193074,1,-1.2046630453586862,-0.8317557159530611,-0.7157654992504754,0.033046059976419725,-1.7349864109993287,-0.3500523975070983,-0.7177036397671387,0.00199957441680747
1759839081.5306804,1,-1.2039734083473976,-0.8324412165022794,-0.7150624840693358,0.0378995405564637,-1.7349864198967606,-0.35005235912666005,-0.7177036397849699,0.001999288980904672
1759839081.5409207,1,-1.2033426691918452,-0.8331061732852739,-0.7142690757582328,0.041871558328723614,-1.7349863716198237,-0.35005251278497457,-0.7177036398167752,0.0020011470084155916
1759839081.550924,1,-1.2028238857265523,-0.8336914012234021,-0.7136226935130457,0.04514875641258396,-1.7349863716198237,-0.35005251278497473,-0.7177036398471829,0.0020011470084155916
1759839081.5620706,1,-1.2015329597531754,-0.8349763356912185,-0.7114056424739155,0.05265701087662502,-1.7349862933498363,-0.3500527747791261,-0.7177036398607288,0.0020040502509968234
1759839081.5728018,1,-1.2004714777146663,-0.8361022831198681,-0.709437524108902,0.05872814806326216,-1.734986414640383,-0.35005241077854404,-0.7177036398817589,0.002624063531140031
1759839081.5830874,1,-1.1995890253763064,-0.8370935008488718,-0.7077693797635968,0.06373846475369217,-1.734986315021857,-0.3500525021460036,-0.7177036399060629,0.0026305975041975944
1759839081.5934067,1,-1.1988648708885876,-0.8379535910112376,-0.7063767330277056,0.06783255277982421,-1.7349861853431041,-0.3500527705556897,-0.7177036399278383,0.0026374032903555052
1759839081.6039586,1,-1.1982766965580671,-0.838691188334944,-0.7052316385081738,0.07115686960829926,-1.7349856516151814,-0.35005309307243676,-0.717703639945289,0.002706068738932318
1759839081.619967,1,-1.1977701895191288,-0.8393293565391772,-0.7042584485309333,0.07381421119984112,-1.7349850785857708,-0.35005421837251083,-0.7177036399073566,0.002763248086109597
1759839081.6307418,1,-1.197360121826962,-0.8398727743630555,-0.7034666263696956,0.07597871434387268,-1.7349845000313906,-0.3500558634527663,-0.7177036399366338,0.002810828611440627
1759839081.641966,1,-1.1970221186869712,-0.840343542713355,-0.7028148801711094,0.07778599811797302,-1.73498391304462,-0.3500578454132647,-0.7177036399609964,0.002851415500718965
1759839081.6521058,1,-1.196741349298019,-0.8407534481689107,-0.702275401177426,0.07930507486089577,-1.7349833243577653,-0.3500600430063074,-0.7177036399923324,0.0028865248630197795
1759839081.6621585,1,-1.1965072702047685,-0.8411118736038357,-0.7018306713983138,0.08059420918074567,-1.7349827392179349,-0.3500623683799453,-0.7177036400193614,0.002917286794373719
1759839081.6729736,1,-1.196319091476503,-0.8413821664711956,-0.7014480567955513,0.08142881661315061,-1.734982739217935,-0.3500623683799454,-0.7177036400346644,0.002917286794373719
1759839081.6841881,1,-1.1961598929794346,-0.8416237592450201,-0.7011289133188225,0.08217934634376226,-1.734982086552711,-0.35006562077654163,-0.7177036400474156,0.0029498749145736892
1759839081.6956594,1,-1.1960263212162738,-0.8418381174488045,-0.7008648877028334,0.08284747698247169,-1.7349817428734617,-0.3500672713583561,-0.7177036400572874,0.0029646438278866996
1759839081.7068346,1,-1.1959144621155526,-0.8420292037208877,-0.7006481354704058,0.08345016337771441,-1.7349813848045688,-0.35006894836313307,-0.7177036400703369,0.0029788448535183086
1759839081.7179368,1,-1.1958197168169584,-0.8422016718722165,-0.700472258165104,0.08400164683961553,-1.7349810207884477,-0.35007062638222985,-0.7177036400838961,0.0029924270975815234
1759839081.728812,1,-1.1932223774994843,-0.8444195202350196,-0.6948153538986082,0.0930382541202927,-1.7349809192644634,-0.3500714799826585,-0.7177036400988478,0.002994991264285338
1759839081.7395732,1,-1.1908066645100546,-0.846542501305604,-0.6894808964128464,0.10025868711811997,-1.7349807772931032,-0.350072369961607,-0.7177036401135097,0.004578867599634648
1759839081.750504,1,-1.1887097184333644,-0.84843343352838,-0.6845661286812332,0.10614019603065894,-1.734980605141122,-0.3500732981316908,-0.7177036401258413,0.004584278252709527
1759839081.7614973,1,-1.1869394374832098,-0.8500704996207643,-0.6801368149211837,0.11095394380618713,-1.7349801610795013,-0.35007450247426786,-0.7177036401370873,0.004606740898855649
1759839081.7720444,1,-1.185464547988305,-0.8514691659223861,-0.676223110954267,0.11491494097310649,-1.7349797146293275,-0.35007589497730623,-0.7177036401506607,0.004627066376860641
1759839081.7829752,1,-1.184189604545686,-0.8526529351477501,-0.672580671536828,0.1180749096623396,-1.7349781257363694,-0.35007778029313713,-0.7177036401610022,0.004808203328641204
1759839081.7937756,1,-1.1831413784816176,-0.8536511914437124,-0.6694751456323874,0.12067644497622193,-1.7349765436130256,-0.3500814319548295,-0.7177036401716107,0.004956028983458809
1759839081.80494,1,-1.1822788451602213,-0.8544946514766685,-0.6668478186798324,0.1228351125493897,-1.734974966734403,-0.3500861798333874,-0.717703640179701,0.005079278166458609
1759839081.8170688,1,-1.1815621000949295,-0.8552153323114952,-0.6646235034477651,0.12464578941002398,-1.7349734123183136,-0.3500916090835206,-0.7177036401828174,0.005183331498893569
1759839081.8284466,1,-1.1809677512027386,-0.8558313682170395,-0.6627614144908021,0.12617742125537842,-1.734971901672748,-0.3500973985763087,-0.7177036401915351,0.005271868712470141
1759839081.8387315,1,-1.180480708156864,-0.8562937742138331,-0.6611980546016537,0.127209319806942,-1.7349719016727483,-0.35009739857630895,-0.7177036402054935,0.005271868712470141
1759839081.8500323,1,-1.1800697193979852,-0.8566991308063344,-0.6598418845696026,0.12812181636240938,-1.7349698008621808,-0.3501069922318551,-0.7177036402139667,0.00538371860464645
1759839081.860849,1,-1.179728736005803,-0.8570492044484127,-0.6587327983234532,0.128917371661735,-1.734968806815765,-0.3501116617694851,-0.7177036402237659,0.005429252472049955
1759839081.8713243,1,-1.179443158733322,-0.8573552436784642,-0.6578242809933951,0.12961955904544972,-1.73496781682696,-0.3501162870848255,-0.7177036402344233,0.005470711785192432
1759839081.8820972,1,-1.179201520914151,-0.8576268036196463,-0.6570767418279724,0.13024987375320732,-1.7349668497814752,-0.35012080011262353,-0.717703640242653,0.005508452897726222
1759839081.8929288,1,-1.1790184994346549,-0.8577934770130548,-0.6564483967871259,0.1305445852241081,-1.734966381160323,-0.35012376763925496,-0.7177036402501993,0.005524028221406777
1759839081.9035413,1,-1.1788633068219578,-0.8579470543614903,-0.6559430553733999,0.13084358734524543,-1.7349658782483246,-0.35012663944031563,-0.7177036402582658,0.005540544748991723
1759839081.9136267,1,-1.1787297517578283,-0.8580899658774979,-0.6555310132615906,0.13114109484082373,-1.7349653497493656,-0.35012944629690756,-0.7177036402678181,0.005557765223175108
1759839081.9246688,1,-1.1774896681069233,-0.8590500916344491,-0.6536727966197359,0.1331794691997687,-1.7349647488299471,-0.3501323722087328,-0.7177036402726937,0.005577381862918738
1759839081.9350607,1,-1.1760617736031302,-0.8601512484256664,-0.6509965545289308,0.1348860843259365,-1.7349641353241188,-0.35013525931808887,-0.7177036402799186,0.00559720735551511
1759839081.9452913,1,-1.1748854346417983,-0.8610759359008464,-0.648818572406757,0.1363309461894994,-1.734964135324119,-0.350135259318089,-0.7177036402869003,0.00559720735551511
1759839081.9560347,1,-1.171876283120422,-0.8632469578723244,-0.640375214907146,0.13910409759619172,-1.7349640006893317,-0.350136608997912,-0.7177036402919129,0.007220325749381629
1759839081.9673345,1,-1.1693156412073815,-0.8650995013106443,-0.6324983067721416,0.14142381995716977,-1.7349632553507877,-0.3501397835857255,-0.7177036402954333,0.007248754338625244
1759839081.9780526,1,-1.167213007355788,-0.8666254361684945,-0.6258388630730828,0.1433521536993414,-1.734962678146481,-0.35014181630090596,-0.7177036403009441,0.007272445657286555
1759839081.9885569,1,-1.1655038630199122,-0.8678710406335882,-0.6202938746629395,0.14494987556575123,-1.7349611341444884,-0.3501436817618607,-0.7177036403071111,0.007453659005239956
1759839081.999114,1,-1.1641327986111427,-0.868729423690375,-0.615604871350578,0.14552775461913742,-1.7349611341444884,-0.35014368176186084,-0.7177036403123325,0.007453659005239956
1759839082.0103781,1,-1.1629156688588886,-0.8695850860061188,-0.6114385451038153,0.1466056415655542,-1.7349578885529398,-0.3501525009518166,-0.717703640315935,0.0077304219899256175
1759839082.0225224,1,-1.1619163184798487,-0.8702961143139268,-0.6080122372261628,0.147538114651145,-1.734956229954063,-0.3501583418314783,-0.7177036403170025,0.00783889584975833
1759839082.032747,1,-1.1610901018790096,-0.8708912865076652,-0.6051875379146642,0.1483476406614736,-1.7349545849871553,-0.3501646667684562,-0.717703640324287,0.007932594836567435
1759839082.04356,1,-1.160412334138219,-0.8713885992262084,-0.6028854313688655,0.14905520106038275,-1.734952992001503,-0.3501711869266664,-0.7177036403293344,0.00801376615021351
1759839082.0546753,1,-1.1598540491801712,-0.8718087457248886,-0.6010375442892633,0.14968514180334075,-1.734952992001503,-0.3501711869266665,-0.7177036403330243,0.00801376615021351
1759839082.0661814,1,-1.1594022920568419,-0.8720970589191795,-0.5994410984667831,0.1499792771488349,-1.7349520958566882,-0.35017580940765264,-0.7177036403360527,0.00805890376870837
1759839082.0769756,1,-1.1590129302132999,-0.8723568120060593,-0.5980968685963742,0.1502896526611711,-1.7349501702434582,-0.35018521579896855,-0.7177036403412909,0.008142022511736766
1759839082.0882168,1,-1.1586862371933617,-0.8725861302763891,-0.5970077355954634,0.15060361904762257,-1.734949154537518,-0.3501899848176149,-0.7177036403449958,0.008181060231442046
1759839082.099134,1,-1.158412167475676,-0.8727900277688253,-0.5961330425394156,0.150917001595339,-1.7349481319341193,-0.3501947127589318,-0.7177036403493058,0.008218463234570154
1759839082.110482,1,-1.1582152846492002,-0.8728859316456676,-0.5954557079397756,0.15092991483612675,-1.7349481319341196,-0.35019471275893194,-0.7177036403523226,0.008218463234570154
1759839082.1208794,1,-1.1580450021589306,-0.872981607210343,-0.5949067745665054,0.15100123621837014,-1.734947823767112,-0.3501971898531231,-0.7177036403575506,0.008225998454842606
1759839082.1322756,1,-1.1562059689083515,-0.8741358607445144,-0.5915527694626839,0.1518700097477478,-1.7349468580891068,-0.35020258781569114,-0.7177036403605567,0.008255291342148087
1759839082.1429014,1,-1.1545213967500527,-0.8751966702636577,-0.5879033816988626,0.15263035334955724,-1.7349462926435304,-0.3502053564213145,-0.7177036403647489,0.008273154874493625
1759839082.1543214,1,-1.1530406718019657,-0.876132226740253,-0.5841964858629002,0.15332003520876206,-1.7349456365275304,-0.35020834733700174,-0.7177036403671854,0.008294118975117983
1759839082.1645672,1,-1.1497145548215837,-0.8781474870193007,-0.5746521096211323,0.15444004233884415,-1.7349456365275306,-0.35020834733700185,-0.717703640371617,0.008294118975117983
1759839082.174871,1,-1.1469767735345113,-0.8797921510955504,-0.5661791156681353,0.15539882725729057,-1.7349455689208302,-0.3502101272138679,-0.717703640375892,0.00924945129030132
1759839082.1850545,1,-1.1447031531414777,-0.8811475206409284,-0.5590042838310012,0.15623818744427398,-1.7349451691129596,-0.350211625011702,-0.7177036403796763,0.009265821035797749
1759839082.195523,1,-1.1428648953138667,-0.8822382731790591,-0.5532910323900722,0.1569657286368404,-1.7349451691129598,-0.3502116250117021,-0.7177036403823446,0.009265821035797749
1759839082.2060635,1,-1.141346925252497,-0.883135484090625,-0.548353367824186,0.1576150894077818,-1.7349439680839327,-0.35021408368539064,-0.7177036403851309,0.009383043115371643
