timestamp,vehicle_id,x,y,theta,velocity,gps_available,dt,gps_x,gps_y,gps_theta,gps_velocity,control_steering,control_acceleration
1759839077.9925578,1,-1.735,-0.35,-0.7801621756414647,0.0,False,0.01,nan,nan,nan,nan,0.0,0.0
1759839078.0038972,1,-1.735,-0.35,-0.7801621756414647,0.0,False,0.011339426040649414,nan,nan,nan,nan,0.0,0.0
1759839078.014231,1,-1.735,-0.35,-0.7801621756414647,0.0,False,0.010333776473999023,nan,nan,nan,nan,0.0,0.0
1759839078.0253437,1,-1.735,-0.35,-0.7801621756414647,0.0,False,0.011112689971923828,nan,nan,nan,nan,0.0,0.0
1759839078.0354083,1,-1.735,-0.35,-0.7801621756414647,0.0,False,0.01006460189819336,nan,nan,nan,nan,0.0,0.0
1759839078.0469942,1,-1.735,-0.35,-0.7801621756414647,0.0,False,0.01158595085144043,nan,nan,nan,nan,0.0,0.0
1759839078.0583606,1,-1.735,-0.35,-0.7801621756414647,0.0,False,0.01136636734008789,nan,nan,nan,nan,0.0,0.0
1759839078.069051,1,-1.735,-0.35,-0.7801621756414647,0.0,False,0.010690450668334961,nan,nan,nan,nan,0.0,0.0
1759839078.0792248,1,-1.735,-0.35,-0.7801621756414647,0.0,False,0.010173797607421875,nan,nan,nan,nan,0.0,0.0
1759839078.0892594,1,-1.735,-0.35,-0.7801621756414647,0.0,False,0.010034561157226562,nan,nan,nan,nan,0.0,0.0
1759839078.099342,1,-1.735,-0.35,-0.7801621756414647,0.0,False,0.010082721710205078,nan,nan,nan,nan,0.0,0.0
1759839078.1107116,1,-1.735,-0.35,-0.7801621756414647,0.0,False,0.011369466781616211,nan,nan,nan,nan,0.0,0.0
1759839078.1209219,1,-1.735,-0.35,-0.7801621756414647,0.0,False,0.010210275650024414,nan,nan,nan,nan,0.0,0.0
1759839078.132284,1,-1.735,-0.35,-0.7801621756414647,0.0,False,0.011362075805664062,nan,nan,nan,nan,0.0,0.0
1759839078.1437886,1,-1.735,-0.35,-0.7801621756414647,0.0,False,0.011504650115966797,nan,nan,nan,nan,0.0,0.0
1759839078.1548064,1,-1.735,-0.35,-0.7801621756414647,0.0,False,0.011017799377441406,nan,nan,nan,nan,0.0,0.0
1759839078.1651886,1,-1.735,-0.35,-0.7801621756414647,0.0,False,0.01038217544555664,nan,nan,nan,nan,0.0,0.0
1759839078.1752715,1,-1.735,-0.35,-0.7801621756414647,0.0,False,0.01008296012878418,nan,nan,nan,nan,0.0,0.0
1759839078.1887002,1,-1.734999777754148,-0.34999981676538783,-0.7229998935156665,0.0,True,0.013428688049316406,-1.7349997758865356,-0.3499998152256012,-0.717703640460968,0.0,0.0,0.0
1759839078.1988258,1,-1.7349997765108072,-0.3499998157402931,-0.7181206266673286,0.0,True,0.01012563705444336,-1.7349997758865356,-0.3499998152256012,-0.717703640460968,0.0,0.0,0.0
1759839078.2098382,1,-1.734999776120719,-0.34999981541867786,-0.7176581174391963,0.0,True,0.01101231575012207,-1.7349997758865356,-0.3499998152256012,-0.717703640460968,0.0,0.0,0.0
1759839078.221277,1,-1.7349997759757527,-0.34999981529915786,-0.7175951185104275,0.0,True,0.011438846588134766,-1.7349997758865356,-0.3499998152256012,-0.717703640460968,0.0,0.0,0.0
1759839078.2322607,1,-1.7349997759206006,-0.3499998152536867,-0.7175895262180738,0.0,True,0.010983705520629883,-1.7349997758865356,-0.3499998152256012,-0.717703640460968,0.0,0.0,0.0
1759839078.2437737,1,-1.7349997758995466,-0.3499998152363283,-0.7175967263171952,0.0,True,0.011512994766235352,-1.7349997758865356,-0.3499998152256012,-0.717703640460968,0.0,0.0,0.0
1759839078.2539542,1,-1.7349997758915052,-0.34999981522969853,-0.7176108331998279,0.0,True,0.010180473327636719,-1.7349997758865356,-0.3499998152256012,-0.717703640460968,0.0,0.0,0.0
1759839078.264924,1,-1.734999775888434,-0.3499998152271662,-0.7176220901759436,0.0,True,0.010969877243041992,-1.7349997758865356,-0.3499998152256012,-0.717703640460968,0.0,0.0,0.0
1759839078.2761226,1,-1.7349997758872606,-0.349999815226199,-0.7176319130720898,0.0,True,0.01119852066040039,-1.7349997758865356,-0.3499998152256012,-0.717703640460968,0.0,0.0,0.0
1759839078.2872844,1,-1.7349997758868125,-0.3499998152258295,-0.7176406239925264,0.0,True,0.01116180419921875,-1.7349997758865356,-0.3499998152256012,-0.717703640460968,0.0,0.0,0.0
1759839078.2981436,1,-1.7349997758866413,-0.3499998152256884,-0.7176483435645018,0.0,True,0.010859251022338867,-1.7349997758865356,-0.3499998152256012,-0.717703640460968,0.0,0.0,0.0
1759839078.3090494,1,-1.734999775886576,-0.3499998152256345,-0.7176546540033151,0.0,True,0.010905742645263672,-1.7349997758865356,-0.3499998152256012,-0.717703640460968,0.0,0.0,0.0
1759839078.3202894,1,-1.7349997758865512,-0.3499998152256139,-0.7176596219061615,0.0,True,0.011240005493164062,-1.7349997758865356,-0.3499998152256012,-0.717703640460968,0.0,0.0,0.0
1759839078.3316548,1,-1.7349997758865416,-0.349999815225606,-0.7176638035928757,0.0,True,0.011365413665771484,-1.7349997758865356,-0.3499998152256012,-0.717703640460968,0.0,0.0,0.0
1759839078.3418264,1,-1.7349997758865379,-0.34999981522560303,-0.7176682282410898,0.0,True,0.010171651840209961,-1.7349997758865356,-0.3499998152256012,-0.717703640460968,0.0,0.0,0.0
1759839078.3527656,1,-1.7349997758865365,-0.3499998152256019,-0.7176713132955079,0.0,True,0.01093912124633789,-1.7349997758865356,-0.3499998152256012,-0.717703640460968,0.0,0.0,0.0
1759839078.3632815,1,-1.734999775886536,-0.3499998152256015,-0.7176741790019374,0.0,True,0.010515928268432617,-1.7349997758865356,-0.3499998152256012,-0.717703640460968,0.0,0.0,0.0
1759839078.3735354,1,-1.7349997758865359,-0.3499998152256013,-0.7176767383214653,0.0,True,0.01025390625,-1.7349997758865356,-0.3499998152256012,-0.717703640460968,0.0,0.0,0.0
1759839078.3875844,1,-1.7349997758865356,-0.34999981522560125,-0.7176770371229289,0.0,True,0.014049053192138672,-1.7349997758865356,-0.3499998152256012,-0.717703640460968,0.0,0.0,0.0
1759839078.3990095,1,-1.7349997758865356,-0.3499998152256012,-0.717679036550793,0.0,True,0.011425018310546875,-1.7349997758865356,-0.3499998152256012,-0.717703640460968,0.0,0.0,0.0
1759839078.4105346,1,-1.7349997758865356,-0.3499998152256012,-0.7176808599683167,0.0,True,0.011525154113769531,-1.7349997758865356,-0.3499998152256012,-0.717703640460968,0.0,0.0,0.0
1759839078.4205427,1,-1.7349997758865356,-0.3499998152256012,-0.7176830613227931,0.0,True,0.010008096694946289,-1.7349997758865356,-0.3499998152256012,-0.717703640460968,0.0,0.0,0.0
1759839078.43061,1,-1.7349997758865356,-0.3499998152256012,-0.7176848111270715,0.0,True,0.010067224502563477,-1.7349997758865356,-0.3499998152256012,-0.717703640460968,0.0,0.0,0.0
1759839078.4408512,1,-1.7349997758865356,-0.3499998152256012,-0.7176861559852696,0.0,True,0.010241270065307617,-1.7349997758865356,-0.3499998152256012,-0.717703640460968,0.0,0.0,0.0
1759839078.4518588,1,-1.7349997758865356,-0.3499998152256012,-0.7176870206061707,0.0,True,0.011007547378540039,-1.7349997758865356,-0.3499998152256012,-0.717703640460968,0.0,0.0,0.0
1759839078.4631906,1,-1.7349997758865356,-0.3499998152256012,-0.7176877226792584,0.0,True,0.011331796646118164,-1.7349997758865356,-0.3499998152256012,-0.717703640460968,0.0,0.0,0.0
1759839078.4744337,1,-1.7349997758865356,-0.3499998152256012,-0.7176884569132422,0.0,True,0.011243104934692383,-1.7349997758865356,-0.3499998152256012,-0.717703640460968,0.0,0.0,0.0
1759839078.4865139,1,-1.7349997758865356,-0.3499998152256012,-0.7176889384767335,0.0,True,0.012080192565917969,-1.7349997758865356,-0.3499998152256012,-0.717703640460968,0.0,0.0,0.0
1759839078.4980788,1,-1.7349997758865356,-0.3499998152256012,-0.7176896241663719,0.0,True,0.011564970016479492,-1.7349997758865356,-0.3499998152256012,-0.717703640460968,0.0,0.0,0.0
1759839078.509511,1,-1.7349997758865356,-0.3499998152256012,-0.7176903371822263,0.0,True,0.011432170867919922,-1.7349997758865356,-0.3499998152256012,-0.717703640460968,0.0,0.0,0.0
1759839078.519531,1,-1.7349997758865356,-0.3499998152256012,-0.7176913534273783,0.0,True,0.010020017623901367,-1.7349997758865356,-0.3499998152256012,-0.717703640460968,0.0,0.0,0.0
1759839078.5298994,1,-1.7349997758865356,-0.3499998152256012,-0.7176921179787961,0.0,True,0.01036834716796875,-1.7349997758865356,-0.3499998152256012,-0.717703640460968,0.0,0.0,0.0
1759839078.540406,1,-1.7349997758865356,-0.3499998152256012,-0.7176927282310359,0.0,True,0.010506629943847656,-1.7349997758865356,-0.3499998152256012,-0.717703640460968,0.0,0.0,0.0
1759839078.5506358,1,-1.7349997758865356,-0.3499998152256012,-0.7176933238909307,0.0,True,0.010229825973510742,-1.7349997758865356,-0.3499998152256012,-0.717703640460968,0.0,0.0,0.0
1759839078.5620172,1,-1.7349997758865356,-0.3499998152256012,-0.7176936041654756,0.0,True,0.011381387710571289,-1.7349997758865356,-0.3499998152256012,-0.717703640460968,0.0,0.0,0.0
1759839078.5727654,1,-1.7349997758865356,-0.3499998152256012,-0.7176940312706499,0.0,True,0.010748147964477539,-1.7349997758865356,-0.3499998152256012,-0.717703640460968,0.0,0.0,0.0
1759839078.582803,1,-1.7349997758865356,-0.3499998152256012,-0.7176945791870484,0.0,True,0.010037660598754883,-1.7349997758865356,-0.3499998152256012,-0.717703640460968,0.0,0.0,0.0
1759839078.5930746,1,-1.7349997758865356,-0.3499998152256012,-0.7176950128185045,0.0,True,0.010271549224853516,-1.7349997758865356,-0.3499998152256012,-0.717703640460968,0.0,0.0,0.0
1759839078.6042252,1,-1.7349997758865356,-0.3499998152256012,-0.7176952387160931,0.0,True,0.011150598526000977,-1.7349997758865356,-0.3499998152256012,-0.717703640460968,0.0,0.0,0.0
1759839078.6147537,1,-1.7349997758865356,-0.3499998152256012,-0.7176955863723826,0.0,True,0.010528564453125,-1.7349997758865356,-0.3499998152256012,-0.717703640460968,0.0,0.0,0.0
1759839078.6261582,1,-1.7349997758865356,-0.3499998152256012,-0.717695774490096,0.0,True,0.01140451431274414,-1.7349997758865356,-0.3499998152256012,-0.717703640460968,0.0,0.0,0.0
1759839078.636209,1,-1.7349997758865356,-0.3499998152256012,-0.7176962014032888,0.0,True,0.010050773620605469,-1.7349997758865356,-0.3499998152256012,-0.717703640460968,0.0,0.0,0.0
1759839078.6476471,1,-1.7349997758865356,-0.3499998152256012,-0.7176963714185884,0.0,True,0.011438131332397461,-1.7349997758865356,-0.3499998152256012,-0.717703640460968,0.0,0.0,0.0
1759839078.657932,1,-1.7349997758865356,-0.3499998152256012,-0.7176967271588897,0.0,True,0.010284900665283203,-1.7349997758865356,-0.3499998152256012,-0.717703640460968,0.0,0.0,0.0
1759839078.6681464,1,-1.7349997758865356,-0.3499998152256012,-0.7176970623666126,0.0,True,0.01021432876586914,-1.7349997758865356,-0.3499998152256012,-0.717703640460968,0.0,0.0,0.0
1759839078.6796632,1,-1.7349997758865356,-0.3499998152256012,-0.7176971803621424,0.0,True,0.011516809463500977,-1.7349997758865356,-0.3499998152256012,-0.717703640460968,0.0,0.0,0.0
1759839078.6910174,1,-1.7349997758865356,-0.3499998152256012,-0.7176973450113131,0.0,True,0.011354207992553711,-1.7349997758865356,-0.3499998152256012,-0.717703640460968,0.0,0.0,0.0
1759839078.7023137,1,-1.7349997758865356,-0.3499998152256012,-0.7176975393232752,0.0,True,0.011296272277832031,-1.7349997758865356,-0.3499998152256012,-0.717703640460968,0.0,0.0,0.0
1759839078.7125695,1,-1.7349997758865356,-0.3499998152256012,-0.7176978681797053,0.0,True,0.010255813598632812,-1.7349997758865356,-0.3499998152256012,-0.717703640460968,0.0,0.0,0.0
1759839078.7225776,1,-1.7349997758865356,-0.3499998152256012,-0.7176981880506954,0.0,True,0.010008096694946289,-1.7349997758865356,-0.3499998152256012,-0.717703640460968,0.0,0.0,0.0
1759839078.7334921,1,-1.7349997758865356,-0.3499998152256012,-0.7176983576348803,0.0,True,0.01091456413269043,-1.7349997758865356,-0.3499998152256012,-0.717703640460968,0.0,0.0,0.0
1759839078.7447152,1,-1.7349997758865356,-0.3499998152256012,-0.7176984877412593,0.0,True,0.011223077774047852,-1.7349997758865356,-0.3499998152256012,-0.717703640460968,0.0,0.0,0.0
1759839078.756133,1,-1.7349997758865356,-0.3499998152256012,-0.7176986105164627,0.0,True,0.011417865753173828,-1.7349997758865356,-0.3499998152256012,-0.717703640460968,0.0,0.0,0.0
1759839078.767514,1,-1.7349997758865356,-0.3499998152256012,-0.7176987539399899,0.0,True,0.011380910873413086,-1.7349997758865356,-0.3499998152256012,-0.717703640460968,0.0,0.0,0.0
1759839078.7789817,1,-1.7349997758865356,-0.3499998152256012,-0.7176988992968596,0.0,True,0.011467695236206055,-1.7349997758865356,-0.3499998152256012,-0.717703640460968,0.0,0.0,0.0
1759839078.7916033,1,-1.7349997758865356,-0.3499998152256012,-0.7176989460787073,0.0,True,0.012621641159057617,-1.7349997758865356,-0.3499998152256012,-0.717703640460968,0.0,0.0,0.0
1759839078.8031504,1,-1.7349997758865356,-0.3499998152256012,-0.7176991266412358,0.0,True,0.011547088623046875,-1.7349997758865356,-0.3499998152256012,-0.717703640460968,0.0,0.0,0.0
1759839078.8141606,1,-1.7349997758865356,-0.3499998152256012,-0.7176993542604819,0.0,True,0.011010169982910156,-1.7349997758865356,-0.3499998152256012,-0.717703640460968,0.0,0.0,0.0
1759839078.8243842,1,-1.7349997758865356,-0.3499998152256012,-0.7176996228066503,0.0,True,0.010223627090454102,-1.7349997758865356,-0.3499998152256012,-0.717703640460968,0.0,0.0,0.0
1759839078.8345618,1,-1.7349997758865356,-0.3499998152256012,-0.7176998521016209,0.0,True,0.0101776123046875,-1.7349997758865356,-0.3499998152256012,-0.717703640460968,0.0,0.0,0.0
1759839078.8451662,1,-1.7349997758865356,-0.3499998152256012,-0.7177000108085068,0.0,True,0.010604381561279297,-1.7349997758865356,-0.3499998152256012,-0.717703640460968,0.0,0.0,0.0
1759839078.8563385,1,-1.7349997758865356,-0.3499998152256012,-0.7177001095340749,0.0,True,0.011172294616699219,-1.7349997758865356,-0.3499998152256012,-0.717703640460968,0.0,0.0,0.0
1759839078.866518,1,-1.7349997758865356,-0.3499998152256012,-0.7177002816852678,0.0,True,0.010179519653320312,-1.7349997758865356,-0.3499998152256012,-0.717703640460968,0.0,0.0,0.0
1759839078.8766272,1,-1.7349997758865356,-0.3499998152256012,-0.7177004406894589,0.0,True,0.010109186172485352,-1.7349997758865356,-0.3499998152256012,-0.717703640460968,0.0,0.0,0.0
1759839078.8877926,1,-1.7349997758865356,-0.3499998152256012,-0.7177005080412844,0.0,True,0.011165380477905273,-1.7349997758865356,-0.3499998152256012,-0.717703640460968,0.0,0.0,0.0
1759839078.8982012,1,-1.7349997758865356,-0.3499998152256012,-0.7177006301886024,0.0,True,0.010408639907836914,-1.7349997758865356,-0.3499998152256012,-0.717703640460968,0.0,0.0,0.0
1759839078.9088025,1,-1.7349997758865356,-0.3499998152256012,-0.7177007338652128,0.0,True,0.010601282119750977,-1.7349997758865356,-0.3499998152256012,-0.717703640460968,0.0,0.0,0.0
1759839078.919628,1,-1.7349997758865356,-0.3499998152256012,-0.7177008186814255,0.0,True,0.010825395584106445,-1.7349997758865356,-0.3499998152256012,-0.717703640460968,0.0,0.0,0.0
1759839078.9297233,1,-1.7349997758865356,-0.3499998152256012,-0.7177009466054827,0.0,True,0.010095357894897461,-1.7349997758865356,-0.3499998152256012,-0.717703640460968,0.0,0.0,0.0
1759839078.9401135,1,-1.7349997758865356,-0.3499998152256012,-0.7177010451230856,0.0,True,0.010390281677246094,-1.7349997758865356,-0.3499998152256012,-0.717703640460968,0.0,0.0,0.0
1759839078.950761,1,-1.7349997758865356,-0.3499998152256012,-0.7177011215629108,0.0,True,0.01064753532409668,-1.7349997758865356,-0.3499998152256012,-0.717703640460968,0.0,0.0,0.0
1759839078.96111,1,-1.7349997758865356,-0.3499998152256012,-0.7177012130359248,0.0,True,0.010349035263061523,-1.7349997758865356,-0.3499998152256012,-0.717703640460968,0.0,0.0,0.0
1759839078.971525,1,-1.7349997758865356,-0.3499998152256012,-0.7177012961998042,0.0,True,0.010414838790893555,-1.7349997758865356,-0.3499998152256012,-0.717703640460968,0.0,0.0,0.0
1759839078.9819288,1,-1.7349997758865356,-0.3499998152256012,-0.7177013755843902,0.0,True,0.010403871536254883,-1.7349997758865356,-0.3499998152256012,-0.717703640460968,0.0,0.0,0.0
1759839078.9949343,1,-1.7349997758865356,-0.3499998152256012,-0.7177013268172292,0.0,True,0.013005495071411133,-1.7349997758865356,-0.3499998152256012,-0.717703640460968,0.0,0.0,0.0
1759839079.0053213,1,-1.7349997758865356,-0.3499998152256012,-0.717701434595007,0.0,True,0.010386943817138672,-1.7349997758865356,-0.3499998152256012,-0.717703640460968,0.0,0.0,0.0
1759839079.0157375,1,-1.7349997758865356,-0.3499998152256012,-0.7177015373895852,0.0,True,0.010416269302368164,-1.7349997758865356,-0.3499998152256012,-0.717703640460968,0.0,0.0,0.0
1759839079.026282,1,-1.7349997758865356,-0.3499998152256012,-0.7177016224826502,0.0,True,0.010544538497924805,-1.7349997758865356,-0.3499998152256012,-0.717703640460968,0.0,0.0,0.0
1759839079.0376554,1,-1.7349997758865356,-0.3499998152256012,-0.7177016651021173,0.0,True,0.011373281478881836,-1.7349997758865356,-0.3499998152256012,-0.717703640460968,0.0,0.0,0.0
1759839079.0488648,1,-1.7349997758865356,-0.3499998152256012,-0.7177017192669446,0.0,True,0.011209487915039062,-1.7349997758865356,-0.3499998152256012,-0.717703640460968,0.0,0.0,0.0
1759839079.059729,1,-1.7349997758865356,-0.3499998152256012,-0.7177017903559388,0.0,True,0.0108642578125,-1.7349997758865356,-0.3499998152256012,-0.717703640460968,0.0,0.0,0.0
1759839079.071059,1,-1.7349997758865356,-0.3499998152256012,-0.7177018414159022,0.0,True,0.011329889297485352,-1.7349997758865356,-0.3499998152256012,-0.717703640460968,0.0,0.0,0.0
1759839079.0819213,1,-1.7349997758865356,-0.3499998152256012,-0.7177019110220186,0.0,True,0.010862350463867188,-1.7349997758865356,-0.3499998152256012,-0.717703640460968,0.0,0.0,0.0
1759839079.0932775,1,-1.7349997758865356,-0.3499998152256012,-0.7177019601805679,0.0,True,0.011356115341186523,-1.7349997758865356,-0.3499998152256012,-0.717703640460968,0.0,0.0,0.0
1759839079.1040318,1,-1.7349997758865356,-0.3499998152256012,-0.7177020305473825,0.0,True,0.01075434684753418,-1.7349997758865356,-0.3499998152256012,-0.717703640460968,0.0,0.0,0.0
1759839079.1141393,1,-1.7349997758865356,-0.3499998152256012,-0.7177021169441389,0.0,True,0.01010751724243164,-1.7349997758865356,-0.3499998152256012,-0.717703640460968,0.0,0.0,0.0
1759839079.1250231,1,-1.7349997758865356,-0.3499998152256012,-0.7177021671068111,0.0,True,0.010883808135986328,-1.7349997758865356,-0.3499998152256012,-0.717703640460968,0.0,0.0,0.0
1759839079.1353981,1,-1.7349997758865356,-0.3499998152256012,-0.7177022295188511,0.0,True,0.010375022888183594,-1.7349997758865356,-0.3499998152256012,-0.717703640460968,0.0,0.0,0.0
1759839079.1466506,1,-1.7349997758865356,-0.3499998152256012,-0.7177022607910288,0.0,True,0.011252403259277344,-1.7349997758865356,-0.3499998152256012,-0.717703640460968,0.0,0.0,0.0
1759839079.1580791,1,-1.7349997758865356,-0.3499998152256012,-0.7177022897163088,0.0,True,0.011428594589233398,-1.7349997758865356,-0.3499998152256012,-0.717703640460968,0.0,0.0,0.0
1759839079.1696296,1,-1.7349997758865356,-0.3499998152256012,-0.7177023203526112,0.0,True,0.011550426483154297,-1.7349997758865356,-0.3499998152256012,-0.717703640460968,0.0,0.0,0.0
1759839079.1800413,1,-1.7349997758865356,-0.3499998152256012,-0.717702385313185,0.0,True,0.010411739349365234,-1.7349997758865356,-0.3499998152256012,-0.717703640460968,0.0,0.0,0.0
1759839079.1956403,1,-1.7349997758865356,-0.3499998152256012,-0.7177023144497152,0.0,True,0.01559901237487793,-1.7349997758865356,-0.3499998152256012,-0.717703640460968,0.0,0.0,0.0
1759839079.206043,1,-1.7349997758865356,-0.3499998152256012,-0.7177024026584071,0.0,True,0.010402679443359375,-1.7349997758865356,-0.3499998152256012,-0.717703640460968,0.0,0.0,0.0
1759839079.2164483,1,-1.7349997758865356,-0.3499998152256012,-0.7177024840079635,0.0,True,0.010405302047729492,-1.7349997758865356,-0.3499998152256012,-0.717703640460968,0.0,0.0,0.0
1759839079.2278311,1,-1.7349997758865356,-0.3499998152256012,-0.7177025289084256,0.0,True,0.011382818222045898,-1.7349997758865356,-0.3499998152256012,-0.717703640460968,0.0,0.0,0.0
1759839079.2389252,1,-1.7349997758865356,-0.3499998152256012,-0.7177025756159487,0.0,True,0.011094093322753906,-1.7349997758865356,-0.3499998152256012,-0.717703640460968,0.0,0.0,0.0
1759839079.250196,1,-1.7349997758865356,-0.3499998152256012,-0.7177026150244572,0.0,True,0.011270761489868164,-1.7349997758865356,-0.3499998152256012,-0.717703640460968,0.0,0.0,0.0
1759839079.2612686,1,-1.7349997758865356,-0.3499998152256012,-0.7177026562686386,0.0,True,0.011072635650634766,-1.7349997758865356,-0.3499998152256012,-0.717703640460968,0.0,0.0,0.0
1759839079.2724044,1,-1.7349997758865356,-0.3499998152256012,-0.7177026934770829,0.0,True,0.01113581657409668,-1.7349997758865356,-0.3499998152256012,-0.717703640460968,0.0,0.0,0.0
1759839079.2831583,1,-1.7349997758865356,-0.3499998152256012,-0.7177027355665864,0.0,True,0.010753870010375977,-1.7349997758865356,-0.3499998152256012,-0.717703640460968,0.0,0.0,0.0
1759839079.2944446,1,-1.7349997758865356,-0.3499998152256012,-0.7177027640531186,0.0,True,0.011286258697509766,-1.7349997758865356,-0.3499998152256012,-0.717703640460968,0.0,0.0,0.0
1759839079.3056128,1,-1.7349997758865356,-0.3499998152256012,-0.7177027939125651,0.0,True,0.011168241500854492,-1.7349997758865356,-0.3499998152256012,-0.717703640460968,0.0,0.0,0.0
1759839079.3164954,1,-1.7349997758865356,-0.3499998152256012,-0.7177028278932056,0.0,True,0.01088261604309082,-1.7349997758865356,-0.3499998152256012,-0.717703640460968,0.0,0.0,0.0
1759839079.327888,1,-1.7349997758865356,-0.3499998152256012,-0.7177028512679708,0.0,True,0.011392593383789062,-1.7349997758865356,-0.3499998152256012,-0.717703640460968,0.0,0.0,0.0
1759839079.3391652,1,-1.7349997758865356,-0.3499998152256012,-0.7177028767169418,0.0,True,0.011277198791503906,-1.7349997758865356,-0.3499998152256012,-0.717703640460968,0.0,0.0,0.0
1759839079.350045,1,-1.7349997758865356,-0.3499998152256012,-0.7177029081430248,0.0,True,0.010879755020141602,-1.7349997758865356,-0.3499998152256012,-0.717703640460968,0.0,0.0,0.0
1759839079.360255,1,-1.7349997758865356,-0.3499998152256012,-0.7177029470723824,0.0,True,0.010210037231445312,-1.7349997758865356,-0.3499998152256012,-0.717703640460968,0.0,0.0,0.0
1759839079.3709686,1,-1.7349997758865356,-0.3499998152256012,-0.7177029735729796,0.0,True,0.010713577270507812,-1.7349997758865356,-0.3499998152256012,-0.717703640460968,0.0,0.0,0.0
1759839079.3819895,1,-1.7349997758865356,-0.3499998152256012,-0.7177029933141554,0.0,True,0.011020898818969727,-1.7349997758865356,-0.3499998152256012,-0.717703640460968,0.0,0.0,0.0
1759839079.3985,1,-1.7349997758865356,-0.3499998152256012,-0.7177029417346237,0.0,True,0.016510486602783203,-1.7349997758865356,-0.3499998152256012,-0.717703640460968,0.0,0.0,0.0
1759839079.409681,1,-1.7349997758865356,-0.3499998152256012,-0.7177029798267345,0.0,True,0.011181116104125977,-1.7349997758865356,-0.3499998152256012,-0.717703640460968,0.0,0.0,0.0
1759839079.419804,1,-1.7349997758865356,-0.3499998152256012,-0.7177030304356578,0.0,True,0.010123014450073242,-1.7349997758865356,-0.3499998152256012,-0.717703640460968,0.0,0.0,0.0
1759839079.4304276,1,-1.7349997758865356,-0.3499998152256012,-0.7177030658162167,0.0,True,0.010623455047607422,-1.7349997758865356,-0.3499998152256012,-0.717703640460968,0.0,0.0,0.0
1759839079.4421515,1,-1.7349997758865356,-0.3499998152256012,-0.7177030825730988,0.0,True,0.011723995208740234,-1.7349997758865356,-0.3499998152256012,-0.717703640460968,0.0,0.0,0.0
1759839079.45288,1,-1.7349997758865356,-0.3499998152256012,-0.7177031097223932,0.0,True,0.01072835922241211,-1.7349997758865356,-0.3499998152256012,-0.717703640460968,0.0,0.0,0.0
1759839079.4636815,1,-1.7349997758865356,-0.3499998152256012,-0.7177031333720869,0.0,True,0.010801553726196289,-1.7349997758865356,-0.3499998152256012,-0.717703640460968,0.0,0.0,0.0
1759839079.4749358,1,-1.7349997758865356,-0.3499998152256012,-0.7177031498246009,0.0,True,0.011254310607910156,-1.7349997758865356,-0.3499998152256012,-0.717703640460968,0.0,0.0,0.0
1759839079.4856951,1,-1.7349997758865356,-0.3499998152256012,-0.7177031705137136,0.0,True,0.010759353637695312,-1.7349997758865356,-0.3499998152256012,-0.717703640460968,0.0,0.0,0.0
1759839079.4969718,1,-1.7349997758865356,-0.3499998152256012,-0.717703184667954,0.0,True,0.011276721954345703,-1.7349997758865356,-0.3499998152256012,-0.717703640460968,0.0,0.0,0.0
1759839079.50801,1,-1.7349997758865356,-0.3499998152256012,-0.7177032008175566,0.0,True,0.011038064956665039,-1.7349997758865356,-0.3499998152256012,-0.717703640460968,0.0,0.0,0.0
1759839079.5184011,1,-1.7349997758865356,-0.3499998152256012,-0.7177032220702255,0.0,True,0.0103912353515625,-1.7349997758865356,-0.3499998152256012,-0.717703640460968,0.0,0.0,0.0
1759839079.5296977,1,-1.7349997758865356,-0.3499998152256012,-0.7177032332005009,0.0,True,0.011296510696411133,-1.7349997758865356,-0.3499998152256012,-0.717703640460968,0.0,0.0,0.0
1759839079.540118,1,-1.7349997758865356,-0.3499998152256012,-0.7177032515802146,0.0,True,0.01042032241821289,-1.7349997758865356,-0.3499998152256012,-0.717703640460968,0.0,0.0,0.0
1759839079.5503645,1,-1.7349997758865356,-0.3499998152256012,-0.7177032696472736,0.0,True,0.010246515274047852,-1.7349997758865356,-0.3499998152256012,-0.717703640460968,0.0,0.0,0.0
1759839079.5611963,1,-1.7349997758865356,-0.3499998152256012,-0.7177032809447361,0.0,True,0.010831832885742188,-1.7349997758865356,-0.3499998152256012,-0.717703640460968,0.0,0.0,0.0
1759839079.5719013,1,-1.7349997758865356,-0.3499998152256012,-0.7177032927278688,0.0,True,0.010704994201660156,-1.7349997758865356,-0.3499998152256012,-0.717703640460968,0.0,0.0,0.0
1759839079.58313,1,-1.7349997758865356,-0.3499998152256012,-0.7177033003995028,0.0,True,0.011228561401367188,-1.7349997758865356,-0.3499998152256012,-0.717703640460968,0.0,0.0,0.0
1759839079.5957606,1,-1.7349997758865356,-0.3499998152256012,-0.7177032991723173,0.0,True,0.012630701065063477,-1.7349997758865356,-0.3499998152256012,-0.717703640460968,0.0,0.0,0.0
1759839079.6065605,1,-1.7349997758865356,-0.3499998152256012,-0.7177033139492401,0.0,True,0.010799884796142578,-1.7349997758865356,-0.3499998152256012,-0.717703640460968,0.0,0.0,0.0
1759839079.617264,1,-1.7349997758865356,-0.3499998152256012,-0.7177033288377288,0.0,True,0.010703563690185547,-1.7349997758865356,-0.3499998152256012,-0.717703640460968,0.0,0.0,0.0
1759839079.627485,1,-1.7349997758865356,-0.3499998152256012,-0.7177033451158472,0.0,True,0.010221004486083984,-1.7349997758865356,-0.3499998152256012,-0.717703640460968,0.0,0.0,0.0
1759839079.6386948,1,-1.7349997758865356,-0.3499998152256012,-0.7177033531597417,0.0,True,0.011209726333618164,-1.7349997758865356,-0.3499998152256012,-0.717703640460968,0.0,0.0,0.0
1759839079.6495793,1,-1.7349997758865356,-0.3499998152256012,-0.7177033630111005,0.0,True,0.010884523391723633,-1.7349997758865356,-0.3499998152256012,-0.717703640460968,0.0,0.0,0.0
1759839079.6603467,1,-1.7349997758865356,-0.3499998152256012,-0.7177033732617701,0.0,True,0.010767459869384766,-1.7349997758865356,-0.3499998152256012,-0.717703640460968,0.0,0.0,0.0
1759839079.6711779,1,-1.7349997758865356,-0.3499998152256012,-0.7177033825758876,0.0,True,0.010831117630004883,-1.7349997758865356,-0.3499998152256012,-0.717703640460968,0.0,0.0,0.0
1759839079.6819143,1,-1.7349997758865356,-0.3499998152256012,-0.7177033919363982,0.0,True,0.010736465454101562,-1.7349997758865356,-0.3499998152256012,-0.717703640460968,0.0,0.0,0.0
1759839079.6929727,1,-1.7349997758865356,-0.3499998152256012,-0.717703399139479,0.0,True,0.011058330535888672,-1.7349997758865356,-0.3499998152256012,-0.717703640460968,0.0,0.0,0.0
1759839079.7041774,1,-1.7349997758865356,-0.3499998152256012,-0.7177034056549942,0.0,True,0.011204719543457031,-1.7349997758865356,-0.3499998152256012,-0.717703640460968,0.0,0.0,0.0
1759839079.7142646,1,-1.7349997758865356,-0.3499998152256012,-0.7177034177641186,0.0,True,0.010087251663208008,-1.7349997758865356,-0.3499998152256012,-0.717703640460968,0.0,0.0,0.0
1759839079.7253244,1,-1.7349997758865356,-0.3499998152256012,-0.7177034239743847,0.0,True,0.011059761047363281,-1.7349997758865356,-0.3499998152256012,-0.717703640460968,0.0,0.0,0.0
1759839079.7365727,1,-1.7349997758865356,-0.3499998152256012,-0.7177034292281483,0.0,True,0.011248350143432617,-1.7349997758865356,-0.3499998152256012,-0.717703640460968,0.0,0.0,0.0
1759839079.746779,1,-1.7349997758865356,-0.3499998152256012,-0.7177034393861881,0.0,True,0.010206222534179688,-1.7349997758865356,-0.3499998152256012,-0.717703640460968,0.0,0.0,0.0
1759839079.7582347,1,-1.7349997758865356,-0.3499998152256012,-0.7177034433293876,0.0,True,0.011455774307250977,-1.7349997758865356,-0.3499998152256012,-0.717703640460968,0.0,0.0,0.0
1759839079.7686493,1,-1.7349997758865356,-0.3499998152256012,-0.7177034518848515,0.0,True,0.010414600372314453,-1.7349997758865356,-0.3499998152256012,-0.717703640460968,0.0,0.0,0.0
1759839079.7797797,1,-1.7349997758865356,-0.3499998152256012,-0.7177034570364071,0.0,True,0.011130332946777344,-1.7349997758865356,-0.3499998152256012,-0.717703640460968,0.0,0.0,0.0
1759839079.792142,1,-1.7349997758865356,-0.3499998152256012,-0.7177034576594217,0.0,True,0.012362241744995117,-1.7349997758865356,-0.3499998152256012,-0.717703640460968,0.0,0.0,0.0
1759839079.8020873,1,-1.7349997758865356,-0.3499998152256012,-0.7177034685596908,0.0,True,0.009945392608642578,-1.7349997758865356,-0.3499998152256012,-0.717703640460968,0.0,0.0,0.0
1759839079.812884,1,-1.7349997758865356,-0.3499998152256012,-0.7177034752400537,0.0,True,0.010796785354614258,-1.7349997758865356,-0.3499998152256012,-0.717703640460968,0.0,0.0,0.0
1759839079.8237894,1,-1.7349997758865356,-0.3499998152256012,-0.7177034808488578,0.0,True,0.010905265808105469,-1.7349997758865356,-0.3499998152256012,-0.717703640460968,0.0,0.0,0.0
1759839079.8349383,1,-1.7349997758865356,-0.3499998152256012,-0.7177034854301674,0.0,True,0.011148929595947266,-1.7349997758865356,-0.3499998152256012,-0.717703640460968,0.0,0.0,0.0
1759839079.8450787,1,-1.7349997758865356,-0.3499998152256012,-0.7177034932442545,0.0,True,0.010140419006347656,-1.7349997758865356,-0.3499998152256012,-0.717703640460968,0.0,0.0,0.0
1759839079.8563013,1,-1.7349997758865356,-0.3499998152256012,-0.7177034968717848,0.0,True,0.011222600936889648,-1.7349997758865356,-0.3499998152256012,-0.717703640460968,0.0,0.0,0.0
1759839079.8669903,1,-1.7349997758865356,-0.3499998152256012,-0.7177035021433866,0.0,True,0.010689020156860352,-1.7349997758865356,-0.3499998152256012,-0.717703640460968,0.0,0.0,0.0
1759839079.8785396,1,-1.7349997758865356,-0.3499998152256012,-0.7177035047669627,0.0,True,0.011549234390258789,-1.7349997758865356,-0.3499998152256012,-0.717703640460968,0.0,0.0,0.0
1759839079.8894796,1,-1.7349997758865356,-0.3499998152256012,-0.7177035095035649,0.0,True,0.010940074920654297,-1.7349997758865356,-0.3499998152256012,-0.717703640460968,0.0,0.0,0.0
1759839079.8997195,1,-1.7349997758865356,-0.3499998152256012,-0.7177035160253045,0.0,True,0.010239839553833008,-1.7349997758865356,-0.3499998152256012,-0.717703640460968,0.0,0.0,0.0
1759839079.9098966,1,-1.7349997758865356,-0.3499998152256012,-0.7177035219296926,0.0,True,0.010177135467529297,-1.7349997758865356,-0.3499998152256012,-0.717703640460968,0.0,0.0,0.0
1759839079.9213555,1,-1.7349997758865356,-0.3499998152256012,-0.7177035238780753,0.0,True,0.011458873748779297,-1.7349997758865356,-0.3499998152256012,-0.717703640460968,0.0,0.0,0.0
1759839079.9317327,1,-1.7349997758865356,-0.3499998152256012,-0.7177035287727147,0.0,True,0.010377168655395508,-1.7349997758865356,-0.3499998152256012,-0.717703640460968,0.0,0.0,0.0
1759839079.9420698,1,-1.7349997758865356,-0.3499998152256012,-0.7177035334439985,0.0,True,0.010337114334106445,-1.7349997758865356,-0.3499998152256012,-0.717703640460968,0.0,0.0,0.0
1759839079.9522223,1,-1.7349997758865356,-0.3499998152256012,-0.7177035380536836,0.0,True,0.010152578353881836,-1.7349997758865356,-0.3499998152256012,-0.717703640460968,0.0,0.0,0.0
1759839079.9626894,1,-1.7349997758865356,-0.3499998152256012,-0.7177035414713959,0.0,True,0.010467052459716797,-1.7349997758865356,-0.3499998152256012,-0.717703640460968,0.0,0.0,0.0
1759839079.9728463,1,-1.7349997758865356,-0.3499998152256012,-0.7177035453301102,0.0,True,0.010156869888305664,-1.7349997758865356,-0.3499998152256012,-0.717703640460968,0.0,0.0,0.0
1759839079.983911,1,-1.7349997758865356,-0.3499998152256012,-0.7177035470236781,0.0,True,0.011064767837524414,-1.7349997758865356,-0.3499998152256012,-0.717703640460968,0.0,0.0,0.0
1759839079.9972687,1,-1.7349997758865356,-0.3499998152256012,-0.7177035445210347,0.0,True,0.01335763931274414,-1.7349997758865356,-0.3499998152256012,-0.717703640460968,0.0,0.0,0.0
1759839080.0084176,1,-1.7349997758865356,-0.3499998152256012,-0.7177035478982479,0.0,True,0.011148929595947266,-1.7349997758865356,-0.3499998152256012,-0.717703640460968,0.0,0.0,0.0
1759839080.0193586,1,-1.7349997758865356,-0.3499998152256012,-0.7177035518790227,0.0,True,0.010941028594970703,-1.7349997758865356,-0.3499998152256012,-0.717703640460968,0.0,0.0,0.0
1759839080.0304463,1,-1.7349997758865356,-0.3499998152256012,-0.717703555289166,0.0,True,0.011087656021118164,-1.7349997758865356,-0.3499998152256012,-0.717703640460968,0.0,0.0,0.0
1759839080.041715,1,-1.7349997758865356,-0.3499998152256012,-0.7177035581679654,0.0,True,0.01126861572265625,-1.7349997758865356,-0.3499998152256012,-0.717703640460968,0.0,0.0,0.0
1759839080.0522077,1,-1.7349997758865356,-0.3499998152256012,-0.7177035622269567,0.0,True,0.010492801666259766,-1.7349997758865356,-0.3499998152256012,-0.717703640460968,0.0,0.0,0.0
1759839080.0624528,1,-1.7349997758865356,-0.3499998152256012,-0.7177035662246762,0.0,True,0.010245084762573242,-1.7349997758865356,-0.3499998152256012,-0.717703640460968,0.0,0.0,0.0
1759839080.0737228,1,-1.7349997758865356,-0.3499998152256012,-0.7177035681058967,0.0,True,0.01127004623413086,-1.7349997758865356,-0.3499998152256012,-0.717703640460968,0.0,0.0,0.0
1759839080.0839267,1,-1.7349997758865356,-0.3499998152256012,-0.7177035715820459,0.0,True,0.010203838348388672,-1.7349997758865356,-0.3499998152256012,-0.717703640460968,0.0,0.0,0.0
1759839080.0953522,1,-1.7349997758865356,-0.3499998152256012,-0.7177035729655294,0.0,True,0.011425495147705078,-1.7349997758865356,-0.3499998152256012,-0.717703640460968,0.0,0.0,0.0
1759839080.105629,1,-1.7349997758865356,-0.3499998152256012,-0.7177035760691659,0.0,True,0.01027679443359375,-1.7349997758865356,-0.3499998152256012,-0.717703640460968,0.0,0.0,0.0
1759839080.1165159,1,-1.7349997758865356,-0.3499998152256012,-0.7177035780907435,0.0,True,0.010886907577514648,-1.7349997758865356,-0.3499998152256012,-0.717703640460968,0.0,0.0,0.0
1759839080.126919,1,-1.7349997758865356,-0.3499998152256012,-0.7177035806524668,0.0,True,0.010403156280517578,-1.7349997758865356,-0.3499998152256012,-0.717703640460968,0.0,0.0,0.0
1759839080.1383564,1,-1.7349997758865356,-0.3499998152256012,-0.7177035817241588,0.0,True,0.011437416076660156,-1.7349997758865356,-0.3499998152256012,-0.717703640460968,0.0,0.0,0.0
1759839080.1487846,1,-1.7349997758865356,-0.3499998152256012,-0.7177035841904953,0.0,True,0.010428190231323242,-1.7349997758865356,-0.3499998152256012,-0.717703640460968,0.0,0.0,0.0
1759839080.1595984,1,-1.7349997758865356,-0.3499998152256012,-0.7177035860503977,0.0,True,0.010813713073730469,-1.7349997758865356,-0.3499998152256012,-0.717703640460968,0.0,0.0,0.0
1759839080.1710062,1,-1.7349997758865356,-0.3499998152256012,-0.7177035871638502,0.0,True,0.011407852172851562,-1.7349997758865356,-0.3499998152256012,-0.717703640460968,0.0,0.0,0.0
1759839080.1815047,1,-1.7349997758865356,-0.3499998152256012,-0.7177035894189814,0.0,True,0.010498523712158203,-1.7349997758865356,-0.3499998152256012,-0.717703640460968,0.0,0.0,0.0
1759839080.1937723,1,-1.7349997758865356,-0.3499998152256012,-0.717703589683298,0.0,True,0.012267589569091797,-1.7349997758865356,-0.3499998152256012,-0.717703640460968,0.0,0.0,0.0
1759839080.2022872,1,-1.7349997758865356,-0.3499998152256012,-0.7177035940907714,0.0,True,0.008514881134033203,-1.7349997758865356,-0.3499998152256012,-0.717703640460968,0.0,0.0,0.0
1759839080.2126286,1,-1.7349997758865356,-0.3499998152256012,-0.7177035959404208,0.0,True,0.010341405868530273,-1.7349997758865356,-0.3499998152256012,-0.717703640460968,0.0,0.0,0.0
1759839080.2237194,1,-1.7349997758865356,-0.3499998152256012,-0.7177035967703524,0.0,True,0.011090755462646484,-1.7349997758865356,-0.3499998152256012,-0.717703640460968,0.0,0.0,0.0
1759839080.2338653,1,-1.7349997758865356,-0.3499998152256012,-0.7177035985793783,0.0,True,0.010145902633666992,-1.7349997758865356,-0.3499998152256012,-0.717703640460968,0.0,0.0,0.0
1759839080.2452466,1,-1.7349997758865356,-0.3499998152256012,-0.7177035991661178,0.0,True,0.011381387710571289,-1.7349997758865356,-0.3499998152256012,-0.717703640460968,0.0,0.0,0.0
1759839080.2567782,1,-1.7349997758865356,-0.3499998152256012,-0.7177035997960495,0.0,True,0.011531591415405273,-1.7349997758865356,-0.3499998152256012,-0.717703640460968,0.0,0.0,0.0
1759839080.2682474,1,-1.7349997758865356,-0.3499998152256012,-0.7177036007110758,0.0,True,0.011469125747680664,-1.7349997758865356,-0.3499998152256012,-0.717703640460968,0.0,0.0,0.0
1759839080.2825196,1,-1.7349997758865356,-0.3499998152256012,-0.71770359958564,0.0,True,0.014272212982177734,-1.7349997758865356,-0.3499998152256012,-0.717703640460968,0.0,0.12114685612419152,0.0
1759839080.2932897,1,-1.7349997758865356,-0.3499998152256012,-0.7177036018947156,0.0,True,0.010770082473754883,-1.7349997758865356,-0.3499998152256012,-0.717703640460968,0.0,0.12114685612419152,0.0
1759839080.3034627,1,-1.7349997758865356,-0.3499998152256012,-0.7177036044920335,0.0,True,0.01017308235168457,-1.7349997758865356,-0.3499998152256012,-0.717703640460968,0.0,0.12114685612419152,0.0
1759839080.3138692,1,-1.7349997758865356,-0.3499998152256012,-0.7177036064681275,0.0,True,0.010406494140625,-1.7349997758865356,-0.3499998152256012,-0.717703640460968,0.0,0.12114685612419152,0.0
1759839080.324864,1,-1.7349997758865356,-0.3499998152256012,-0.7177036077159009,0.0,True,0.010994672775268555,-1.7349997758865356,-0.3499998152256012,-0.717703640460968,0.0,0.12114685612419152,0.0
1759839080.3359313,1,-1.7349997758865356,-0.3499998152256012,-0.7177036088126254,0.0,True,0.011067390441894531,-1.7349997758865356,-0.3499998152256012,-0.717703640460968,0.0,0.12114685612419152,0.0
1759839080.346031,1,-1.7349997758865356,-0.3499998152256012,-0.7177036104906946,0.0,True,0.010099649429321289,-1.7349997758865356,-0.3499998152256012,-0.717703640460968,0.0,0.12114685612419152,0.0
1759839080.3570118,1,-1.7349997758865356,-0.3499998152256012,-0.7177036114102222,0.0,True,0.010980844497680664,-1.7349997758865356,-0.3499998152256012,-0.717703640460968,0.0,0.12114685612419152,0.0
1759839080.3690536,1,-1.7349997758865356,-0.3499998152256012,-0.7177036116592888,0.0,True,0.012041807174682617,-1.7349997758865356,-0.3499998152256012,-0.717703640460968,0.0,0.12114685612419152,0.0
1759839080.3802776,1,-1.7349997758865356,-0.3499998152256012,-0.7177036125759493,0.0,True,0.011224031448364258,-1.7349997758865356,-0.3499998152256012,-0.717703640460968,0.0,0.12114685612419152,0.0
1759839080.3921542,1,-1.7349997758865356,-0.3499998152256012,-0.7177036131727519,0.0,True,0.011876583099365234,-1.7349997758865356,-0.3499998152256012,-0.717703640460968,0.0,0.12114685612419152,0.0
1759839080.4090266,1,-1.7349997758865356,-0.3499998152256012,-0.7177036112795747,0.0,True,0.016872406005859375,-1.7349997758865356,-0.3499998152256012,-0.717703640460968,0.0,0.12114685612419152,0.0
1759839080.4191055,1,-1.7349997758865356,-0.3499998152256012,-0.7177036137114143,0.0,True,0.010078907012939453,-1.7349997758865356,-0.3499998152256012,-0.717703640460968,0.0,0.12114685612419152,0.0
1759839080.4298115,1,-1.7349997758865356,-0.3499998152256012,-0.7177036155677197,0.0,True,0.010705947875976562,-1.7349997758865356,-0.3499998152256012,-0.717703640460968,0.0,0.12114685612419152,0.0
1759839080.4404275,1,-1.7349997758865356,-0.3499998152256012,-0.7177036170987066,0.0,True,0.010616064071655273,-1.7349997758865356,-0.3499998152256012,-0.717703640460968,0.0,0.12114685612419152,0.0
1759839080.4507656,1,-1.7349997758865356,-0.3499998152256012,-0.7177036184850039,0.0,True,0.010338068008422852,-1.7349997758865356,-0.3499998152256012,-0.717703640460968,0.0,0.12114685612419152,0.0
1759839080.461535,1,-1.7349997758865356,-0.3499998152256012,-0.7177036194490078,0.0,True,0.010769367218017578,-1.7349997758865356,-0.3499998152256012,-0.717703640460968,0.0,0.12114685612419152,0.0
1759839080.4722767,1,-1.7349997758865356,-0.3499998152256012,-0.7177036203033964,0.0,True,0.010741710662841797,-1.7349997758865356,-0.3499998152256012,-0.717703640460968,0.0,0.12114685612419152,0.0
1759839080.483463,1,-1.7349997758865356,-0.3499998152256012,-0.7177036208978897,0.0,True,0.011186361312866211,-1.7349997758865356,-0.3499998152256012,-0.717703640460968,0.0,0.12114685612419152,0.0
1759839080.494368,1,-1.7349997758865356,-0.3499998152256012,-0.7177036215983961,0.0,True,0.010905027389526367,-1.7349997758865356,-0.3499998152256012,-0.717703640460968,0.0,0.12114685612419152,0.0
1759839080.504518,1,-1.7349997758865356,-0.3499998152256012,-0.7177036225576252,0.0,True,0.010149955749511719,-1.7349997758865356,-0.3499998152256012,-0.717703640460968,0.0,0.12114685612419152,0.0
1759839080.5145946,1,-1.7349997758865356,-0.3499998152256012,-0.7177036234225707,0.0,True,0.010076522827148438,-1.7349997758865356,-0.3499998152256012,-0.717703640460968,0.0,0.12114685612419152,0.0
1759839080.5251074,1,-1.7349997758865356,-0.3499998152256012,-0.717703624009129,0.0,True,0.010512828826904297,-1.7349997758865356,-0.3499998152256012,-0.717703640460968,0.0,0.12114685612419152,0.0
1759839080.5360656,1,-1.7349997758865356,-0.3499998152256012,-0.7177036243949342,0.0,True,0.010958194732666016,-1.7349997758865356,-0.3499998152256012,-0.717703640460968,0.0,0.12114685612419152,0.0
1759839080.5469196,1,-1.7349997758865356,-0.3499998152256012,-0.7177036248389435,0.0,True,0.010854005813598633,-1.7349997758865356,-0.3499998152256012,-0.717703640460968,0.0,0.12114685612419152,0.0
1759839080.5575209,1,-1.7349997758865356,-0.3499998152256012,-0.7177036253798175,0.0,True,0.010601282119750977,-1.7349997758865356,-0.3499998152256012,-0.717703640460968,0.0,0.12114685612419152,0.0
1759839080.5682006,1,-1.7349997758865356,-0.3499998152256012,-0.7177036258751102,0.0,True,0.01067972183227539,-1.7349997758865356,-0.3499998152256012,-0.717703640460968,0.0,0.12114685612419152,0.0
1759839080.5785096,1,-1.7349997758865356,-0.3499998152256012,-0.7177036264644379,0.0,True,0.010308980941772461,-1.7349997758865356,-0.3499998152256012,-0.717703640460968,0.0,0.12114685612419152,0.0
1759839080.5893197,1,-1.7349997758865356,-0.3499998152256012,-0.7177036268566166,0.0,True,0.010810136795043945,-1.7349997758865356,-0.3499998152256012,-0.717703640460968,0.0,0.12114685612419152,0.0
1759839080.602492,1,-1.7349997758865356,-0.3499998152256012,-0.7177036265798105,0.0,True,0.013172388076782227,-1.7349997758865356,-0.3499998152256012,-0.717703640460968,0.0,0.12114685612419152,0.0
1759839080.6136603,1,-1.7349997758865356,-0.3499998152256012,-0.7177036270638837,0.0,True,0.011168241500854492,-1.7349997758865356,-0.3499998152256012,-0.717703640460968,0.0,0.12114685612419152,0.0
1759839080.6243665,1,-1.7349997758865356,-0.3499998152256012,-0.7177036276973077,0.0,True,0.010706186294555664,-1.7349997758865356,-0.3499998152256012,-0.717703640460968,0.0,0.12114685612419152,0.0
1759839080.6350024,1,-1.7349997758865356,-0.3499998152256012,-0.7177036282839726,0.0,True,0.010635852813720703,-1.7349997758865356,-0.3499998152256012,-0.717703640460968,0.0,0.12114685612419152,0.0
1759839080.646522,1,-1.7349997758865356,-0.3499998152256012,-0.7177036285869285,0.0,True,0.011519670486450195,-1.7349997758865356,-0.3499998152256012,-0.717703640460968,0.0,0.12114685612419152,0.0
1759839080.656841,1,-1.7349997758865356,-0.3499998152256012,-0.7177036291865537,0.0,True,0.010318994522094727,-1.7349997758865356,-0.3499998152256012,-0.717703640460968,0.0,0.12114685612419152,0.0
1759839080.6675134,1,-1.7349997758865356,-0.3499998152256012,-0.7177036296406492,0.0,True,0.010672330856323242,-1.7349997758865356,-0.3499998152256012,-0.717703640460968,0.0,0.12114685612419152,0.0
1759839080.677714,1,-1.7349997758865356,-0.3499998152256012,-0.7177036301532045,0.0,True,0.010200738906860352,-1.7349997758865356,-0.3499998152256012,-0.717703640460968,0.0,0.12114685612419152,0.0
1759839080.6892602,1,-1.7349997758865356,-0.3499998152256012,-0.7177036303161266,0.0,True,0.011546134948730469,-1.7349997758865356,-0.3499998152256012,-0.717703640460968,0.0,0.12114685612419152,0.0
1759839080.699983,1,-1.7349997758865356,-0.3499998152256012,-0.7177036306833688,0.0,True,0.010722637176513672,-1.7349997758865356,-0.3499998152256012,-0.717703640460968,0.0,0.12114685612419152,0.0
1759839080.7106156,1,-1.7349997758865356,-0.3499998152256012,-0.7177036310598979,0.0,True,0.010632753372192383,-1.7349997758865356,-0.3499998152256012,-0.717703640460968,0.0,0.12114685612419152,0.0
1759839080.7210639,1,-1.7349997758865356,-0.3499998152256012,-0.7177036314450955,0.0,True,0.010448217391967773,-1.7349997758865356,-0.3499998152256012,-0.717703640460968,0.0,0.12114685612419152,0.0
1759839080.7319522,1,-1.7349997758865356,-0.3499998152256012,-0.7177036317130927,0.0,True,0.010888338088989258,-1.7349997758865356,-0.3499998152256012,-0.717703640460968,0.0,0.12114685612419152,0.0
1759839080.7432063,1,-1.7349997758865356,-0.3499998152256012,-0.7177036319104069,0.0,True,0.011254072189331055,-1.7349997758865356,-0.3499998152256012,-0.717703640460968,0.0,0.12114685612419152,0.0
1759839080.7543685,1,-1.7349997758865356,-0.3499998152256012,-0.7177036321449073,0.0,True,0.011162281036376953,-1.7349997758865356,-0.3499998152256012,-0.717703640460968,0.0,0.12114685612419152,0.0
1759839080.7645223,1,-1.7349997758865356,-0.3499998152256012,-0.7177036325616974,0.0,True,0.010153770446777344,-1.7349997758865356,-0.3499998152256012,-0.717703640460968,0.0,0.12114685612419152,0.0
1759839080.7757456,1,-1.7349997758865356,-0.3499998152256012,-0.717703632757468,0.0,True,0.011223316192626953,-1.7349997758865356,-0.3499998152256012,-0.717703640460968,0.0,0.12114685612419152,0.0
1759839080.7860954,1,-1.7349997758865356,-0.3499998152256012,-0.7177036330947857,0.0,True,0.010349750518798828,-1.7349997758865356,-0.3499998152256012,-0.717703640460968,0.0,0.12114685612419152,0.0
1759839080.7988603,1,-1.7349997758865356,-0.3499998152256012,-0.7177036330382762,0.0,True,0.012764930725097656,-1.7349997758865356,-0.3499998152256012,-0.717703640460968,0.0,0.12114685612419152,0.0
1759839080.8080776,1,-1.7349997758865356,-0.3499998152256012,-0.717703633581257,0.0,True,0.009217262268066406,-1.7349997758865356,-0.3499998152256012,-0.717703640460968,0.0,0.12114685612419152,0.0
1759839080.819576,1,-1.7349997758865356,-0.3499998152256012,-0.71770363372395,0.0,True,0.011498451232910156,-1.7349997758865356,-0.3499998152256012,-0.717703640460968,0.0,0.12114685612419152,0.0
1759839080.8307185,1,-1.7349997758865356,-0.3499998152256012,-0.7177036339183118,0.0,True,0.011142492294311523,-1.7349997758865356,-0.3499998152256012,-0.717703640460968,0.0,0.12114685612419152,0.0
1759839080.8418028,1,-1.7349997758865356,-0.3499998152256012,-0.7177036341287835,0.0,True,0.011084318161010742,-1.7349997758865356,-0.3499998152256012,-0.717703640460968,0.0,0.12114685612419152,0.0
1759839080.8533354,1,-1.7349997758865356,-0.3499998152256012,-0.7177036342816336,0.0,True,0.01153254508972168,-1.7349997758865356,-0.3499998152256012,-0.717703640460968,0.0,0.12114685612419152,0.0
1759839080.8641648,1,-1.7349997758865356,-0.3499998152256012,-0.7177036345346473,0.0,True,0.010829448699951172,-1.7349997758865356,-0.3499998152256012,-0.717703640460968,0.0,0.12114685612419152,0.0
1759839080.8753214,1,-1.7349997758865356,-0.3499998152256012,-0.7177036347342902,0.0,True,0.011156558990478516,-1.7349997758865356,-0.3499998152256012,-0.717703640460968,0.0,0.12114685612419152,0.0
1759839080.8855395,1,-1.7349997758865356,-0.3499998152256012,-0.717703635033871,0.0,True,0.010218143463134766,-1.7349997758865356,-0.3499998152256012,-0.717703640460968,0.0,0.12114685612419152,0.0
1759839080.8968058,1,-1.7349997758865356,-0.3499998152256012,-0.7177036351803068,0.0,True,0.011266231536865234,-1.7349997758865356,-0.3499998152256012,-0.717703640460968,0.0,0.12114685612419152,0.0
1759839080.908342,1,-1.7349997758865356,-0.3499998152256012,-0.7177036352977222,0.0,True,0.011536121368408203,-1.7349997758865356,-0.3499998152256012,-0.717703640460968,0.0,0.12114685612419152,0.0
1759839080.9193914,1,-1.7349997758865356,-0.3499998152256012,-0.7177036354810298,0.0,True,0.011049509048461914,-1.7349997758865356,-0.3499998152256012,-0.717703640460968,0.0,0.12114685612419152,0.0
1759839080.929775,1,-1.7349997758865356,-0.3499998152256012,-0.7177036357268953,0.0,True,0.01038360595703125,-1.7349997758865356,-0.3499998152256012,-0.717703640460968,0.0,0.12114685612419152,0.0
1759839080.9399002,1,-1.7349997758865356,-0.3499998152256012,-0.7177036359690803,0.0,True,0.010125160217285156,-1.7349997758865356,-0.3499998152256012,-0.717703640460968,0.0,0.12114685612419152,0.0
1759839080.9503112,1,-1.7349997758865356,-0.3499998152256012,-0.7177036361500413,0.0,True,0.01041102409362793,-1.7349997758865356,-0.3499998152256012,-0.717703640460968,0.0,0.12114685612419152,0.0
1759839080.9608054,1,-1.7349997758865356,-0.3499998152256012,-0.7177036363037868,0.0,True,0.010494232177734375,-1.7349997758865356,-0.3499998152256012,-0.717703640460968,0.0,0.12114685612419152,0.0
1759839080.9717467,1,-1.7349997758865356,-0.3499998152256012,-0.7177036364079612,0.0,True,0.010941267013549805,-1.7349997758865356,-0.3499998152256012,-0.717703640460968,0.0,0.12114685612419152,0.0
1759839080.9826035,1,-1.7349997758865356,-0.3499998152256012,-0.7177036365235114,0.0,True,0.010856866836547852,-1.7349997758865356,-0.3499998152256012,-0.717703640460968,0.0,0.12114685612419152,0.0
1759839080.9927921,1,-1.7349997758865356,-0.3499998152256012,-0.7177036366964131,0.0,True,0.010188579559326172,-1.7349997758865356,-0.3499998152256012,-0.717703640460968,0.0,0.12114685612419152,0.0
1759839081.0045469,1,-1.7349997758865356,-0.3499998152256012,-0.7177036367297251,0.0,True,0.011754751205444336,-1.7349997758865356,-0.3499998152256012,-0.717703640460968,0.0,0.12114685612419152,0.0
1759839081.0153196,1,-1.7349997758865356,-0.3499998152256012,-0.7177036368588734,0.0,True,0.010772705078125,-1.7349997758865356,-0.3499998152256012,-0.717703640460968,0.0,0.12114685612419152,0.0
1759839081.0267146,1,-1.7349997758865356,-0.3499998152256012,-0.7177036369427245,0.0,True,0.011394977569580078,-1.7349997758865356,-0.3499998152256012,-0.717703640460968,0.0,0.12114685612419152,0.0
1759839081.0382771,1,-1.7349997758865356,-0.3499998152256012,-0.7177036370226748,0.0,True,0.011562585830688477,-1.7349997758865356,-0.3499998152256012,-0.717703640460968,0.0,0.12114685612419152,0.0
1759839081.049761,1,-1.7349997758865356,-0.3499998152256012,-0.7177036371193708,0.0,True,0.011483907699584961,-1.7349997758865356,-0.3499998152256012,-0.717703640460968,0.0,0.12114685612419152,0.0
1759839081.0607834,1,-1.7349997758865356,-0.3499998152256012,-0.7177036372523595,0.0,True,0.011022329330444336,-1.7349997758865356,-0.3499998152256012,-0.717703640460968,0.0,0.12114685612419152,0.0
1759839081.070793,1,-1.7349997758865356,-0.3499998152256012,-0.7177036374423675,0.0,True,0.010009527206420898,-1.7349997758865356,-0.3499998152256012,-0.717703640460968,0.0,0.12114685612419152,0.0
1759839081.0812724,1,-1.7349997758865356,-0.3499998152256012,-0.717703637575088,0.0,True,0.010479450225830078,-1.7349997758865356,-0.3499998152256012,-0.717703640460968,0.0,0.12114685612419152,0.0
1759839081.0918653,1,-1.7349997758865356,-0.3499998152256012,-0.7177036376837691,0.0,True,0.010592937469482422,-1.7349997758865356,-0.3499998152256012,-0.717703640460968,0.0,0.12114685612419152,0.0
1759839081.1028657,1,-1.7349997758865356,-0.3499998152256012,-0.7177036377602413,0.0,True,0.011000394821166992,-1.7349997758865356,-0.3499998152256012,-0.717703640460968,0.0,0.12114685612419152,0.0
1759839081.113594,1,-1.7349997758865356,-0.3499998152256012,-0.717703637852825,0.0,True,0.01072835922241211,-1.7349997758865356,-0.3499998152256012,-0.717703640460968,0.0,0.12114685612419152,0.0
1759839081.1237156,1,-1.7349997758865356,-0.3499998152256012,-0.7177036379752035,0.0,True,0.010121583938598633,-1.7349997758865356,-0.3499998152256012,-0.717703640460968,0.0,0.12114685612419152,0.0
1759839081.134955,1,-1.7349997758865356,-0.3499998152256012,-0.7177036380256734,0.0,True,0.011239290237426758,-1.7349997758865356,-0.3499998152256012,-0.717703640460968,0.0,0.12114685612419152,0.0
1759839081.1459978,1,-1.7349997758865356,-0.3499998152256012,-0.7177036380907733,0.0,True,0.01104283332824707,-1.7349997758865356,-0.3499998152256012,-0.717703640460968,0.0,0.12114685612419152,0.0
1759839081.1574142,1,-1.7349997758865356,-0.3499998152256012,-0.7177036381419999,0.0,True,0.011416435241699219,-1.7349997758865356,-0.3499998152256012,-0.717703640460968,0.0,0.12114685612419152,0.0
1759839081.1679459,1,-1.7349997758865356,-0.3499998152256012,-0.7177036382417814,0.0,True,0.01053166389465332,-1.7349997758865356,-0.3499998152256012,-0.717703640460968,0.0,0.12114685612419152,0.0
1759839081.1791046,1,-1.7349997758865356,-0.3499998152256012,-0.7177036383061441,0.0,True,0.01115870475769043,-1.7349997758865356,-0.3499998152256012,-0.717703640460968,0.0,0.12114685612419152,0.0
1759839081.1907291,1,-1.7349997758865356,-0.3499998152256012,-0.7177036383501161,0.0,True,0.011624574661254883,-1.7349997758865356,-0.3499998152256012,-0.717703640460968,0.0,0.12114685612419152,0.0
1759839081.2057755,1,-1.7349997758865356,-0.3499998152256012,-0.7177036382606801,0.0,True,0.015046358108520508,-1.7349997758865356,-0.3499998152256012,-0.717703640460968,0.0,0.12114685612419152,0.0
1759839081.2158463,1,-1.7349997758865356,-0.3499998152256012,-0.7177036384212805,0.0,True,0.01007080078125,-1.7349997758865356,-0.3499998152256012,-0.717703640460968,0.0,0.12114685612419152,0.0
1759839081.2268176,1,-1.7349997758865356,-0.3499998152256012,-0.7177036385300539,0.0,True,0.010971307754516602,-1.7349997758865356,-0.3499998152256012,-0.717703640460968,0.0,0.12114685612419152,0.0
1759839081.237864,1,-1.7349997758865356,-0.3499998152256012,-0.7177036386187314,0.0,True,0.011046409606933594,-1.7349997758865356,-0.3499998152256012,-0.717703640460968,0.0,0.12114685612419152,0.0
1759839081.2485526,1,-1.7349997758865356,-0.3499998152256012,-0.7177036387100433,0.0,True,0.010688543319702148,-1.7349997758865356,-0.3499998152256012,-0.717703640460968,0.0,0.12114685612419152,0.0
1759839081.2587786,1,-1.7349997758865356,-0.3499998152256012,-0.7177036388060678,0.0,True,0.010226011276245117,-1.7349997758865356,-0.3499998152256012,-0.717703640460968,0.0,0.12114685612419152,0.0
1759839081.268796,1,-1.7349997758865356,-0.3499998152256012,-0.7177036388947808,0.0,True,0.01001739501953125,-1.7349997758865356,-0.3499998152256012,-0.717703640460968,0.0,0.12114685612419152,0.0
1759839081.279532,1,-1.7349997758865356,-0.3499998152256012,-0.7177036389461584,0.0,True,0.01073598861694336,-1.7349997758865356,-0.3499998152256012,-0.717703640460968,0.0,0.12114685612419152,0.0
1759839081.2903516,1,-1.7349997758865356,-0.3499998152256012,-0.7177036389912281,0.0,True,0.010819673538208008,-1.7349997758865356,-0.3499998152256012,-0.717703640460968,0.0,0.12114685612419152,0.0
1759839081.3005972,1,-1.7349997758865356,-0.3499998152256012,-0.7177036390535179,0.0,True,0.010245561599731445,-1.7349997758865356,-0.3499998152256012,-0.717703640460968,0.0,0.12114685612419152,0.0
1759839081.3107946,1,-1.7349997758865356,-0.3499998152256012,-0.7177036391116651,0.0,True,0.01019740104675293,-1.7349997758865356,-0.3499998152256012,-0.717703640460968,0.0,0.12114685612419152,0.0
1759839081.3217304,1,-1.7349997758865356,-0.3499998152256012,-0.7177036391425595,0.0,True,0.010935783386230469,-1.7349997758865356,-0.3499998152256012,-0.717703640460968,0.0,0.12114685612419152,0.0
1759839081.3319085,1,-1.7349997758865356,-0.3499998152256012,-0.7177036391959959,0.0,True,0.010178089141845703,-1.7349997758865356,-0.3499998152256012,-0.717703640460968,0.0,0.12114685612419152,0.0
1759839081.3425064,1,-1.7349997758865356,-0.3499998152256012,-0.7177036392342586,0.0,True,0.010597944259643555,-1.7349997758865356,-0.3499998152256012,-0.717703640460968,0.0,0.12114685612419152,0.0
1759839081.3538766,1,-1.7349997758865356,-0.3499998152256012,-0.7177036392512726,0.0,True,0.011370182037353516,-1.7349997758865356,-0.3499998152256012,-0.717703640460968,0.0,0.1211635255225012,0.0
1759839081.36495,1,-1.7349997758865356,-0.3499998152256012,-0.7177036392814955,0.0,True,0.01107335090637207,-1.7349997758865356,-0.3499998152256012,-0.717703640460968,0.0,0.1211635255225012,0.0
1759839081.3760762,1,-1.7349997758865356,-0.3499998152256012,-0.7177036393135428,0.0,True,0.011126279830932617,-1.7349997758865356,-0.3499998152256012,-0.717703640460968,0.0,0.1211635255225012,0.0
1759839081.3869238,1,-1.7349997758865356,-0.3499998152256012,-0.7177036393537506,0.0,True,0.01084756851196289,-1.7349997758865356,-0.3499998152256012,-0.717703640460968,0.0,0.1211635255225012,0.0
1759839081.3976412,1,-1.7349997758865356,-0.3499998152256012,-0.7177036393956957,0.0,True,0.010717391967773438,-1.7349997758865356,-0.3499998152256012,-0.717703640460968,0.0,0.1211635255225012,0.0
1759839081.4128208,1,-1.7349997758865356,-0.3499998152256012,-0.7177036393392857,0.0,True,0.015179634094238281,-1.7349997758865356,-0.3499998152256012,-0.717703640460968,0.0,0.1211635255225012,0.0
1759839081.4229658,1,-1.7349997758865356,-0.3499998152256012,-0.7177036394150278,0.0,True,0.010144948959350586,-1.7349997758865356,-0.3499998152256012,-0.717703640460968,0.0,0.1211635255225012,0.0
1759839081.433575,1,-1.7349997758865356,-0.3499998152256012,-0.7177036394750367,0.0,True,0.010609149932861328,-1.7349997758865356,-0.3499998152256012,-0.717703640460968,0.0,0.1211635255225012,0.0
1759839081.4442174,1,-1.7349997758865356,-0.3499998152256012,-0.7177036395244123,0.0,True,0.010642528533935547,-1.7349997758865356,-0.3499998152256012,-0.717703640460968,0.0,0.1211635255225012,0.0
1759839081.4544861,1,-1.7349997758865356,-0.3499998152256012,-0.7177036395738448,0.0,True,0.010268688201904297,-1.7349997758865356,-0.3499998152256012,-0.717703640460968,0.0,0.1211635255225012,0.0
1759839081.465382,1,-1.7349997758865356,-0.3499998152256012,-0.7177036396048173,0.0,True,0.010895967483520508,-1.7349997758865356,-0.3499998152256012,-0.717703640460968,0.0,0.1211635255225012,0.0
1759839081.4767308,1,-1.7349997758865356,-0.3499998152256012,-0.7177036396256238,0.0,True,0.011348724365234375,-1.7349997758865356,-0.3499998152256012,-0.717703640460968,0.0,0.1211635255225012,0.0
1759839081.4870386,1,-1.7349997758865356,-0.3499998152256012,-0.7177036396654088,0.0,True,0.010307788848876953,-1.7349997758865356,-0.3499998152256012,-0.717703640460968,0.0,0.1211635255225012,0.0
1759839081.4974537,1,-1.7349997758865356,-0.3499998152256012,-0.7177036396995202,0.0,True,0.010415077209472656,-1.7349997758865356,-0.3499998152256012,-0.717703640460968,0.0,0.1211635255225012,0.0
1759839081.5081384,1,-1.7349997758865356,-0.3499998152256012,-0.7177036397255492,0.0,True,0.010684728622436523,-1.7349997758865356,-0.3499998152256012,-0.717703640460968,0.0,0.1211635255225012,0.0
1759839081.5193074,1,-1.7349997758865356,-0.3499998152256012,-0.717703639742659,0.0,True,0.011168956756591797,-1.7349997758865356,-0.3499998152256012,-0.717703640460968,0.0,0.1211635255225012,0.0
1759839081.5306804,1,-1.7349997758865356,-0.3499998152256012,-0.7177036397581347,0.0,True,0.011373043060302734,-1.7349997758865356,-0.3499998152256012,-0.717703640460968,0.0,0.1211635255225012,0.0
1759839081.5409207,1,-1.7349997758865356,-0.3499998152256012,-0.7177036397919707,0.0,True,0.010240316390991211,-1.7349997758865356,-0.3499998152256012,-0.717703640460968,0.0,0.1211635255225012,0.0
1759839081.550924,1,-1.7349997758865356,-0.3499998152256012,-0.717703639825757,0.0,True,0.010003328323364258,-1.7349997758865356,-0.3499998152256012,-0.717703640460968,0.0,0.1211635255225012,0.0
