timestamp,observer_vehicle_id,vehicle_0_x,vehicle_0_y,vehicle_0_theta,vehicle_0_velocity,vehicle_1_x,vehicle_1_y,vehicle_1_theta,vehicle_1_velocity
1759676243.0016732,0,-1.205,-0.83,-0.7801621756414646,0.0,-0.25585060048103336,-0.051612513065338136,1.7791200272699161,0.0
1759676243.0117326,0,-1.205,-0.83,-0.7801621756414646,0.0,-0.4709965070804251,-0.09501370459835665,-2.9822786966927692,0.0
1759676243.02257,0,-1.205,-0.83,-0.7801621756414646,0.0,-0.6521092329051628,-0.13154941297798672,-0.7728433805702416,0.0
1759676243.0335548,0,-1.205,-0.83,-0.7801621756414646,0.0,-0.8048921350697754,-0.16237017133972415,1.1198918792866837,0.0
1759676243.0444794,0,-1.205,-0.83,-0.7801621756414646,0.0,-0.9340869946465982,-0.1884325349431178,2.749599879276723,0.0
1759676243.0550835,0,-1.205,-0.83,-0.7801621756414646,0.0,-1.0436376893541066,-0.2105320987169667,-2.1228953554576266,0.0
1759676243.065445,0,-1.205,-0.83,-0.7801621756414646,0.0,-1.1367710910828952,-0.22931981664496442,-0.048646311627524176,0.0
1759676243.0768726,0,-1.205,-0.83,-0.7801621756414646,0.0,-1.215991225272876,-0.24530082354207872,1.7477098365006045,0.0
1759676243.0883698,0,-1.205,-0.83,-0.7801621756414646,0.0,-1.2835272410943122,-0.2589248036789679,-2.971331699620141,0.0
1759676243.0988843,0,-1.205,-0.83,-0.7801621756414646,0.0,-1.3413257311236306,-0.2705844414370437,-0.797861812771856,0.0
1759676243.1101696,0,-1.205,-0.83,-0.7801621756414646,0.0,-1.390836190326069,-0.28057214214070564,1.0971749743762527,0.0
1759676243.1215417,0,-1.205,-0.83,-0.7801621756414646,0.0,-1.4333371924470508,-0.2891458313293763,2.7580101794235077,0.0
1759676243.13159,0,-1.205,-0.83,-0.7801621756414646,0.0,-1.4699834887907113,-0.2965384559520168,-2.062452593451064,0.0
1759676243.1430435,0,-1.205,-0.83,-0.7801621756414646,0.0,-1.5015708766593658,-0.30291055148748025,-0.01721592466932951,0.0
1759676243.1544077,0,-1.205,-0.83,-0.7801621756414646,0.0,-1.528862807380999,-0.3084161282901151,1.7858405438579716,0.0
1759676243.1656058,0,-1.205,-0.83,-0.7801621756414646,0.0,-1.5525021693279886,-0.313184875656943,-2.899490046460589,0.0
1759676243.175674,0,-1.205,-0.83,-0.7801621756414646,0.0,-1.5730631368660668,-0.31733262126981177,-0.7687251996897115,0.0
1759676243.1869514,0,-1.205,-0.83,-0.7801621756414646,0.0,-1.5909423733973773,-0.32093938368246805,1.121863703159628,0.0
1759676243.1979153,0,-1.2049999243418377,-0.8299995105862618,-0.7229993458019415,0.0,-1.606788712323666,-0.3241360514773966,2.8044669744942254,0.0
1759676243.2092843,0,-1.2049999239185727,-0.8299995078482668,-0.7181139905423812,0.0,-1.6208919539680626,-0.326981085814883,-1.9812014211975695,0.0
1759676243.2205174,0,-1.2049999237857767,-0.8299995069892429,-0.7176540037371204,0.0,-1.6334438390315758,-0.3295131663752459,0.04273901381631908,0.0
1759676243.231827,0,-1.2049999237364264,-0.8299995066700088,-0.7175946789532226,0.0,-1.6446150167381024,-0.3317667180739689,1.84404600097868,0.0
1759676243.2432134,0,-1.2049999237176512,-0.8299995065485567,-0.7175890770535673,0.0,-1.6446150167381024,-0.3317667180739689,1.84404600097868,0.0
1759676243.2543898,0,-1.2049999237104838,-0.829999506502193,-0.7175978880965292,0.0,-1.6446150167381024,-0.3317667180739689,1.84404600097868,0.0
1759676243.2656631,0,-1.2049999237077464,-0.8299995064844852,-0.7176098728039904,0.0,-1.6446150167381024,-0.3317667180739689,1.84404600097868,0.0
1759676243.2760408,0,-1.2049999237067008,-0.8299995064777215,-0.7176229476310922,0.0,-1.6446150167381024,-0.3317667180739689,1.84404600097868,0.0
1759676243.2864442,0,-1.2049999237063016,-0.829999506475138,-0.7176335972804466,0.0,-1.6446150167381024,-0.3317667180739689,1.84404600097868,0.0
1759676243.2967978,0,-1.204999923706149,-0.8299995064741511,-0.7176422724866676,0.0,-1.6446150167381024,-0.3317667180739689,1.84404600097868,0.0
1759676243.308175,0,-1.2049999237060907,-0.8299995064737742,-0.7176483373228528,0.0,-1.6446150167381024,-0.3317667180739689,1.84404600097868,0.0
1759676243.3190026,0,-1.2049999237060685,-0.8299995064736302,-0.7176542973589638,0.0,-1.6446150167381024,-0.3317667180739689,1.84404600097868,0.0
1759676243.3292825,0,-1.20499992370606,-0.8299995064735752,-0.7176598030872796,0.0,-1.6446150167381024,-0.3317667180739689,1.84404600097868,0.0
1759676243.3399248,0,-1.2049999237060567,-0.8299995064735542,-0.7176640050409588,0.0,-1.6446150167381024,-0.3317667180739689,1.84404600097868,0.0
1759676243.351289,0,-1.2049999237060554,-0.8299995064735463,-0.7176670635532716,0.0,-1.6446150167381024,-0.3317667180739689,1.84404600097868,0.0
1759676243.3627217,0,-1.204999923706055,-0.8299995064735431,-0.717669833559075,0.0,-1.6446150167381024,-0.3317667180739689,1.84404600097868,0.0
1759676243.3737419,0,-1.2049999237060547,-0.8299995064735419,-0.7176726255266139,0.0,-1.6446150167381024,-0.3317667180739689,1.84404600097868,0.0
1759676243.3849375,0,-1.2049999237060547,-0.8299995064735415,-0.7176749817509833,0.0,-1.6446150167381024,-0.3317667180739689,1.84404600097868,0.0
1759676243.3970997,0,-1.2049999237060547,-0.8299995064735414,-0.7176766029716717,0.0,-1.6446150167381024,-0.3317667180739689,1.84404600097868,0.0
1759676243.408312,0,-1.2049999237060547,-0.8299995064735413,-0.7176786413436105,0.0,-1.6446150167381024,-0.3317667180739689,1.84404600097868,0.0
1759676243.4197814,0,-1.2049999237060547,-0.8299995064735413,-0.7176803445763795,0.0,-1.6446150167381024,-0.3317667180739689,1.84404600097868,0.0
1759676243.431118,0,-1.2049999237060547,-0.8299995064735413,-0.7176819199994817,0.0,-1.6446150167381024,-0.3317667180739689,1.84404600097868,0.0
1759676243.4425926,0,-1.2049999237060547,-0.8299995064735413,-0.7176832716201726,0.0,-1.6446150167381024,-0.3317667180739689,1.84404600097868,0.0
1759676243.4528494,0,-1.2049999237060547,-0.8299995064735413,-0.7176849202296154,0.0,-1.6446150167381024,-0.3317667180739689,1.84404600097868,0.0
1759676243.4642227,0,-1.2049999237060547,-0.8299995064735413,-0.7176859165529715,0.0,-1.6446150167381024,-0.3317667180739689,1.84404600097868,0.0
1759676243.4745657,0,-1.2049999237060547,-0.8299995064735413,-0.7176871435688259,0.0,-1.6446150167381024,-0.3317667180739689,1.84404600097868,0.0
1759676243.4859602,0,-1.2049999237060547,-0.8299995064735413,-0.7176878762796779,0.0,-1.6446150167381024,-0.3317667180739689,1.84404600097868,0.0
1759676243.497272,0,-1.2049999237060547,-0.8299995064735413,-0.7176885932357528,0.0,-1.6446150167381024,-0.3317667180739689,1.84404600097868,0.0
1759676243.5084743,0,-1.2049999237060547,-0.8299995064735413,-0.7176893140455007,0.0,-1.6446150167381024,-0.3317667180739689,1.84404600097868,0.0
1759676243.5192645,0,-1.2049999237060547,-0.8299995064735413,-0.7176900983520369,0.0,-1.6446150167381024,-0.3317667180739689,1.84404600097868,0.0
1759676243.5293117,0,-1.2049999237060547,-0.8299995064735413,-0.7176909837409209,0.0,-1.6446150167381024,-0.3317667180739689,1.84404600097868,0.0
1759676243.539326,0,-1.2049999237060547,-0.8299995064735413,-0.7176917372412213,0.0,-1.6446150167381024,-0.3317667180739689,1.84404600097868,0.0
1759676243.549721,0,-1.2049999237060547,-0.8299995064735413,-0.7176922826196588,0.0,-1.6446150167381024,-0.3317667180739689,1.84404600097868,0.0
1759676243.5601912,0,-1.2049999237060547,-0.8299995064735413,-0.7176927506765196,0.0,-1.662520999715581,-0.3353788565585821,1.33654321582661,0.0
1759676243.5705638,0,-1.2049999237060547,-0.8299995064735413,-0.7176932046117059,0.0,-1.6767293060997295,-0.3382450700669892,0.9338423380630916,0.0
1759676243.581548,0,-1.2049999237060547,-0.8299995064735413,-0.7176934999008697,0.0,-1.6880242989079846,-0.34052358659732673,0.6137124509928403,0.0
1759676243.6015866,0,-1.2049999237060547,-0.8299995064735413,-0.7176921032643282,0.0,-1.696941643765213,-0.34232246491525403,0.36097137797289225,0.0
1759676243.6050987,0,-1.2049999237060547,-0.8299995064735413,-0.7176943005159195,0.0,-1.704139486229877,-0.34377447142087275,0.15696553799764656,0.0
1759676243.616538,0,-1.2049999237060547,-0.8299995064735413,-0.7176946304969061,0.0,-1.7099054219765883,-0.3449376222200608,-0.006456288893637321,0.0
1759676243.6280277,0,-1.2049999237060547,-0.8299995064735413,-0.7176948455394944,0.0,-1.7145363932408006,-0.34587181888190494,-0.1377102288478406,0.0
1759676243.6395466,0,-1.2049999237060547,-0.8299995064735413,-0.7176950803304472,0.0,-1.718265618356674,-0.34662410807908417,-0.24340630457544288,0.0
1759676243.6505857,0,-1.2049999237060547,-0.8299995064735413,-0.7176954121271031,0.0,-1.7212782951051506,-0.34723184939317786,-0.32879350965308674,0.0
1759676243.661849,0,-1.2049999237060547,-0.8299995064735413,-0.7176956976223252,0.0,-1.7240056362388478,-0.34778203051878753,-0.40609355082659493,0.0
1759676243.6733124,0,-1.2049999237060547,-0.8299995064735413,-0.7176959465841399,0.0,-1.726165682020013,-0.34821777227641604,-0.4673149454507339,0.0
1759676243.6838613,0,-1.2049999237060547,-0.8299995064735413,-0.7176963232816753,0.0,-1.7278827090986137,-0.34856414474854097,-0.5159800215690012,0.0
1759676243.6940508,0,-1.2049999237060547,-0.8299995064735413,-0.7176967066309832,0.0,-1.7292515130619575,-0.34884027086125446,-0.5547755361519117,0.0
1759676243.7052996,0,-1.2049999237060547,-0.8299995064735413,-0.7176968977075936,0.0,-1.7303441351320703,-0.34906068334760365,-0.5857433274425886,0.0
1759676243.7165215,0,-1.2049999237060547,-0.8299995064735413,-0.7176970893746386,0.0,-1.7312186321328609,-0.3492370938956985,-0.6105288789572144,0.0
1759676243.7278428,0,-1.2049999237060547,-0.8299995064735413,-0.7176972747246815,0.0,-1.7319203134774164,-0.34937864268370933,-0.6304163789676293,0.0
1759676243.739051,0,-1.2049999237060547,-0.8299995064735413,-0.7176974783837765,0.0,-1.732484885694852,-0.34949253271904035,-0.6464178446860103,0.0
1759676243.7503808,0,-1.2049999237060547,-0.8299995064735413,-0.7176976667546082,0.0,-1.7329826335076315,-0.34959294239956074,-0.6605253305250526,0.0
1759676243.7618093,0,-1.2049999237060547,-0.8299995064735413,-0.7176978441331094,0.0,-1.7333772650987487,-0.34967255064889907,-0.6717102306700407,0.0
1759676243.7731678,0,-1.2049999237060547,-0.8299995064735413,-0.7176980301084868,0.0,-1.7336910141098856,-0.3497358426155598,-0.6806027051681434,0.0
1759676243.7844663,0,-1.2049999237060547,-0.8299995064735413,-0.7176982191789457,0.0,-1.7339411436694667,-0.3497863007562516,-0.6876920366109356,0.0
1759676243.8065302,0,-1.2049999237060547,-0.8299995064735413,-0.7176974317005982,0.0,-1.734138804785971,-0.34982617454183124,-0.6932942739898201,0.0
1759676243.8093266,0,-1.2049999237060547,-0.8299995064735413,-0.7176986365746867,0.0,-1.7342990865187484,-0.34985850785835876,-0.6978370810446448,0.0
1759676243.8196335,0,-1.2049999237060547,-0.8299995064735413,-0.7176989491478203,0.0,-1.7344280929711524,-0.3498845320745148,-0.7014934641641895,0.0
1759676243.8298118,0,-1.2049999237060547,-0.8299995064735413,-0.7176991642132204,0.0,-1.7345321914178495,-0.34990553164800803,-0.7044438887063805,0.0
1759676243.841289,0,-1.2049999237060547,-0.8299995064735413,-0.7176992390207851,0.0,-1.7346251624141407,-0.34992428650296786,-0.7070789319550805,0.0
1759676243.8523252,0,-1.2049999237060547,-0.8299995064735413,-0.7176993565808569,0.0,-1.734698829789351,-0.3499391472766764,-0.7091668596684667,0.0
1759676243.863566,0,-1.2049999237060547,-0.8299995064735413,-0.7176994620503478,0.0,-1.7347573426546088,-0.34995095096110457,-0.7108252685993193,0.0
1759676243.8736708,0,-1.2049999237060547,-0.8299995064735413,-0.7176996524459263,0.0,-1.7348039974513787,-0.34996036254086066,-0.7121475885932109,0.0
1759676243.8849783,0,-1.2049999237060547,-0.8299995064735413,-0.7176997361468659,0.0,-1.7348412393469042,-0.34996787527469025,-0.7132031221390275,0.0
1759676243.895051,0,-1.2049999237060547,-0.8299995064735413,-0.7176999046571702,0.0,-1.7348710856717786,-0.3499738961146988,-0.7140490457065534,0.0
1759676243.906453,0,-1.2049999237060547,-0.8299995064735413,-0.7176999679961256,0.0,-1.7348950275144888,-0.3499787258552137,-0.7147276206762927,0.0
1759676243.9178107,0,-1.2049999237060547,-0.8299995064735413,-0.717700040431442,0.0,-1.7349142849115191,-0.3499826106117789,-0.7152734261001009,0.0
1759676243.9280684,0,-1.2049999237060547,-0.8299995064735413,-0.7177001883181299,0.0,-1.7349298341070991,-0.3499857473202092,-0.7157141313143092,0.0
1759676243.9395864,0,-1.2049999237060547,-0.8299995064735413,-0.7177002476248386,0.0,-1.7349438559845147,-0.349988575925771,-0.7161115483033919,0.0
1759676243.9496248,0,-1.2049999237060547,-0.8299995064735413,-0.7177003961005148,0.0,-1.734954963568361,-0.3499908166366626,-0.7164263665261799,0.0
1759676243.9599683,0,-1.2049999237060547,-0.8299995064735413,-0.7177005109109516,0.0,-1.7349637809804164,-0.3499925953557343,-0.7166762752400189,0.0
1759676243.9713366,0,-1.2049999237060547,-0.8299995064735413,-0.7177005576965918,0.0,-1.7349707902504852,-0.349994009321904,-0.7168749364409324,0.0
1759676243.9827785,0,-1.2049999237060547,-0.8299995064735413,-0.7177006079729384,0.0,-1.7349763767141306,-0.34999513626815165,-0.7170332715551088,0.0
1759676243.9944205,0,-1.2049999237060547,-0.8299995064735413,-0.7177006585478694,0.0,-1.7349808402329858,-0.34999603668497065,-0.7171597794521298,0.0
1759676244.0160756,0,-1.2049999237060547,-0.8299995064735413,-0.7177002639675365,0.0,-1.7349843778562057,-0.3499967503226968,-0.7172600450247673,0.0
1759676244.0272818,0,-1.2049999237060547,-0.8299995064735413,-0.7177004881675941,0.0,-1.7349872277417877,-0.34999732522447125,-0.7173408182988179,0.0
1759676244.0388117,0,-1.2049999237060547,-0.8299995064735413,-0.717700688513446,0.0,-1.7349897651608075,-0.34999783709298493,-0.7174127354463566,0.0
1759676244.0491273,0,-1.2049999237060547,-0.8299995064735413,-0.7177008978464858,0.0,-1.7349917778984705,-0.34999824311856764,-0.7174697817403869,0.0
1759676244.0602834,0,-1.2049999237060547,-0.8299995064735413,-0.7177010300942079,0.0,-1.7349933769954033,-0.34999856570122506,-0.7175151043651334,0.0
1759676244.0715759,0,-1.2049999237060547,-0.8299995064735413,-0.7177011322581581,0.0,-1.7349946506376341,-0.34999882263054993,-0.7175512027452259,0.0
1759676244.081683,0,-1.2049999237060547,-0.8299995064735413,-0.7177012629947601,0.0,-1.7349956690367945,-0.3499990280701957,-0.7175800668634857,0.0
1759676244.0929978,0,-1.2049999237060547,-0.8299995064735413,-0.7177013289043614,0.0,-1.7349964842393508,-0.34999919251939293,-0.717603171854054,0.0
1759676244.1037416,0,-1.2049999237060547,-0.8299995064735413,-0.7177014071668033,0.0,-1.7349971389189343,-0.34999932458660876,-0.7176217272001859,0.0
1759676244.115013,0,-1.2049999237060547,-0.8299995064735413,-0.7177014603389686,0.0,-1.734997665700999,-0.3499994308533114,-0.7176366575933023,0.0
1759676244.1250658,0,-1.2049999237060547,-0.8299995064735413,-0.7177015496629195,0.0,-1.7349980912524505,-0.34999951669896295,-0.7176487188438467,0.0
1759676244.13625,0,-1.2049999237060547,-0.8299995064735413,-0.717701592192892,0.0,-1.73499847350001,-0.3499995938090061,-0.7176595527478695,0.0
1759676244.1475449,0,-1.2049999237060547,-0.8299995064735413,-0.7177016299378991,0.0,-1.7349987762871186,-0.3499996548896499,-0.7176681345331402,0.0
1759676244.1588361,0,-1.2049999237060547,-0.8299995064735413,-0.7177016699351988,0.0,-1.7349990167770875,-0.349999703403215,-0.717674950653152,0.0
1759676244.1692953,0,-1.2049999237060547,-0.8299995064735413,-0.7177017341995011,0.0,-1.7349992084642476,-0.3499997420718862,-0.7176803835728549,0.0
1759676244.1805623,0,-1.2049999237060547,-0.8299995064735413,-0.7177017706299456,0.0,-1.7349993615005121,-0.34999977294358875,-0.7176847210242273,0.0
1759676244.1919732,0,-1.2049999237060547,-0.8299995064735413,-0.7177018032479907,0.0,-1.7349994839840204,-0.3499997976519443,-0.7176881925299039,0.0
1759676244.207103,0,-1.2049999237060547,-0.8299995064735413,-0.7177017476827174,0.0,-1.7349995818816333,-0.3499998174006359,-0.7176909672064661,0.0
1759676244.2183623,0,-1.2049999237060547,-0.8299995064735413,-0.7177018137857587,0.0,-1.7349996607335259,-0.34999983330727197,-0.7176932020770727,0.0
1759676244.229579,0,-1.2049999237060547,-0.8299995064735413,-0.7177018796983159,0.0,-1.7349997306546667,-0.3499998474123252,-0.7176951838266186,0.0
1759676244.2408679,0,-1.2049999237060547,-0.8299995064735413,-0.7177019354073764,0.0,-1.734999786108016,-0.34999985859881955,-0.7176967555207991,0.0
1759676244.2522862,0,-1.2049999237060547,-0.8299995064735413,-0.7177019818595163,0.0,-1.7349998301991703,-0.3499998674932408,-0.7176980051804027,0.0
1759676244.2628217,0,-1.2049999237060547,-0.8299995064735413,-0.7177020421190433,0.0,-1.7349998653833132,-0.3499998745908683,-0.7176990023918155,0.0
1759676244.2741368,0,-1.2049999237060547,-0.8299995064735413,-0.7177020786517829,0.0,-1.7349998935064672,-0.34999988026409645,-0.7176997994761747,0.0
1759676244.2842565,0,-1.2049999237060547,-0.8299995064735413,-0.7177021348315408,0.0,-1.7349999160742124,-0.34999988481664296,-0.7177004391055972,0.0
1759676244.2955744,0,-1.2049999237060547,-0.8299995064735413,-0.7177021609222543,0.0,-1.7349999342034703,-0.34999988847382224,-0.7177009529365769,0.0
1759676244.3069048,0,-1.2049999237060547,-0.8299995064735413,-0.7177021858510244,0.0,-1.73499994880532,-0.34999989141942445,-0.7177013667915062,0.0
1759676244.316909,0,-1.2049999237060547,-0.8299995064735413,-0.7177022342387823,0.0,-1.7349999618405647,-0.34999989404899856,-0.717701736244724,0.0
1759676244.3283412,0,-1.2049999237060547,-0.8299995064735413,-0.7177022524860845,0.0,-1.7349999721616827,-0.34999989613105725,-0.71770202877243,0.0
1759676244.3395345,0,-1.2049999237060547,-0.8299995064735413,-0.7177022751826385,0.0,-1.7349999803580285,-0.3499998977844898,-0.7177022610784843,0.0
1759676244.350957,0,-1.2049999237060547,-0.8299995064735413,-0.7177022952005565,0.0,-1.7349999868827408,-0.3499998991007071,-0.7177024460060419,0.0
1759676244.36232,0,-1.2049999237060547,-0.8299995064735413,-0.7177023173796648,0.0,-1.7349999920910673,-0.3499999001513725,-0.7177025936237542,0.0
1759676244.3725417,0,-1.2049999237060547,-0.8299995064735413,-0.7177023565508662,0.0,-1.7349999962647642,-0.3499999009933241,-0.7177027119173325,0.0
1759676244.3826616,0,-1.2049999237060547,-0.8299995064735413,-0.7177023922112102,0.0,-1.7349999996177707,-0.3499999016697195,-0.7177028069503806,0.0
1759676244.3939118,0,-1.2049999237060547,-0.8299995064735413,-0.7177024072043601,0.0,-1.735000002314535,-0.34999990221373245,-0.7177028833837975,0.0
1759676244.4160216,0,-1.2049999237060547,-0.8299995064735413,-0.7177022859745357,0.0,-1.7350000046571983,-0.3499999026863132,-0.7177029497810491,0.0
1759676244.4272945,0,-1.2049999237060547,-0.8299995064735413,-0.7177023430923128,0.0,-1.7350000065204108,-0.34999990306217543,-0.7177030025894084,0.0
1759676244.437387,0,-1.2049999237060547,-0.8299995064735413,-0.7177024126654636,0.0,-1.735000008008085,-0.349999903362281,-0.7177030447540196,0.0
1759676244.4481869,0,-1.2049999237060547,-0.8299995064735413,-0.7177024590591188,0.0,-1.73500000919786,-0.3499999036022919,-0.7177030784753794,0.0
1759676244.4594965,0,-1.2049999237060547,-0.8299995064735413,-0.7177024899571762,0.0,-1.735000010151284,-0.3499999037946242,-0.7177031054979295,0.0
1759676244.4705198,0,-1.2049999237060547,-0.8299995064735413,-0.717702518973077,0.0,-1.7350000109175645,-0.3499999039492045,-0.7177031272163459,0.0
1759676244.4817164,0,-1.2049999237060547,-0.8299995064735413,-0.7177025423101053,0.0,-1.7350000115891924,-0.34999990408469067,-0.7177031462520519,0.0
1759676244.4930327,0,-1.2049999237060547,-0.8299995064735413,-0.7177025619328887,0.0,-1.7350000121215141,-0.3499999041920749,-0.7177031613394528,0.0
1759676244.503644,0,-1.2049999237060547,-0.8299995064735413,-0.717702586669084,0.0,-1.7350000125448664,-0.34999990427747696,-0.7177031733383735,0.0
1759676244.5148277,0,-1.2049999237060547,-0.8299995064735413,-0.7177026031483003,0.0,-1.7350000128822025,-0.34999990434552714,-0.717703182899375,0.0
1759676244.5261042,0,-1.2049999237060547,-0.8299995064735413,-0.7177026175936447,0.0,-1.7350000131516823,-0.34999990439988876,-0.7177031905371395,0.0
1759676244.5372696,0,-1.2049999237060547,-0.8299995064735413,-0.7177026326240128,0.0,-1.7350000133675507,-0.34999990444343543,-0.7177031966554158,0.0
1759676244.5474932,0,-1.2049999237060547,-0.8299995064735413,-0.7177026547416646,0.0,-1.7350000135411014,-0.34999990447844553,-0.7177032015743041,0.0
1759676244.5579336,0,-1.2049999237060547,-0.8299995064735413,-0.7177026722009856,0.0,-1.7350000136809314,-0.34999990450665314,-0.7177032055374503,0.0
1759676244.5692303,0,-1.2049999237060547,-0.8299995064735413,-0.7177026808357319,0.0,-1.7350000137937591,-0.3499999045294137,-0.7177032087352905,0.0
1759676244.5796444,0,-1.2049999237060547,-0.8299995064735413,-0.7177026963961293,0.0,-1.7350000138950172,-0.34999990454984026,-0.7177032116052107,0.0
1759676244.59,0,-1.2049999237060547,-0.8299995064735413,-0.7177027111162175,0.0,-1.735000013975375,-0.3499999045660507,-0.7177032138827596,0.0
1759676244.6087754,0,-1.2049999237060547,-0.8299995064735413,-0.7177026670028379,0.0,-1.7350000140387487,-0.3499999045788349,-0.7177032156789339,0.0
1759676244.6195762,0,-1.2049999237060547,-0.8299995064735413,-0.7177026921232894,0.0,-1.735000014089367,-0.349999904589046,-0.7177032171135884,0.0
1759676244.6307225,0,-1.2049999237060547,-0.8299995064735413,-0.7177027145439769,0.0,-1.7350000141298851,-0.34999990459721964,-0.7177032182619802,0.0
1759676244.640737,0,-1.2049999237060547,-0.8299995064735413,-0.7177027399643983,0.0,-1.7350000141624429,-0.34999990460378744,-0.7177032191847529,0.0
1759676244.651483,0,-1.2049999237060547,-0.8299995064735413,-0.717702756121886,0.0,-1.7350000141886448,-0.3499999046090731,-0.7177032199273834,0.0
1759676244.6616316,0,-1.2049999237060547,-0.8299995064735413,-0.7177027728752954,0.0,-1.7350000142117974,-0.34999990461374364,-0.7177032205835906,0.0
1759676244.6720438,0,-1.2049999237060547,-0.8299995064735413,-0.7177027854569111,0.0,-1.7350000142301532,-0.34999990461744657,-0.7177032211038451,0.0
1759676244.683534,0,-1.2049999237060547,-0.8299995064735413,-0.717702790539434,0.0,-1.7350000142447262,-0.3499999046203863,-0.7177032215168812,0.0
1759676244.693969,0,-1.2049999237060547,-0.8299995064735413,-0.717702801581364,0.0,-1.7350000142563402,-0.3499999046227292,-0.7177032218460485,0.0
1759676244.7042391,0,-1.2049999237060547,-0.8299995064735413,-0.7177028125801002,0.0,-1.7350000142656203,-0.34999990462460123,-0.7177032221090714,0.0
1759676244.7156856,0,-1.2049999237060547,-0.8299995064735413,-0.7177028165862271,0.0,-1.7350000142730444,-0.3499999046260988,-0.7177032223194879,0.0
1759676244.7269742,0,-1.2049999237060547,-0.8299995064735413,-0.7177028219735782,0.0,-1.7350000142790003,-0.34999990462730035,-0.717703222488299,0.0
1759676244.738422,0,-1.2049999237060547,-0.8299995064735413,-0.7177028272765574,0.0,-1.7350000142837905,-0.34999990462826663,-0.7177032226240643,0.0
1759676244.7489157,0,-1.2049999237060547,-0.8299995064735413,-0.7177028372632286,0.0,-1.7350000142880186,-0.34999990462911956,-0.7177032227439023,0.0
1759676244.759435,0,-1.2049999237060547,-0.8299995064735413,-0.7177028462381898,0.0,-1.7350000142913724,-0.34999990462979613,-0.7177032228389595,0.0
1759676244.7707589,0,-1.2049999237060547,-0.8299995064735413,-0.7177028509562859,0.0,-1.7350000142940372,-0.3499999046303337,-0.7177032229144866,0.0
1759676244.7822793,0,-1.2049999237060547,-0.8299995064735413,-0.7177028551489747,0.0,-1.7350000142961597,-0.3499999046307619,-0.7177032229746448,0.0
1759676244.792568,0,-1.2049999237060547,-0.8299995064735413,-0.717702864599941,0.0,-1.735000014297857,-0.3499999046311043,-0.7177032230227542,0.0
1759676244.8248107,0,-1.2049999237060547,-0.8299995064735413,-0.7177027978370152,0.0,-1.735000014299186,-0.34999990463137237,-0.7177032230604179,0.0
1759676244.8360622,0,-1.2049999237060547,-0.8299995064735413,-0.7177028251783782,0.0,-1.7350000143002582,-0.3499999046315887,-0.7177032230908073,0.0
1759676244.847385,0,-1.2049999237060547,-0.8299995064735413,-0.7177028505911274,0.0,-1.7350000143012185,-0.34999990463178243,-0.7177032231180251,0.0
1759676244.8585756,0,-1.2049999237060547,-0.8299995064735413,-0.7177028701009505,0.0,-1.7350000143019804,-0.3499999046319361,-0.7177032231396138,0.0
1759676244.8699641,0,-1.2049999237060547,-0.8299995064735413,-0.717702884316008,0.0,-1.735000014302586,-0.34999990463205827,-0.7177032231567796,0.0
1759676244.881645,0,-1.2049999237060547,-0.8299995064735413,-0.7177028946269068,0.0,-1.7350000143030688,-0.34999990463215563,-0.7177032231704612,0.0
1759676244.8929,0,-1.2049999237060547,-0.8299995064735413,-0.7177029041713787,0.0,-1.7350000143034547,-0.3499999046322335,-0.7177032231814007,0.0
1759676244.9042866,0,-1.2049999237060547,-0.8299995064735413,-0.7177029117666542,0.0,-1.7350000143037643,-0.3499999046322959,-0.7177032231901692,0.0
1759676244.9156225,0,-1.2049999237060547,-0.8299995064735413,-0.7177029183444326,0.0,-1.7350000143040127,-0.3499999046323461,-0.717703223197217,0.0
1759676244.9270113,0,-1.2049999237060547,-0.8299995064735413,-0.7177029239494317,0.0,-1.735000014304213,-0.3499999046323865,-0.7177032232028963,0.0
1759676244.9384434,0,-1.2049999237060547,-0.8299995064735413,-0.7177029288590759,0.0,-1.7350000143043915,-0.34999990463242253,-0.7177032232079572,0.0
1759676244.9496763,0,-1.2049999237060547,-0.8299995064735413,-0.7177029337939338,0.0,-1.7350000143045332,-0.3499999046324511,-0.7177032232119699,0.0
1759676244.9609277,0,-1.2049999237060547,-0.8299995064735413,-0.7177029382399649,0.0,-1.7350000143046458,-0.3499999046324738,-0.71770322321516,0.0
1759676244.9720092,0,-1.2049999237060547,-0.8299995064735413,-0.7177029426645802,0.0,-1.7350000143047355,-0.34999990463249187,-0.7177032232177033,0.0
1759676244.9834542,0,-1.2049999237060547,-0.8299995064735413,-0.7177029459723913,0.0,-1.7350000143048072,-0.34999990463250635,-0.7177032232197355,0.0
1759676245.0147457,0,-1.2049999237060547,-0.8299995064735413,-0.717702913392511,0.0,-1.7350000143048636,-0.3499999046325177,-0.717703223221329,0.0
1759676245.0192533,0,-1.2049999237060547,-0.8299995064735413,-0.7177029392094134,0.0,-1.7350000143049094,-0.3499999046325269,-0.7177032232226248,0.0
1759676245.0302222,0,-1.2049999237060547,-0.8299995064735413,-0.7177029496938712,0.0,-1.7349991134087526,-0.3500006911261717,-0.7182525828076379,0.0013310105791538994
1759676245.0403981,0,-1.2049999237060547,-0.8299995064735413,-0.7177029582373216,0.0,-1.7349957368467983,-0.35001633880963007,-0.7187427123388727,0.002518909251477342
1759676245.0505803,0,-1.2049999237060547,-0.8299995064735413,-0.7177029647766133,0.0,-1.7349914456699962,-0.35004167374594347,-0.7191375398746356,0.0034758298941703174
1759676245.061791,0,-1.2049999237060547,-0.8299995064735413,-0.7177029683199674,0.0,-1.7349866826996758,-0.35007246531089337,-0.7194576100626489,0.004251565392188618
1759676245.0730119,0,-1.2049999237060547,-0.8299995064735413,-0.7177029713116205,0.0,-1.7349817377642724,-0.35010587394618375,-0.7197189120913177,0.004884867832633868
1759676245.0842633,0,-1.2049999237060547,-0.8299995064735413,-0.717702974002961,0.0,-1.7349767947985149,-0.3501400382701931,-0.7199339353446542,0.005406007025393199
1759676245.0952692,0,-1.2049999237060547,-0.8299995064735413,-0.7177029768582077,0.0,-1.734971968230335,-0.3501737703853467,-0.720112362978144,0.005838451486053435
1759676245.1060328,0,-1.2049999237060547,-0.8299995064735413,-0.7177029797966767,0.0,-1.7349673242692811,-0.3502063478333248,-0.7202617647187519,0.0062005475332198925
1759676245.1166806,0,-1.2049999237060547,-0.8299995064735413,-0.7177029825740905,0.0,-1.7349628950312463,-0.35023737137669114,-0.720388126495854,0.006506802923944411
1759676245.1273522,0,-1.2049999237060547,-0.8299995064735413,-0.717702985014455,0.0,-1.7349586888158608,-0.35026666507592535,-0.7204962260638799,0.006768797229070057
1759676245.1381493,0,-1.2049999237060547,-0.8299995064735413,-0.7177029870674758,0.0,-1.7353532988848088,-0.3499601590344842,-0.7202056531498643,0.008730473747644045
1759676245.1483333,0,-1.2049999237060547,-0.8299995064735413,-0.7177029897096077,0.0,-1.7358264243337282,-0.34961714511121894,-0.7198843672544047,0.012030541708336659
1759676245.15898,0,-1.2049999237060547,-0.8299995064735413,-0.7177029915150754,0.0,-1.7361950596451308,-0.3493833727946796,-0.7196371410631721,0.014663542235838049
1759676245.1696732,0,-1.2049999237060547,-0.8299995064735413,-0.7177029931394756,0.0,-1.7364821042081355,-0.3492292811386498,-0.7194483749437008,0.016772068584891657
1759676245.1804717,0,-1.2049999237060547,-0.8299995064735413,-0.7177029946033517,0.0,-1.7367052531237381,-0.34913317807979305,-0.7193059648760826,0.018467291067783415
1759676245.1909285,0,-1.2049999237060547,-0.8299995064735413,-0.7177029964174295,0.0,-1.7368784529343924,-0.34907891395181256,-0.7192000545245322,0.019836301148546155
1759676245.2019484,0,-1.2049999237060547,-0.8299995064735413,-0.7177029975534737,0.0,-1.7370120971635163,-0.3490551074440911,-0.7191237360711024,0.020946987526005573
1759676245.2333853,0,-1.2049999237060547,-0.8299995064735413,-0.7177029800887027,0.0,-1.737105812198114,-0.349063341140083,-0.7190886194968703,0.021857003722735094
1759676245.244149,0,-1.2049999237060547,-0.8299995064735413,-0.717702987266069,0.0,-1.7371769148799958,-0.3490853139372067,-0.7190689877109678,0.02260730307007642
1759676245.2549248,0,-1.2049999237060547,-0.8299995064735413,-0.7177029939705335,0.0,-1.737276655228618,-0.3490575267667681,-0.7189624992478374,0.023207021007314848
1759676245.2656593,0,-1.2049999237060547,-0.8299995064735413,-0.7177029990291821,0.0,-1.7374413258552515,-0.3489758271850232,-0.7187814607571271,0.02385128767227203
1759676245.2763305,0,-1.2049999237060547,-0.8299995064735413,-0.7177030028880722,0.0,-1.7375689314271987,-0.34892226488905614,-0.7186445230512462,0.02437685272277263
1759676245.2870467,0,-1.2049999237060547,-0.8299995064735413,-0.7177030058351299,0.0,-1.7376674594612194,-0.3488898417417035,-0.7185424463564847,0.024809388031441327
1759676245.2983456,0,-1.2049999237060547,-0.8299995064735413,-0.7177030077631201,0.0,-1.737742945801061,-0.348873595283059,-0.7184684309162525,0.02516944154551721
1759676245.3091185,0,-1.2049999237060547,-0.8299995064735413,-0.7177030097583081,0.0,-1.737800421197547,-0.3488693272620284,-0.7184163505415263,0.0254720673080883
1759676245.3198447,0,-1.2049999237060547,-0.8299995064735413,-0.7177030114935903,0.0,-1.7378436549168552,-0.3488741121791492,-0.7183817686186711,0.02572945828166574
1759676245.3300965,0,-1.2049999237060547,-0.8299995064735413,-0.7177030132886166,0.0,-1.7378757040712476,-0.3488855681115712,-0.7183609041371081,0.02595069389796023
1759676245.340309,0,-1.2049999237060547,-0.8299995064735413,-0.7177030148309083,0.0,-1.7378988427080067,-0.34890210121553916,-0.7183510895452524,0.026143366701371077
1759676245.3510413,0,-1.2049999237060547,-0.8299995064735413,-0.7177030158214066,0.0,-1.7379147111259177,-0.348922790590421,-0.7183506158591845,0.02631416379683614
1759676245.3613775,0,-1.2049999237060547,-0.8299995064735413,-0.7177030169678567,0.0,-1.737924832756532,-0.3489465494247518,-0.7183575011239322,0.02646730086325155
1759676245.3722868,0,-1.2049999237060547,-0.8299995064735413,-0.7177030176789588,0.0,-1.738788687831304,-0.34823147852603126,-0.7175912734684488,0.029463491095186825
1759676245.3834884,0,-1.2049999237060547,-0.8299995064735413,-0.7177030182289172,0.0,-1.7398700160369442,-0.34738894209921034,-0.7166691816043618,0.03460279161342033
1759676245.3936934,0,-1.2049999237060547,-0.8299995064735413,-0.7177030193852971,0.0,-1.7407155039210682,-0.34678258465075723,-0.7159464634054978,0.038699948084467015
1759676245.4044132,0,-1.2049999237060547,-0.8299995064735413,-0.717703020168468,0.0,-1.7413755175470937,-0.3463532689739482,-0.7153818356940573,0.04197525434463121
1759676245.4156456,0,-1.2049999237060547,-0.8299995064735413,-0.7177030206511573,0.0,-1.741889368035443,-0.3460567678843823,-0.714942917577927,0.044601700520774105
1759676245.426414,0,-1.2049999237060547,-0.8299995064735413,-0.717703021423219,0.0,-1.7422888854964855,-0.34585876235785495,-0.7146028950964771,0.046716410074553454
1759676245.4368012,0,-1.2049999237060547,-0.8299995064735413,-0.717703022366976,0.0,-1.742598649685414,-0.3457337993989212,-0.714340985295848,0.04842603732731618
1759676245.447573,0,-1.2049999237060547,-0.8299995064735413,-0.7177030230503547,0.0,-1.7428369971694266,-0.34566384949790374,-0.7141419280981766,0.04981365080882686
1759676245.458083,0,-1.2049999237060547,-0.8299995064735413,-0.7177030238225903,0.0,-1.743018955908568,-0.3456346689314254,-0.7139928515338301,0.0509451021023378
1759676245.4690852,0,-1.2049999237060547,-0.8299995064735413,-0.7177030243367568,0.0,-1.7431555626730315,-0.34563655797580695,-0.7138845624112852,0.05187225036684728
1759676245.479919,0,-1.2049999237060547,-0.8299995064735413,-0.7177030249390306,0.0,-1.7435619319801055,-0.34536249297660854,-0.7134115743394492,0.052942586051997746
1759676245.4906209,0,-1.2049999237060547,-0.8299995064735413,-0.7177030255968901,0.0,-1.7438770623339674,-0.3451664705485579,-0.7130441030722374,0.053806750006820975
1759676245.5015855,0,-1.2049999237060547,-0.8299995064735413,-0.7177030261283264,0.0,-1.7441204606396832,-0.3450304142646121,-0.7127600133488606,0.054509334828796926
1759676245.5123851,0,-1.2049999237060547,-0.8299995064735413,-0.7177030267259958,0.0,-1.7443076053095536,-0.34494016108750536,-0.7125416044626641,0.05508485635537215
1759676245.5227416,0,-1.2049999237060547,-0.8299995064735413,-0.7177030274714635,0.0,-1.7444507027024876,-0.34488467213191476,-0.7123748213251874,0.05555993938947781
1759676245.53363,0,-1.2049999237060547,-0.8299995064735413,-0.7177030279614733,0.0,-1.7445585791974958,-0.344856625755585,-0.7122496030746844,0.05595627485652983
1759676245.5445056,0,-1.2049999237060547,-0.8299995064735413,-0.717703028447108,0.0,-1.7446385087400218,-0.34484989006074723,-0.7121575397592791,0.05629045364422429
1759676245.555218,0,-1.2049999237060547,-0.8299995064735413,-0.7177030289889252,0.0,-1.7446962751877482,-0.344859637438042,-0.7120918951226187,0.056575348931399184
1759676245.5662773,0,-1.2049999237060547,-0.8299995064735413,-0.7177030294018163,0.0,-1.7447360907168843,-0.34488273970195643,-0.7120478120102098,0.05682169990028784
1759676245.5772207,0,-1.2049999237060547,-0.8299995064735413,-0.7177030298624274,0.0,-1.7447615494848916,-0.3449163393289631,-0.7120210622393497,0.05703748205977102
1759676245.5880787,0,-1.2049999237060547,-0.8299995064735413,-0.7177030303500089,0.0,-1.7456396745354883,-0.34416044435537807,-0.7112374299589229,0.05740557005694376
1759676245.5988874,0,-1.2049999237060547,-0.8299995064735413,-0.717703030838198,0.0,-1.746838762371457,-0.3431508670158917,-0.7102237223926406,0.058063407170158635
1759676245.624181,0,-1.2049999237060547,-0.8299995064735413,-0.7177030274607592,0.0,-1.7477546547003202,-0.34239958495529854,-0.7094561228131392,0.058613732168170445
1759676245.6350791,0,-1.2049999237060547,-0.8299995064735413,-0.7177030290375015,0.0,-1.7484760344386259,-0.34181891190667696,-0.7088539376619334,0.05906933602009891
1759676245.6458132,0,-1.2049999237060547,-0.8299995064735413,-0.7177030305721459,0.0,-1.749043766017095,-0.34137247472348464,-0.7083826521473312,0.05945014335951622
1759676245.6563277,0,-1.2049999237060547,-0.8299995064735413,-0.717703031805911,0.0,-1.749489860811079,-0.34103187240430116,-0.7080151702725144,0.059771679619803
1759676245.667035,0,-1.2049999237060547,-0.8299995064735413,-0.7177030327138993,0.0,-1.7498388616882303,-0.34077565100214996,-0.707730821635208,0.06004660452581602
1759676245.6773932,0,-1.2049999237060547,-0.8299995064735413,-0.7177030335091796,0.0,-1.7501107763348847,-0.3405860978356213,-0.7075125500294546,0.06028427161635201
1759676245.6878226,0,-1.2049999237060547,-0.8299995064735413,-0.7177030341369761,0.0,-1.750442114167004,-0.3402819457260845,-0.7072096399594624,0.06044065003862109
1759676245.6979914,0,-1.2049999237060547,-0.8299995064735413,-0.7177030347084798,0.0,-1.75093852190848,-0.33984964802923684,-0.7066634454730109,0.060619061559253166
1759676245.7087817,0,-1.2049999237060547,-0.8299995064735413,-0.7177030350635151,0.0,-1.7513253824959205,-0.3395200447610805,-0.7062374476062862,0.06077683828577034
1759676245.720129,0,-1.2049999237060547,-0.8299995064735413,-0.7177030352775766,0.0,-1.7516256130563899,-0.33927207971325846,-0.7059066866485274,0.060919501941562086
1759676245.7310395,0,-1.2049999237060547,-0.8299995064735413,-0.7177030355881371,0.0,-1.751857972238274,-0.3390880008460899,-0.7056506391952421,0.06105003343087787
1759676245.7419329,0,-1.2049999237060547,-0.8299995064735413,-0.7177030358951306,0.0,-1.7520366690242217,-0.3389545749714205,-0.70545376107304,0.06117131776887717
1759676245.7527642,0,-1.2049999237060547,-0.8299995064735413,-0.7177030361986976,0.0,-1.7521728341881317,-0.33886141872045766,-0.7053038547807838,0.061285556278049325
1759676245.7639334,0,-1.2049999237060547,-0.8299995064735413,-0.7177030364295884,0.0,-1.7522748766734266,-0.33880091918981137,-0.7051917132739886,0.06139507324533997
1759676245.7752821,0,-1.2049999237060547,-0.8299995064735413,-0.7177030366343189,0.0,-1.752349522202591,-0.3387669195248788,-0.705109952093063,0.0615015080293975
1759676245.7862005,0,-1.2049999237060547,-0.8299995064735413,-0.7177030369189836,0.0,-1.7524024952890096,-0.33875383552163074,-0.7050522445560099,0.061605254370662804
1759676245.797042,0,-1.2049999237060547,-0.8299995064735413,-0.7177030372038011,0.0,-1.753343346847908,-0.33792462363791786,-0.7041897854903957,0.061237768211349616
1759676245.8077826,0,-1.2049999237060547,-0.8299995064735413,-0.717703037483993,0.0,-1.75464317664088,-0.3368009400422903,-0.7030704112554417,0.0607086704790962
1759676245.8263772,0,-1.2049999237060547,-0.8299995064735413,-0.7177030366616535,0.0,-1.755650549605388,-0.33593465708370257,-0.7022073125799239,0.06032059064713374
1759676245.8377898,0,-1.2049999237060547,-0.8299995064735413,-0.7177030371244513,0.0,-1.7564430801299504,-0.33525521315206563,-0.7015310525818782,0.060029225791482343
1759676245.8486419,0,-1.2049999237060547,-0.8299995064735413,-0.7177030376602449,0.0,-1.7570668867465107,-0.33472337614195624,-0.7010014910456713,0.05981350129767994
1759676245.8595371,0,-1.2049999237060547,-0.8299995064735413,-0.7177030380941396,0.0,-1.7575569145391896,-0.33430956431207615,-0.700588340733127,0.059658093456678975
1759676245.8701885,0,-1.2049999237060547,-0.8299995064735413,-0.7177030384780315,0.0,-1.757940941313593,-0.333989929418721,-0.7002674479472006,0.05955049192718972
1759676245.8809302,0,-1.2049999237060547,-0.8299995064735413,-0.7177030387861052,0.0,-1.7582403144711494,-0.33374621649222647,-0.7000203263109372,0.05948146147540686
1759676245.8912406,0,-1.2049999237060547,-0.8299995064735413,-0.7177030390955288,0.0,-1.7584724892069536,-0.33356308981473154,-0.6998317245027662,0.059442834960174114
1759676245.9020677,0,-1.2049999237060547,-0.8299995064735413,-0.7177030393022577,0.0,-1.7587732069542963,-0.33325878807843656,-0.699556497017871,0.05933973763488621
1759676245.9123502,0,-1.2049999237060547,-0.8299995064735413,-0.7177030395439292,0.0,-1.7592705640557615,-0.33280231192321263,-0.6990004706494132,0.05926237807266327
1759676245.9232292,0,-1.2049999237060547,-0.8299995064735413,-0.7177030396966159,0.0,-1.7596583671961017,-0.3324507573273023,-0.6985662383981145,0.059218425841579075
1759676245.9339824,0,-1.2049999237060547,-0.8299995064735413,-0.7177030398538059,0.0,-1.7599601369237332,-0.3321821007496658,-0.6982277153512284,0.059200879318808096
1759676245.944655,0,-1.2049999237060547,-0.8299995064735413,-0.7177030400128306,0.0,-1.7601941061384012,-0.3319792061087616,-0.697964664285019,0.05920436908761667
1759676245.9555557,0,-1.2049999237060547,-0.8299995064735413,-0.7177030401429274,0.0,-1.7603742323988725,-0.3318290524097217,-0.6977615769697056,0.05922522135083593
1759676245.9663453,0,-1.2049999237060547,-0.8299995064735413,-0.7177030402815278,0.0,-1.7605117083878634,-0.33172097892023944,-0.6976060114096194,0.05926002389147408
1759676245.976641,0,-1.2049999237060547,-0.8299995064735413,-0.7177030404587565,0.0,-1.7606155785753013,-0.33164612896120016,-0.6974879125620562,0.05930546810244518
1759676245.9875686,0,-1.2049999237060547,-0.8299995064735413,-0.717703040566839,0.0,-1.760692105685545,-0.3315988947125169,-0.6974002957065113,0.05936081127174356
1759676245.9982128,0,-1.2049999237060547,-0.8299995064735413,-0.7177030406969074,0.0,-1.7607468888092137,-0.33157374601537726,-0.6973369263545571,0.05942398866766147
1759676246.0089076,0,-1.2049999237060547,-0.8299995064735413,-0.7174069856351538,0.005235987755982988,-1.7607841034832978,-0.33156670255490617,-0.6972931463383937,0.059493924793101005
1759676246.0200138,0,-1.2049999237060547,-0.8299995064735413,-0.7174157177502155,0.005235987755982988,-1.7617189793865466,-0.3307504263903596,-0.6963991902757177,0.05942293862589031
1759676246.0308096,0,-1.204574153374309,-0.8297074690082994,-0.7171509345450183,0.005288347633542818,-1.7630125270145998,-0.32964905925229543,-0.6952270230000328,0.059427129911809456
1759676246.0412314,0,-1.204574153374309,-0.8297074690082994,-0.7171372075432682,0.005288347633542818,-1.7640302993920935,-0.32878681123136666,-0.6943054293708334,0.05944719654482501
1759676246.051979,0,-1.204574153374309,-0.8297074690082995,-0.7171192956168096,0.005288347633542818,-1.7648304410624798,-0.3281140180687136,-0.6935818443900931,0.059480623001359985
1759676246.06273,0,-1.204574153374309,-0.8297074690082995,-0.7171093516891434,0.005288347633542818,-1.765458912593589,-0.32759116921028836,-0.693014626382371,0.05952495829299335
1759676246.073434,0,-1.2045741533743093,-0.8297074690082995,-0.7171344179944236,0.005288347633542818,-1.7659516590053528,-0.3271872716237062,-0.6925711708425926,0.05957821728074399
1759676246.0841544,0,-1.2045741533743093,-0.8297074690082996,-0.7171210566626867,0.005288347633542818,-1.7663367033382553,-0.32687814720915215,-0.6922260471920515,0.05963895611669155
1759676246.0952947,0,-1.2045741533743093,-0.8297074690082996,-0.7171258892787681,0.005288347633542818,-1.7666355115851966,-0.32664546704799396,-0.6919598257901096,0.05970671866295952
1759676246.106492,0,-1.2045741533743093,-0.8297074690082996,-0.7171087823777862,0.005288347633542818,-1.766865451626031,-0.32647418378535814,-0.6917567139273813,0.05978059472132419
1759676246.117149,0,-1.2045741533743093,-0.8297074690082997,-0.7171114415662473,0.005288347633542818,-1.76704088914875,-0.3263514930725284,-0.6916035399028736,0.05985888757759981
1759676246.127895,0,-1.2045741533743093,-0.8297074690082997,-0.7171248361248379,0.005288347633542818,-1.7671724058751421,-0.3262682635615116,-0.6914906899584987,0.059941279217349194
1759676246.1386778,0,-1.2046477844897499,-0.8297671523695138,-0.7171135100376139,0.005904844293644955,-1.7676640538973698,-0.32581653119178006,-0.6909108604475424,0.05994903300611557
1759676246.1494787,0,-1.20464778448975,-0.8297671523695141,-0.7171316599679034,0.005904844293644955,-1.7680469864443802,-0.32546956423305173,-0.6904571548562607,0.05997348614468146
1759676246.160432,0,-1.2046477844897505,-0.8297671523695146,-0.7171044477792742,0.005904844293644955,-1.7683443191912307,-0.32520559037744456,-0.6901028075579503,0.0600116987585267
1759676246.1713107,0,-1.2046477844897507,-0.8297671523695149,-0.7171382765127907,0.005904844293644955,-1.7685742424570834,-0.3250073124765095,-0.6898267562920881,0.06006101845326147
1759676246.182042,0,-1.2046477844897512,-0.8297671523695154,-0.71712379172598,0.005904844293644955,-1.7687509766556344,-0.3248611269790794,-0.6896125264545435,0.06011925866592728
1759676246.1927783,0,-1.2046477844897514,-0.8297671523695157,-0.7171186019122381,0.005904844293644955,-1.7688854949220825,-0.324756575753523,-0.6894473751611174,0.06018497177943871
1759676246.2040675,0,-1.2046477844897516,-0.8297671523695159,-0.717155942980208,0.005904844293644955,-1.7689859727293367,-0.32468612391037033,-0.6893217309192569,0.060257985390230896
1759676246.2198513,0,-1.2011167886444105,-0.8331856550793694,-0.7144975728807834,0.04058867586258713,-1.7690559217191175,-0.3246486676702909,-0.6892309566177606,0.06034512921786934
1759676246.2307348,0,-1.199846322530363,-0.8342813331416578,-0.7125059629040585,0.04058867586258713,-1.7691049914857306,-0.32463209489629946,-0.6891645068861398,0.060435682198651024
1759676246.2416394,0,-1.1993601090251225,-0.8346995125561677,-0.7110286078191834,0.04058867586258713,-1.7691371870113548,-0.3246326182188185,-0.6891176897181401,0.060529456877092956
1759676246.2526264,0,-1.1991730415377835,-0.8348595833132622,-0.7099866538041418,0.04058867586258713,-1.7701457354514374,-0.32376721606329495,-0.6881030253126017,0.06079901347942857
1759676246.263418,0,-1.1990410309527106,-0.8350845063276291,-0.7090527643425645,0.04180019637282571,-1.7715319088043733,-0.32261000734760353,-0.6867859323766438,0.06108857469610184
1759676246.2740521,0,-1.1990156581127425,-0.8351055595485658,-0.7085185044234031,0.04180019637282571,-1.772621036147825,-0.3217075307597214,-0.6857502739623649,0.061340355452255996
1759676246.2849014,0,-1.1990036072671635,-0.8351153145928074,-0.7081361264934882,0.04180019637282571,-1.7734762692819057,-0.3210059326468719,-0.6849365402084994,0.06156327860158207
1759676246.2958126,0,-1.1989982407515765,-0.8351194736224082,-0.7078406676328868,0.04180019637282571,-1.7741471078891733,-0.32046293170462026,-0.6842980118089268,0.0617640594175058
1759676246.306536,0,-1.1989979871095606,-0.8351193743371121,-0.7076379868438252,0.04180019637282571,-1.7746725465494972,-0.32004508827390876,-0.6837978142668016,0.06194747880994999
1759676246.3178961,0,-1.1989914000958664,-0.8351247645061766,-0.7074897709494288,0.04180019637282571,-1.7750818269851878,-0.3197277691328624,-0.6834083385936028,0.062118901124876176
1759676246.3283842,0,-1.1989976316691326,-0.8351192865405894,-0.7074237655454276,0.04180019637282571,-1.775400014345187,-0.31948902967250054,-0.683105744617199,0.06227960340324272
1759676246.339594,0,-1.1989927031043226,-0.8351233787721267,-0.7073375294111514,0.04180019637282571,-1.7756445934029543,-0.31931436830493415,-0.6828735182014184,0.062433740153332674
1759676246.3499415,0,-1.1989994964660926,-0.8351175131803689,-0.7073200393177108,0.04180019637282571,-1.775952005169102,-0.31903068113398503,-0.6825732932659692,0.062484872191621244
1759676246.360863,0,-1.198939988794005,-0.8352726573567102,-0.7071275251524556,0.04279473047457981,-1.7764756038546912,-0.3185822691904144,-0.681949616603453,0.06257732943211008
1759676246.3722286,0,-1.1989342784173012,-0.8352774970451713,-0.7071121504777306,0.04279473047457981,-1.7768829550721665,-0.3182397193521069,-0.6814611961701734,0.0626753558813025
1759676246.3831983,0,-1.1989360888798168,-0.8352759376147996,-0.7071057606849213,0.04279473047457981,-1.777199359434369,-0.3179801671098572,-0.681078738553395,0.06277746095353372
1759676246.3940368,0,-1.1989381049047099,-0.8352742153944093,-0.7071193581917441,0.04279473047457981,-1.7774441594066912,-0.317786214713633,-0.6807797817513257,0.06288301725001288
1759676246.4049067,0,-1.1989385619822275,-0.8352738308980981,-0.7071053518820094,0.04279473047457981,-1.7776322710445014,-0.3176444999172997,-0.6805469541615344,0.06299188473789585
1759676246.4330466,0,-1.1889544759856256,-0.8439545335661034,-0.6943076447869023,0.09631764609678085,-1.7777609446328466,-0.31756681875397647,-0.6803803323953148,0.063141517978207
1759676246.4439905,0,-1.1856218627083184,-0.8466307150291256,-0.6853434922111709,0.09631764609678085,-1.7778567367433997,-0.31751876274581453,-0.6802524955768777,0.06328795094554818
1759676246.4549048,0,-1.184341707117002,-0.8476460366279025,-0.6787694517295272,0.09631764609678085,-1.777926144236344,-0.3174946601751236,-0.6801557699392747,0.06343234374065772
1759676246.465837,0,-1.1834867686168982,-0.8484267988615226,-0.6732451947110635,0.09823238313628833,-1.7794038313437646,-0.3162822075104329,-0.6783186867261909,0.06519481818731326
1759676246.4766135,0,-1.1832978125794429,-0.848566854721289,-0.6699043060802294,0.09823238313628833,-1.7805610479530611,-0.3153515359454179,-0.6768720274246505,0.06663138081834084
1759676246.4872997,0,-1.1832252291190335,-0.848616182001536,-0.6675452947746198,0.09823238313628833,-1.7814672856085922,-0.3146395758310414,-0.6757321244599683,0.06781247732019464
1759676246.4984384,0,-1.1831834191880533,-0.8486427349467428,-0.665813789154926,0.09823238313628833,-1.7821755182671128,-0.31409895182005365,-0.6748349866219406,0.06879433165067991
1759676246.5091496,0,-1.1831774298229658,-0.8486428639781014,-0.6646352507427201,0.09823238313628833,-1.782728499757625,-0.3136914047297497,-0.6741288624392433,0.06961866659678816
1759676246.5210094,0,-1.183143396401303,-0.8486657247773034,-0.663679829831918,0.09823238313628833,-1.783157126902306,-0.3133903060032058,-0.6735761048991027,0.07032258554585707
1759676246.5317807,0,-1.1831588008777396,-0.8486514416277495,-0.663112483332941,0.09823238313628833,-1.7834888313460309,-0.31317107070498773,-0.6731433849584988,0.07092879214988483
1759676246.5427167,0,-1.1831598355622894,-0.8486490056419734,-0.6627227035151629,0.09823238313628833,-1.7837432488548388,-0.3130168246605182,-0.6728066603363156,0.07145868528833302
1759676246.5538075,0,-1.183155794239213,-0.8486510037153528,-0.6624716913470609,0.09823238313628833,-1.7839358202231648,-0.3129144385897878,-0.6725469523851104,0.07192919249584075
1759676246.5652602,0,-1.1831443639038433,-0.8486590304030261,-0.6622720874731518,0.09823238313628833,-1.7840784432451398,-0.312854040795804,-0.6723495480180111,0.07235448612208177
1759676246.5760489,0,-1.1831576895879135,-0.8486483734912789,-0.6622115177299441,0.09823238313628833,-1.784319679133393,-0.31263607734851934,-0.6720484095992589,0.07244262572383564
1759676246.5862813,0,-1.1828620533343035,-0.8489894194875168,-0.6613783998407418,0.09978165630498999,-1.7847637304514805,-0.31226894669340416,-0.6713446059059499,0.07265035032572435
1759676246.5968955,0,-1.182859515422767,-0.8489913737830419,-0.6613986589518361,0.09978165630498999,-1.7851079003741628,-0.3119918851236935,-0.6707912777149384,0.07285514508980054
1759676246.6077702,0,-1.1828516128912092,-0.8489975007485356,-0.6613957565899667,0.09978165630498999,-1.7853732448579502,-0.31178642755101355,-0.6703566902369034,0.0730594002702764
1759676246.6220603,0,-1.1714446857219292,-0.8575095595487092,-0.6460877968472372,0.12906573837667568,-1.785573244097639,-0.31164265619747755,-0.6700189367761914,0.07327661503627755
1759676246.63229,0,-1.1672518531514355,-0.8605001531085809,-0.6343254714345764,0.12906573837667568,-1.7857253128297306,-0.311542414763632,-0.6697539824716092,0.07349048917835084
1759676246.6430879,0,-1.1656165884493586,-0.8616455922683254,-0.6255811723704259,0.12906573837667568,-1.7858387705267833,-0.31147782895123105,-0.6695473729248457,0.07370466230216698
1759676246.6538424,0,-1.1649841778520118,-0.862073212136119,-0.6192552479780364,0.12906573837667568,-1.7859214549878977,-0.31144191286870354,-0.6693872248369527,0.07391983882485474
1759676246.664499,0,-1.1647395551797053,-0.8622277103749929,-0.6147249026165099,0.12906573837667568,-1.7859795600231112,-0.31142910485423153,-0.6692641526093205,0.07413638245035932
1759676246.6754375,0,-1.1646308682176412,-0.8622893157193945,-0.6114617199437514,0.12906573837667568,-1.7860176491399355,-0.31143553592152284,-0.6691710242706679,0.07435605792140397
1759676246.6860192,0,-1.1645992358297605,-0.8623005536826404,-0.6091645273092181,0.12906573837667568,-1.7860398254727734,-0.31145732181109104,-0.6691017593562159,0.07457785987122172
1759676246.6966805,0,-1.1645818350599373,-0.8623045787920041,-0.6075209580611087,0.12906573837667568,-1.7870403577682774,-0.3106384850229222,-0.6670018137462383,0.0757079643254329
1759676246.707448,0,-1.1639287637495115,-0.8628869504791499,-0.6045763885764363,0.13092143276089085,-1.7884217055787868,-0.3095444908890542,-0.6643731305796485,0.07664907172280921
1759676246.718851,0,-1.1638991304700206,-0.8629026776081633,-0.6036806469613515,0.13092143276089085,-1.789502321921316,-0.3086999312774277,-0.6623024943556328,0.077456724145021
1759676246.7296834,0,-1.1639083630311933,-0.8628936049334918,-0.6031691664030212,0.13092143276089085,-1.7903481075039462,-0.3080498020328656,-0.6606691365379014,0.0781581255770362
1759676246.7403288,0,-1.1639184523160697,-0.8628850317314964,-0.6028819072632522,0.13092143276089085,-1.7910092898404706,-0.30755244575089696,-0.6593806706019657,0.07877601397649177
1759676246.7513788,0,-1.1639069176599395,-0.8628916031740572,-0.6026394331302314,0.13092143276089085,-1.7915239742463398,-0.3071766804380392,-0.658366619958652,0.07933101012521433
1759676246.762122,0,-1.1639138766589612,-0.862886315206605,-0.6025864503766819,0.13092143276089085,-1.7919231244579312,-0.3068967833886415,-0.6575697190956322,0.07983594687346486
1759676246.7732782,0,-1.163901061075083,-0.8628945823816804,-0.6024873708357961,0.13092143276089085,-1.7922298557809382,-0.3066940273445264,-0.6569468506819858,0.08030448502614998
1759676246.7841675,0,-1.1639062074982665,-0.8628911005869047,-0.6025124022287972,0.13092143276089085,-1.7924633046044007,-0.3065525078947467,-0.6564624111477502,0.08074406334298026
1759676246.7952616,0,-1.1639006282354634,-0.8628949821541984,-0.6025575087115808,0.13092143276089085,-1.792637841105443,-0.3064605954165311,-0.6560894088500875,0.0811629793279061
1759676246.8060853,0,-1.1639087655571432,-0.8628898442381865,-0.6026969109022912,0.13092143276089085,-1.7927654183897546,-0.30640832019316305,-0.655805484726778,0.08156537126228684
1759676246.8182666,0,-1.1513108945091468,-0.8707806704138227,-0.5859226466021136,0.13129121128870364,-1.7930122970710838,-0.3061731670761732,-0.6553475995683629,0.08155452682903219
1759676246.8291113,0,-1.146007193977558,-0.8742235506206413,-0.5710891474840641,0.1327903282537413,-1.7934861658279067,-0.30577626362858934,-0.6542051098337558,0.08170061977121368
1759676246.8398795,0,-1.144170272401202,-0.8753367069487535,-0.5613369787695514,0.1327903282537413,-1.7938527845341272,-0.30547553688799606,-0.6533052836413465,0.08187663167773837
1759676246.8506927,0,-1.143457264313717,-0.8757521382938357,-0.5542748923686557,0.1327903282537413,-1.7941349734338294,-0.3052513698944739,-0.6525966618377383,0.082077692324729
1759676246.861539,0,-1.1431767759314158,-0.8759037457136373,-0.5491708903402606,0.1327903282537413,-1.794350490711722,-0.30508838061571336,-0.6520390897400341,0.082299988032658
1759676246.8723423,0,-1.1430664308255294,-0.8759550611216522,-0.5455706559346004,0.1327903282537413,-1.7945132483677326,-0.3049743862009202,-0.651601084573367,0.08254016755461019
1759676246.882722,0,-1.1430374736784692,-0.8759611489657544,-0.543042063223701,0.1327903282537413,-1.7946344670498102,-0.30489924297059107,-0.6512575494869589,0.08279349458006457
1759676246.893777,0,-1.1429976105450703,-0.8759759181864902,-0.5411424423068733,0.1327903282537413,-1.7947219036620083,-0.3048565507264468,-0.6509900743764682,0.08306237658354587
1759676246.9045055,0,-1.1429934919448312,-0.8759722448872338,-0.5399165463253306,0.1327903282537413,-1.7947825593282463,-0.3048398448515908,-0.650783010879299,0.08334324946540386
1759676246.915674,0,-1.1429735432794739,-0.875979342795863,-0.5389770758607181,0.1327903282537413,-1.7948212509246497,-0.3048451043874963,-0.6506248356772498,0.0836376576349876
1759676246.9268146,0,-1.1429662512580525,-0.8759805001888147,-0.5383723905287694,0.1327903282537413,-1.7958754200044835,-0.30401873810159646,-0.6474649227679413,0.08428239333979377
1759676246.9375987,0,-1.1421328226918215,-0.8766336146563573,-0.5355954791985158,0.13402639669307698,-1.79731328371375,-0.3029228307589517,-0.6434969370089869,0.08500810764966127
1759676246.947743,0,-1.1421619958564504,-0.8766161602735374,-0.5356183576878164,0.13340816968212715,-1.798437606128083,-0.30207169721838456,-0.6403664656512267,0.08565003079973854
1759676246.9583645,0,-1.142154364353111,-0.876620089948032,-0.5355134749131837,0.13370993595633934,-1.799315010183929,-0.3014145539426064,-0.6378980426826013,0.08623013159697954
1759676246.9694018,0,-1.1421351343135018,-0.8766308434645708,-0.5354205843935848,0.13384199114864456,-1.799997587397406,-0.3009115863500094,-0.6359538415985502,0.08676546439310263
1759676246.9797266,0,-1.1421559012299647,-0.8766191927883209,-0.5355803969063191,0.13345082455232132,-1.8005279483278567,-0.30052935516177604,-0.6344213138032828,0.0872626179188578
1759676246.9903548,0,-1.142152095159172,-0.876621703917334,-0.5356525113722178,0.1335827234149669,-1.8009374350549128,-0.3002438266945213,-0.6332167159728658,0.08773283703750188
1759676247.001212,0,-1.142141829470379,-0.8766279469470757,-0.5357154614010415,0.13369209283992406,-1.801250719449275,-0.30003600198887037,-0.6322738355789076,0.08818466406182328
1759676247.0116806,0,-1.142153433094715,-0.8766219550499263,-0.535951392831655,0.13293613873923177,-1.8014880625858345,-0.2998898048420961,-0.6315385047220912,0.08862097715183627
1759676247.022384,0,-1.1302302072108203,-0.8830196589369829,-0.5207446580612087,0.13224256529764886,-1.8016644212600184,-0.29979373131097053,-0.6309700979185215,0.08904800344973894
1759676247.0330656,0,-1.1256576112291714,-0.8854482065957001,-0.5085465349377277,0.13144214155218265,-1.8017919286532376,-0.29973825845710617,-0.6305356901660728,0.08946911976907687
1759676247.0439332,0,-1.1238924893872768,-0.8863650742012467,-0.4994565286134832,0.13205821236910265,-1.8020392544116157,-0.29950653492505364,-0.6298793851864686,0.08911382583223947
1759676247.0548275,0,-1.1221470194146415,-0.8874513763755572,-0.48996961526174404,0.1334037036621039,-1.8025203246415031,-0.2991103066327552,-0.6281758168717843,0.08895585540573953
1759676247.065086,0,-1.1219058954062602,-0.8875609594362243,-0.48549540868745894,0.1324296966001022,-1.8028921992973381,-0.29880628552458915,-0.6268318989763654,0.08889696460300796
1759676247.0752501,0,-1.1218137247954074,-0.8875957184081914,-0.48225584229891194,0.13249411470634426,-1.8031782042769111,-0.29857622956498847,-0.6257711859894529,0.08891680313623605
1759676247.0857375,0,-1.121762889547266,-0.8876116535340651,-0.47986854155946024,0.13272272230265827,-1.8033960142786785,-0.29840634883934397,-0.6249348702422692,0.0890022693022447
1759676247.095953,0,-1.121752439439198,-0.8876097301048234,-0.47823872088848124,0.13299175383994497,-1.8035600748155722,-0.2982847667806637,-0.6242757530676031,0.08913927859155474
1759676247.1060884,0,-1.1217504825451527,-0.8876057527214432,-0.4772047155200823,0.132309399212404,-1.8036814596021171,-0.2982023322962362,-0.6237572583045901,0.08931803877563158
1759676247.1171598,0,-1.1217113201032496,-0.8876212891150227,-0.4762940884453575,0.1321920702490016,-1.8037678176810923,-0.29815329227957227,-0.623352204487209,0.08953768070705519
1759676247.1273837,0,-1.1217296937967463,-0.8876097464804038,-0.4758147818168725,0.1326476568210159,-1.8038269231498807,-0.2981304390604728,-0.6230364345869249,0.08978583825701282
1759676247.1382096,0,-1.1208030713962338,-0.8882434183023153,-0.4728745214282479,0.1322314506894802,-1.8054118410537825,-0.2969722113945576,-0.6178479056321278,0.0890669333590289
1759676247.148511,0,-1.1208173221820257,-0.8882356109030183,-0.4727823499596516,0.13202778016265307,-1.806652748877789,-0.296057379530433,-0.6137571968533272,0.08856332557472617
1759676247.158688,0,-1.1208276891325268,-0.8882301310007349,-0.47271022983376987,0.13278127899184503,-1.8076242398604763,-0.29533668231017307,-0.610528870529479,0.08822935094111165
1759676247.1689868,0,-1.1208269532774358,-0.8882306035896499,-0.4728076012911078,0.13189645144555545,-1.8083836332490133,-0.29477174827247354,-0.607981048819532,0.08803117276797864
1759676247.1790278,0,-1.120837069993136,-0.8882258546478754,-0.47287160600673533,0.13248364079132244,-1.808976248843002,-0.29433138974876344,-0.605969780825391,0.08793981837363259
1759676247.189172,0,-1.1208370170545694,-0.8882263275330583,-0.47301010869106264,0.13213340101503107,-1.8094367438867456,-0.29399160376506306,-0.6043842503985207,0.08793508390044594
