timestamp,observer_vehicle_id,vehicle_0_x,vehicle_0_y,vehicle_0_theta,vehicle_0_velocity,vehicle_1_x,vehicle_1_y,vehicle_1_theta,vehicle_1_velocity
1759676242.7379866,1,0.0,0.0,0.0,0.0,-1.735,-0.35,-0.7801621756414646,0.0
1759676243.5507307,1,-0.24099998474121098,-0.16599990129470826,-0.14354060888290407,0.0,-1.73500001416623,-0.3499999055584658,-0.7229650665630665,0.0
1759676243.6551366,1,-0.42376553866022737,-0.2918881412595693,-0.2523965447889896,0.0,-1.7350000142586695,-0.3499999049422029,-0.7180977573906624,0.0
1759676243.739051,1,-0.5764922357086989,-0.397085727318909,-0.3433612106604547,0.0,-1.7350000142876907,-0.34999990474872844,-0.7176979208526735,0.0
1759676243.834945,1,-0.7015485282080256,-0.4832240407028789,-0.41784526670414096,0.0,-1.7350000142984767,-0.3499999046768224,-0.717672331741543,0.0
1759676243.9380558,1,-0.7968944231132593,-0.5488979417204252,-0.474633684445656,0.0,-1.73500001430258,-0.3499999046494655,-0.7176767260428979,0.0
1759676244.0310326,1,-0.8755272087518937,-0.6030599146705802,-0.5214677037127052,0.0,-1.7350000143041466,-0.34999990463902214,-0.7176822185862868,0.0
1759676244.1295946,1,-0.9397523557861606,-0.647297959248777,-0.5597204725698987,0.0,-1.735000014304745,-0.34999990463503344,-0.7176861073626313,0.0
1759676244.2183623,1,-0.9896440331460541,-0.681663162740649,-0.5894361663452266,0.0,-1.7350000143049735,-0.34999990463350994,-0.7176894662184203,0.0
1759676244.3104203,1,-1.031174147067364,-0.7102689521522056,-0.6141716776177377,0.0,-1.7350000143050608,-0.349999904632928,-0.7176919553923361,0.0
1759676244.392318,1,-1.0656211256445456,-0.7339959040433162,-0.6346884435605012,0.0,-1.735000014305094,-0.34999990463270575,-0.7176941661640814,0.0
1759676244.4725282,1,-1.0925172967872143,-0.7525218876017089,-0.6507079167010623,0.0,-1.7350000143051068,-0.3499999046326208,-0.7176959160955416,0.0
1759676244.568224,1,-1.1145474526902188,-0.7676961777965101,-0.6638291706110915,0.0,-1.7350000143051116,-0.3499999046325884,-0.7176971859568333,0.0
1759676244.655039,1,-1.1318010137914556,-0.7795803670957875,-0.6741054644811068,0.0,-1.7350000143051136,-0.349999904632576,-0.7176984345333608,0.0
1759676244.7403114,1,-1.1460802797503935,-0.7894158728626858,-0.6826102556011053,0.0,-1.7350000143051143,-0.3499999046325713,-0.7176994877187308,0.0
1759676244.835055,1,-1.1577494935383998,-0.797453584313481,-0.6895604886233765,0.0,-1.7350000143051145,-0.34999990463256947,-0.7177003174423149,0.0
1759676244.9285266,1,-1.1667565437029788,-0.8036576072717484,-0.6949251257466976,0.0,-1.7350000143051147,-0.3499999046325688,-0.7177010260108627,0.0
1759676245.023818,1,-1.174335828591463,-0.808878190769809,-0.6994393798407725,0.0,-1.7350000143051147,-0.3499999046325685,-0.7182016009251744,0.0012114201865876595
1759676245.1329567,1,-1.18043757486976,-0.8130810511185776,-0.703073605697576,0.0,-1.7368033235637221,-0.34863217319934414,-0.717206597982723,0.018728871969176088
1759676245.2503219,1,-1.1852668443933416,-0.8164074341683564,-0.7059499390243973,0.0,-1.737712100288423,-0.34790985317403433,-0.7161603093694333,0.020299813823907043
1759676245.365965,1,-1.1891122059389936,-0.8190561050290874,-0.708240252603589,0.0,-1.742055174642013,-0.3445197331524271,-0.7128586118602058,0.048155046537550907
1759676245.4674373,1,-1.1922298472133224,-0.8212035248489129,-0.7100971329153293,0.0,-1.7441943923708183,-0.34277629070465715,-0.7101279111718685,0.05067876050548806
1759676245.579229,1,-1.1947225377054846,-0.822920480873211,-0.7115817899014524,0.0,-1.7494097213716597,-0.3384318979814901,-0.7060487981540253,0.05422856470972409
1759676245.6839614,1,-1.1967645141337457,-0.8243269867113813,-0.7127979996873238,0.0,-1.7518421940241788,-0.3363703591598928,-0.7028838878666069,0.05462697109880797
1759676245.792925,1,-1.1984014001170524,-0.8254544677440103,-0.7137729358931002,0.0,-1.7575279325880104,-0.33156796925927107,-0.6983660671457886,0.052055019774728116
1759676245.900426,1,-1.1997089829323972,-0.8263551259681797,-0.7145517377410793,0.0,-1.7602089636113354,-0.3292942876641839,-0.6948844767121921,0.051933686845830364
1759676246.0143263,1,-1.200746164754119,-0.8270756883420071,-0.715142237469418,0.0005235987755982988,-1.765904411980285,-0.3245689779516686,-0.6900920874252583,0.05237139490619528
1759676246.1268888,1,-1.2015289177315631,-0.8276319776772156,-0.7152144053300634,0.006688565376619664,-1.7686106428005026,-0.32230954420245417,-0.6864271045882389,0.05250105277119122
1759676246.2494178,1,-1.2009997687610485,-0.8292109190766928,-0.7137332199407791,0.01880377047900548,-1.7746702351636796,-0.3173716850803056,-0.6811313249528222,0.05304866294286649
1759676246.3468657,1,-1.200512736373371,-0.8306713533881839,-0.7121892825858691,0.028749111496546437,-1.7775810838805146,-0.31498386417293467,-0.6771670125953704,0.05333712909338832
1759676246.4533482,1,-1.1970685179912939,-0.834528950597105,-0.7042830849017723,0.04789648189162124,-1.7831235239044223,-0.3105566069089307,-0.6708460553369089,0.05585083637467223
1759676246.571382,1,-1.1940399048770989,-0.8380062284777147,-0.6957028847244056,0.0633892135786378,-1.7857636404041841,-0.308457820676943,-0.6660916611058577,0.05686009726024213
1759676246.6879108,1,-1.1877982291644598,-0.8437188323796516,-0.6780200876736211,0.0819461574207897,-1.791870350874179,-0.3037085434235814,-0.6561825361311208,0.05674836681616945
1759676246.8109622,1,-1.1827096371988963,-0.8485009937114903,-0.6631446438223271,0.09693732707116642,-1.7947824693805516,-0.30144151915741196,-0.6482182014101726,0.05770914081506942
1759676246.9220433,1,-1.1743906926703043,-0.8550784977646155,-0.6385334008611396,0.1092980114645231,-1.8010726897588976,-0.29677415333856255,-0.6331663252431041,0.05918941572244882
1759676247.0381463,1,-1.1638633526537054,-0.862534091272129,-0.6095496103132094,0.11802771511577871,-1.8040572590094504,-0.2945212427197132,-0.621090096126045,0.05973045030392395
1759676247.1289072,1,-1.1548514945185337,-0.8687988357381715,-0.5828860481204388,0.12538820127252498,-1.8101293783928059,-0.2902316231944881,-0.6038295938815381,0.0580109861779935
1759676247.220413,1,-1.1473132259691736,-0.874005100356124,-0.5607962898412512,0.12981146451423195,-1.8129583329859684,-0.2881851964719403,-0.5901606115969297,0.057845245319309783
1759676247.2993505,1,-1.1350126220045647,-0.880984964780121,-0.5276323200647667,0.13859446936964565,-1.814173423980256,-0.2872780709631987,-0.5828355961037917,0.05778837117133743
1759676247.382978,1,-1.1252486479506125,-0.8865103299495188,-0.5010520263904368,0.14528539140369356,-1.820510907827912,-0.28320852366749044,-0.5654819719788107,0.06094427124196424
1759676247.4765537,1,-1.1112089853093543,-0.8932088394736946,-0.46951396006161583,0.14993555119667976,-1.823405723230572,-0.2812933469687036,-0.5501170104736753,0.06121039063467036
1759676247.5677402,1,-1.099503698558483,-0.8987015120381094,-0.44258855294687194,0.1526196336440554,-1.824527388396987,-0.28051330495111193,-0.5411630856477077,0.06129467210115332
1759676247.6595936,1,-1.087638968558279,-0.903841790025343,-0.42020209639189793,0.1544045721825383,-1.82930526607031,-0.27745504961554174,-0.5292736004541726,0.03915000393992109
1759676247.7466722,1,-1.0740780823111578,-0.9092256266006395,-0.3976056766471605,0.15491127281996137,-1.8315994894613816,-0.27599914003871784,-0.5197497233344678,0.03732350053396965
1759676247.8359501,1,-1.0577696043650717,-0.9151909846067776,-0.37865075570448703,0.15846523924651576,-1.8324735611182674,-0.27540961585410434,-0.5140568983044134,0.03684337832505863
1759676247.9319575,1,-1.0439183268038386,-0.9201850779140814,-0.3637802042306275,0.16156110255160752,-1.8281799741496318,-0.27798675014635743,-0.5201833434194796,0.04345351582769403
1759676248.0286274,1,-1.0300330385881584,-0.9250636888844362,-0.3519487003013661,0.1670289579208005,-1.8260168352564965,-0.2793074954767257,-0.5281530575374672,0.044058071836726616
1759676248.1427958,1,-1.0135257626183216,-0.9307096955556071,-0.34497334911726935,0.17425170065187948,-1.817684429095477,-0.2848403859317491,-0.5470767470053752,0.07358041778821614
1759676248.261038,1,-0.9930195832434805,-0.9376583462027052,-0.3414755033229405,0.17426744392399285,-1.8137808453339557,-0.28749579704493083,-0.5643671085422596,0.07569739275314524
1759676248.3895772,1,-0.9762558270928342,-0.9433483150076224,-0.33954475490613173,0.1747518019117576,-1.7982954001606686,-0.29920899757441055,-0.603203421244319,0.11679053376077743
1759676248.4930038,1,-0.954447062799079,-0.9509283475051644,-0.3401306106976344,0.1870831997932221,-1.7911928584236725,-0.3048087441317658,-0.6372994605806043,0.11782377481498403
1759676248.612902,1,-0.9367502315251979,-0.957136250632468,-0.34076641204385605,0.19729788825795594,-1.7772641947287797,-0.31688621030281533,-0.6788617142884446,0.1185884697921043
1759676248.726175,1,-0.9147137385273183,-0.9649762805146394,-0.34173209129065424,0.20115257079243232,-1.7709357166580213,-0.32266198031871335,-0.7105339664637305,0.11692700264715514
1759676248.8343756,1,-0.8943393346911076,-0.9722589081027708,-0.3423113400894328,0.20645666915902505,-1.7566209398890629,-0.33637936542516383,-0.7412478265753935,0.13150573195899373
1759676248.939036,1,-0.8722234124311933,-0.9801899414645269,-0.34158115788792837,0.21334282458326298,-1.7499408975822535,-0.34301157203934834,-0.7633108734527425,0.13158376537397107
1759676249.049369,1,-0.8507739053796601,-0.9878427371305156,-0.3400751994671016,0.2173715997490623,-1.7346593562384889,-0.3584688103113455,-0.780944246363565,0.15144597793229955
1759676249.1285686,1,-0.8289428062678391,-0.9955718002398182,-0.3363496615167742,0.21875292689574347,-1.7284042554053183,-0.3648692776520783,-0.790285591193367,0.15231852759510012
1759676249.2110395,1,-0.8106551224496256,-1.0020162548642408,-0.33315320787230523,0.2198404168943282,-1.7258490177934789,-0.367587576071149,-0.7952162139761888,0.15246508244240012
1759676249.293816,1,-0.7870474610421118,-1.0100065578094917,-0.3255802198197076,0.2266311466247342,-1.7095875643156244,-0.383888005344332,-0.7970547089765697,0.1541323707027918
1759676249.3772597,1,-0.7683897514476773,-1.0163345398888834,-0.3193086515748278,0.23202138675129913,-1.7017275279643418,-0.3917612038072811,-0.7975821132456451,0.15414974321803998
1759676249.4724436,1,-0.7445892856405352,-1.0238735380544057,-0.30894681470677,0.23286255413975007,-1.6982611894249109,-0.39524467204683517,-0.7968222007489885,0.15395666417192438
1759676249.5629668,1,-0.72536197682636,-1.0299203921394924,-0.2993479485885752,0.2337538659028274,-1.6756197896610008,-0.4179481239426466,-0.7908742319154833,0.1899826902911383
1759676249.645716,1,-0.705920668626323,-1.0357393723388357,-0.2897471844438455,0.2351634875586783,-1.6649483613767193,-0.42846405352199485,-0.785296109738779,0.19318597734694845
1759676249.7366235,1,-0.6851627575786738,-1.0416156090722812,-0.276769165336152,0.23732756224106277,-1.660456564859559,-0.43288634311782764,-0.7807502853152543,0.19388418230349524
1759676249.831813,1,-0.6680543704177373,-1.0463982569812493,-0.26605234240056735,0.23910009781978803,-1.6391096343903249,-0.4530449751372893,-0.7726819817833901,0.17595198897080197
1759676249.928053,1,-0.6447995017015807,-1.0520434946875112,-0.24846979417848175,0.24750270394270174,-1.6286699286946666,-0.4628400792737751,-0.765647055921222,0.17448738536517608
1759676250.0164473,1,-0.6252902064439992,-1.056704078667929,-0.23362390164035718,0.2542274944936037,-1.6249786435102014,-0.4661934192650868,-0.7608858738605371,0.17415907403482728
1759676250.1274054,1,-0.6000875225865411,-1.0617200106623457,-0.2118062309726027,0.25131691653901594,-1.5977163972602333,-0.49189576814429453,-0.7521918192619592,0.20808557966984478
1759676250.220333,1,-0.5793682562461937,-1.06572489712282,-0.1935262953217074,0.24850587418423958,-1.5847639752795277,-0.5038949716941602,-0.7456916562557665,0.2111955686575413
1759676250.3034873,1,-0.5537069050749567,-1.069631727373724,-0.17084325263882405,0.25331601018786076,-1.5804272770331682,-0.5078659974695207,-0.7415503061456293,0.21166915780064036
1759676250.4077911,1,-0.5325718558342463,-1.0727440360137608,-0.15171810319306114,0.2570772106298352,-1.552220914313379,-0.5333301416881443,-0.7329947484599181,0.21659003625450318
1759676250.5017626,1,-0.5060908262496734,-1.075652232308701,-0.13009399703035937,0.2583096753599918,-1.5388762751137937,-0.5452176590823715,-0.7264824535902701,0.2169069435854292
1759676250.5955377,1,-0.48421745040643405,-1.077944980282042,-0.11204919488301808,0.25933357823086023,-1.5338032795910475,-0.549652522113546,-0.7225753696089788,0.21695155433082336
1759676250.6952887,1,-0.45603912764495047,-1.0799881747837767,-0.09389631407358959,0.2605296305005566,-1.5044954183872914,-0.5750009334051821,-0.7124023783030409,0.21476865823948763
1759676250.787207,1,-0.4339751074840074,-1.081514870757883,-0.07950960060732691,0.26136405680734015,-1.4905256659300532,-0.5869156421297146,-0.7043475969856742,0.21467868440564272
1759676250.8825407,1,-0.405951637192099,-1.0828482718302044,-0.06625490418320236,0.259651931357769,-1.4852750374449506,-0.5912980045912074,-0.6998688734439028,0.2140710644076013
1759676250.974801,1,-0.3822078467837046,-1.0838869905455135,-0.05521735589668017,0.2583234000854405,-1.4535953630418488,-0.6171008727850492,-0.6819978730910341,0.23349284314882363
1759676251.0704594,1,-0.35930357054705364,-1.084699701199323,-0.04645735151254496,0.2588220015001251,-1.4377758754682037,-0.629659313389201,-0.6666346332824041,0.23592669319563644
1759676251.1899996,1,-0.334683637830511,-1.085393058508436,-0.03862913762153414,0.2608994019191347,-1.4113425939066393,-0.6493496030207475,-0.6472946690554927,0.22413906598245117
1759676251.3001094,1,-0.3041279159731083,-1.085989723335126,-0.03165120775119063,0.2681656727788298,-1.3988698301966342,-0.6583365328994198,-0.6323002801670362,0.22271155531278738
1759676251.425626,1,-0.2796437145821521,-1.0864384864699141,-0.026066757947273044,0.2737524460716095,-1.3688177201959122,-0.6789904776837327,-0.6079965978731142,0.21834686038930953
1759676251.5318353,1,-0.2489485329401604,-1.0867848223825551,-0.020317508975490815,0.2728379665480623,-1.3543735316647338,-0.6885751631987063,-0.5890546289043457,0.2180985177896907
1759676251.6623895,1,-0.21983267919717736,-1.087010496579805,-0.0154042989546081,0.27381396612950804,-1.320240799426858,-0.7100917731345339,-0.5619890013767694,0.2430054108365728
1759676251.7778096,1,-0.1909397707570787,-1.0871407036773728,-0.010706799172822242,0.27641896919051195,-1.303728981744557,-0.7200456634106405,-0.541109588746801,0.24558537792246676
1759676251.8930168,1,-0.15617034503994162,-1.087134010470862,-0.00629030646281789,0.2718346230779714,-1.270715986028395,-0.7387362415722741,-0.51610837435229,0.24956475007877663
1759676252.0111814,1,-0.12799476979904004,-1.0871039074808142,-0.0026547589503584518,0.26804017955102255,-1.2545352105554368,-0.747517380649378,-0.49726470220511915,0.2501265877302985
1759676252.1297805,1,-0.09531053819315916,-1.0869616690137334,0.0003277475444894021,0.27081338030379576,-1.2221142235721054,-0.7641153146421408,-0.4748676805979699,0.22309617381128075
1759676252.2376976,1,-0.06868386957025872,-1.086831216465268,0.0027454483109766578,0.27309399621881686,-1.2064901734876787,-0.7718422562048792,-0.45854378871493445,0.2210042705315927
1759676252.3565958,1,-0.03588563444641444,-1.0866159346334896,0.004279700126745103,0.2781092984020232,-1.1691238949950684,-0.7896443818305887,-0.4358427639298259,0.2631883144989555
1759676252.4662158,1,-0.00548245813778016,-1.0864094673887021,0.005423670510177524,0.2766642269191242,-1.151211951893173,-0.7977890108260854,-0.4184456414284949,0.26742854862672066
1759676252.5931566,1,0.023914137771546065,-1.0862077780135253,0.006048233118359043,0.2699248277271368,-1.1127639608908875,-0.8139140588096759,-0.3946411859795828,0.26165456965892986
1759676252.706969,1,0.061742191842810955,-1.08598573240953,0.00602924395146267,0.28361537569103634,-1.0944360052587403,-0.8212237779135563,-0.37641613954766384,0.2612093221058172
1759676252.825887,1,0.0921650189586436,-1.0858070278087097,0.005969765674750961,0.29455755417799123,-1.0530864269942144,-0.8366507842220287,-0.35223733540077395,0.27339831453456215
1759676252.9348261,1,0.12735680773251573,-1.0856465929007661,0.005672678474741376,0.2879637568135498,-1.0334077434333764,-0.8436206475174768,-0.3342568836445398,0.274802079724942
1759676253.0588531,1,0.15879628547687769,-1.0855161806005373,0.005430464495642793,0.28543670613285005,-0.9926493491671774,-0.8570770049802613,-0.3134390602492663,0.26890538984492923
1759676253.1562185,1,0.192399133003098,-1.085401415775241,0.005254538446117745,0.28636790225693054,-0.9736289865139552,-0.8630597400700035,-0.29889394471413194,0.2686015871118041
1759676253.2575748,1,0.22308495881890456,-1.0853027301232427,0.005139581580029707,0.28679085490740536,-0.9381795075108185,-0.8737474960600287,-0.2841019707835524,0.2604620046367974
1759676253.3502634,1,0.2545096997252241,-1.08521049322083,0.0052175091532794555,0.2869754930386109,-0.9222278874344874,-0.8783843864929539,-0.27479069199283396,0.25978665387372385
1759676253.4390645,1,0.28069314217212177,-1.0851335049780229,0.005288508848088424,0.2871583756010165,-0.9163650232529695,-0.8799906408326666,-0.2704424657664376,0.2596094971220018
1759676253.5394034,1,0.3131089862628435,-1.0850457398283395,0.005292328520512802,0.28692479519630115,-0.8720001432928137,-0.8924348561520427,-0.2591649793960561,0.2684150583632639
1759676253.6247053,1,0.340029819104286,-1.0849733610264294,0.005280685773931069,0.2866781296850474,-0.8521050808911019,-0.8978732157040042,-0.2519133260500065,0.2694339184900947
1759676253.726031,1,0.3706273377978161,-1.0849012885263707,0.005168764949023548,0.28658328730500393,-0.8426984083479494,-0.900353520201019,-0.2475004012877517,0.26956528595367857
1759676253.8175492,1,0.3960826927244914,-1.0848423672806866,0.005086603724601445,0.28656678475859576,-0.7959470987408453,-0.9120009646746244,-0.23495010049340367,0.2832838126512182
1759676253.9107413,1,0.42846320553531975,-1.0847904129076646,0.0047049420367500094,0.28923062261827326,-0.773022954252965,-0.9175165077349714,-0.2248205843718339,0.2847130634069172
1759676253.998408,1,0.45528781649178457,-1.084749887737713,0.004374841116547111,0.2914320374898506,-0.7648887902521442,-0.9193623553247551,-0.21967588457629383,0.28510338226827536
1759676254.102948,1,0.4809239634916255,-1.084723624173475,0.0040796383913143525,0.28984539142010546,-0.7150194890486434,-0.9301673096193184,-0.2071278018414929,0.29319924240354833
1759676254.2204754,1,0.5086660176317069,-1.0847097513953605,0.003701380946245549,0.28517128711589884,-0.6906918703119347,-0.9352334867933964,-0.1971789341903436,0.29415385690298895
1759676254.3393378,1,0.5422605360891045,-1.084719611416421,0.0032833847421745894,0.2920965550866541,-0.6481165787515065,-0.9434831246909311,-0.18624630667090955,0.26991811579299874
1759676254.4445949,1,0.569813322328934,-1.084729709578316,0.002936897299860168,0.29769046392570425,-0.6280230016445463,-0.9472335006950474,-0.17897165404965878,0.26792994832288314
1759676254.568,1,0.6024645514872641,-1.0847502472741188,0.0029127062520919724,0.29976732016852103,-0.5841667774998774,-0.9550816468793757,-0.1695814489776397,0.2774156669876811
1759676254.6778548,1,0.6337594199149935,-1.0847593446038248,0.0030565087928800714,0.3004837694462152,-0.5633225853785532,-0.9586754140075361,-0.16323803154303806,0.2784361474604587
1759676254.7963831,1,0.6655713644687925,-1.0847525119046337,0.00366186358724349,0.3002351732242137,-0.5196334016723897,-0.9658690744558263,-0.15519706367133657,0.2906651026588327
1759676254.906532,1,0.7022638955716146,-1.0846968175103986,0.004488419733889978,0.29073782901120687,-0.4992339666666605,-0.9691033756348368,-0.14950947250421226,0.2916835605244583
1759676255.024227,1,0.7320322839438507,-1.08464623995656,0.005215679709035912,0.28306157970626505,-0.45250536559426685,-0.976156698773774,-0.14176497132611837,0.2968207782312539
1759676255.131429,1,0.767792723626817,-1.084542766128303,0.005781573930060611,0.2911383268069688,-0.4304543315135791,-0.9793639366386429,-0.1363011282756911,0.2973456797486434
1759676255.2181957,1,0.7976212560713044,-1.0844533578111568,0.006214506378761134,0.2978137465528846,-0.4235544370788362,-0.9803077621530375,-0.1339509215672926,0.29747548459845924
1759676255.32074,1,0.8323191006445182,-1.0843374083493373,0.006329703644794571,0.2975967348220804,-0.3723470860475624,-0.9872593108283495,-0.12758061099547024,0.2903616085848497
1759676255.406093,1,0.8596732758599528,-1.0842446407815067,0.006432657677160581,0.29739601529872267,-0.3490451809127895,-0.9903368906192185,-0.12329496606491791,0.28985202158752715
1759676255.504529,1,0.8933392882992522,-1.0841527228365713,0.005998227207258552,0.2945258071297719,-0.3389925191678174,-0.9916084664090313,-0.12032865470775475,0.2895475934951007
1759676255.6006026,1,0.9217753661643562,-1.0840808202035213,0.005460670921090684,0.2922761478595381,-0.290285726495556,-0.9975668910430536,-0.11404259968351388,0.28876461541116843
1759676255.691337,1,0.9484562627514045,-1.0840358447525598,0.0049170576210400396,0.29197244101493425,-0.26746185773240083,-1.0002735587478577,-0.1100980877657378,0.2889319111892446
1759676255.7902029,1,0.9762605686538598,-1.0840173176691368,0.003961121463440481,0.2932260603575991,-0.25762830838796374,-1.001388280968327,-0.10745885975722302,0.2888652500941535
1759676255.8889902,1,1.0038570357732846,-1.084031916387805,0.003065762125275654,0.292012919966855,-0.2080952195821501,-1.0066970133269022,-0.1010333877757606,0.2917777109717725
1759676255.9947221,1,1.0318508808912081,-1.084078566390805,0.0019855943787116317,0.2886173993504643,-0.18385386878628956,-1.0091947531945458,-0.0962393025692675,0.2921388463191514
1759676256.1019022,1,1.0657777198935854,-1.0841903144447818,0.0011500556408708062,0.2913266863835412,-0.14192217053949654,-1.0131824175026398,-0.08977359118515361,0.27772930690374226
1759676256.2030995,1,1.093934246809654,-1.0842881506694728,0.00048439672638723584,0.29407159965255447,-0.12213389291186882,-1.0149759138896706,-0.08553139866320668,0.27657936180563525
1759676256.3062353,1,1.1280374549938272,-1.084387677807466,0.0012722950343520003,0.2963624990962789,-0.07896199194950536,-1.0186925573161643,-0.07977908873665292,0.30365885614243804
1759676256.4021022,1,1.156361285473442,-1.084462372012237,0.002190178800553195,0.29846751603517796,-0.059036754266300895,-1.0203176780088423,-0.07635079050093696,0.3060707638459893
1759676256.5049708,1,1.1898708345715445,-1.0843311951189933,0.006631991837387889,0.29928507227220913,-0.018607660115592495,-1.0235074053938924,-0.07328129866293168,0.29269513966415167
1759676256.6019878,1,1.216603041803047,-1.084179634848197,0.011251718050140113,0.30030695988208256,0.00014143168057985378,-1.0249508015052662,-0.0709998438556761,0.29190486163606133
1759676256.7001727,1,1.243645007033327,-1.0837568495590406,0.01759955259760043,0.30076115496034656,0.007519471887285356,-1.025490960976973,-0.07000850914977484,0.2917527032971946
1759676256.800878,1,1.2716867025056617,-1.0830360431468593,0.02833072439598445,0.3007008534149575,0.052791980332213904,-1.0291209048130654,-0.07081717601105222,0.26822138005741214
1759676256.8955743,1,1.3048561341075295,-1.0812910848939985,0.045115067438823056,0.3050555170760286,0.0741458524747994,-1.0308657550860902,-0.07241088425786195,0.2667106474624077
1759676256.983356,1,1.33309761592125,-1.079641079188819,0.06164618098350839,0.3083433624487888,0.08183796786524923,-1.0315165768411105,-0.07402848112050016,0.2663441182982884
1759676257.0863867,1,1.3659414907340235,-1.0764836783417877,0.08372462051652406,0.3126544642330576,0.13899316849462895,-1.0372840133700372,-0.0858621675625137,0.3191992681154903
1759676257.189473,1,1.3934429805896948,-1.0735047232973993,0.10516003266953139,0.31621371436811485,0.16684121963731385,-1.0403170145431053,-0.09782138963916012,0.3236797588820648
1759676257.3191786,1,1.4264017362167973,-1.068506370712796,0.13341825779014638,0.30723043828737984,0.21283912269101052,-1.0463195346842535,-0.11247167775908454,0.29149056641745547
1759676257.425401,1,1.4532684562009068,-1.06425974606281,0.15779191346931326,0.2997008976901203,0.23447709527469038,-1.04937550165595,-0.12509024126277157,0.2882780420662647
1759676257.5452356,1,1.4854007776840372,-1.0574266848625953,0.18805714286336014,0.30913740753203206,0.27983940780325284,-1.0563713333189082,-0.13800862199626734,0.3029308109350594
1759676257.659761,1,1.5114794610049287,-1.0516792935043107,0.21297521542862122,0.3168298384732566,0.30142702934669807,-1.0598886211121337,-0.14869395117680492,0.3039008564745516
1759676257.7711515,1,1.5435483681227666,-1.0428251412627632,0.24440229602062194,0.31304995500780847,0.34385500753711223,-1.066913667212517,-0.15644509547835367,0.27957232117283976
1759676257.8867638,1,1.5725105735835847,-1.0341513479704885,0.2711877261009575,0.313075795728983,0.36413908583657273,-1.0703658619823657,-0.1620491418379307,0.27718133108430043
1759676258.0012727,1,1.6028251544066194,-1.0239011391128272,0.30130318893060654,0.31561182719358194,0.4084954147502501,-1.0777134163610065,-0.1628561605810345,0.29595156238405285
1759676258.105018,1,1.6314430254249133,-1.0134569086392582,0.32839899813216367,0.3126299738111582,0.42937841211861444,-1.0811486050693193,-0.16273053495765094,0.2975160846288102
1759676258.2274525,1,1.6596524980579999,-1.0022910414050366,0.35746537501185033,0.3049376935052603,0.47014337828243896,-1.0873507312496637,-0.1575891646758593,0.26698266997728726
1759676258.3395467,1,1.6927898620859771,-0.9870546495063246,0.3923887305236912,0.3146006367409872,0.48955422088158107,-1.0902139520669039,-0.1523152217672924,0.2640368286440297
1759676258.4475665,1,1.7199411793563166,-0.9742990886621937,0.42174206656649305,0.32263437450690446,0.5339773053510037,-1.096325209787725,-0.14216055995133242,0.29320844723434986
1759676258.5555274,1,1.7501984891999482,-0.9582936403766906,0.4568853815782857,0.31591819064850823,0.5551192868444437,-1.0990558448863172,-0.13363839033349928,0.2958255803637942
1759676258.651594,1,1.7750784312532646,-0.944943888264941,0.4864502423000228,0.31039216376980433,0.5953347110610301,-1.1037191170998797,-0.12243766089572695,0.29189678387132706
1759676258.7568977,1,1.8043733383187688,-0.9269124192505287,0.5241434389905436,0.3105089484679689,0.6149215312833565,-1.1058281160853247,-0.11352935676778977,0.29162098155131033
1759676258.861521,1,1.8281539688046846,-0.9120234281943266,0.5552504444604766,0.31068133477841336,0.6536124658814642,-1.1096740617038041,-0.10300866797820821,0.2827413960933156
1759676258.956814,1,1.8549500403740267,-0.8926477779608921,0.5925742690426761,0.31231960822994465,0.6710756089259324,-1.1112697098399775,-0.0954970907495145,0.2819120120490851
1759676259.0756845,1,1.877709656151339,-0.8759926487888361,0.6253029500497568,0.3135678325178482,0.710814477262828,-1.1146301593609973,-0.08482018753866928,0.26935068014338676
1759676259.1755078,1,1.9028410325343492,-0.8548336080497784,0.6641968813478947,0.314154696901327,0.7295177833342905,-1.116070200908167,-0.07701002658383378,0.2680665958247627
1759676259.2634714,1,1.9235725609450347,-0.8371156596865132,0.6967587219059507,0.3144485718698734,0.7353102413355528,-1.116424211110507,-0.07279393254151656,0.26778171025165876
1759676259.3422415,1,1.9474150397404095,-0.8141745935881477,0.7358426670187349,0.31426782862186764,0.7780485519384572,-1.1191282584540145,-0.06169919356840523,0.2755427869561057
1759676259.4216888,1,1.9660193509872865,-0.7958543328961385,0.7676680206295958,0.31407240182952495,0.798741558927803,-1.12029956781444,-0.05277410247640698,0.2764279127758181
1759676259.5127413,1,1.9869384721099592,-0.7728320419506091,0.8035151433170297,0.3067921013506564,0.8080734631326334,-1.1207275824928307,-0.047087466819944725,0.27625279289421717
1759676259.604337,1,2.004395363990599,-0.7532879336259685,0.8360825996496597,0.30058668890342205,0.8537964040152427,-1.1220097160711124,-0.029372877283965072,0.28132422687157466
1759676259.6884944,1,2.019805785966406,-0.734705523708637,0.863456508546458,0.30246785989109265,0.8751977449709837,-1.1223523578800931,-0.014780132363604313,0.28248452621379905
1759676259.7652974,1,2.0369476992078095,-0.7119634880396332,0.8977895188241594,0.31082032776632007,0.8823840558172348,-1.122315906183046,-0.006792742589249601,0.2822646208306247
1759676259.8466134,1,2.0502218694318977,-0.6937683926294292,0.9253127789404881,0.3176518339957364,0.920093251246884,-1.121846803731074,0.009656069484068759,0.25512815811762196
1759676259.93494,1,2.066137107941911,-0.6692363337129879,0.959133198147924,0.3140553768839213,0.9388924028736165,-1.1214266874305057,0.023119135095282232,0.2527725441382641
1759676260.0290813,1,2.0790618397482903,-0.6490522201274135,0.9879870647747234,0.31117787082589926,0.9465859684414158,-1.1211180465255774,0.03141785546667973,0.25216793943354787
1759676260.1290624,1,2.0908762256205113,-0.6287797273998205,1.0140187991915777,0.3076657080080486,0.9925799148979504,-1.1187499318199894,0.052215204798621837,0.26401707303176647
1759676260.2436562,1,2.102607261668657,-0.6072444518035215,1.0427141730240586,0.3035464118088983,1.015169015790871,-1.117283304449517,0.06913357959309152,0.2652010413253004
1759676260.3810654,1,2.116138499994053,-0.5787020708647389,1.0784881162340612,0.3141781123654926,1.056962273761276,-1.1134347415697154,0.09158274082380445,0.24622262150593166
1759676260.487215,1,2.1269215985691163,-0.5552198209881332,1.1078597201562692,0.3230550995540362,1.0765613009159567,-1.1113466018800269,0.10866066558373089,0.2448710698010304
1759676260.5873976,1,2.1387018768999515,-0.5258701315149313,1.1439138468394536,0.3187408421973933,1.1142233370918009,-1.106265857318134,0.13224423425645537,0.26013263562192523
1759676260.6978664,1,2.1488261996067592,-0.4986976666559566,1.1750827390301881,0.31715069180763195,1.132075747297172,-1.1035262934130268,0.15084571205000505,0.26191777766560226
1759676260.7961013,1,2.158729530570493,-0.46857018746584816,1.212350433794905,0.31727110226594213,1.1669403707288644,-1.0972301562364606,0.17522918310410837,0.2554877134717543
1759676260.909544,1,2.1679576032658714,-0.43531542228836134,1.2509668250592985,0.3140642234422736,1.1835305523173094,-1.093911300459198,0.1940195319539367,0.2546245222183256
1759676261.0221202,1,2.175440461823867,-0.40658955875627234,1.2865768973150824,0.3107842178512062,1.2217442862565449,-1.0850805419204579,0.22456572144005985,0.25051403137511513
1759676261.1379497,1,2.182344848506367,-0.3729860513268976,1.3239267756992004,0.3036535850469956,1.2398791064766062,-1.0804735568833652,0.24827203858581942,0.2503415758632397
1759676261.2289095,1,2.187994192055792,-0.3451630728547306,1.3560791476256793,0.29728153904598,1.2738659770234508,-1.0706515878073284,0.27729787272409084,0.254371360196974
1759676261.331002,1,2.1923186663851943,-0.3189475053516599,1.382410432536705,0.2945375485696769,1.290501205506857,-1.0654799666455284,0.30009785128029615,0.2556078889684587
1759676261.4277558,1,2.196164668959546,-0.291107486710214,1.4082788911453734,0.2947900360911948,1.3195321754365716,-1.0558148306212471,0.32314009992939646,0.22539102842644212
1759676261.5301988,1,2.1997573993963924,-0.25779940207790153,1.4315650767063357,0.29351553169984335,1.3331682781741547,-1.05100817587276,0.33926817329387743,0.22212193496969398
1759676261.623383,1,2.202685388987349,-0.22969930212877995,1.4510706664583806,0.29275949865577644,1.3379612618263623,-1.04917873761839,0.34761292546902683,0.22105304081617438
1759676261.7059467,1,2.2048433050245126,-0.2039772470659121,1.4663728902477846,0.2962227503772869,1.3757195987054516,-1.0344065331179257,0.3749456860620411,0.2407554504604731
1759676261.8021169,1,2.2068078644821356,-0.17464852104827974,1.479178222097488,0.30368619948703574,1.395249448733912,-1.026406914777291,0.39931203299309115,0.24264141104822307
1759676261.8994231,1,2.208275536943241,-0.15053981016978296,1.4896254630503851,0.3097774718252503,1.4026186237918972,-1.0231087794538953,0.4134404964367768,0.24311225576857315
1759676261.989934,1,2.209989716223009,-0.11915111803308197,1.498027040943461,0.30869189007082437,1.438171996206679,-1.0060672530033816,0.44500151432174617,0.23494072744803327
1759676262.0905943,1,2.211053370953067,-0.09484842848913587,1.5044514817668422,0.3077781407102975,1.456115196808289,-0.9970399036827801,0.47267871726888977,0.2350425147721144
1759676262.1871452,1,2.2124776495514222,-0.06372023890189629,1.5102207131555239,0.302608267961837,1.4883852582928834,-0.9785401540347157,0.5097451535049158,0.26636346521437526
1759676262.273398,1,2.2138178089579545,-0.03780315281619506,1.5150242164457854,0.29854739301337097,1.5024162254324935,-0.9699492601866607,0.5382550832100671,0.2698629078369677
1759676262.369768,1,2.215260820976311,-0.006030526061478656,1.5198034472047144,0.30291183766063207,1.5084317106775245,-0.9658762807931129,0.5546572112659887,0.27016532071221977
1759676262.4628127,1,2.2161018924353497,0.018823538765046374,1.5235678946612328,0.3063210334546706,1.5408758160038398,-0.9439888528085325,0.5923554821042497,0.24096708806525277
1759676262.5582445,1,2.2172307066316774,0.05110051757924642,1.5281568657778082,0.3041229037968089,1.5564916501034833,-0.932906982940675,0.6230001768233322,0.23902407848451668
1759676262.6422276,1,2.2182848849656454,0.07796888998401605,1.5321367213870867,0.3022632122888799,1.5615084271126423,-0.9290181991850742,0.6391343429229946,0.2386650032166566
1759676262.738534,1,2.219410235766754,0.10994499423597236,1.5366890837572262,0.2988745656779949,1.595967037049932,-0.9012644650555836,0.67603545337473,0.25238535881317453
1759676262.8340495,1,2.2201017787576727,0.1354485960303274,1.5406376938138189,0.29604678640167886,1.6124687406194875,-0.8873494770927517,0.7063660939562189,0.25423635876233114
1759676262.9280283,1,2.2207786761493638,0.16140503344448193,1.5444521072103021,0.29584919848958247,1.6183022785342347,-0.8819946550865312,0.7228470206398944,0.25482067517017143
1759676263.0300102,1,2.221343592746518,0.18823306385683883,1.5487550630812161,0.29731112675012156,1.6503736221246212,-0.8523238212390598,0.7522993720158074,0.2541772290933347
1759676263.1213398,1,2.2218677043997626,0.22038151197388026,1.5537134297112454,0.2959282004545856,1.6650942519632466,-0.8382342647147222,0.7742533770104705,0.25408141952657814
1759676263.2318294,1,2.2222682425443567,0.24722071831274053,1.558239233732344,0.2943786652357868,1.6936125643763178,-0.8086206170538516,0.8065914788135105,0.27442048350556214
1759676263.3530915,1,2.222426784527416,0.2803419371144709,1.5633569615604277,0.2940157439972958,1.7066851558699463,-0.7943806388353156,0.8311571611982015,0.2764592318814569
1759676263.4731894,1,2.222455895227881,0.3072666816223774,1.5677422535473728,0.293233134745755,1.7347923447330886,-0.7617746850196258,0.8649802900041285,0.26119304174348945
1759676263.595948,1,2.22244893769682,0.34090748654093095,1.5720957527199513,0.2948755772536046,1.7477687947527423,-0.7460539172020578,0.89008750169477,0.26018552155050106
1759676263.7249475,1,2.222209214036779,0.37267400953375684,1.575367456471867,0.29721724431698054,1.7758416292734343,-0.7093694836868278,0.9216785396141112,0.26983649920715413
1759676263.8411736,1,2.221809087923963,0.4052872911291329,1.5773303940039543,0.30041162169493446,1.7888410734889673,-0.6917120345707095,0.9444895006797669,0.2707774053895019
1759676263.9653645,1,2.221500117229572,0.44225950855104995,1.5774888013423682,0.2940615504551678,1.8135223990841232,-0.656324715772828,0.9716636221230318,0.26669452625961454
1759676264.075627,1,2.2213349589293108,0.47243300009640665,1.5773995593509482,0.2890432032358345,1.8250183983655937,-0.6392548584901065,0.9916818422789054,0.2667408876842307
1759676264.2068548,1,2.2212704380217767,0.5087754291400052,1.5758126708577862,0.2967521166596125,1.8490896494594018,-0.6003188180554073,1.0221358929626496,0.2698964343306928
1759676264.3164258,1,2.2212636000930583,0.5478843708264928,1.5738416491207923,0.29869630382130063,1.8601930382647258,-0.5816004607335928,1.0460202091104431,0.27026139506604363
1759676264.44211,1,2.2211776484427896,0.5812402403738212,1.5718958450416192,0.30038804099269006,1.883405147553067,-0.5375878275962066,1.081340692006916,0.3020002565423801
1759676264.5706053,1,2.221317764780903,0.619151584057109,1.5701320656520847,0.29362930752122957,1.8938799922126865,-0.5166652980095571,1.1086242124498136,0.3054094809523339
1759676264.6930947,1,2.221482936410475,0.6499336061628443,1.5686959226141948,0.2881692350719205,1.9141621385304433,-0.4731040182315017,1.1403263402379897,0.28775092818244474
1759676264.8145547,1,2.221620685254977,0.6854633003979057,1.5679113881301054,0.29245613573345536,1.9232880248503692,-0.45241718323172636,1.1632165954208347,0.28669416322267965
1759676264.9390006,1,2.2218981611086432,0.7267949827941527,1.5677528604457411,0.2985402709894362,1.9412362867114012,-0.40956468065315904,1.1853698315274495,0.2880109098399616
1759676265.0576499,1,2.2219690398361007,0.7604021404391887,1.5677213990183174,0.3033540073645749,1.949514887751713,-0.38908318628524735,1.1999647927576857,0.2884152890338885
1759676265.183138,1,2.2220027538609406,0.7985187753401034,1.5681823238005814,0.3032183098406467,1.966920378719818,-0.3439251301401547,1.2174765655973765,0.28852775957750176
1759676265.289764,1,2.222029839015295,0.8297350050902352,1.5686218514030634,0.3030034980718534,1.9750529151574818,-0.3221957020485626,1.2297932309380049,0.2889210456297862
1759676265.3915267,1,2.2221851996047457,0.865462807015546,1.5693152784043147,0.29793636102208215,1.9892316701335715,-0.2821772191952703,1.243479347126564,0.2950319621596059
1759676265.500462,1,2.2223586149282797,0.894481485575452,1.5698965899790398,0.29380714603994,1.995790218843582,-0.2630044495465091,1.2528992316595295,0.2958741900716076
1759676265.6069095,1,2.222450813573776,0.9297939593218345,1.5705891814580815,0.29738677971312466,2.008195595756726,-0.22707983648450056,1.263245872644395,0.26620603021651706
1759676265.7049294,1,2.222504593233131,0.9589557653267206,1.5711680060214435,0.3001099829819594,2.0138825401197558,-0.2101491118242606,1.2699093543266038,0.26376786154469395
1759676265.8025923,1,2.2226273357530677,0.9947015207927504,1.5719409284260293,0.3006522282824729,2.0159471744634705,-0.2038864529014894,1.2726910013713428,0.2629855906725313
1759676265.9012022,1,2.2227537518532112,1.0240115753445216,1.5725809765449952,0.30114060076381993,2.030992044518098,-0.15380603039526672,1.2850550460269161,0.28881608616544074
1759676266.0003314,1,2.2228830847300007,1.0591244789328427,1.5730905683224046,0.29979689240565927,2.03812058550387,-0.12968844313332453,1.2948164349692768,0.2911215493671144
1759676266.1032026,1,2.2227455926993773,1.0862728630199385,1.573500839596859,0.29880647915627,2.0496382339657133,-0.08767894956756392,1.309385425191261,0.2939675528047162
1759676266.196493,1,2.222699846760035,1.1197956907755777,1.5737927065877189,0.29837712393776894,2.054517188517844,-0.06915586526276743,1.319992911115208,0.2944131872694779
1759676266.3198338,1,2.2225845409169143,1.1468357394430837,1.5740311398364701,0.29795713059431206,2.0646477843027493,-0.029430827892114667,1.3323674721838268,0.2756684553033884
1759676266.4382787,1,2.2226910639215136,1.1819824578410965,1.5741287681940128,0.303292310805386,2.06923684312027,-0.010696749773934438,1.3409971669441187,0.274009700019654
1759676266.5777879,1,2.2226910368714523,1.2204755353457917,1.5740517601261936,0.2988359982608838,2.080177807761932,0.03808579388934019,1.3525688874699946,0.2959917923816466
1759676266.693065,1,2.2227187679977107,1.251876320125295,1.5739197685945983,0.2951877191388577,2.0853156249301974,0.06154218593235735,1.3604897522070727,0.29819521804482746
1759676266.8135214,1,2.2226673095843648,1.287205174560718,1.5735981570645725,0.2958344335395414,2.0952420849146747,0.11073362801918829,1.3729348448689944,0.3108212052138192
1759676266.9355245,1,2.2227391046989617,1.3285605616962128,1.5730017486905847,0.3037040834240601,2.0998167388412408,0.13448151788264995,1.38282118419454,0.31210000969885204
1759676267.0594702,1,2.2226033958177633,1.3625901417901933,1.5723984612848902,0.3099369168436451,2.1090711549816423,0.1854150552012965,1.3967132813747953,0.3098118410159291
1759676267.1782844,1,2.2227123219830287,1.4013487306734809,1.5715840145505868,0.3014724751343478,2.1132299428516874,0.20948419030507567,1.4072504023200618,0.3098665544320222
1759676267.2793455,1,2.2229775655531134,1.433371197972477,1.5708787912286255,0.29449539597830954,2.120644975555169,0.25536865092388117,1.4181111770903467,0.3062403839746956
1759676267.3744125,1,2.2231598383677427,1.471674692948792,1.5702079919236636,0.306877970174004,2.1238656705940016,0.27621485444176164,1.4248916139425596,0.30624494247458683
1759676267.462858,1,2.2229358018111705,1.5019279083060415,1.5697342161702246,0.3165657639284426,2.124947333985582,0.28370622225131464,1.428545902666625,0.3060951219458459
1759676267.579408,1,2.2231252002796045,1.5381630201836043,1.5695508572260606,0.3099040541594647,2.132435080990362,0.33153145795537053,1.434439198065877,0.27856923121248706
1759676267.6709232,1,2.223174436056863,1.5664643974108816,1.5694645869515347,0.30473994088889744,2.1358741735610627,0.3539219569502527,1.4372171210432063,0.2762912858209116
1759676267.7635176,1,2.223425799399347,1.600733397560856,1.5699121152947748,0.3007615852708827,2.1371726800019064,0.36231795547811335,1.4387217110604325,0.27571074931669004
1759676267.8538969,1,2.223763280433012,1.6297060250223114,1.5704459797834205,0.29727883308683956,2.1439800582524158,0.41576264376368954,1.4442814831244497,0.3099010950859531
1759676267.9518514,1,2.2238293071166475,1.656957052252253,1.571064411790834,0.29573245458145353,2.147381343866465,0.44260924342483915,1.4481437596954818,0.3131587468097329
1759676268.0457559,1,2.2239296479013486,1.6848408724766153,1.5719856671579981,0.2956184875802925,2.148503825591263,0.4523362177824568,1.4503400466284835,0.313816188405751
1759676268.1509597,1,2.2239422309745343,1.7128887112937476,1.5727743287826976,0.29858377835786865,2.1550032624769355,0.5023900456509973,1.4552339791555293,0.2887009965177926
1759676268.248207,1,2.2238868817498614,1.743282455761513,1.5734730732146949,0.3042423358440573,2.158015614224417,0.5263847950979165,1.4586407643244839,0.2865709603759079
1759676268.3468416,1,2.2237845809056696,1.772902337141527,1.5739923264090356,0.30829784576679603,2.1591910575351934,0.5357417040023126,1.4603659156547957,0.28605329786271727
1759676268.4405081,1,2.2236911701624424,1.8039130247613866,1.574216820270802,0.31099531564892585,2.164870755177186,0.5843152316622579,1.4645676034706232,0.27987528232259
1759676268.5494308,1,2.2236257604151946,1.8396966527309675,1.5742861745936054,0.3092523595971285,2.167644396487362,0.6088991656615658,1.4676973985690402,0.2792336731391592
1759676268.64813,1,2.223633909931332,1.8697479722821093,1.5743169558234933,0.3078855891166638,2.1719611899215185,0.6587561061612185,1.4733816961441493,0.33410745332567926
1759676268.7437737,1,2.223453935843374,1.8963602515232512,1.5743431263681325,0.30550053451035836,2.173975176786184,0.6818546147749702,1.4772366036262587,0.3390341475320486
1759676268.8400207,1,2.2234122024259193,1.9256147218146455,1.57426357615988,0.30217490534239067,2.174571439149674,0.6909141251168337,1.4798203934572474,0.340173697608984
1759676268.9358926,1,2.2234540071735807,1.9530614040292589,1.5741603988604267,0.30021583976801053,2.1794261348285553,0.7369058629164934,1.4850212056684609,0.2935716773318394
1759676269.035965,1,2.223547851500661,1.983309886414728,1.574007103641362,0.29935272175129557,2.1816759753464843,0.7598878815180535,1.4890185742599598,0.289578400954571
1759676269.1429687,1,2.2236417752896847,2.011299460541596,1.5738839620417366,0.2985733586412616,2.185255957903638,0.8005256662765812,1.4933751518421496,0.28480443511727993
1759676269.2622395,1,2.223680010776501,2.041459239469047,1.5736842121277286,0.2977579809172157,2.186844561334687,0.8197929172037464,1.4964843969534052,0.2843001669147682
1759676269.3761053,1,2.223716257863705,2.070845316566917,1.5735293447248047,0.2959983463874651,2.1902206717581105,0.8655851884264937,1.5002429307620384,0.2932348482301944
1759676269.5001183,1,2.223989065413463,2.101376605679144,1.573446695689906,0.29340338936399535,2.1917875440139154,0.887666610563869,1.502797987068414,0.2940719667705164
1759676269.6247334,1,2.224173552726427,2.1363684006313877,1.5735355603703054,0.29133071160785784,2.1952358892985577,0.9340956999001395,1.5066622651140558,0.2813369959772032
1759676269.742247,1,2.2243128609239764,2.1646759478081177,1.5736156673436776,0.2896810383051715,2.1968546692823843,0.9562586299370736,1.508776965211081,0.2802593642411084
1759676269.8610332,1,2.224272386327047,2.199818519930466,1.5737568286658028,0.2964629829081606,2.199646061908963,1.0056569598119025,1.5125839749674952,0.30414836530660094
1759676269.9722824,1,2.2242028744896607,2.2331907478643056,1.5738905833723154,0.2971298452166855,2.2009786360431662,1.0289475030613513,1.5147408506858007,0.3063092157228262
1759676270.0949173,1,2.224434683562748,2.2671028203349617,1.5739679904974744,0.29260508266043617,2.203811633458978,1.0749645096637863,1.5181338739101935,0.2914096762502169
1759676270.2167451,1,2.2245088122090073,2.3063288494236107,1.573978663410056,0.29650393389195173,2.2050969227415695,1.097039355146717,1.5208045830973504,0.29005451807408605
1759676270.3318932,1,2.224473642743561,2.338069768540492,1.5739855322157734,0.2996812890861397,2.2076903196390076,1.145252645914306,1.524015272511859,0.2893768339027221
1759676270.4573646,1,2.224276175382891,2.3747503457381125,1.5739440029180254,0.3044753949016422,2.2088751549362082,1.1684922945718235,1.5262718810450195,0.28933326282608446
1759676270.5955,1,2.224379118961838,2.41632806455658,1.573814206809408,0.29816109883685843,2.2109289917421595,1.2240846776151957,1.5292079507675647,0.323086202738224
1759676270.72346,1,2.224466290172225,2.4496892158689443,1.573697143176381,0.293154651148229,2.2118937551248448,1.2509547953607505,1.5310688961279826,0.32629671669281557
1759676270.8410892,1,2.22453370669047,2.4878775980331596,1.5735762698966738,0.29346581732313004,2.2145523167542325,1.2972775150629736,1.533784885761926,0.2833371781352202
1759676270.9596179,1,2.224467162531829,2.5222766883463996,1.5735195258728256,0.2971933921839998,2.2157390883045815,1.3194733880942122,1.5351659990145863,0.27946121802005
1759676271.0762296,1,2.2242622757320984,2.558096506980127,1.573610128566698,0.30373870816178,2.21746036835107,1.3675446740283645,1.5376148073900164,0.29761998568899584
1759676271.194783,1,2.2244479374212744,2.598680861996784,1.5737029277130907,0.29566832107813495,2.218278763121402,1.3897820747155976,1.5385754313910294,0.2990551473410136
1759676271.2938774,1,2.2244828343973793,2.6307078002745827,1.5738014277607815,0.2894134250290471,2.21987587960589,1.434836373270255,1.5405591652152857,0.2972292052578366
1759676271.3949327,1,2.2246209405807913,2.669009922147045,1.5738695114923131,0.2922795183847807,2.2205792522207797,1.4556500602929492,1.541965663408019,0.2971177129359987
1759676271.4851274,1,2.22477684632311,2.7010623245971512,1.5738986825676742,0.29468150036436735,2.220852738732246,1.4628132652453711,1.5425136609709902,0.29708114201722924
1759676271.592224,1,2.2248369364621543,2.7379624021517186,1.573917378545768,0.29857305516369614,2.222409814086524,1.519132707253018,1.5441871636729039,0.3114987962598599
1759676271.6828942,1,2.2246275243386826,2.7670999354605446,1.573956197953981,0.3016011287616029,2.22316271753169,1.5454048550694497,1.5450255259898862,0.31276802921965646
1759676271.7801797,1,2.224591185236338,2.8020465755101864,1.574137288244345,0.2994947558780095,2.2234415342652327,1.556094078398064,1.5461010781965965,0.3130419003932382
1759676271.87098,1,2.2246792706462903,2.8312621627279952,1.5743105001976303,0.297722410822073,2.2250485006362695,1.6065524066092043,1.547678944209135,0.30486227136850796
1759676271.9665906,1,2.224472340933673,2.859135545839393,1.5744824605385457,0.3012749833219853,2.2257799183125933,1.6318369344191064,1.5479934282327854,0.30421142949961005
1759676272.0594847,1,2.224220711586919,2.889173078510969,1.5747698161795904,0.3091297960539472,2.226064307574666,1.6410380244468532,1.5487426206160428,0.30405856841888534
1759676272.1589725,1,2.2240025690633614,2.9172309142263577,1.574968996632154,0.3112658380166324,2.227411272722466,1.6930135908481823,1.5500864675412522,0.3052390160746586
1759676272.2566812,1,2.223902030196242,2.948048541524605,1.57506091169161,0.30845754795941244,2.228058985694466,1.7181581414153038,1.550628646737959,0.30533677153503574
1759676272.3749325,1,2.223820217422777,2.9836185363260577,1.574935855011252,0.3072581900703751,2.229285765114429,1.7636452821302593,1.5521522298281647,0.2972063991297434
1759676272.4976633,1,2.2237031550258592,3.0129844310568643,1.5747850522991396,0.30628751594834497,2.229817700467387,1.7853909566607966,1.5526227606849867,0.29645021786914977
1759676272.627613,1,2.2238605510987344,3.0484056409927938,1.5745441638121713,0.301516544248983,2.230696309463606,1.8381937401070498,1.554362349994362,0.3144692246136697
1759676272.7388258,1,2.2240578288129567,3.077057973891753,1.5743658599566568,0.297607438968018,2.231154966173365,1.863316870363561,1.5549346125230972,0.3160857406075204
1759676272.8541045,1,2.224237040284584,3.1124048914220515,1.5741523074141608,0.2969162299485791,2.2323374421051514,1.9097374533403972,1.5567251202111514,0.29452881169674616
1759676272.9536927,1,2.2241560726271583,3.1398289656691327,1.5740100673089086,0.29639296567622986,2.232860628785036,1.9318035453696896,1.5574949460110152,0.29272173519171973
1759676273.071919,1,2.2242185355572675,3.1743388734137628,1.5737644389114351,0.3037023297042192,2.233725701876486,1.9748389432270075,1.5589520187801515,0.2869012387891441
1759676273.1778486,1,2.2243791953675975,3.2105572156819053,1.573550834403089,0.2970476158414137,2.2341300152874073,1.994980276662191,1.5599117781012828,0.28637887278332697
1759676273.288783,1,2.2246080253656224,3.2416926735563214,1.5733952310347177,0.2916500363750689,2.234429458061387,2.0424393263781995,1.5608834889942838,0.3122613897261857
1759676273.3970902,1,2.2247818847768586,3.278977596642577,1.5733679128292346,0.295666080365177,2.2346291892495236,2.0649043244765233,1.5607064454151507,0.31455094064308375
1759676273.5030994,1,2.224601837586909,3.308079876485016,1.5733923955823925,0.29873016261312,2.235743433830659,2.1049846310617633,1.5615545832102624,0.2775911899402743
1759676273.596357,1,2.224722389422815,3.3431620598111778,1.5734026385257103,0.2954303470847997,2.236126125023312,2.1224099914063235,1.5622952292593766,0.27506486393412916
1759676273.6977344,1,2.2248839135718406,3.3737161048995357,1.5734380486164063,0.2926912490140551,2.236413464009955,2.130611406676269,1.5627159488914275,0.27379440814972544
1759676273.7991745,1,2.22503585439948,3.4087146478391452,1.5734281559920913,0.29430842426505294,2.2363770753979306,2.187391406010142,1.563189975178065,0.3236560849488084
1759676273.8984768,1,2.2248987224779513,3.4365131143057908,1.573438045500871,0.2955795038837332,2.2364549248752024,2.215081456053628,1.5629635465826706,0.32799280823389504
1759676273.9954827,1,2.224814599538152,3.4646055704984704,1.5734625029083102,0.29621555019162155,2.2363991979862177,2.225271160809358,1.5627932014999315,0.328927824958623
1759676274.0921197,1,2.224790308792453,3.4936336460594,1.573484887666574,0.29648495216121973,2.237726691393757,2.2727066392337876,1.5637629385310572,0.2823657380559541
1759676274.1846533,1,2.2248045197929893,3.527892466610874,1.5737333221053538,0.29971199295568146,2.2382517386849945,2.295298371334089,1.5642827859472994,0.27850363144608675
1759676274.296458,1,2.224739667686531,3.5564080428634828,1.5740396250790223,0.30294656607900317,2.2382520287982923,2.3433682388947257,1.5647662371233444,0.31896376195579107
1759676274.394351,1,2.224621977395439,3.5908052197238853,1.576142644613217,0.3039702710483052,2.2383171830604183,2.3656887002317646,1.5650044398532,0.32265121631053323
1759676274.5074112,1,2.224445024607652,3.6188362168187593,1.5782792358779694,0.30545621627697017,2.2390774939629225,2.4091161089807405,1.5644110619813039,0.29780557489618076
1759676274.5947278,1,2.223983441937184,3.6519081091754786,1.5845533728791026,0.30901846862513943,2.239450096878446,2.427692758292065,1.563156299653098,0.2959214152808239
1759676274.6940155,1,2.2232099829515515,3.67954749012098,1.5917419399473107,0.31209756546496586,2.239677527678019,2.4366016754847832,1.5635321308625934,0.2955523642333558
1759676274.7942438,1,2.2221489655549,3.7070286431914092,1.6007565092847191,0.31402687820737213,2.2406513297008104,2.4839373095637574,1.5603365374846894,0.2858295227179595
1759676274.8869765,1,2.220808058057201,3.7351564141711977,1.6148187341832512,0.31426765381875704,2.241169745080363,2.506220877584252,1.5572601651336822,0.28531094437295906
1759676274.9809518,1,2.219079943320734,3.7618845546274335,1.6284423022101935,0.31718621665270746,2.241410705678087,2.5148366418802657,1.555189729120386,0.2852770179534145
1759676275.0812173,1,2.2161597066829435,3.7921046032875023,1.6531157546846584,0.321578811796251,2.243258600159262,2.5654559131707506,1.545594880544644,0.28497884454189215
1759676275.1805992,1,2.2115680227546353,3.8254414863121258,1.6837952982823172,0.31961593334429783,2.244331558675564,2.59013848708089,1.5348574909931907,0.28476234020181107
1759676275.2921495,1,2.2071907842937146,3.854130548885493,1.7142883678327494,0.3175717294103878,2.2470966607481184,2.6362495549284657,1.5169153823203931,0.3122687271639802
1759676275.3962944,1,2.200841213057897,3.8859078227294175,1.7500769186140306,0.3095326439208277,2.2487853341576454,2.6577228851988486,1.500383700053668,0.31409379075232424
1759676275.5392792,1,2.195402097651649,3.911143601186618,1.7815060036886887,0.30294742967064636,2.254241629974211,2.7031645370655095,1.478720986454509,0.28201621741352845
1759676275.6501896,1,2.1865628740752068,3.941403282121555,1.8218611085299388,0.30434557437240656,2.257238267213359,2.7246244566796713,1.461444408847619,0.2786939403397529
1759676275.764925,1,2.179131028509575,3.9657416510558,1.8552273756509858,0.3053455337111785,2.263504538029878,2.7708682454880194,1.4433340741916691,0.30396867900184915
1759676275.8840902,1,2.167075602631007,3.997222724692182,1.900727138684834,0.31080936575489315,2.2667930131416334,2.7929960798775317,1.4295107782096415,0.30574909205069045
1759676275.9992795,1,2.151627349680163,4.030949391712778,1.9491304328396235,0.30999994627826505,2.2740489949922407,2.8379604149946602,1.4196733519835927,0.2926646157644646
1759676276.10952,1,2.1385493018204116,4.0584825576978085,1.991994889361748,0.3092705243763988,2.2776167768602833,2.859352277189631,1.4133688589070053,0.2912129887582157
1759676276.2242181,1,2.12205628776146,4.088256735696984,2.0383033585079047,0.30301310748451554,2.284315294512519,2.8991117193039164,1.4127966729836439,0.2618619625374425
1759676276.3356092,1,2.1083197527897557,4.112476068155601,2.0788584311025198,0.29805324911156905,2.28747526183194,2.918379956644061,1.4138895999779206,0.25897233878324816
1759676276.4541347,1,2.089388664707544,4.13975319458697,2.126849602408437,0.31035812636896204,2.2933503487117957,2.962443410156212,1.4207598624628508,0.28941430615256053
1759676276.5878348,1,2.07072145606117,4.16398527967835,2.169146233147319,0.3151730128662805,2.296048390687254,2.9838336671815937,1.4271411865013188,0.2923600958221178
1759676276.7061684,1,2.051096749567036,4.187262477009192,2.2152548598450466,0.3140799345144718,2.3018012880652288,3.0309433530213616,1.4408870808130563,0.2752458627810303
1759676276.815551,1,2.0313305680801452,4.208927637854495,2.257968786159877,0.3101644981857233,2.304302376292745,3.053310291774168,1.452814624866584,0.2741289534915849
1759676276.939736,1,2.0105216263857977,4.230668437951587,2.3047895796313,0.30401636015769706,2.308118771206278,3.0971824819223936,1.4688046805254713,0.2841205461304137
1759676277.0554829,1,1.9838705995569692,4.254043214894341,2.3582522657517364,0.31249555761329045,2.3097122660637366,3.117790403598906,1.4813909364312943,0.28462682871814166
1759676277.1716857,1,1.9621600156868757,4.272291730508173,2.4019268202570383,0.31907121369770486,2.3125206069322655,3.1599127175546045,1.5010029616065157,0.2699034044476742
1759676277.2841222,1,1.9350132945939422,4.291880522104246,2.4528727781611583,0.31840383718328025,2.3135547138393964,3.1801207231880184,1.516494844481576,0.26851086080424
1759676277.3811374,1,1.912891397506566,4.307525137122115,2.494726825270967,0.317625076467789,2.3148974333370513,3.2170745601367354,1.5367420130667417,0.2522748715787195
1759676277.4763827,1,1.8853098162992434,4.324230470018126,2.544033873566987,0.3181639187134575,2.3152189469130158,3.2344071176495452,1.5519653151175357,0.2507820800829116
1759676277.5750277,1,1.862913769456415,4.337491239360003,2.5846274070125435,0.31860348812952904,2.315210826553923,3.241268971224009,1.5611180783524372,0.25041260826918854
1759676277.6688082,1,1.83488269415497,4.350708374851429,2.6328437509759057,0.3196443588512343,2.314572872641542,3.28445732470442,1.5814753703726903,0.25690472688661625
1759676277.7631044,1,1.8119675134803157,4.36121137304821,2.6729027125883373,0.3199688667820619,2.31403195179765,3.3056282344813277,1.5984592138690132,0.2579623768736841
1759676277.8531067,1,1.7832065325981883,4.3723910096552245,2.722347930746286,0.3111575187816776,2.3136446772650143,3.313058930045492,1.607381826272536,0.25770208918466275
1759676277.9517558,1,1.7601691029863533,4.381311941318319,2.7633456660603324,0.3031534480768908,2.3106339914191074,3.3573123834926575,1.6346284835316345,0.25798593456987
1759676278.0456328,1,1.7310503607579135,4.3891883854156415,2.809164778723169,0.30954792437905315,2.308842553849382,3.378234174400555,1.6569994346956163,0.25825304020837214
1759676278.1347458,1,1.7070340452579245,4.395345844437696,2.8481432238876137,0.31455211765441654,2.3079748603570573,3.38569646721539,1.6697110744519639,0.25840312847626734
1759676278.2257516,1,1.676922075513113,4.401440353918795,2.8883396326526793,0.3069328380257859,2.303184897992551,3.424835921880465,1.6965555138901798,0.23814846649761603
1759676278.3291168,1,1.6525282451341672,4.406317256073525,2.922566237159518,0.300787484282411,2.300365119014501,3.4447228094311244,1.7200775152848842,0.23697729078739574
1759676278.4418294,1,1.6215719512041205,4.4106977628381205,2.9546698541222995,0.30140005400945097,2.29376382475685,3.4802011219845124,1.7513680326380823,0.23528526597164576
1759676278.5543013,1,1.596527247873381,4.413952075219232,2.980988690813777,0.30135979354153586,2.290154041586672,3.497190693836707,1.7753840357926711,0.23506902454719655
1759676278.675214,1,1.566456202410757,4.4167910710214935,3.0036162596547675,0.29988762323262874,2.282928100606474,3.529498336201874,1.802453317639494,0.21258814585073582
1759676278.7824671,1,1.5421429944140543,4.418996620113022,3.0219785616554824,0.2983629044613737,2.2792618662774213,3.544728080239915,1.8223709544724052,0.21078041229305025
1759676278.9046476,1,1.5101467499591397,4.420942385006914,3.0367524604294727,0.30456077830964196,2.2686528396518457,3.5796511491392096,1.8531403534438988,0.2349474142949378
1759676279.0195503,1,1.4798958316305555,4.422573601866706,3.048619848069991,0.3031113074335878,2.263326080385096,3.596141130072987,1.8781375342509385,0.23767959978491618
1759676279.1363294,1,1.4504797102099392,4.42419826554394,3.0581116409503686,0.2960822869711594,2.2512829020797467,3.629416266981825,1.9158860266966213,0.22429754559626314
1759676279.2393255,1,1.4137585029568422,4.425707898056544,3.066405788166756,0.30830481566308054,2.245236076668862,3.6449205832498976,1.9456331465952805,0.2228309499178891
1759676279.3528616,1,1.383692492945305,4.4264842786496414,3.0732100372710147,0.31848929802505954,2.2294790022932807,3.6787627888301286,1.9903782765606266,0.24213192755763355
