timestamp,vehicle_id,x,y,theta,velocity,gps_available,dt,gps_x,gps_y,gps_theta,gps_velocity,control_steering,control_acceleration
1759676242.7379866,1,-1.735,-0.35,-0.7801621756414647,0.0,False,0.01,nan,nan,nan,nan,0.0,0.0
1759676243.5507307,1,-1.73500001416623,-0.3499999055584658,-0.7229650665630665,0.0,True,0.1,-1.7350000143051147,-0.34999990463256836,-0.7177032232284546,0.0,0.0,0.0
1759676243.6551366,1,-1.7350000142586695,-0.3499999049422029,-0.7180977573906624,0.0,True,0.1,-1.7350000143051147,-0.34999990463256836,-0.7177032232284546,0.0,0.0,0.0
1759676243.739051,1,-1.7350000142876907,-0.34999990474872844,-0.7176979208526735,0.0,True,0.08391451835632324,-1.7350000143051147,-0.34999990463256836,-0.7177032232284546,0.0,0.0,0.0
1759676243.834945,1,-1.7350000142984767,-0.3499999046768224,-0.717672331741543,0.0,True,0.09589385986328125,-1.7350000143051147,-0.34999990463256836,-0.7177032232284546,0.0,0.0,0.0
1759676243.9380558,1,-1.73500001430258,-0.3499999046494655,-0.7176767260428978,0.0,True,0.1,-1.7350000143051147,-0.34999990463256836,-0.7177032232284546,0.0,0.0,0.0
1759676244.0310326,1,-1.7350000143041466,-0.34999990463902214,-0.7176822185862868,0.0,True,0.09297680854797363,-1.7350000143051147,-0.34999990463256836,-0.7177032232284546,0.0,0.0,0.0
1759676244.1295946,1,-1.735000014304745,-0.34999990463503344,-0.7176861073626313,0.0,True,0.09856200218200684,-1.7350000143051147,-0.34999990463256836,-0.7177032232284546,0.0,0.0,0.0
1759676244.2183623,1,-1.7350000143049735,-0.34999990463350994,-0.7176894662184203,0.0,True,0.08876776695251465,-1.7350000143051147,-0.34999990463256836,-0.7177032232284546,0.0,0.0,0.0
1759676244.3104203,1,-1.7350000143050608,-0.349999904632928,-0.7176919553923362,0.0,True,0.09205794334411621,-1.7350000143051147,-0.34999990463256836,-0.7177032232284546,0.0,0.0,0.0
1759676244.392318,1,-1.735000014305094,-0.34999990463270575,-0.7176941661640814,0.0,True,0.08189773559570312,-1.7350000143051147,-0.34999990463256836,-0.7177032232284546,0.0,0.0,0.0
1759676244.4725282,1,-1.7350000143051068,-0.3499999046326208,-0.7176959160955416,0.0,True,0.08021020889282227,-1.7350000143051147,-0.34999990463256836,-0.7177032232284546,0.0,0.0,0.0
1759676244.568224,1,-1.7350000143051116,-0.3499999046325884,-0.7176971859568333,0.0,True,0.09569573402404785,-1.7350000143051147,-0.34999990463256836,-0.7177032232284546,0.0,0.0,0.0
1759676244.655039,1,-1.7350000143051136,-0.349999904632576,-0.7176984345333608,0.0,True,0.08681511878967285,-1.7350000143051147,-0.34999990463256836,-0.7177032232284546,0.0,0.0,0.0
1759676244.7403114,1,-1.7350000143051143,-0.3499999046325713,-0.7176994877187308,0.0,True,0.08527231216430664,-1.7350000143051147,-0.34999990463256836,-0.7177032232284546,0.0,0.0,0.0
1759676244.835055,1,-1.7350000143051145,-0.34999990463256947,-0.7177003174423149,0.0,True,0.09474372863769531,-1.7350000143051147,-0.34999990463256836,-0.7177032232284546,0.0,0.0,0.0
1759676244.9285266,1,-1.7350000143051147,-0.3499999046325688,-0.7177010260108627,0.0,True,0.09347152709960938,-1.7350000143051147,-0.34999990463256836,-0.7177032232284546,0.0,0.0,0.0
1759676245.023818,1,-1.7350000143051147,-0.3499999046325685,-0.7177016009251744,0.0,True,0.0952913761138916,-1.7350000143051147,-0.34999990463256836,-0.7177032232284546,0.0,0.12114201865876595,-0.05
1759676245.1329567,1,-1.7370566288461868,-0.3482134550917569,-0.7162975392590418,0.018740857211326654,True,0.1,-1.739200234413147,-0.3463476598262787,-0.7143320441246033,0.018740857211326654,0.12114201865876595,-0.05
1759676245.2503219,1,-1.7378415420200986,-0.34753035372323254,-0.7152793860219404,0.018740857211326654,True,0.1,-1.739200234413147,-0.3463476598262787,-0.7143320441246033,0.018740857211326654,0.12473419614395453,-0.05
1759676245.365965,1,-1.7426545528845063,-0.34339269604786954,-0.7116920686086807,0.04917886054420689,True,0.1,-1.747923731803894,-0.3388422429561615,-0.707258403301239,0.04917886054420689,0.12473419614395453,-0.05
1759676245.4674373,1,-1.744488678906463,-0.34180730640387674,-0.7091429177983173,0.04917886054420689,True,0.1,-1.747923731803894,-0.3388422429561615,-0.707258403301239,0.04917886054420689,0.13232758054680716,-0.05
1759676245.579229,1,-1.7501102774499666,-0.33702095299126894,-0.7048266855033383,0.05247013212691915,True,0.1,-1.7560458183288574,-0.3319513201713562,-0.7004033923149109,0.05247013212691915,0.13232758054680716,-0.05
1759676245.6839614,1,-1.7522520852889887,-0.33518634700697697,-0.7017897841145402,0.05247013212691915,True,0.1,-1.7560458183288574,-0.3319513201713562,-0.7004033923149109,0.05247013212691915,0.13991917319991387,-0.05
1759676245.792925,1,-1.7582887022003721,-0.33011276027221714,-0.697061191040536,0.0494507524886547,True,0.1,-1.7643537521362305,-0.32500430941581726,-0.6930243968963623,0.0494507524886547,0.13991917319991387,-0.05
1759676245.900426,1,-1.7605889102445698,-0.3281681961026682,-0.6937792269576839,0.0494507524886547,True,0.1,-1.7643537521362305,-0.32500430941581726,-0.6930243968963623,0.0494507524886547,0.14837261100237242,-0.05
1759676246.0143263,1,-1.7666667122269806,-0.32313672264552706,-0.6887364142126877,0.04993141812984606,True,0.1,-1.7727957963943481,-0.31805408000946045,-0.6851295828819275,0.04993141812984606,0.14837261100237242,-0.05
1759676246.1268888,1,-1.7689822889413112,-0.321207695117533,-0.6852963895532795,0.04993141812984606,True,0.1,-1.7727957963943481,-0.31805408000946045,-0.6851295828819275,0.04993141812984606,0.15768876965697842,-0.05
1759676246.2494178,1,-1.7754887947172842,-0.3159132386953687,-0.6796883955344537,0.050084738401221726,True,0.1,-1.7819067239761353,-0.31068214774131775,-0.6760811805725098,0.050084738401221726,0.19194526940576395,-0.05
1759676246.3468657,1,-1.7780054737402606,-0.3138521788855468,-0.675977400861365,0.050084738401221726,True,0.09744787216186523,-1.7819067239761353,-0.31068214774131775,-0.6760811805725098,0.050084738401221726,0.20174905169555046,-0.05
1759676246.4533482,1,-1.7839290643383696,-0.3091218415650778,-0.6692453397546902,0.05126920247359678,True,0.1,-1.7900614738464355,-0.30421537160873413,-0.6652803421020508,0.05126920247359678,0.33797590538803135,-0.05
1759676246.571382,1,-1.7861837357278456,-0.3073050528070194,-0.6648407847822853,0.05126920247359678,True,0.1,-1.7900614738464355,-0.30421537160873413,-0.6652803421020508,0.05126920247359678,0.3482366421796854,-0.05
1759676246.6879108,1,-1.7927590408120357,-0.3022141285966416,-0.6541838152267268,0.049348346846346314,True,0.1,-1.799222707748413,-0.29718565940856934,-0.6452019810676575,0.049348346846346314,0.48992488623173713,-0.05
1759676246.8109622,1,-1.7952586760487632,-0.3002542224550784,-0.6468196143749942,0.049348346846346314,True,0.1,-1.799222707748413,-0.29718565940856934,-0.6452019810676575,0.049348346846346314,0.5139091527129054,-0.05
1759676246.9220433,1,-1.8020381385399298,-0.2952461122268404,-0.6306709351948658,0.04980627773216673,True,0.1,-1.8086843490600586,-0.29029566049575806,-0.6156758069992065,0.04980627773216673,0.6,-0.05
1759676247.0381463,1,-1.8046098234787689,-0.29330917558561154,-0.6194367625935477,0.04980627773216673,True,0.1,-1.8086843490600586,-0.29029566049575806,-0.6156758069992065,0.04980627773216673,0.6,-0.05
1759676247.1289072,1,-1.8111249553937305,-0.28876279047035364,-0.6011399449142729,0.0478137803914358,True,0.09076094627380371,-1.8173357248306274,-0.2843964993953705,-0.5842644572257996,0.0478137803914358,0.6,-0.05
1759676247.220413,1,-1.8135853766147692,-0.28700972222077886,-0.5882715339072391,0.0478137803914358,True,0.09150576591491699,-1.8173357248306274,-0.2843964993953705,-0.5842644572257996,0.0478137803914358,0.6,-0.05
1759676247.2993505,1,-1.814704306521727,-0.2861952719443542,-0.5811172341693052,0.0478137803914358,True,0.07893753051757812,-1.8173357248306274,-0.2843964993953705,-0.5842644572257996,0.0478137803914358,0.6,-0.05
1759676247.382978,1,-1.8216624686261265,-0.28174637956387527,-0.5624565925910385,0.05131790383902635,True,0.08362746238708496,-1.8281803131103516,-0.27754154801368713,-0.5457783937454224,0.05131790383902635,0.6,-0.05
1759676247.4765537,1,-1.8241392380482293,-0.2801260961005765,-0.5483150750320007,0.05131790383902635,True,0.09357571601867676,-1.8281803131103516,-0.27754154801368713,-0.5457783937454224,0.05131790383902635,0.6,-0.016557634131429744
1759676247.5677402,1,-1.8251119829975264,-0.2794614370726633,-0.539804140371924,0.05131790383902635,True,0.0911865234375,-1.8281803131103516,-0.27754154801368713,-0.5457783937454224,0.05131790383902635,0.6,-0.016557634131429744
1759676247.6595936,1,-1.830199922369033,-0.2763954685838284,-0.5272071242163481,0.02672654287315861,True,0.09185338020324707,-1.834646224975586,-0.27372127771377563,-0.5232499837875366,0.02672654287315861,0.6,-0.016557634131429744
1759676247.7466722,1,-1.8321796279625013,-0.27518995608662145,-0.5188993875735051,0.02672654287315861,True,0.08707857131958008,-1.834646224975586,-0.27372127771377563,-0.5232499837875366,0.02672654287315861,0.6,0.03651973925149659
1759676247.8359501,1,-1.832912763306733,-0.2747344758124087,-0.5140066993465542,0.02672654287315861,True,0.08927798271179199,-1.834646224975586,-0.27372127771377563,-0.5232499837875366,0.02672654287315861,0.6,0.0715108452986869
1759676247.9319575,1,-1.828089861819326,-0.2775984938208798,-0.5214956268504203,0.03417479933964112,True,0.0960073471069336,-1.8268733024597168,-0.2783687114715576,-0.5504228472709656,0.03417479933964112,0.6,0.0715108452986869
1759676248.0286274,1,-1.826244847727631,-0.2787049290796924,-0.528845331681536,0.03417479933964112,True,0.09666991233825684,-1.8268733024597168,-0.2783687114715576,-0.5504228472709656,0.03417479933964112,0.6,0.059170141701970595
1759676248.1427958,1,-1.817353570596426,-0.28435818420217507,-0.5496761647590418,0.06682177449668042,True,0.1,-1.8154163360595703,-0.2857551574707031,-0.5913245677947998,0.06682177449668042,0.6,0.10400473190768829
1759676248.261038,1,-1.8139842695320043,-0.2865620737433459,-0.5665730539791305,0.06682177449668042,True,0.1,-1.8154163360595703,-0.2857551574707031,-0.5913245677947998,0.06682177449668042,0.5587324623934435,0.11876764053169181
1759676248.3895772,1,-1.797359429094234,-0.2986583711526457,-0.6084040045513692,0.11196322932435465,True,0.1,-1.7928987741470337,-0.3023817837238312,-0.6720901131629944,0.11196322932435465,0.5587324623934435,0.11876764053169181
1759676248.4930038,1,-1.7911043901259114,-0.30341977127478,-0.641157780054403,0.11196322932435465,True,0.1,-1.7928987741470337,-0.3023817837238312,-0.6720901131629944,0.11196322932435465,0.3332092541957614,0.12050344038714506
1759676248.612902,1,-1.7763415633704667,-0.31600154090174204,-0.6842262397186296,0.11303468152799524,True,0.1,-1.7727935314178467,-0.3195686340332031,-0.7298411726951599,0.11303468152799524,0.3332092541957614,0.12050344038714506
1759676248.726175,1,-1.770812487754606,-0.32094671995480945,-0.7147350696913541,0.11303468152799524,True,0.1,-1.7727935314178467,-0.3195686340332031,-0.7298411726951599,0.11303468152799524,0.1648654399936582,0.13741734592367771
1759676248.8343756,1,-1.7554135488244864,-0.3354074933937008,-0.7464823399839275,0.13024274156184676,True,0.1,-1.751956582069397,-0.3390466272830963,-0.7646523714065552,0.13024274156184676,0.1648654399936582,0.13741734592367771
1759676248.939036,1,-1.7496323052866787,-0.34104262739939667,-0.7676910884847583,0.13024274156184676,True,0.1,-1.751956582069397,-0.3390466272830963,-0.7646523714065552,0.13024274156184676,0.05291255423389174,0.14749290535818205
1759676249.049369,1,-1.7331982625352769,-0.35728532369569305,-0.7856974192777848,0.15273112050280885,True,0.1,-1.729820728302002,-0.3607555627822876,-0.7809072732925415,0.15273112050280885,0.05291255423389174,0.14749290535818205
1759676249.1285686,1,-1.72784702329086,-0.36270040614446697,-0.7945443504488523,0.15273112050280885,True,0.07919955253601074,-1.729820728302002,-0.3607555627822876,-0.7809072732925415,0.15273112050280885,-0.013316774555516275,0.15655406831394544
1759676249.2110395,1,-1.7256972048364525,-0.3649325443095772,-0.7992045025537102,0.15273112050280885,True,0.08247089385986328,-1.729820728302002,-0.3607555627822876,-0.7809072732925415,0.15273112050280885,-0.013316774555516275,0.15655406831394544
1759676249.293816,1,-1.7078757999653968,-0.3827248001538351,-0.8013931258813063,0.15479093814381967,True,0.08277654647827148,-1.702383279800415,-0.3880447745323181,-0.7815782427787781,0.15479093814381967,-0.035412730478160626,0.20523635680042668
1759676249.3772597,1,-1.7010481794064964,-0.3895559559003411,-0.801554749148945,0.15479093814381967,True,0.08344364166259766,-1.702383279800415,-0.3880447745323181,-0.7815782427787781,0.15479093814381967,-0.038830202814033044,0.16289641444104885
1759676249.4724436,1,-1.6979570609055274,-0.3926635693896292,-0.8010712647952296,0.15479093814381967,True,0.0951838493347168,-1.702383279800415,-0.3880447745323181,-0.7815782427787781,0.15479093814381967,-0.05781344916757192,0.21490979641806324
1759676249.5629668,1,-1.6732133273912078,-0.41700735278464085,-0.794715042328626,0.19492770432243692,True,0.09052324295043945,-1.6655181646347046,-0.42422887682914734,-0.7699570059776306,0.19492770432243692,-0.05781344916757192,0.21490979641806324
1759676249.645716,1,-1.66413812448977,-0.4258640382017266,-0.78857351512967,0.19492770432243692,True,0.0827491283416748,-1.6655181646347046,-0.42422887682914734,-0.7699570059776306,0.19492770432243692,-0.03789681256886901,0.14620901959415122
1759676249.7366235,1,-1.6602163115421749,-0.42965094063677844,-0.7840890298646457,0.19492770432243692,True,0.09090757369995117,-1.6655181646347046,-0.42422887682914734,-0.7699570059776306,0.19492770432243692,-0.05340804726166759,0.19213393824856215
1759676249.831813,1,-1.636962467866486,-0.45185082231789736,-0.7756192268582538,0.17486644238214796,True,0.09518957138061523,-1.6298828125,-0.4583144783973694,-0.757423996925354,0.17486644238214796,-0.05340804726166759,0.19213393824856215
1759676249.928053,1,-1.6279932149676664,-0.4603420569696639,-0.7689298867608905,0.17486644238214796,True,0.09623980522155762,-1.6298828125,-0.4583144783973694,-0.757423996925354,0.17486644238214796,-0.04733513472784878,0.20322554710811896
1759676250.0164473,1,-1.6249150290969128,-0.4631913940855127,-0.7642254803490545,0.17486644238214796,True,0.0883944034576416,-1.6298828125,-0.4583144783973694,-0.757423996925354,0.17486644238214796,-0.04733513472784878,0.20322554710811896
1759676250.1274054,1,-1.5950563271487173,-0.49096742556640216,-0.7554589779342944,0.21278812959679022,True,0.1,-1.5861085653305054,-0.4990462064743042,-0.7425761222839355,0.21278812959679022,-0.061142809639939344,0.2543418509984799
1759676250.220333,1,-1.584023512519584,-0.5011340281800188,-0.74877494506765,0.21278812959679022,True,0.09292769432067871,-1.5861085653305054,-0.4990462064743042,-0.7425761222839355,0.21278812959679022,-0.03490058122593176,0.17813763977946187
1759676250.3034873,1,-1.5803576522073346,-0.5044405977742206,-0.7449040242168188,0.21278812959679022,True,0.08315420150756836,-1.5861085653305054,-0.4990462064743042,-0.7425761222839355,0.21278812959679022,-0.05963405809798594,0.22954323272441704
1759676250.4077911,1,-1.549643169402033,-0.5321155726904631,-0.7359346008957814,0.21814025368900364,True,0.1,-1.5405839681625366,-0.5400935411453247,-0.7260550856590271,0.21814025368900364,-0.05963405809798594,0.22954323272441704
1759676250.5017626,1,-1.5382345473413626,-0.5422954805463926,-0.7296911593090716,0.21814025368900364,True,0.09397149085998535,-1.5405839681625366,-0.5400935411453247,-0.7260550856590271,0.21814025368900364,-0.07079145995225922,0.21221664633066598
1759676250.5955377,1,-1.5338574633040734,-0.5461377784782143,-0.7257700743408364,0.21814025368900364,True,0.09377503395080566,-1.5405839681625366,-0.5400935411453247,-0.7260550856590271,0.21814025368900364,-0.07079145995225922,0.21221664633066598
1759676250.6952887,1,-1.5018482494103538,-0.5738977586899683,-0.7153517839225128,0.21636220239704676,True,0.09975099563598633,-1.4920613765716553,-0.5822225213050842,-0.7036527395248413,0.21636220239704676,-0.12964797611438605,0.2668838337143874
1759676250.787207,1,-1.4900579543223027,-0.58401653991883,-0.7074999051813364,0.21636220239704676,True,0.0919182300567627,-1.4920613765716553,-0.5822225213050842,-0.7036527395248413,0.21636220239704676,-0.09338196897061657,0.19977262315779593
1759676250.8825407,1,-1.485299069547922,-0.5880174655814563,-0.7033835135114863,0.21636220239704676,True,0.09533381462097168,-1.4920613765716553,-0.5822225213050842,-0.7036527395248413,0.21636220239704676,-0.1632439817211715,0.25547306999016794
1759676250.974801,1,-1.4509149381568613,-0.6159202220743464,-0.6841577149881406,0.23830920981036566,True,0.09226036071777344,-1.4400560855865479,-0.624409556388855,-0.6593331098556519,0.23830920981036566,-0.1632439817211715,0.25547306999016794
1759676251.0704594,1,-1.4374442212343534,-0.6266557602766669,-0.6691636965164953,0.23830920981036566,True,0.0956583023071289,-1.4400560855865479,-0.624409556388855,-0.6593331098556519,0.23830920981036566,-0.08470646329807252,0.17763705897245977
1759676251.1899996,1,-1.409677833764528,-0.6474778557876665,-0.6491042782456162,0.22506048789643532,True,0.1,-1.4034548997879028,-0.651753306388855,-0.6300268173217773,0.22506048789643532,-0.15092379452475235,0.22943998170657817
1759676251.3001094,1,-1.3989687752519895,-0.655297071852736,-0.6352068432198035,0.22506048789643532,True,0.1,-1.4034548997879028,-0.651753306388855,-0.6300268173217773,0.22506048789643532,-0.16747153229552048,0.2430062086736609
1759676251.425626,1,-1.3669235073308537,-0.6775171736266912,-0.6095771356141633,0.22067022626745514,True,0.1,-1.3581275939941406,-0.6832000017166138,-0.5858587622642517,0.22067022626745514,-0.16747153229552048,0.2430062086736609
1759676251.5318353,1,-1.3545620094932536,-0.685834190127627,-0.5918190129434073,0.22067022626745514,True,0.1,-1.3581275939941406,-0.6832000017166138,-0.5858587622642517,0.22067022626745514,-0.1535072089863707,0.24703570751833864
1759676251.6623895,1,-1.3183116811034448,-0.7086318314315975,-0.5633492289870361,0.24836342479629214,True,0.1,-1.3086822032928467,-0.7142108678817749,-0.5393284559249878,0.24836342479629214,-0.1535072089863707,0.24703570751833864
1759676251.7778096,1,-1.3043240328249532,-0.7171212446424188,-0.5436276453714157,0.24836342479629214,True,0.1,-1.3086822032928467,-0.7142108678817749,-0.5393284559249878,0.24836342479629214,-0.12653122515794024,0.23248009658215174
1759676251.8930168,1,-1.2690861161044587,-0.7371628546845751,-0.5171653012461181,0.25221874937034594,True,0.1,-1.2606784105300903,-0.7415356040000916,-0.5007981061935425,0.25221874937034594,-0.12653122515794024,0.23248009658215174
1759676252.0111814,1,-1.2555025668877584,-0.7446052308237762,-0.4996060440273329,0.25221874937034594,True,0.1,-1.2606784105300903,-0.7415356040000916,-0.5007981061935425,0.25221874937034594,-0.11491555019611965,0.23002007235365837
1759676252.1297805,1,-1.2207456977215967,-0.7627059318045983,-0.4767073736396412,0.22263136619532625,True,0.1,-1.2113664150238037,-0.7673449516296387,-0.46642372012138367,0.22263136619532625,-0.16866194759155384,0.2864790269751822
1759676252.2376976,1,-1.2073839089206364,-0.7694568557576894,-0.4611678660181262,0.22263136619532625,True,0.1,-1.2113664150238037,-0.7673449516296387,-0.46642372012138367,0.22263136619532625,-0.10894619546247952,0.23657416566295367
1759676252.3565958,1,-1.1676512234941954,-0.7882865371382298,-0.43768483482804754,0.27036010180336933,True,0.1,-1.1580885648727417,-0.7925484776496887,-0.4247829020023346,0.27036010180336933,-0.16894923769999792,0.30166435204110553
1759676252.4662158,1,-1.15237654966264,-0.7952735445828768,-0.4208990205075498,0.27036010180336933,True,0.1,-1.1580885648727417,-0.7925484776496887,-0.4247829020023346,0.27036010180336933,-0.0944226674779749,0.2224609382539433
1759676252.5931566,1,-1.1114995956579459,-0.8125186101501289,-0.3960812849914248,0.26317014672437744,True,0.1,-1.1011065244674683,-0.816586971282959,-0.3826502859592438,0.26317014672437744,-0.13972991297743143,0.2745594240468893
1759676252.706969,1,-1.0957914263582604,-0.818885106615762,-0.3792872897575279,0.26317014672437744,True,0.1,-1.1011065244674683,-0.816586971282959,-0.3826502859592438,0.26317014672437744,-0.1184792705566533,0.2792006603888697
1759676252.825887,1,-1.0517736506066102,-0.8354102779137527,-0.3539734656371003,0.27674404585716583,True,0.1,-1.0404802560806274,-0.8393480777740479,-0.3411203622817993,0.27674404585716583,-0.1184792705566533,0.2792006603888697
1759676252.9348261,1,-1.0348694276209291,-0.8414832516149706,-0.33697171101298196,0.27674404585716583,True,0.1,-1.0404802560806274,-0.8393480777740479,-0.3411203622817993,0.27674404585716583,-0.08557189852191804,0.26540308345764685
1759676253.0588531,1,-0.9916091342111393,-0.8559042677768789,-0.31531733928522065,0.2697152247718799,True,0.1,-0.9806205630302429,-0.8593509197235107,-0.30929410457611084,0.2697152247718799,-0.08557189852191804,0.26540308345764685
1759676253.1562185,1,-0.9752754822361595,-0.8611264953541031,-0.3016295345578115,0.2697152247718799,True,0.0973653793334961,-0.9806205630302429,-0.8593509197235107,-0.30929410457611084,0.2697152247718799,-0.06731577134375044,0.2626131051317848
1759676253.2575748,1,-0.9376444051179144,-0.8726080051730717,-0.28635086225150275,0.26068158895191423,True,0.1,-0.9297807812690735,-0.8749498724937439,-0.28908807039260864,0.26068158895191423,-0.06731577134375044,0.2626131051317848
1759676253.3502634,1,-0.923927292270522,-0.876649322893964,-0.2777708724971575,0.26068158895191423,True,0.09268856048583984,-0.9297807812690735,-0.8749498724937439,-0.28908807039260864,0.26068158895191423,-0.06701868452316795,0.2713838516921384
1759676253.4390645,1,-0.9190393329857524,-0.8780149406801148,-0.27379505667533977,0.26068158895191423,True,0.08880114555358887,-0.9297807812690735,-0.8749498724937439,-0.28908807039260864,0.26068158895191423,-0.06701868452316795,0.2713838516921384
1759676253.5394034,1,-0.8704412123835896,-0.8916943897375459,-0.26235218852992404,0.2708822536491568,True,0.1,-0.8565335869789124,-0.8956570029258728,-0.26287728548049927,0.2708822536491568,-0.10054192113956617,0.3344499508500229
1759676253.6247053,1,-0.8533191335004281,-0.896422439665121,-0.25520685616777605,0.2708822536491568,True,0.08530187606811523,-0.8565335869789124,-0.8956570029258728,-0.26287728548049927,0.2708822536491568,-0.05496934607060666,0.24802421776434333
1759676253.726031,1,-0.845290655921045,-0.8985481275790019,-0.2513782366056656,0.2708822536491568,True,0.1,-0.8565335869789124,-0.8956570029258728,-0.26287728548049927,0.2708822536491568,-0.08473002760185366,0.30638450929685285
1759676253.8175492,1,-0.7943221022449916,-0.9112856360151598,-0.23801563779502644,0.2862107494111685,True,0.09151816368103027,-0.7785100340843201,-0.9151644706726074,-0.2305602729320526,0.2862107494111685,-0.08473002760185366,0.30638450929685285
1759676253.9107413,1,-0.7746453145496621,-0.916070170280116,-0.22854353635360525,0.2862107494111685,True,0.09319210052490234,-0.7785100340843201,-0.9151644706726074,-0.2305602729320526,0.2862107494111685,-0.05823650367068467,0.27999101582057895
1759676253.998408,1,-0.7676967436456481,-0.9176717333456023,-0.2234989824390503,0.2862107494111685,True,0.08766674995422363,-0.7785100340843201,-0.9151644706726074,-0.2305602729320526,0.2862107494111685,-0.05823650367068467,0.27999101582057895
1759676254.102948,1,-0.7133124923775133,-0.929512618829523,-0.20998028633656673,0.2950866814287661,True,0.1,-0.6974926590919495,-0.9328224658966064,-0.20273391902446747,0.2950866814287661,-0.05823650367068467,0.27999101582057895
1759676254.2204754,1,-0.6925085921225299,-0.9338937030694516,-0.20051802760049853,0.2950866814287661,True,0.1,-0.6974926590919495,-0.9328224658966064,-0.20273391902446747,0.2950866814287661,-0.03453761499180885,0.2495558270708503
1759676254.3393378,1,-0.6473381087702058,-0.9427572196467465,-0.18977840305461413,0.26811825305636644,True,0.1,-0.635665237903595,-0.9449613094329834,-0.1877143830060959,0.26811825305636644,-0.06037550651292811,0.3156024035129058
1759676254.4445949,1,-0.6300645940346697,-0.9460412156354308,-0.18268116621513997,0.26811825305636644,True,0.1,-0.635665237903595,-0.9449613094329834,-0.1877143830060959,0.26811825305636644,-0.033624615319762796,0.2554441192693033
1759676254.568,1,-0.5832904105180255,-0.9544549367417583,-0.17325697587638444,0.27924057621571674,True,0.1,-0.5713578462600708,-0.9565446972846985,-0.1719527393579483,0.27924057621571674,-0.0542875682957753,0.3183807090141192
1759676254.6778548,1,-0.5654077407033913,-0.9575761737876815,-0.16690769619853185,0.27924057621571674,True,0.1,-0.5713578462600708,-0.9565446972846985,-0.1719527393579483,0.27924057621571674,-0.025615628422238856,0.24305088683429646
1759676254.7963831,1,-0.5189742156615068,-0.9652385919663687,-0.15885993841728308,0.292680865044151,True,0.1,-0.5081177949905396,-0.9669914841651917,-0.15864098072052002,0.292680865044151,-0.04407340847483354,0.3094680569493486
1759676254.906532,1,-0.5012242888247193,-0.9680801970483711,-0.15370588228116766,0.292680865044151,True,0.1,-0.5081177949905396,-0.9669914841651917,-0.15864098072052002,0.292680865044151,-0.03790789932428318,0.2988272447973608
1759676255.024227,1,-0.4516166852724518,-0.9756067175216958,-0.14564743061384,0.2980500348911557,True,0.1,-0.4391641914844513,-0.9774597883224487,-0.14441563189029694,0.2980500348911557,-0.03790789932428318,0.2988272447973608
1759676255.131429,1,-0.4326552309508799,-0.9783945211187466,-0.14048821982083837,0.2980500348911557,True,0.1,-0.4391641914844513,-0.9774597883224487,-0.14441563189029694,0.2980500348911557,-0.03219569858359428,0.28763268000970427
1759676255.2181957,1,-0.4268965763175839,-0.9791945082637755,-0.13820659810832225,0.2980500348911557,True,0.08676671981811523,-0.4391641914844513,-0.9774597883224487,-0.14441563189029694,0.2980500348911557,-0.03219569858359428,0.28763268000970427
1759676255.32074,1,-0.3707433752486709,-0.9868749735163053,-0.13135275435900873,0.29011228088460184,True,0.1,-0.3538002073764801,-0.9891692996025085,-0.1296621561050415,0.29011228088460184,-0.03219569858359428,0.28763268000970427
1759676255.406093,1,-0.3508944119579173,-0.9895258984171841,-0.12717674172862203,0.29011228088460184,True,0.08535289764404297,-0.3538002073764801,-0.9891692996025085,-0.1296621561050415,0.29011228088460184,-0.023983064236533735,0.25706195652573993
1759676255.504529,1,-0.34186934327148355,-0.9906809038308954,-0.12483703504264199,0.29011228088460184,True,0.09843611717224121,-0.3538002073764801,-0.9891692996025085,-0.1296621561050415,0.29011228088460184,-0.04440576826949716,0.32470493444585535
1759676255.6006026,1,-0.2888251005437404,-0.9972176196328546,-0.11842036732949168,0.28939340371951744,True,0.09607362747192383,-0.2730938196182251,-0.9991366267204285,-0.11562058329582214,0.28939340371951744,-0.04440576826949716,0.32470493444585535
1759676255.691337,1,-0.2691425099134188,-0.9995825438230568,-0.11400483193391153,0.28939340371951744,True,0.09073448181152344,-0.2730938196182251,-0.9991366267204285,-0.11562058329582214,0.28939340371951744,-0.019446519595247125,0.23563052877353127
1759676255.7902029,1,-0.2607262093762894,-1.0005429942952502,-0.11169758183485357,0.28939340371951744,True,0.09886574745178223,-0.2730938196182251,-0.9991366267204285,-0.11562058329582214,0.28939340371951744,-0.03715552459826377,0.2973954175342392
1759676255.8889902,1,-0.20667219665785658,-1.0063752105372252,-0.10504324813447141,0.2927121224196423,True,0.09878730773925781,-0.19102691113948822,-1.00800621509552,-0.10121887177228928,0.2927121224196423,-0.03715552459826377,0.2973954175342392
1759676255.9947221,1,-0.1858830400600862,-1.0085473999562637,-0.10038438637581315,0.2927121224196423,True,0.1,-0.19102691113948822,-1.00800621509552,-0.10121887177228928,0.2927121224196423,-0.025709624845950074,0.26646307196800484
1759676256.1019022,1,-0.14143630369825902,-1.0128222231489734,-0.09419491258134727,0.2766954965335313,True,0.1,-0.13098302483558655,-1.013767123222351,-0.09158117324113846,0.2766954965335313,-0.03678731276438896,0.3336163336916308
1759676256.2030995,1,-0.12445324901442346,-1.0143939478696018,-0.08995442687155553,0.2766954965335313,True,0.1,-0.13098302483558655,-1.013767123222351,-0.09158117324113846,0.2766954965335313,-0.019372347671488654,0.27260710297397994
1759676256.3062353,1,-0.07843905788580147,-1.0183634445680565,-0.08434372734545903,0.30697725988798596,True,0.1,-0.0688975527882576,-1.0191267728805542,-0.08274243026971817,0.30697725988798596,-0.02079057093363268,0.3391765892888223
1759676256.4021022,1,-0.0613408269150493,-1.0197780280707605,-0.08064064868724863,0.30697725988798596,True,0.09586691856384277,-0.0688975527882576,-1.0191267728805542,-0.08274243026971817,0.30697725988798596,-0.0038528638872943333,0.2606795393564476
1759676256.5049708,1,-0.018298612325133676,-1.0232051834517302,-0.0771842315682214,0.2913761582529669,True,0.1,-0.009647083468735218,-1.0238789319992065,-0.07894790172576904,0.2913761582529669,-0.0038528638872943333,0.2606795393564476
1759676256.6019878,1,-0.0021862851414412854,-1.0244548559197866,-0.07499104361994746,0.2913761582529669,True,0.09701704978942871,-0.009647083468735218,-1.0238789319992065,-0.07894790172576904,0.2913761582529669,0.020787286316444664,0.26529153396246546
1759676256.7001727,1,0.0040993849627990395,-1.0249195893714624,-0.07410621523521321,0.2913761582529669,True,0.09818482398986816,-0.009647083468735218,-1.0238789319992065,-0.07894790172576904,0.2913761582529669,0.020787286316444664,0.26529153396246546
1759676256.800878,1,0.054002612664926924,-1.0289388873241156,-0.07579799932571873,0.26492896950348777,True,0.1,0.0685168132185936,-1.0301988124847412,-0.08461166173219681,0.26492896950348777,0.0502732414091156,0.3291754179593005
1759676256.8955743,1,0.07252732001185072,-1.0304528340399872,-0.07746744764883928,0.26492896950348777,True,0.0946962833404541,0.0685168132185936,-1.0301988124847412,-0.08461166173219681,0.26492896950348777,0.0788886687265773,0.315156292576721
1759676256.983356,1,0.078904367692727,-1.0309916450412684,-0.07912454982973216,0.26492896950348777,True,0.08778166770935059,0.0685168132185936,-1.0301988124847412,-0.08461166173219681,0.26492896950348777,0.0788886687265773,0.315156292576721
1759676257.0863867,1,0.14095228568650328,-1.037138460245803,-0.09217948200946147,0.32374676834022564,True,0.1,0.1593574732542038,-1.0393115282058716,-0.116410031914711,0.32374676834022564,0.0788886687265773,0.315156292576721
1759676257.189473,1,0.16463890726024194,-1.0396408074718726,-0.10291376878494596,0.32374676834022564,True,0.1,0.1593574732542038,-1.0393115282058716,-0.116410031914711,0.32374676834022564,0.05536026648456982,0.26519910711939015
1759676257.3191786,1,0.21340879460338152,-1.0459451487551772,-0.11866650846130966,0.28685532258077495,True,0.1,0.22591954469680786,-1.0479799509048462,-0.13896363973617554,0.28685532258077495,0.07237968433124564,0.3247415259866287
1759676257.425401,1,0.23201889377256837,-1.048515161461345,-0.13040919213557167,0.28685532258077495,True,0.1,0.22591954469680786,-1.0479799509048462,-0.13896363973617554,0.28685532258077495,0.0309104904477131,0.26364044059992214
1759676257.5452356,1,0.2804328224636077,-1.0558617212318209,-0.1442334350552077,0.30393488942503016,True,0.1,0.29173362255096436,-1.057928442955017,-0.15623986721038818,0.30393488942503016,0.03544755069425065,0.3252323993231274
1759676257.659761,1,0.29890438370310857,-1.05881769220257,-0.15399384115339387,0.30393488942503016,True,0.1,0.29173362255096436,-1.057928442955017,-0.15623986721038818,0.30393488942503016,0.0019370057361172144,0.2473505653983201
1759676257.7711515,1,0.34445674809032883,-1.0663242061129292,-0.16221152948902784,0.276940809048151,True,0.1,0.35569795966148376,-1.06832754611969,-0.16263805329799652,0.276940809048151,-0.007352630916006575,0.31241523444688607
1759676257.8867638,1,0.36184322416290565,-1.069272610670668,-0.16725975654528646,0.276940809048151,True,0.1,0.35569795966148376,-1.06832754611969,-0.16263805329799652,0.276940809048151,-0.021452475421344985,0.2514295737868401
1759676258.0012727,1,0.40918186296468007,-1.07704894323181,-0.1681255562567774,0.2985703790382994,True,0.1,0.42024222016334534,-1.0787911415100098,-0.15770630538463593,0.2985703790382994,-0.04055697877156916,0.31264626234618453
1759676258.105018,1,0.42726204082529884,-1.0800285626460324,-0.1675240016917563,0.2985703790382994,True,0.1,0.42024222016334534,-1.0787911415100098,-0.15770630538463593,0.2985703790382994,-0.033502724662628935,0.2353646081256732
1759676258.2274525,1,0.47068869403879676,-1.0866951626654389,-0.1620955470591543,0.2644218936644958,True,0.1,0.4814114272594452,-1.0881083011627197,-0.14584235846996307,0.2644218936644958,-0.05514747695995226,0.29219332936490994
1759676258.3395467,1,0.48728512861517026,-1.0891875313787822,-0.15743345014763221,0.2644218936644958,True,0.1,0.4814114272594452,-1.0881083011627197,-0.14584235846996307,0.2644218936644958,-0.060960188341692145,0.3018859308610969
1759676258.4475665,1,0.5347622658554735,-1.0957330579588431,-0.14660724747135312,0.2974164189513816,True,0.1,0.5459457635879517,-1.0969277620315552,-0.12688660621643066,0.2974164189513816,-0.060960188341692145,0.3018859308610969
1759676258.5555274,1,0.5529147521402092,-1.098115584706872,-0.13822917321539663,0.2974164189513816,True,0.1,0.5459457635879517,-1.0969277620315552,-0.12688660621643066,0.2974164189513816,-0.049768198048157686,0.2760002735431429
1759676258.651594,1,0.5956660027214643,-1.103140928870713,-0.12628431347402014,0.2923804514378045,True,0.09606647491455078,0.6048900485038757,-1.103883147239685,-0.11032035946846008,0.2923804514378045,-0.049768198048157686,0.2760002735431429
1759676258.7568977,1,0.6124477138574494,-1.1049910698622538,-0.11774325657990836,0.2923804514378045,True,0.1,0.6048900485038757,-1.103883147239685,-0.11032035946846008,0.2923804514378045,-0.049636344757532314,0.27321031113429295
1759676258.861521,1,0.6537641139380823,-1.1091863413254521,-0.10670400376234568,0.28257943796394197,True,0.1,0.6619523763656616,-1.1097548007965088,-0.09606592357158661,0.28257943796394197,-0.049636344757532314,0.27321031113429295
1759676258.956814,1,0.6690532637460107,-1.1106191533223866,-0.09946639355185738,0.28257943796394197,True,0.09529304504394531,0.6619523763656616,-1.1097548007965088,-0.09606592357158661,0.28257943796394197,-0.06273033228010227,0.2749344009183524
1759676259.0756845,1,0.7111588735194919,-1.1142674409403546,-0.0883680627349861,0.2689911558887638,True,0.1,0.7206363677978516,-1.1148993968963623,-0.07925133407115936,0.2689911558887638,-0.06273033228010227,0.2749344009183524
1759676259.1755078,1,0.7272340594416659,-1.1155473689964746,-0.08101940916427353,0.2689911558887638,True,0.0998232364654541,0.7206363677978516,-1.1148993968963623,-0.07925133407115936,0.2689911558887638,-0.07795520367573872,0.2745108587047876
1759676259.2634714,1,0.732165531236862,-1.1158678367475772,-0.07686839422070335,0.2689911558887638,True,0.08796358108520508,0.7206363677978516,-1.1148993968963623,-0.07925133407115936,0.2689911558887638,-0.07795520367573872,0.2745108587047876
1759676259.3422415,1,0.7790214452994608,-1.1188996552306225,-0.06538074565065877,0.27818929161072975,True,0.07877016067504883,0.794474720954895,-1.119762897491455,-0.052062492817640305,0.27818929161072975,-0.12363269707730495,0.3249413780905507
1759676259.4216888,1,0.7969968703677963,-1.1199720148349572,-0.05649538580472857,0.27818929161072975,True,0.07944726943969727,0.794474720954895,-1.119762897491455,-0.052062492817640305,0.27818929161072975,-0.07686026096418352,0.2454639301095877
1759676259.5127413,1,0.805098833822626,-1.1203708508885069,-0.05123870265356345,0.27818929161072975,True,0.09105253219604492,0.794474720954895,-1.119762897491455,-0.052062492817640305,0.27818929161072975,-0.13035475586512035,0.29609898136430374
1759676259.604337,1,0.8549508488783195,-1.1218749111390232,-0.032152808183154136,0.2840063877784259,True,0.09159564971923828,0.8697022199630737,-1.122031331062317,-0.009860607795417309,0.2840063877784259,-0.13035475586512035,0.29609898136430374
1759676259.6884944,1,0.8731929855951062,-1.1222486742313926,-0.017823489819491556,0.2840063877784259,True,0.08415746688842773,0.8697022199630737,-1.122031331062317,-0.009860607795417309,0.2840063877784259,-0.05298149151655984,0.21669665726431978
1759676259.7652974,1,0.8793661713608562,-1.1222478876494422,-0.01022011045433402,0.2840063877784259,True,0.07680296897888184,0.8697022199630737,-1.122031331062317,-0.009860607795417309,0.2840063877784259,-0.11894609036873227,0.2712509089382788
1759676259.8466134,1,0.9205358453810554,-1.1218480313134163,0.007117176403143688,0.2540511652569245,True,0.08131599426269531,0.9332128167152405,-1.1215033531188965,0.02383209392428398,0.2540511652569245,-0.11894609036873227,0.2712509089382788
1759676259.93494,1,0.9369414231453077,-1.1215542490117434,0.01976282922254935,0.2540511652569245,True,0.08832669258117676,0.9332128167152405,-1.1215033531188965,0.02383209392428398,0.2540511652569245,-0.12420439724204968,0.2660520139530135
1759676260.0290813,1,0.9437702440787312,-1.1213240179793627,0.027922864217499566,0.2540511652569245,True,0.09414124488830566,0.9332128167152405,-1.1215033531188965,0.02383209392428398,0.2540511652569245,-0.12420439724204968,0.2660520139530135
1759676260.1290624,1,0.9939994879723482,-1.1188744566535518,0.050380645579134686,0.26738649023912214,True,0.09998106956481934,1.0085285902023315,-1.117877721786499,0.07005234807729721,0.26738649023912214,-0.12420439724204968,0.2660520139530135
1759676260.2436562,1,1.0131779095958935,-1.117716871661021,0.06626059462561962,0.26738649023912214,True,0.1,1.0085285902023315,-1.117877721786499,0.07005234807729721,0.26738649023912214,-0.11112953727745278,0.2345907491156398
1759676260.3810654,1,1.0576874226882345,-1.113721164778623,0.0894296650844888,0.24680706542458064,True,0.1,1.0699797868728638,-1.1123226881027222,0.1070900410413742,0.24680706542458064,-0.1838232921998788,0.2839098427698071
1759676260.487215,1,1.0746717782203452,-1.1119894701608732,0.10592710531321536,0.24680706542458064,True,0.1,1.0699797868728638,-1.1123226881027222,0.1070900410413742,0.24680706542458064,-0.11894829399142282,0.22858664105618856
1759676260.5873976,1,1.114727838110713,-1.1067213863339198,0.1306254167149783,0.2646070130742978,True,0.1,1.1232293844223022,-1.1052653789520264,0.14910948276519775,0.2646070130742978,-0.19114559620767224,0.2756582070759809
1759676260.6978664,1,1.1299993069327277,-1.104476246285072,0.14847373820153376,0.2646070130742978,True,0.1,1.1232293844223022,-1.1052653789520264,0.14910948276519775,0.2646070130742978,-0.11499798852774212,0.21585684323905077
1759676260.7961013,1,1.167206036653613,-1.0978896036796764,0.17386858156903795,0.2576494812774378,True,0.09823489189147949,1.1747406721115112,-1.0962003469467163,0.1915704905986786,0.2576494812774378,-0.1939433353415847,0.265357967349082
1759676260.909544,1,1.1815493584562446,-1.0951070834856687,0.19131446777796235,0.2576494812774378,True,0.1,1.1747406721115112,-1.0962003469467163,0.1915704905986786,0.2576494812774378,-0.19482218015581232,0.2615756278855764
1759676261.0221202,1,1.2225581433970931,-1.0857989634542768,0.22371467590845562,0.2533054190499522,True,0.1,1.2325482368469238,-1.083099603652954,0.24919553101062775,0.2533054190499522,-0.19482218015581232,0.2615756278855764
1759676261.1379497,1,1.238158430689437,-1.0819478167416496,0.24594251724632343,0.2533054190499522,True,0.1,1.2325482368469238,-1.083099603652954,0.24919553101062775,0.2533054190499522,-0.17333097704777067,0.24903527645108445
1759676261.2289095,1,1.2744738914704223,-1.0716239811706174,0.27655372981786286,0.257715948536063,True,0.09095978736877441,1.2828818559646606,-1.068833351135254,0.29772138595581055,0.257715948536063,-0.17333097704777067,0.24903527645108445
1759676261.331002,1,1.2891324863709577,-1.067184474228274,0.29884904837254567,0.257715948536063,True,0.1,1.2828818559646606,-1.068833351135254,0.29772138595581055,0.257715948536063,-0.0827522463863044,0.19518353948419867
1759676261.4277558,1,1.3199642224207635,-1.0569492878866606,0.3222317843452114,0.22457594053669597,True,0.09675383567810059,1.3262003660202026,-1.0546257495880127,0.32896867394447327,0.22457594053669597,-0.1804745701262238,0.24209506226878355
1759676261.5301988,1,1.3319452759112542,-1.0527678164365335,0.33718013720354634,0.22457594053669597,True,0.1,1.3262003660202026,-1.0546257495880127,0.32896867394447327,0.22457594053669597,-0.22810443939863134,0.2550084528083795
1759676261.623383,1,1.335930659320659,-1.0512506553231051,0.34491829368854887,0.22457594053669597,True,0.09318423271179199,1.3262003660202026,-1.0546257495880127,0.32896867394447327,0.22457594053669597,-0.22810443939863134,0.2550084528083795
1759676261.7059467,1,1.3773747593805035,-1.0352845249064684,0.3746621995758117,0.2466981958353697,True,0.08256363868713379,1.3911614418029785,-1.0297281742095947,0.40263235569000244,0.2466981958353697,-0.22810443939863134,0.2550084528083795
1759676261.8021169,1,1.3943153011623317,-1.028499436228114,0.3972651474830746,0.2466981958353697,True,0.09617018699645996,1.3911614418029785,-1.0297281742095947,0.40263235569000244,0.2466981958353697,-0.20823703922826908,0.23120758145046777
1759676261.8994231,1,1.4008091895828052,-1.025682525986913,0.41115700817887824,0.2466981958353697,True,0.0973062515258789,1.3911614418029785,-1.0297281742095947,0.40263235569000244,0.2466981958353697,-0.20823703922826908,0.23120758145046777
1759676261.989934,1,1.4398695754900703,-1.007119960521355,0.4446956842572689,0.23870682664761755,True,0.09051084518432617,1.4518020153045654,-1.001057744026184,0.475825697183609,0.23870682664761755,-0.3154003433733603,0.28410113429764094
1759676262.0905943,1,1.4554587671468182,-0.9994163345549922,0.47087059637124273,0.23870682664761755,True,0.1,1.4518020153045654,-1.001057744026184,0.475825697183609,0.23870682664761755,-0.1863271186404063,0.22011751186524642
1759676262.1871452,1,1.4897551291631757,-0.9801586163774024,0.5096995153254769,0.27422653551440607,True,0.09655094146728516,1.496418833732605,-0.9757789969444275,0.5422176718711853,0.27422653551440607,-0.2898493617041691,0.27477120532319127
1759676262.273398,1,1.5017415877711764,-0.97301123915037,0.5368805424364762,0.27422653551440607,True,0.08625268936157227,1.496418833732605,-0.9757789969444275,0.5422176718711853,0.27422653551440607,-0.1689908228135284,0.21147404712469625
1759676262.369768,1,1.5071035326570448,-0.9695210873927689,0.5525439417133917,0.27422653551440607,True,0.09636998176574707,1.496418833732605,-0.9757789969444275,0.5422176718711853,0.27422653551440607,-0.2581585708616281,0.26194310611557964
1759676262.4628127,1,1.5429062315914444,-0.9454709087664435,0.5928976771498862,0.24198021525407987,True,0.09304475784301758,1.5532337427139282,-0.9379828572273254,0.6252495050430298,0.24198021525407987,-0.2581585708616281,0.26194310611557964
1759676262.5582445,1,1.5565817248062974,-0.935881052916945,0.6214378043151196,0.24198021525407987,True,0.09543180465698242,1.5532337427139282,-0.9379828572273254,0.6252495050430298,0.24198021525407987,-0.20499307376452514,0.26331305928182447
1759676262.6422276,1,1.5608093678401322,-0.9326406218452721,0.6368628827653113,0.24198021525407987,True,0.08398318290710449,1.5532337427139282,-0.9379828572273254,0.6252495050430298,0.24198021525407987,-0.20499307376452514,0.26331305928182447
1759676262.738534,1,1.5987286934560747,-0.9025181421049134,0.6765887093833856,0.25730733321042576,True,0.09630632400512695,1.6099027395248413,-0.8930785059928894,0.7058861255645752,0.25730733321042576,-0.20499307376452514,0.26331305928182447
1759676262.8340495,1,1.6129309902646964,-0.8907772728605272,0.7048384747269711,0.25730733321042576,True,0.09551548957824707,1.6099027395248413,-0.8930785059928894,0.7058861255645752,0.25730733321042576,-0.14042555453097272,0.2383904442845021
1759676262.9280283,1,1.6180778195453531,-0.8861948328317926,0.7209114824878258,0.25730733321042576,True,0.0939788818359375,1.6099027395248413,-0.8930785059928894,0.7058861255645752,0.25730733321042576,-0.14042555453097272,0.2383904442845021
1759676263.0300102,1,1.6533954183591646,-0.8538064720019858,0.7518624349194889,0.25733739364200153,True,0.1,1.6633296012878418,-0.8443489670753479,0.7657794952392578,0.25733739364200153,-0.21891675715498948,0.2930785181019191
1759676263.1213398,1,1.666069325541629,-0.8418055321035606,0.772033282401904,0.25733739364200153,True,0.09132957458496094,1.6633296012878418,-0.8443489670753479,0.7657794952392578,0.25733739364200153,-0.19092651947175554,0.27533254236948784
1759676263.2318294,1,1.6965060895598685,-0.8107334063462914,0.8060815084215172,0.2798847023804369,True,0.1,1.7029868364334106,-0.8036620020866394,0.8236547112464905,0.2798847023804369,-0.19092651947175554,0.27533254236948784
1759676263.3530915,1,1.7078816974380984,-0.7986189015556593,0.8289854736526552,0.2798847023804369,True,0.1,1.7029868364334106,-0.8036620020866394,0.8236547112464905,0.2798847023804369,-0.1682890858699153,0.27186251529853056
1759676263.4731894,1,1.7381469436597292,-0.7636874802042831,0.8645251206392777,0.26235926907403445,True,0.1,1.7459568977355957,-0.7541080117225647,0.8823816776275635,0.26235926907403445,-0.1682890858699153,0.27186251529853056
1759676263.595948,1,1.7494501241542761,-0.7501195623690345,0.8880637210194626,0.26235926907403445,True,0.1,1.7459568977355957,-0.7541080117225647,0.8823816776275635,0.26235926907403445,-0.13636025105168592,0.266113154894862
1759676263.7249475,1,1.779682066200387,-0.7110812566463831,0.9210718675724374,0.27320658994454533,True,0.1,1.7877720594406128,-0.7001023888587952,0.9342562556266785,0.27320658994454533,-0.13636025105168592,0.266113154894862
1759676263.8411736,1,1.7909668068028202,-0.6959650542481511,0.9424438585894634,0.27320658994454533,True,0.1,1.7877720594406128,-0.7001023888587952,0.9342562556266785,0.27320658994454533,-0.13083916522849215,0.25571919156485906
1759676263.9653645,1,1.8175131275338328,-0.658182308771788,0.970297909301344,0.2693277109901541,True,0.1,1.8242011070251465,-0.6483452320098877,0.9783353805541992,0.2693277109901541,-0.20859449611077174,0.3158115976381752
1759676264.075627,1,1.8274322992876573,-0.6435963575053459,0.9892913223521953,0.2693277109901541,True,0.1,1.8242011070251465,-0.6483452320098877,0.9783353805541992,0.2693277109901541,-0.1324667510828217,0.2500825898341129
1759676264.2068548,1,1.8534567417288157,-0.6019438057622477,1.021239559951658,0.27328264449600237,True,0.1,1.8603370189666748,-0.5903632640838623,1.0380834341049194,0.27328264449600237,-0.20346249968732621,0.30932877891188315
1759676264.3164258,1,1.8631266154688275,-0.5858640012135752,1.0432133714145015,0.27328264449600237,True,0.1,1.8603370189666748,-0.5903632640838623,1.0380834341049194,0.27328264449600237,-0.16487180948479363,0.3008331082558091
1759676264.44211,1,1.8884625212402681,-0.539203687906159,1.0805426036498975,0.3083145619920096,True,0.1,1.8946174383163452,-0.5268822312355042,1.1040297746658325,0.3083145619920096,-0.16487180948479363,0.3008331082558091
1759676264.5706053,1,1.8977739755798966,-0.521179096069116,1.1063961597821974,0.3083145619920096,True,0.1,1.8946174383163452,-0.5268822312355042,1.1040297746658325,0.3083145619920096,-0.10210571433396254,0.27719813039298763
1759676264.6930947,1,1.919541755769784,-0.47461857802473045,1.1394728892624695,0.28758776946361714,True,0.1,1.925100326538086,-0.4617672264575958,1.152141809463501,0.28758776946361714,-0.10210571433396254,0.27719813039298763
1759676264.8145547,1,1.9275432470301805,-0.45668502472211253,1.1611423137607968,0.28758776946361714,True,0.1,1.925100326538086,-0.4617672264575958,1.152141809463501,0.28758776946361714,-0.061345690903614525,0.2683163009645596
1759676264.9390006,1,1.9468030581734022,-0.4111051964860173,1.1831238074442023,0.28970642546867886,True,0.1,1.951628565788269,-0.3993820250034332,1.1804121732711792,0.28970642546867886,-0.10798885783051837,0.3335557626094413
1759676265.0576499,1,1.9539487898145735,-0.39360713113035445,1.1971508576532663,0.28970642546867886,True,0.1,1.951628565788269,-0.3993820250034332,1.1804121732711792,0.28970642546867886,-0.057467586277272886,0.2593355880566087
1759676265.183138,1,1.9727973249990913,-0.3450959284023361,1.2151872323477928,0.29003040207305175,True,0.1,1.977951169013977,-0.33182114362716675,1.2115483283996582,0.29003040207305175,-0.10214258481753369,0.3251052504359394
1759676265.289764,1,1.9798229972455357,-0.32650042921935085,1.2269967803785091,0.29003040207305175,True,0.1,1.977951169013977,-0.33182114362716675,1.2115483283996582,0.29003040207305175,-0.04550991666005011,0.24620411057438688
1759676265.3915267,1,1.9951061918407937,-0.2838617862315952,1.2410354878186736,0.29694501544483637,True,0.1,1.9984056949615479,-0.27480220794677734,1.2353429794311523,0.29694501544483637,-0.08475461777151949,0.3063163239653032
1759676265.500462,1,2.0008041610043863,-0.2675266740588949,1.2500283088143256,0.29694501544483637,True,0.1,1.9984056949615479,-0.27480220794677734,1.2353429794311523,0.29694501544483637,-0.04123349705871071,0.23809443694791954
1759676265.6069095,1,2.0138256046060627,-0.2287136775426459,1.260402048425684,0.2641194809282488,True,0.1,2.0167555809020996,-0.22022645175457,1.2533462047576904,0.2641194809282488,-0.0841556752502104,0.30658952229990644
1759676265.7049294,1,2.018646093046973,-0.21404870352248756,1.2666822733900167,0.2641194809282488,True,0.09801983833312988,2.0167555809020996,-0.22022645175457,1.2533462047576904,0.2641194809282488,-0.052478232256106594,0.254703052960907
1759676265.8025923,1,2.0204168123280035,-0.20846265153556492,1.2687353303647066,0.2641194809282488,True,0.09766292572021484,2.0167555809020996,-0.22022645175457,1.2533462047576904,0.2641194809282488,-0.0908465035379109,0.3213490088637015
1759676265.9012022,1,2.0373119219813205,-0.15377598165977793,1.2819141239720881,0.2931510614140611,True,0.09860992431640625,2.042477607727051,-0.13704687356948853,1.2873780727386475,0.2931510614140611,-0.0908465035379109,0.3213490088637015
1759676266.0003314,1,2.0436492066594427,-0.1327917163349537,1.291174904815918,0.2931510614140611,True,0.09912919998168945,2.042477607727051,-0.13704687356948853,1.2873780727386475,0.2931510614140611,-0.06624869009324819,0.28165923048232416
1759676266.1032026,1,2.0559176450368786,-0.08884367628911069,1.3065891747892646,0.29547189994246603,True,0.1,2.0584983825683594,-0.07924522459506989,1.3144246339797974,0.29547189994246603,-0.06624869009324819,0.28165923048232416
1759676266.196493,1,2.06024718671973,-0.07274403183131317,1.3165630594035846,0.29547189994246603,True,0.09329032897949219,2.0584983825683594,-0.07924522459506989,1.3144246339797974,0.29547189994246603,-0.05057125894706793,0.28109980315868777
1759676266.3198338,1,2.0708400396770457,-0.030585198049468056,1.3292283472905986,0.2744496822455066,True,0.1,2.073148727416992,-0.020953578874468803,1.3319728374481201,0.2744496822455066,-0.05057125894706793,0.28109980315868777
1759676266.4382787,1,2.074761493070821,-0.01445061083886397,1.3371998369274438,0.2744496822455066,True,0.1,2.073148727416992,-0.020953578874468803,1.3319728374481201,0.2744496822455066,-0.050916545346616715,0.28878968392677007
1759676266.5777879,1,2.086874801229131,0.03775561466103563,1.3485576072888446,0.2995951001816381,True,0.1,2.09011173248291,0.05199902877211571,1.3516098260879517,0.2995951001816381,-0.08057623916013767,0.35546228303968364
1759676266.693065,1,2.0913832663352454,0.05772386105197949,1.3564236864150176,0.2995951001816381,True,0.1,2.09011173248291,0.05199902877211571,1.3516098260879517,0.2995951001816381,-0.046657731462836693,0.26520949615132944
1759676266.8135214,1,2.102326679037398,0.11025635089885115,1.3694494834096718,0.31334441136019797,True,0.1,2.1050102710723877,0.12379203736782074,1.3759506940841675,0.31334441136019797,-0.07233737452894395,0.3263649409978351
1759676266.9355245,1,2.1063608547195103,0.13035244521060438,1.3784166916597673,0.31334441136019797,True,0.1,2.1050102710723877,0.12379203736782074,1.3759506940841675,0.31334441136019797,-0.05562284549999852,0.311030510007047
1759676267.0594702,1,2.116409755424707,0.18513633561273804,1.393205207671243,0.31051047324538383,True,0.1,2.1189894676208496,0.20015059411525726,1.4015305042266846,0.31051047324538383,-0.05562284549999852,0.311030510007047
1759676267.1782844,1,2.1200840836131025,0.20609231205005762,1.403290816442479,0.31051047324538383,True,0.1,2.1189894676208496,0.20015059411525726,1.4015305042266846,0.31051047324538383,-0.032254083492906815,0.29434847617057847
1759676267.2793455,1,2.1279604613433336,0.2549009903026108,1.4145982493793028,0.3063934478869393,True,0.1,2.129697561264038,0.2663908302783966,1.4163758754730225,0.3063934478869393,-0.032254083492906815,0.29434847617057847
1759676267.3744125,1,2.13075750138685,0.27299368397334994,1.4217288608565362,0.3063934478869393,True,0.09506702423095703,2.129697561264038,0.2663908302783966,1.4163758754730225,0.3063934478869393,-0.003763834852302139,0.22204094145246606
1759676267.462858,1,2.1316339246758975,0.2791499079378947,1.424818233156019,0.3063934478869393,True,0.08844542503356934,2.129697561264038,0.2663908302783966,1.4163758754730225,0.3063934478869393,-0.02512295230623529,0.28980489770373113
1759676267.579408,1,2.1395006449019736,0.3318133857262258,1.4300133318809838,0.2760899153190044,True,0.1,2.1418962478637695,0.3474770784378052,1.4257402420043945,0.2760899153190044,-0.0402710126200283,0.35221236459062044
1759676267.6709232,1,2.1423304197171884,0.3510502324390766,1.432927434375344,0.2760899153190044,True,0.09151530265808105,2.1418962478637695,0.3474770784378052,1.4257402420043945,0.2760899153190044,-0.024503058507693964,0.2721901910933206
1759676267.7635176,1,2.143399144840615,0.35851465322182235,1.4339215754313779,0.2760899153190044,True,0.09259438514709473,2.1418962478637695,0.3474770784378052,1.4257402420043945,0.2760899153190044,-0.038244747920719746,0.33995562676221786
1759676267.8538969,1,2.1513810224449554,0.41651862781000115,1.4397037058707554,0.3143058144317993,True,0.09037923812866211,2.153935432434082,0.4349726140499115,1.4412418603897095,0.3143058144317993,-0.038244747920719746,0.33995562676221786
1759676267.9518514,1,2.154490950719661,0.43958355183444703,1.444178651909862,0.3143058144317993,True,0.09795451164245605,2.153935432434082,0.4349726140499115,1.4412418603897095,0.3143058144317993,-0.009609370954219543,0.2303519418735261
1759676268.0457559,1,2.155566161393653,0.4479178585476398,1.446170235198049,0.3143058144317993,True,0.09390449523925781,2.153935432434082,0.4349726140499115,1.4412418603897095,0.3143058144317993,-0.02202906673664984,0.2909588630422062
1759676268.1509597,1,2.1623656243374425,0.5029203504979318,1.4512023754262575,0.2862873339524019,True,0.1,2.1643810272216797,0.5193558931350708,1.4517607688903809,0.2862873339524019,-0.02202906673664984,0.2909588630422062
1759676268.248207,1,2.1648744410211895,0.5236369777934333,1.4543690896040715,0.2862873339524019,True,0.09724736213684082,2.1643810272216797,0.5193558931350708,1.4517607688903809,0.2862873339524019,-0.02058799664751021,0.2805669224783389
1759676268.3468416,1,2.16581819822838,0.531704477793279,1.4560202491087288,0.2862873339524019,True,0.09863448143005371,2.1643810272216797,0.5193558931350708,1.4517607688903809,0.2862873339524019,-0.02058799664751021,0.2805669224783389
1759676268.4405081,1,2.171925306018086,0.5850196778374819,1.459844671198237,0.27969813528757587,True,0.09366655349731445,2.1738574504852295,0.6018839478492737,1.4607820510864258,0.27969813528757587,-0.036644008241665915,0.3468065382833929
1759676268.5494308,1,2.174295253092397,0.6060609896156142,1.4625303441733903,0.27969813528757587,True,0.1,2.1738574504852295,0.6018839478492737,1.4607820510864258,0.27969813528757587,-0.03610403384684879,0.3250066973806234
1759676268.64813,1,2.179803166035167,0.6587819688045949,1.4687011344646628,0.3407910942112887,True,0.09869909286499023,2.180982828140259,0.6706966161727905,1.4733628034591675,0.3407910942112887,-0.03610403384684879,0.3250066973806234
1759676268.7437737,1,2.181794009644439,0.6785315327419551,1.473218764960527,0.3407910942112887,True,0.09564375877380371,2.180982828140259,0.6706966161727905,1.4733628034591675,0.3407910942112887,-0.012854954079898562,0.2288271550374837
1759676268.8400207,1,2.1825061665047967,0.6861589096380157,1.4755386810886222,0.3407910942112887,True,0.09624695777893066,2.180982828140259,0.6706966161727905,1.4733628034591675,0.3407910942112887,-0.02573116908552997,0.2929103578142459
1759676268.9358926,1,2.1871382563229576,0.7370864312412321,1.4808698456764882,0.28884303784285636,True,0.0958719253540039,2.1883864402770996,0.7515231370925903,1.4839320182800293,0.28884303784285636,-0.02573116908552997,0.2929103578142459
1759676269.035965,1,2.188894411905712,0.7569975969663825,1.4845962796805434,0.28884303784285636,True,0.1,2.1883864402770996,0.7515231370925903,1.4839320182800293,0.28884303784285636,-0.01836764539862301,0.2868208383664236
1759676269.1429687,1,2.1924875616633477,0.800185913938528,1.4891261306873105,0.2844936414097334,True,0.1,2.1932053565979004,0.8093594312667847,1.4902781248092651,0.2844936414097334,-0.01836764539862301,0.2868208383664236
1759676269.2622395,1,2.1938126049863764,0.8166863455108034,1.4919791689973163,0.2844936414097334,True,0.1,2.1932053565979004,0.8093594312667847,1.4902781248092651,0.2844936414097334,-0.017949696860625863,0.2903056328262992
1759676269.3761053,1,2.197598023967622,0.8658400268874171,1.4959041464303144,0.2945191014269624,True,0.1,2.198514699935913,0.8780720829963684,1.4965351819992065,0.2945191014269624,-0.017949696860625863,0.2903056328262992
1759676269.5001183,1,2.1990016359627234,0.8846182972818616,1.498397996440758,0.2945191014269624,True,0.1,2.198514699935913,0.8780720829963684,1.4965351819992065,0.2945191014269624,-0.015511271492513856,0.2741114073222271
1759676269.6247334,1,2.2025405480266356,0.9344461942552941,1.5018777995469943,0.28027463064985697,True,0.1,2.2034847736358643,0.9479642510414124,1.5024168491363525,0.28027463064985697,-0.02291118917764301,0.3371152745488828
1759676269.742247,1,2.2038575406167435,0.9534811992883881,1.504221483503608,0.28027463064985697,True,0.1,2.2034847736358643,0.9479642510414124,1.5024168491363525,0.28027463064985697,-0.012537609797890426,0.26477853010141394
1759676269.8610332,1,2.207258572869967,1.0060979358543602,1.5078139491724514,0.3071055086924363,True,0.1,2.208109140396118,1.019677996635437,1.5090422630310059,0.3071055086924363,-0.021461798652744335,0.3377557652484586
1759676269.9722824,1,2.2085185338852984,1.026198258492694,1.5103503508238525,0.3071055086924363,True,0.1,2.208109140396118,1.019677996635437,1.5090422630310059,0.3071055086924363,-0.0093936345591068,0.24988420248866444
1759676270.0949173,1,2.211384088463286,1.0752819041297506,1.5136908776182807,0.29004821140205866,True,0.1,2.21208119392395,1.0877234935760498,1.5145429372787476,0.29004821140205866,-0.01682437992233865,0.31083923682613823
1759676270.2167451,1,2.2124431194135576,1.094032261940758,1.515878113117795,0.29004821140205866,True,0.1,2.21208119392395,1.0877234935760498,1.5145429372787476,0.29004821140205866,-0.014563733304699511,0.31153541791891637
1759676270.3318932,1,2.215193604470839,1.1458478921693944,1.5192197247133672,0.28953046985322894,True,0.1,2.2159197330474854,1.1600042581558228,1.5202149152755737,0.28953046985322894,-0.014563733304699511,0.31153541791891637
1759676270.4573646,1,2.2162088653051475,1.1656415699838665,1.5214009444825614,0.28953046985322894,True,0.1,2.2159197330474854,1.1600042581558228,1.5202149152755737,0.28953046985322894,-0.011252106607681611,0.2995353439630412
1759676270.5955,1,2.2190446918199513,1.2251050285277179,1.5245558431749018,0.3270264149015264,True,0.1,2.2198081016540527,1.2416683435440063,1.5254449844360352,0.3270264149015264,-0.011252106607681611,0.2995353439630412
