timestamp,vehicle_id,x,y,theta,velocity,gps_available,dt,gps_x,gps_y,gps_theta,gps_velocity,control_steering,control_acceleration
1759676243.0016732,0,-1.205,-0.83,-0.7801621756414647,0.0,False,0.01,nan,nan,nan,nan,0.0,0.0
1759676243.0117326,0,-1.205,-0.83,-0.7801621756414647,0.0,False,0.010059356689453125,nan,nan,nan,nan,0.0,0.0
1759676243.02257,0,-1.205,-0.83,-0.7801621756414647,0.0,False,0.010837316513061523,nan,nan,nan,nan,0.0,0.0
1759676243.0335548,0,-1.205,-0.83,-0.7801621756414647,0.0,False,0.01098489761352539,nan,nan,nan,nan,0.0,0.0
1759676243.0444794,0,-1.205,-0.83,-0.7801621756414647,0.0,False,0.010924577713012695,nan,nan,nan,nan,0.0,0.0
1759676243.0550835,0,-1.205,-0.83,-0.7801621756414647,0.0,False,0.010604143142700195,nan,nan,nan,nan,0.0,0.0
1759676243.065445,0,-1.205,-0.83,-0.7801621756414647,0.0,False,0.010361433029174805,nan,nan,nan,nan,0.0,0.0
1759676243.0768726,0,-1.205,-0.83,-0.7801621756414647,0.0,False,0.011427640914916992,nan,nan,nan,nan,0.0,0.0
1759676243.0883698,0,-1.205,-0.83,-0.7801621756414647,0.0,False,0.011497259140014648,nan,nan,nan,nan,0.0,0.0
1759676243.0988843,0,-1.205,-0.83,-0.7801621756414647,0.0,False,0.010514497756958008,nan,nan,nan,nan,0.0,0.0
1759676243.1101696,0,-1.205,-0.83,-0.7801621756414647,0.0,False,0.01128530502319336,nan,nan,nan,nan,0.0,0.0
1759676243.1215417,0,-1.205,-0.83,-0.7801621756414647,0.0,False,0.011372089385986328,nan,nan,nan,nan,0.0,0.0
1759676243.13159,0,-1.205,-0.83,-0.7801621756414647,0.0,False,0.010048151016235352,nan,nan,nan,nan,0.0,0.0
1759676243.1430435,0,-1.205,-0.83,-0.7801621756414647,0.0,False,0.011453628540039062,nan,nan,nan,nan,0.0,0.0
1759676243.1544077,0,-1.205,-0.83,-0.7801621756414647,0.0,False,0.011364221572875977,nan,nan,nan,nan,0.0,0.0
1759676243.1656058,0,-1.205,-0.83,-0.7801621756414647,0.0,False,0.011198043823242188,nan,nan,nan,nan,0.0,0.0
1759676243.175674,0,-1.205,-0.83,-0.7801621756414647,0.0,False,0.010068178176879883,nan,nan,nan,nan,0.0,0.0
1759676243.1869514,0,-1.205,-0.83,-0.7801621756414647,0.0,False,0.011277437210083008,nan,nan,nan,nan,0.0,0.0
1759676243.1979153,0,-1.2049999243418377,-0.8299995105862618,-0.7229993458019415,0.0,True,0.010963916778564453,-1.2049999237060547,-0.8299995064735413,-0.7177030444145203,0.0,0.0,0.0
1759676243.2092843,0,-1.2049999239185727,-0.8299995078482668,-0.7181139905423812,0.0,True,0.011368989944458008,-1.2049999237060547,-0.8299995064735413,-0.7177030444145203,0.0,0.0,0.0
1759676243.2205174,0,-1.2049999237857767,-0.8299995069892429,-0.7176540037371204,0.0,True,0.011233091354370117,-1.2049999237060547,-0.8299995064735413,-0.7177030444145203,0.0,0.0,0.0
1759676243.231827,0,-1.2049999237364264,-0.8299995066700088,-0.7175946789532226,0.0,True,0.011309623718261719,-1.2049999237060547,-0.8299995064735413,-0.7177030444145203,0.0,0.0,0.0
1759676243.2432134,0,-1.2049999237176512,-0.8299995065485567,-0.7175890770535673,0.0,True,0.011386394500732422,-1.2049999237060547,-0.8299995064735413,-0.7177030444145203,0.0,0.0,0.0
1759676243.2543898,0,-1.2049999237104838,-0.829999506502193,-0.7175978880965292,0.0,True,0.011176347732543945,-1.2049999237060547,-0.8299995064735413,-0.7177030444145203,0.0,0.0,0.0
1759676243.2656631,0,-1.2049999237077464,-0.8299995064844852,-0.7176098728039904,0.0,True,0.011273384094238281,-1.2049999237060547,-0.8299995064735413,-0.7177030444145203,0.0,0.0,0.0
1759676243.2760408,0,-1.2049999237067008,-0.8299995064777215,-0.7176229476310922,0.0,True,0.010377645492553711,-1.2049999237060547,-0.8299995064735413,-0.7177030444145203,0.0,0.0,0.0
1759676243.2864442,0,-1.2049999237063016,-0.829999506475138,-0.7176335972804466,0.0,True,0.01040339469909668,-1.2049999237060547,-0.8299995064735413,-0.7177030444145203,0.0,0.0,0.0
1759676243.2967978,0,-1.204999923706149,-0.8299995064741511,-0.7176422724866676,0.0,True,0.010353565216064453,-1.2049999237060547,-0.8299995064735413,-0.7177030444145203,0.0,0.0,0.0
1759676243.308175,0,-1.2049999237060907,-0.8299995064737742,-0.7176483373228528,0.0,True,0.011377334594726562,-1.2049999237060547,-0.8299995064735413,-0.7177030444145203,0.0,0.0,0.0
1759676243.3190026,0,-1.2049999237060685,-0.8299995064736302,-0.7176542973589637,0.0,True,0.01082754135131836,-1.2049999237060547,-0.8299995064735413,-0.7177030444145203,0.0,0.0,0.0
1759676243.3292825,0,-1.20499992370606,-0.8299995064735752,-0.7176598030872796,0.0,True,0.01027989387512207,-1.2049999237060547,-0.8299995064735413,-0.7177030444145203,0.0,0.0,0.0
1759676243.3399248,0,-1.2049999237060567,-0.8299995064735542,-0.7176640050409588,0.0,True,0.010642290115356445,-1.2049999237060547,-0.8299995064735413,-0.7177030444145203,0.0,0.0,0.0
1759676243.351289,0,-1.2049999237060554,-0.8299995064735463,-0.7176670635532716,0.0,True,0.011364221572875977,-1.2049999237060547,-0.8299995064735413,-0.7177030444145203,0.0,0.0,0.0
1759676243.3627217,0,-1.204999923706055,-0.8299995064735431,-0.717669833559075,0.0,True,0.011432647705078125,-1.2049999237060547,-0.8299995064735413,-0.7177030444145203,0.0,0.0,0.0
1759676243.3737419,0,-1.2049999237060547,-0.8299995064735419,-0.7176726255266139,0.0,True,0.011020183563232422,-1.2049999237060547,-0.8299995064735413,-0.7177030444145203,0.0,0.0,0.0
1759676243.3849375,0,-1.2049999237060547,-0.8299995064735415,-0.7176749817509833,0.0,True,0.011195659637451172,-1.2049999237060547,-0.8299995064735413,-0.7177030444145203,0.0,0.0,0.0
1759676243.3970997,0,-1.2049999237060547,-0.8299995064735414,-0.7176766029716717,0.0,True,0.012162208557128906,-1.2049999237060547,-0.8299995064735413,-0.7177030444145203,0.0,0.0,0.0
1759676243.408312,0,-1.2049999237060547,-0.8299995064735413,-0.7176786413436105,0.0,True,0.011212348937988281,-1.2049999237060547,-0.8299995064735413,-0.7177030444145203,0.0,0.0,0.0
1759676243.4197814,0,-1.2049999237060547,-0.8299995064735413,-0.7176803445763795,0.0,True,0.011469364166259766,-1.2049999237060547,-0.8299995064735413,-0.7177030444145203,0.0,0.0,0.0
1759676243.431118,0,-1.2049999237060547,-0.8299995064735413,-0.7176819199994817,0.0,True,0.011336565017700195,-1.2049999237060547,-0.8299995064735413,-0.7177030444145203,0.0,0.0,0.0
1759676243.4425926,0,-1.2049999237060547,-0.8299995064735413,-0.7176832716201726,0.0,True,0.011474609375,-1.2049999237060547,-0.8299995064735413,-0.7177030444145203,0.0,0.0,0.0
1759676243.4528494,0,-1.2049999237060547,-0.8299995064735413,-0.7176849202296154,0.0,True,0.010256767272949219,-1.2049999237060547,-0.8299995064735413,-0.7177030444145203,0.0,0.0,0.0
1759676243.4642227,0,-1.2049999237060547,-0.8299995064735413,-0.7176859165529716,0.0,True,0.011373281478881836,-1.2049999237060547,-0.8299995064735413,-0.7177030444145203,0.0,0.0,0.0
1759676243.4745657,0,-1.2049999237060547,-0.8299995064735413,-0.7176871435688259,0.0,True,0.010343074798583984,-1.2049999237060547,-0.8299995064735413,-0.7177030444145203,0.0,0.0,0.0
1759676243.4859602,0,-1.2049999237060547,-0.8299995064735413,-0.7176878762796779,0.0,True,0.011394500732421875,-1.2049999237060547,-0.8299995064735413,-0.7177030444145203,0.0,0.0,0.0
1759676243.497272,0,-1.2049999237060547,-0.8299995064735413,-0.7176885932357528,0.0,True,0.011311769485473633,-1.2049999237060547,-0.8299995064735413,-0.7177030444145203,0.0,0.0,0.0
1759676243.5084743,0,-1.2049999237060547,-0.8299995064735413,-0.7176893140455007,0.0,True,0.011202335357666016,-1.2049999237060547,-0.8299995064735413,-0.7177030444145203,0.0,0.0,0.0
1759676243.5192645,0,-1.2049999237060547,-0.8299995064735413,-0.7176900983520369,0.0,True,0.010790109634399414,-1.2049999237060547,-0.8299995064735413,-0.7177030444145203,0.0,0.0,0.0
1759676243.5293117,0,-1.2049999237060547,-0.8299995064735413,-0.7176909837409209,0.0,True,0.010047197341918945,-1.2049999237060547,-0.8299995064735413,-0.7177030444145203,0.0,0.0,0.0
1759676243.539326,0,-1.2049999237060547,-0.8299995064735413,-0.7176917372412213,0.0,True,0.01001429557800293,-1.2049999237060547,-0.8299995064735413,-0.7177030444145203,0.0,0.0,0.0
1759676243.549721,0,-1.2049999237060547,-0.8299995064735413,-0.7176922826196588,0.0,True,0.010395050048828125,-1.2049999237060547,-0.8299995064735413,-0.7177030444145203,0.0,0.0,0.0
1759676243.5601912,0,-1.2049999237060547,-0.8299995064735413,-0.7176927506765196,0.0,True,0.010470151901245117,-1.2049999237060547,-0.8299995064735413,-0.7177030444145203,0.0,0.0,0.0
1759676243.5705638,0,-1.2049999237060547,-0.8299995064735413,-0.7176932046117059,0.0,True,0.010372638702392578,-1.2049999237060547,-0.8299995064735413,-0.7177030444145203,0.0,0.0,0.0
1759676243.581548,0,-1.2049999237060547,-0.8299995064735413,-0.7176934999008697,0.0,True,0.010984182357788086,-1.2049999237060547,-0.8299995064735413,-0.7177030444145203,0.0,0.0,0.0
1759676243.6015866,0,-1.2049999237060547,-0.8299995064735413,-0.7176921032643282,0.0,True,0.020038604736328125,-1.2049999237060547,-0.8299995064735413,-0.7177030444145203,0.0,0.0,0.0
1759676243.6050987,0,-1.2049999237060547,-0.8299995064735413,-0.7176943005159195,0.0,True,0.003512144088745117,-1.2049999237060547,-0.8299995064735413,-0.7177030444145203,0.0,0.0,0.0
1759676243.616538,0,-1.2049999237060547,-0.8299995064735413,-0.7176946304969061,0.0,True,0.011439323425292969,-1.2049999237060547,-0.8299995064735413,-0.7177030444145203,0.0,0.0,0.0
1759676243.6280277,0,-1.2049999237060547,-0.8299995064735413,-0.7176948455394943,0.0,True,0.011489629745483398,-1.2049999237060547,-0.8299995064735413,-0.7177030444145203,0.0,0.0,0.0
1759676243.6395466,0,-1.2049999237060547,-0.8299995064735413,-0.7176950803304472,0.0,True,0.01151895523071289,-1.2049999237060547,-0.8299995064735413,-0.7177030444145203,0.0,0.0,0.0
1759676243.6505857,0,-1.2049999237060547,-0.8299995064735413,-0.7176954121271031,0.0,True,0.011039018630981445,-1.2049999237060547,-0.8299995064735413,-0.7177030444145203,0.0,0.0,0.0
1759676243.661849,0,-1.2049999237060547,-0.8299995064735413,-0.7176956976223252,0.0,True,0.011263370513916016,-1.2049999237060547,-0.8299995064735413,-0.7177030444145203,0.0,0.0,0.0
1759676243.6733124,0,-1.2049999237060547,-0.8299995064735413,-0.7176959465841399,0.0,True,0.011463403701782227,-1.2049999237060547,-0.8299995064735413,-0.7177030444145203,0.0,0.0,0.0
1759676243.6838613,0,-1.2049999237060547,-0.8299995064735413,-0.7176963232816753,0.0,True,0.010548830032348633,-1.2049999237060547,-0.8299995064735413,-0.7177030444145203,0.0,0.0,0.0
1759676243.6940508,0,-1.2049999237060547,-0.8299995064735413,-0.7176967066309832,0.0,True,0.010189533233642578,-1.2049999237060547,-0.8299995064735413,-0.7177030444145203,0.0,0.0,0.0
1759676243.7052996,0,-1.2049999237060547,-0.8299995064735413,-0.7176968977075937,0.0,True,0.01124882698059082,-1.2049999237060547,-0.8299995064735413,-0.7177030444145203,0.0,0.0,0.0
1759676243.7165215,0,-1.2049999237060547,-0.8299995064735413,-0.7176970893746386,0.0,True,0.011221885681152344,-1.2049999237060547,-0.8299995064735413,-0.7177030444145203,0.0,0.0,0.0
1759676243.7278428,0,-1.2049999237060547,-0.8299995064735413,-0.7176972747246815,0.0,True,0.011321306228637695,-1.2049999237060547,-0.8299995064735413,-0.7177030444145203,0.0,0.0,0.0
1759676243.739051,0,-1.2049999237060547,-0.8299995064735413,-0.7176974783837764,0.0,True,0.011208295822143555,-1.2049999237060547,-0.8299995064735413,-0.7177030444145203,0.0,0.0,0.0
1759676243.7503808,0,-1.2049999237060547,-0.8299995064735413,-0.7176976667546082,0.0,True,0.01132965087890625,-1.2049999237060547,-0.8299995064735413,-0.7177030444145203,0.0,0.0,0.0
1759676243.7618093,0,-1.2049999237060547,-0.8299995064735413,-0.7176978441331094,0.0,True,0.011428594589233398,-1.2049999237060547,-0.8299995064735413,-0.7177030444145203,0.0,0.0,0.0
1759676243.7731678,0,-1.2049999237060547,-0.8299995064735413,-0.7176980301084868,0.0,True,0.011358499526977539,-1.2049999237060547,-0.8299995064735413,-0.7177030444145203,0.0,0.0,0.0
1759676243.7844663,0,-1.2049999237060547,-0.8299995064735413,-0.7176982191789456,0.0,True,0.011298418045043945,-1.2049999237060547,-0.8299995064735413,-0.7177030444145203,0.0,0.0,0.0
1759676243.8065302,0,-1.2049999237060547,-0.8299995064735413,-0.7176974317005982,0.0,True,0.0220639705657959,-1.2049999237060547,-0.8299995064735413,-0.7177030444145203,0.0,0.0,0.0
1759676243.8093266,0,-1.2049999237060547,-0.8299995064735413,-0.7176986365746867,0.0,True,0.0027964115142822266,-1.2049999237060547,-0.8299995064735413,-0.7177030444145203,0.0,0.0,0.0
1759676243.8196335,0,-1.2049999237060547,-0.8299995064735413,-0.7176989491478203,0.0,True,0.010306835174560547,-1.2049999237060547,-0.8299995064735413,-0.7177030444145203,0.0,0.0,0.0
1759676243.8298118,0,-1.2049999237060547,-0.8299995064735413,-0.7176991642132204,0.0,True,0.010178327560424805,-1.2049999237060547,-0.8299995064735413,-0.7177030444145203,0.0,0.0,0.0
1759676243.841289,0,-1.2049999237060547,-0.8299995064735413,-0.717699239020785,0.0,True,0.011477231979370117,-1.2049999237060547,-0.8299995064735413,-0.7177030444145203,0.0,0.0,0.0
1759676243.8523252,0,-1.2049999237060547,-0.8299995064735413,-0.7176993565808569,0.0,True,0.011036157608032227,-1.2049999237060547,-0.8299995064735413,-0.7177030444145203,0.0,0.0,0.0
1759676243.863566,0,-1.2049999237060547,-0.8299995064735413,-0.7176994620503478,0.0,True,0.011240720748901367,-1.2049999237060547,-0.8299995064735413,-0.7177030444145203,0.0,0.0,0.0
1759676243.8736708,0,-1.2049999237060547,-0.8299995064735413,-0.7176996524459263,0.0,True,0.010104894638061523,-1.2049999237060547,-0.8299995064735413,-0.7177030444145203,0.0,0.0,0.0
1759676243.8849783,0,-1.2049999237060547,-0.8299995064735413,-0.7176997361468658,0.0,True,0.011307477951049805,-1.2049999237060547,-0.8299995064735413,-0.7177030444145203,0.0,0.0,0.0
1759676243.895051,0,-1.2049999237060547,-0.8299995064735413,-0.7176999046571702,0.0,True,0.010072708129882812,-1.2049999237060547,-0.8299995064735413,-0.7177030444145203,0.0,0.0,0.0
1759676243.906453,0,-1.2049999237060547,-0.8299995064735413,-0.7176999679961256,0.0,True,0.011401891708374023,-1.2049999237060547,-0.8299995064735413,-0.7177030444145203,0.0,0.0,0.0
1759676243.9178107,0,-1.2049999237060547,-0.8299995064735413,-0.717700040431442,0.0,True,0.011357784271240234,-1.2049999237060547,-0.8299995064735413,-0.7177030444145203,0.0,0.0,0.0
1759676243.9280684,0,-1.2049999237060547,-0.8299995064735413,-0.7177001883181298,0.0,True,0.010257720947265625,-1.2049999237060547,-0.8299995064735413,-0.7177030444145203,0.0,0.0,0.0
1759676243.9395864,0,-1.2049999237060547,-0.8299995064735413,-0.7177002476248386,0.0,True,0.011518001556396484,-1.2049999237060547,-0.8299995064735413,-0.7177030444145203,0.0,0.0,0.0
1759676243.9496248,0,-1.2049999237060547,-0.8299995064735413,-0.7177003961005148,0.0,True,0.010038375854492188,-1.2049999237060547,-0.8299995064735413,-0.7177030444145203,0.0,0.0,0.0
1759676243.9599683,0,-1.2049999237060547,-0.8299995064735413,-0.7177005109109516,0.0,True,0.010343551635742188,-1.2049999237060547,-0.8299995064735413,-0.7177030444145203,0.0,0.0,0.0
1759676243.9713366,0,-1.2049999237060547,-0.8299995064735413,-0.7177005576965918,0.0,True,0.011368274688720703,-1.2049999237060547,-0.8299995064735413,-0.7177030444145203,0.0,0.0,0.0
1759676243.9827785,0,-1.2049999237060547,-0.8299995064735413,-0.7177006079729384,0.0,True,0.011441946029663086,-1.2049999237060547,-0.8299995064735413,-0.7177030444145203,0.0,0.0,0.0
1759676243.9944205,0,-1.2049999237060547,-0.8299995064735413,-0.7177006585478694,0.0,True,0.011641979217529297,-1.2049999237060547,-0.8299995064735413,-0.7177030444145203,0.0,0.0,0.0
1759676244.0160756,0,-1.2049999237060547,-0.8299995064735413,-0.7177002639675365,0.0,True,0.02165508270263672,-1.2049999237060547,-0.8299995064735413,-0.7177030444145203,0.0,0.0,0.0
1759676244.0272818,0,-1.2049999237060547,-0.8299995064735413,-0.7177004881675941,0.0,True,0.01120615005493164,-1.2049999237060547,-0.8299995064735413,-0.7177030444145203,0.0,0.0,0.0
1759676244.0388117,0,-1.2049999237060547,-0.8299995064735413,-0.717700688513446,0.0,True,0.011529922485351562,-1.2049999237060547,-0.8299995064735413,-0.7177030444145203,0.0,0.0,0.0
1759676244.0491273,0,-1.2049999237060547,-0.8299995064735413,-0.7177008978464858,0.0,True,0.010315656661987305,-1.2049999237060547,-0.8299995064735413,-0.7177030444145203,0.0,0.0,0.0
1759676244.0602834,0,-1.2049999237060547,-0.8299995064735413,-0.7177010300942079,0.0,True,0.011156082153320312,-1.2049999237060547,-0.8299995064735413,-0.7177030444145203,0.0,0.0,0.0
1759676244.0715759,0,-1.2049999237060547,-0.8299995064735413,-0.7177011322581581,0.0,True,0.011292457580566406,-1.2049999237060547,-0.8299995064735413,-0.7177030444145203,0.0,0.0,0.0
1759676244.081683,0,-1.2049999237060547,-0.8299995064735413,-0.7177012629947601,0.0,True,0.010107040405273438,-1.2049999237060547,-0.8299995064735413,-0.7177030444145203,0.0,0.0,0.0
1759676244.0929978,0,-1.2049999237060547,-0.8299995064735413,-0.7177013289043614,0.0,True,0.011314868927001953,-1.2049999237060547,-0.8299995064735413,-0.7177030444145203,0.0,0.0,0.0
1759676244.1037416,0,-1.2049999237060547,-0.8299995064735413,-0.7177014071668033,0.0,True,0.010743856430053711,-1.2049999237060547,-0.8299995064735413,-0.7177030444145203,0.0,0.0,0.0
1759676244.115013,0,-1.2049999237060547,-0.8299995064735413,-0.7177014603389686,0.0,True,0.011271238327026367,-1.2049999237060547,-0.8299995064735413,-0.7177030444145203,0.0,0.0,0.0
1759676244.1250658,0,-1.2049999237060547,-0.8299995064735413,-0.7177015496629195,0.0,True,0.010052919387817383,-1.2049999237060547,-0.8299995064735413,-0.7177030444145203,0.0,0.0,0.0
1759676244.13625,0,-1.2049999237060547,-0.8299995064735413,-0.717701592192892,0.0,True,0.011184215545654297,-1.2049999237060547,-0.8299995064735413,-0.7177030444145203,0.0,0.0,0.0
1759676244.1475449,0,-1.2049999237060547,-0.8299995064735413,-0.7177016299378991,0.0,True,0.011294841766357422,-1.2049999237060547,-0.8299995064735413,-0.7177030444145203,0.0,0.0,0.0
1759676244.1588361,0,-1.2049999237060547,-0.8299995064735413,-0.7177016699351988,0.0,True,0.011291265487670898,-1.2049999237060547,-0.8299995064735413,-0.7177030444145203,0.0,0.0,0.0
1759676244.1692953,0,-1.2049999237060547,-0.8299995064735413,-0.7177017341995011,0.0,True,0.010459184646606445,-1.2049999237060547,-0.8299995064735413,-0.7177030444145203,0.0,0.0,0.0
1759676244.1805623,0,-1.2049999237060547,-0.8299995064735413,-0.7177017706299456,0.0,True,0.011266946792602539,-1.2049999237060547,-0.8299995064735413,-0.7177030444145203,0.0,0.0,0.0
1759676244.1919732,0,-1.2049999237060547,-0.8299995064735413,-0.7177018032479907,0.0,True,0.011410951614379883,-1.2049999237060547,-0.8299995064735413,-0.7177030444145203,0.0,0.0,0.0
1759676244.207103,0,-1.2049999237060547,-0.8299995064735413,-0.7177017476827174,0.0,True,0.015129804611206055,-1.2049999237060547,-0.8299995064735413,-0.7177030444145203,0.0,0.0,0.0
1759676244.2183623,0,-1.2049999237060547,-0.8299995064735413,-0.7177018137857587,0.0,True,0.011259317398071289,-1.2049999237060547,-0.8299995064735413,-0.7177030444145203,0.0,0.0,0.0
1759676244.229579,0,-1.2049999237060547,-0.8299995064735413,-0.7177018796983159,0.0,True,0.01121664047241211,-1.2049999237060547,-0.8299995064735413,-0.7177030444145203,0.0,0.0,0.0
1759676244.2408679,0,-1.2049999237060547,-0.8299995064735413,-0.7177019354073764,0.0,True,0.011288881301879883,-1.2049999237060547,-0.8299995064735413,-0.7177030444145203,0.0,0.0,0.0
1759676244.2522862,0,-1.2049999237060547,-0.8299995064735413,-0.7177019818595163,0.0,True,0.011418342590332031,-1.2049999237060547,-0.8299995064735413,-0.7177030444145203,0.0,0.0,0.0
1759676244.2628217,0,-1.2049999237060547,-0.8299995064735413,-0.7177020421190434,0.0,True,0.010535478591918945,-1.2049999237060547,-0.8299995064735413,-0.7177030444145203,0.0,0.0,0.0
1759676244.2741368,0,-1.2049999237060547,-0.8299995064735413,-0.7177020786517829,0.0,True,0.011315107345581055,-1.2049999237060547,-0.8299995064735413,-0.7177030444145203,0.0,0.0,0.0
1759676244.2842565,0,-1.2049999237060547,-0.8299995064735413,-0.7177021348315407,0.0,True,0.01011967658996582,-1.2049999237060547,-0.8299995064735413,-0.7177030444145203,0.0,0.0,0.0
1759676244.2955744,0,-1.2049999237060547,-0.8299995064735413,-0.7177021609222543,0.0,True,0.011317968368530273,-1.2049999237060547,-0.8299995064735413,-0.7177030444145203,0.0,0.0,0.0
1759676244.3069048,0,-1.2049999237060547,-0.8299995064735413,-0.7177021858510244,0.0,True,0.011330366134643555,-1.2049999237060547,-0.8299995064735413,-0.7177030444145203,0.0,0.0,0.0
1759676244.316909,0,-1.2049999237060547,-0.8299995064735413,-0.7177022342387822,0.0,True,0.010004281997680664,-1.2049999237060547,-0.8299995064735413,-0.7177030444145203,0.0,0.0,0.0
1759676244.3283412,0,-1.2049999237060547,-0.8299995064735413,-0.7177022524860845,0.0,True,0.011432170867919922,-1.2049999237060547,-0.8299995064735413,-0.7177030444145203,0.0,0.0,0.0
1759676244.3395345,0,-1.2049999237060547,-0.8299995064735413,-0.7177022751826385,0.0,True,0.011193275451660156,-1.2049999237060547,-0.8299995064735413,-0.7177030444145203,0.0,0.0,0.0
1759676244.350957,0,-1.2049999237060547,-0.8299995064735413,-0.7177022952005565,0.0,True,0.011422395706176758,-1.2049999237060547,-0.8299995064735413,-0.7177030444145203,0.0,0.0,0.0
1759676244.36232,0,-1.2049999237060547,-0.8299995064735413,-0.7177023173796648,0.0,True,0.011363029479980469,-1.2049999237060547,-0.8299995064735413,-0.7177030444145203,0.0,0.0,0.0
1759676244.3725417,0,-1.2049999237060547,-0.8299995064735413,-0.7177023565508662,0.0,True,0.010221719741821289,-1.2049999237060547,-0.8299995064735413,-0.7177030444145203,0.0,0.0,0.0
1759676244.3826616,0,-1.2049999237060547,-0.8299995064735413,-0.7177023922112102,0.0,True,0.010119915008544922,-1.2049999237060547,-0.8299995064735413,-0.7177030444145203,0.0,0.0,0.0
1759676244.3939118,0,-1.2049999237060547,-0.8299995064735413,-0.7177024072043601,0.0,True,0.01125025749206543,-1.2049999237060547,-0.8299995064735413,-0.7177030444145203,0.0,0.0,0.0
1759676244.4160216,0,-1.2049999237060547,-0.8299995064735413,-0.7177022859745357,0.0,True,0.0221097469329834,-1.2049999237060547,-0.8299995064735413,-0.7177030444145203,0.0,0.0,0.0
1759676244.4272945,0,-1.2049999237060547,-0.8299995064735413,-0.7177023430923128,0.0,True,0.011272907257080078,-1.2049999237060547,-0.8299995064735413,-0.7177030444145203,0.0,0.0,0.0
1759676244.437387,0,-1.2049999237060547,-0.8299995064735413,-0.7177024126654636,0.0,True,0.010092496871948242,-1.2049999237060547,-0.8299995064735413,-0.7177030444145203,0.0,0.0,0.0
1759676244.4481869,0,-1.2049999237060547,-0.8299995064735413,-0.7177024590591188,0.0,True,0.010799884796142578,-1.2049999237060547,-0.8299995064735413,-0.7177030444145203,0.0,0.0,0.0
1759676244.4594965,0,-1.2049999237060547,-0.8299995064735413,-0.7177024899571762,0.0,True,0.011309623718261719,-1.2049999237060547,-0.8299995064735413,-0.7177030444145203,0.0,0.0,0.0
1759676244.4705198,0,-1.2049999237060547,-0.8299995064735413,-0.717702518973077,0.0,True,0.011023283004760742,-1.2049999237060547,-0.8299995064735413,-0.7177030444145203,0.0,0.0,0.0
1759676244.4817164,0,-1.2049999237060547,-0.8299995064735413,-0.7177025423101053,0.0,True,0.011196613311767578,-1.2049999237060547,-0.8299995064735413,-0.7177030444145203,0.0,0.0,0.0
1759676244.4930327,0,-1.2049999237060547,-0.8299995064735413,-0.7177025619328887,0.0,True,0.011316299438476562,-1.2049999237060547,-0.8299995064735413,-0.7177030444145203,0.0,0.0,0.0
1759676244.503644,0,-1.2049999237060547,-0.8299995064735413,-0.717702586669084,0.0,True,0.010611295700073242,-1.2049999237060547,-0.8299995064735413,-0.7177030444145203,0.0,0.0,0.0
1759676244.5148277,0,-1.2049999237060547,-0.8299995064735413,-0.7177026031483003,0.0,True,0.011183738708496094,-1.2049999237060547,-0.8299995064735413,-0.7177030444145203,0.0,0.0,0.0
1759676244.5261042,0,-1.2049999237060547,-0.8299995064735413,-0.7177026175936447,0.0,True,0.011276483535766602,-1.2049999237060547,-0.8299995064735413,-0.7177030444145203,0.0,0.0,0.0
1759676244.5372696,0,-1.2049999237060547,-0.8299995064735413,-0.7177026326240128,0.0,True,0.011165380477905273,-1.2049999237060547,-0.8299995064735413,-0.7177030444145203,0.0,0.0,0.0
1759676244.5474932,0,-1.2049999237060547,-0.8299995064735413,-0.7177026547416645,0.0,True,0.010223627090454102,-1.2049999237060547,-0.8299995064735413,-0.7177030444145203,0.0,0.0,0.0
1759676244.5579336,0,-1.2049999237060547,-0.8299995064735413,-0.7177026722009856,0.0,True,0.010440349578857422,-1.2049999237060547,-0.8299995064735413,-0.7177030444145203,0.0,0.0,0.0
1759676244.5692303,0,-1.2049999237060547,-0.8299995064735413,-0.7177026808357319,0.0,True,0.011296749114990234,-1.2049999237060547,-0.8299995064735413,-0.7177030444145203,0.0,0.0,0.0
1759676244.5796444,0,-1.2049999237060547,-0.8299995064735413,-0.7177026963961293,0.0,True,0.01041412353515625,-1.2049999237060547,-0.8299995064735413,-0.7177030444145203,0.0,0.0,0.0
1759676244.59,0,-1.2049999237060547,-0.8299995064735413,-0.7177027111162175,0.0,True,0.010355472564697266,-1.2049999237060547,-0.8299995064735413,-0.7177030444145203,0.0,0.0,0.0
1759676244.6087754,0,-1.2049999237060547,-0.8299995064735413,-0.7177026670028379,0.0,True,0.018775463104248047,-1.2049999237060547,-0.8299995064735413,-0.7177030444145203,0.0,0.0,0.0
1759676244.6195762,0,-1.2049999237060547,-0.8299995064735413,-0.7177026921232894,0.0,True,0.010800838470458984,-1.2049999237060547,-0.8299995064735413,-0.7177030444145203,0.0,0.0,0.0
1759676244.6307225,0,-1.2049999237060547,-0.8299995064735413,-0.7177027145439769,0.0,True,0.011146306991577148,-1.2049999237060547,-0.8299995064735413,-0.7177030444145203,0.0,0.0,0.0
1759676244.640737,0,-1.2049999237060547,-0.8299995064735413,-0.7177027399643983,0.0,True,0.010014533996582031,-1.2049999237060547,-0.8299995064735413,-0.7177030444145203,0.0,0.0,0.0
1759676244.651483,0,-1.2049999237060547,-0.8299995064735413,-0.717702756121886,0.0,True,0.010746002197265625,-1.2049999237060547,-0.8299995064735413,-0.7177030444145203,0.0,0.0,0.0
1759676244.6616316,0,-1.2049999237060547,-0.8299995064735413,-0.7177027728752954,0.0,True,0.01014852523803711,-1.2049999237060547,-0.8299995064735413,-0.7177030444145203,0.0,0.0,0.0
1759676244.6720438,0,-1.2049999237060547,-0.8299995064735413,-0.7177027854569111,0.0,True,0.010412216186523438,-1.2049999237060547,-0.8299995064735413,-0.7177030444145203,0.0,0.0,0.0
1759676244.683534,0,-1.2049999237060547,-0.8299995064735413,-0.717702790539434,0.0,True,0.011490106582641602,-1.2049999237060547,-0.8299995064735413,-0.7177030444145203,0.0,0.0,0.0
1759676244.693969,0,-1.2049999237060547,-0.8299995064735413,-0.717702801581364,0.0,True,0.010435104370117188,-1.2049999237060547,-0.8299995064735413,-0.7177030444145203,0.0,0.0,0.0
1759676244.7042391,0,-1.2049999237060547,-0.8299995064735413,-0.7177028125801002,0.0,True,0.010270118713378906,-1.2049999237060547,-0.8299995064735413,-0.7177030444145203,0.0,0.0,0.0
1759676244.7156856,0,-1.2049999237060547,-0.8299995064735413,-0.7177028165862271,0.0,True,0.011446475982666016,-1.2049999237060547,-0.8299995064735413,-0.7177030444145203,0.0,0.0,0.0
1759676244.7269742,0,-1.2049999237060547,-0.8299995064735413,-0.7177028219735782,0.0,True,0.011288642883300781,-1.2049999237060547,-0.8299995064735413,-0.7177030444145203,0.0,0.0,0.0
1759676244.738422,0,-1.2049999237060547,-0.8299995064735413,-0.7177028272765575,0.0,True,0.011447668075561523,-1.2049999237060547,-0.8299995064735413,-0.7177030444145203,0.0,0.0,0.0
1759676244.7489157,0,-1.2049999237060547,-0.8299995064735413,-0.7177028372632286,0.0,True,0.010493755340576172,-1.2049999237060547,-0.8299995064735413,-0.7177030444145203,0.0,0.0,0.0
1759676244.759435,0,-1.2049999237060547,-0.8299995064735413,-0.7177028462381898,0.0,True,0.010519266128540039,-1.2049999237060547,-0.8299995064735413,-0.7177030444145203,0.0,0.0,0.0
1759676244.7707589,0,-1.2049999237060547,-0.8299995064735413,-0.7177028509562859,0.0,True,0.011323928833007812,-1.2049999237060547,-0.8299995064735413,-0.7177030444145203,0.0,0.0,0.0
1759676244.7822793,0,-1.2049999237060547,-0.8299995064735413,-0.7177028551489748,0.0,True,0.0115203857421875,-1.2049999237060547,-0.8299995064735413,-0.7177030444145203,0.0,0.0,0.0
1759676244.792568,0,-1.2049999237060547,-0.8299995064735413,-0.717702864599941,0.0,True,0.010288715362548828,-1.2049999237060547,-0.8299995064735413,-0.7177030444145203,0.0,0.0,0.0
1759676244.8248107,0,-1.2049999237060547,-0.8299995064735413,-0.7177027978370152,0.0,True,0.032242774963378906,-1.2049999237060547,-0.8299995064735413,-0.7177030444145203,0.0,0.0,0.0
1759676244.8360622,0,-1.2049999237060547,-0.8299995064735413,-0.7177028251783781,0.0,True,0.011251449584960938,-1.2049999237060547,-0.8299995064735413,-0.7177030444145203,0.0,0.0,0.0
1759676244.847385,0,-1.2049999237060547,-0.8299995064735413,-0.7177028505911274,0.0,True,0.011322736740112305,-1.2049999237060547,-0.8299995064735413,-0.7177030444145203,0.0,0.0,0.0
1759676244.8585756,0,-1.2049999237060547,-0.8299995064735413,-0.7177028701009505,0.0,True,0.011190652847290039,-1.2049999237060547,-0.8299995064735413,-0.7177030444145203,0.0,0.0,0.0
1759676244.8699641,0,-1.2049999237060547,-0.8299995064735413,-0.717702884316008,0.0,True,0.011388540267944336,-1.2049999237060547,-0.8299995064735413,-0.7177030444145203,0.0,0.0,0.0
1759676244.881645,0,-1.2049999237060547,-0.8299995064735413,-0.7177028946269068,0.0,True,0.011680841445922852,-1.2049999237060547,-0.8299995064735413,-0.7177030444145203,0.0,0.0,0.0
1759676244.8929,0,-1.2049999237060547,-0.8299995064735413,-0.7177029041713787,0.0,True,0.011255025863647461,-1.2049999237060547,-0.8299995064735413,-0.7177030444145203,0.0,0.0,0.0
1759676244.9042866,0,-1.2049999237060547,-0.8299995064735413,-0.7177029117666542,0.0,True,0.011386632919311523,-1.2049999237060547,-0.8299995064735413,-0.7177030444145203,0.0,0.0,0.0
1759676244.9156225,0,-1.2049999237060547,-0.8299995064735413,-0.7177029183444326,0.0,True,0.01133584976196289,-1.2049999237060547,-0.8299995064735413,-0.7177030444145203,0.0,0.0,0.0
1759676244.9270113,0,-1.2049999237060547,-0.8299995064735413,-0.7177029239494317,0.0,True,0.011388778686523438,-1.2049999237060547,-0.8299995064735413,-0.7177030444145203,0.0,0.0,0.0
1759676244.9384434,0,-1.2049999237060547,-0.8299995064735413,-0.7177029288590759,0.0,True,0.011432170867919922,-1.2049999237060547,-0.8299995064735413,-0.7177030444145203,0.0,0.0,0.0
1759676244.9496763,0,-1.2049999237060547,-0.8299995064735413,-0.7177029337939338,0.0,True,0.011232852935791016,-1.2049999237060547,-0.8299995064735413,-0.7177030444145203,0.0,0.0,0.0
1759676244.9609277,0,-1.2049999237060547,-0.8299995064735413,-0.7177029382399649,0.0,True,0.011251449584960938,-1.2049999237060547,-0.8299995064735413,-0.7177030444145203,0.0,0.0,0.0
1759676244.9720092,0,-1.2049999237060547,-0.8299995064735413,-0.7177029426645802,0.0,True,0.011081457138061523,-1.2049999237060547,-0.8299995064735413,-0.7177030444145203,0.0,0.0,0.0
1759676244.9834542,0,-1.2049999237060547,-0.8299995064735413,-0.7177029459723911,0.0,True,0.011445045471191406,-1.2049999237060547,-0.8299995064735413,-0.7177030444145203,0.0,0.0,0.0
1759676245.0147457,0,-1.2049999237060547,-0.8299995064735413,-0.717702913392511,0.0,True,0.03129148483276367,-1.2049999237060547,-0.8299995064735413,-0.7177030444145203,0.0,0,0
1759676245.0192533,0,-1.2049999237060547,-0.8299995064735413,-0.7177029392094134,0.0,True,0.004507541656494141,-1.2049999237060547,-0.8299995064735413,-0.7177030444145203,0.0,0,0
1759676245.0302222,0,-1.2049999237060547,-0.8299995064735413,-0.7177029496938712,0.0,True,0.010968923568725586,-1.2049999237060547,-0.8299995064735413,-0.7177030444145203,0.0,0,0
1759676245.0403981,0,-1.2049999237060547,-0.8299995064735413,-0.7177029582373216,0.0,True,0.010175943374633789,-1.2049999237060547,-0.8299995064735413,-0.7177030444145203,0.0,0,0
1759676245.0505803,0,-1.2049999237060547,-0.8299995064735413,-0.7177029647766133,0.0,True,0.01018214225769043,-1.2049999237060547,-0.8299995064735413,-0.7177030444145203,0.0,0,0
1759676245.061791,0,-1.2049999237060547,-0.8299995064735413,-0.7177029683199674,0.0,True,0.01121068000793457,-1.2049999237060547,-0.8299995064735413,-0.7177030444145203,0.0,0,0
1759676245.0730119,0,-1.2049999237060547,-0.8299995064735413,-0.7177029713116205,0.0,True,0.011220932006835938,-1.2049999237060547,-0.8299995064735413,-0.7177030444145203,0.0,0,0
1759676245.0842633,0,-1.2049999237060547,-0.8299995064735413,-0.717702974002961,0.0,True,0.011251449584960938,-1.2049999237060547,-0.8299995064735413,-0.7177030444145203,0.0,0,0
1759676245.0952692,0,-1.2049999237060547,-0.8299995064735413,-0.7177029768582077,0.0,True,0.011005878448486328,-1.2049999237060547,-0.8299995064735413,-0.7177030444145203,0.0,0,0
1759676245.1060328,0,-1.2049999237060547,-0.8299995064735413,-0.7177029797966767,0.0,True,0.01076364517211914,-1.2049999237060547,-0.8299995064735413,-0.7177030444145203,0.0,0,0
1759676245.1166806,0,-1.2049999237060547,-0.8299995064735413,-0.7177029825740906,0.0,True,0.010647773742675781,-1.2049999237060547,-0.8299995064735413,-0.7177030444145203,0.0,0,0
1759676245.1273522,0,-1.2049999237060547,-0.8299995064735413,-0.717702985014455,0.0,True,0.010671615600585938,-1.2049999237060547,-0.8299995064735413,-0.7177030444145203,0.0,0,0
1759676245.1381493,0,-1.2049999237060547,-0.8299995064735413,-0.7177029870674758,0.0,True,0.01079702377319336,-1.2049999237060547,-0.8299995064735413,-0.7177030444145203,0.0,0,0
1759676245.1483333,0,-1.2049999237060547,-0.8299995064735413,-0.7177029897096077,0.0,True,0.010184049606323242,-1.2049999237060547,-0.8299995064735413,-0.7177030444145203,0.0,0,0
1759676245.15898,0,-1.2049999237060547,-0.8299995064735413,-0.7177029915150754,0.0,True,0.010646581649780273,-1.2049999237060547,-0.8299995064735413,-0.7177030444145203,0.0,0,0
1759676245.1696732,0,-1.2049999237060547,-0.8299995064735413,-0.7177029931394756,0.0,True,0.01069331169128418,-1.2049999237060547,-0.8299995064735413,-0.7177030444145203,0.0,0,0
1759676245.1804717,0,-1.2049999237060547,-0.8299995064735413,-0.7177029946033517,0.0,True,0.010798454284667969,-1.2049999237060547,-0.8299995064735413,-0.7177030444145203,0.0,0,0
1759676245.1909285,0,-1.2049999237060547,-0.8299995064735413,-0.7177029964174295,0.0,True,0.01045680046081543,-1.2049999237060547,-0.8299995064735413,-0.7177030444145203,0.0,0,0
1759676245.2019484,0,-1.2049999237060547,-0.8299995064735413,-0.7177029975534737,0.0,True,0.01101994514465332,-1.2049999237060547,-0.8299995064735413,-0.7177030444145203,0.0,0,0
1759676245.2333853,0,-1.2049999237060547,-0.8299995064735413,-0.7177029800887027,0.0,True,0.031436920166015625,-1.2049999237060547,-0.8299995064735413,-0.7177030444145203,0.0,0,0
1759676245.244149,0,-1.2049999237060547,-0.8299995064735413,-0.717702987266069,0.0,True,0.01076364517211914,-1.2049999237060547,-0.8299995064735413,-0.7177030444145203,0.0,0,0
1759676245.2549248,0,-1.2049999237060547,-0.8299995064735413,-0.7177029939705335,0.0,True,0.01077580451965332,-1.2049999237060547,-0.8299995064735413,-0.7177030444145203,0.0,0,0
1759676245.2656593,0,-1.2049999237060547,-0.8299995064735413,-0.7177029990291821,0.0,True,0.01073455810546875,-1.2049999237060547,-0.8299995064735413,-0.7177030444145203,0.0,0,0
1759676245.2763305,0,-1.2049999237060547,-0.8299995064735413,-0.7177030028880722,0.0,True,0.010671138763427734,-1.2049999237060547,-0.8299995064735413,-0.7177030444145203,0.0,0,0
1759676245.2870467,0,-1.2049999237060547,-0.8299995064735413,-0.7177030058351299,0.0,True,0.01071619987487793,-1.2049999237060547,-0.8299995064735413,-0.7177030444145203,0.0,0,0
1759676245.2983456,0,-1.2049999237060547,-0.8299995064735413,-0.7177030077631201,0.0,True,0.011298894882202148,-1.2049999237060547,-0.8299995064735413,-0.7177030444145203,0.0,0,0
1759676245.3091185,0,-1.2049999237060547,-0.8299995064735413,-0.7177030097583081,0.0,True,0.010772943496704102,-1.2049999237060547,-0.8299995064735413,-0.7177030444145203,0.0,0,0
1759676245.3198447,0,-1.2049999237060547,-0.8299995064735413,-0.7177030114935903,0.0,True,0.010726213455200195,-1.2049999237060547,-0.8299995064735413,-0.7177030444145203,0.0,0,0
1759676245.3300965,0,-1.2049999237060547,-0.8299995064735413,-0.7177030132886166,0.0,True,0.010251760482788086,-1.2049999237060547,-0.8299995064735413,-0.7177030444145203,0.0,0,0
1759676245.340309,0,-1.2049999237060547,-0.8299995064735413,-0.7177030148309083,0.0,True,0.010212421417236328,-1.2049999237060547,-0.8299995064735413,-0.7177030444145203,0.0,0,0
1759676245.3510413,0,-1.2049999237060547,-0.8299995064735413,-0.7177030158214066,0.0,True,0.010732412338256836,-1.2049999237060547,-0.8299995064735413,-0.7177030444145203,0.0,0,0
1759676245.3613775,0,-1.2049999237060547,-0.8299995064735413,-0.7177030169678567,0.0,True,0.010336160659790039,-1.2049999237060547,-0.8299995064735413,-0.7177030444145203,0.0,0,0
1759676245.3722868,0,-1.2049999237060547,-0.8299995064735413,-0.7177030176789589,0.0,True,0.010909318923950195,-1.2049999237060547,-0.8299995064735413,-0.7177030444145203,0.0,0,0
1759676245.3834884,0,-1.2049999237060547,-0.8299995064735413,-0.7177030182289172,0.0,True,0.011201620101928711,-1.2049999237060547,-0.8299995064735413,-0.7177030444145203,0.0,0,0
1759676245.3936934,0,-1.2049999237060547,-0.8299995064735413,-0.7177030193852971,0.0,True,0.01020503044128418,-1.2049999237060547,-0.8299995064735413,-0.7177030444145203,0.0,0,0
1759676245.4044132,0,-1.2049999237060547,-0.8299995064735413,-0.717703020168468,0.0,True,0.010719776153564453,-1.2049999237060547,-0.8299995064735413,-0.7177030444145203,0.0,0,0
1759676245.4156456,0,-1.2049999237060547,-0.8299995064735413,-0.7177030206511574,0.0,True,0.011232376098632812,-1.2049999237060547,-0.8299995064735413,-0.7177030444145203,0.0,0,0
1759676245.426414,0,-1.2049999237060547,-0.8299995064735413,-0.717703021423219,0.0,True,0.010768413543701172,-1.2049999237060547,-0.8299995064735413,-0.7177030444145203,0.0,0,0
1759676245.4368012,0,-1.2049999237060547,-0.8299995064735413,-0.717703022366976,0.0,True,0.010387182235717773,-1.2049999237060547,-0.8299995064735413,-0.7177030444145203,0.0,0,0
1759676245.447573,0,-1.2049999237060547,-0.8299995064735413,-0.7177030230503547,0.0,True,0.010771751403808594,-1.2049999237060547,-0.8299995064735413,-0.7177030444145203,0.0,0,0
1759676245.458083,0,-1.2049999237060547,-0.8299995064735413,-0.7177030238225903,0.0,True,0.010509967803955078,-1.2049999237060547,-0.8299995064735413,-0.7177030444145203,0.0,0,0
1759676245.4690852,0,-1.2049999237060547,-0.8299995064735413,-0.7177030243367568,0.0,True,0.011002302169799805,-1.2049999237060547,-0.8299995064735413,-0.7177030444145203,0.0,0,0
1759676245.479919,0,-1.2049999237060547,-0.8299995064735413,-0.7177030249390306,0.0,True,0.010833740234375,-1.2049999237060547,-0.8299995064735413,-0.7177030444145203,0.0,0,0
1759676245.4906209,0,-1.2049999237060547,-0.8299995064735413,-0.7177030255968901,0.0,True,0.010701894760131836,-1.2049999237060547,-0.8299995064735413,-0.7177030444145203,0.0,0,0
1759676245.5015855,0,-1.2049999237060547,-0.8299995064735413,-0.7177030261283264,0.0,True,0.010964632034301758,-1.2049999237060547,-0.8299995064735413,-0.7177030444145203,0.0,0,0
1759676245.5123851,0,-1.2049999237060547,-0.8299995064735413,-0.7177030267259958,0.0,True,0.010799646377563477,-1.2049999237060547,-0.8299995064735413,-0.7177030444145203,0.0,0,0
1759676245.5227416,0,-1.2049999237060547,-0.8299995064735413,-0.7177030274714635,0.0,True,0.010356426239013672,-1.2049999237060547,-0.8299995064735413,-0.7177030444145203,0.0,0,0
1759676245.53363,0,-1.2049999237060547,-0.8299995064735413,-0.7177030279614733,0.0,True,0.010888338088989258,-1.2049999237060547,-0.8299995064735413,-0.7177030444145203,0.0,0,0
1759676245.5445056,0,-1.2049999237060547,-0.8299995064735413,-0.717703028447108,0.0,True,0.010875701904296875,-1.2049999237060547,-0.8299995064735413,-0.7177030444145203,0.0,0,0
1759676245.555218,0,-1.2049999237060547,-0.8299995064735413,-0.7177030289889252,0.0,True,0.010712385177612305,-1.2049999237060547,-0.8299995064735413,-0.7177030444145203,0.0,0,0
1759676245.5662773,0,-1.2049999237060547,-0.8299995064735413,-0.7177030294018163,0.0,True,0.011059284210205078,-1.2049999237060547,-0.8299995064735413,-0.7177030444145203,0.0,0,0
1759676245.5772207,0,-1.2049999237060547,-0.8299995064735413,-0.7177030298624274,0.0,True,0.010943412780761719,-1.2049999237060547,-0.8299995064735413,-0.7177030444145203,0.0,0,0
1759676245.5880787,0,-1.2049999237060547,-0.8299995064735413,-0.7177030303500089,0.0,True,0.01085805892944336,-1.2049999237060547,-0.8299995064735413,-0.7177030444145203,0.0,0,0
1759676245.5988874,0,-1.2049999237060547,-0.8299995064735413,-0.717703030838198,0.0,True,0.010808706283569336,-1.2049999237060547,-0.8299995064735413,-0.7177030444145203,0.0,0,0
1759676245.624181,0,-1.2049999237060547,-0.8299995064735413,-0.7177030274607592,0.0,True,0.025293588638305664,-1.2049999237060547,-0.8299995064735413,-0.7177030444145203,0.0,0,0
1759676245.6350791,0,-1.2049999237060547,-0.8299995064735413,-0.7177030290375015,0.0,True,0.010898113250732422,-1.2049999237060547,-0.8299995064735413,-0.7177030444145203,0.0,0,0
1759676245.6458132,0,-1.2049999237060547,-0.8299995064735413,-0.7177030305721459,0.0,True,0.010734081268310547,-1.2049999237060547,-0.8299995064735413,-0.7177030444145203,0.0,0,0
1759676245.6563277,0,-1.2049999237060547,-0.8299995064735413,-0.717703031805911,0.0,True,0.010514497756958008,-1.2049999237060547,-0.8299995064735413,-0.7177030444145203,0.0,0,0
1759676245.667035,0,-1.2049999237060547,-0.8299995064735413,-0.7177030327138993,0.0,True,0.010707378387451172,-1.2049999237060547,-0.8299995064735413,-0.7177030444145203,0.0,0,0
1759676245.6773932,0,-1.2049999237060547,-0.8299995064735413,-0.7177030335091796,0.0,True,0.010358095169067383,-1.2049999237060547,-0.8299995064735413,-0.7177030444145203,0.0,0,0
1759676245.6878226,0,-1.2049999237060547,-0.8299995064735413,-0.7177030341369761,0.0,True,0.01042938232421875,-1.2049999237060547,-0.8299995064735413,-0.7177030444145203,0.0,0,0
1759676245.6979914,0,-1.2049999237060547,-0.8299995064735413,-0.7177030347084798,0.0,True,0.010168790817260742,-1.2049999237060547,-0.8299995064735413,-0.7177030444145203,0.0,0,0
1759676245.7087817,0,-1.2049999237060547,-0.8299995064735413,-0.717703035063515,0.0,True,0.010790348052978516,-1.2049999237060547,-0.8299995064735413,-0.7177030444145203,0.0,0,0
1759676245.720129,0,-1.2049999237060547,-0.8299995064735413,-0.7177030352775766,0.0,True,0.011347293853759766,-1.2049999237060547,-0.8299995064735413,-0.7177030444145203,0.0,0,0
1759676245.7310395,0,-1.2049999237060547,-0.8299995064735413,-0.7177030355881371,0.0,True,0.010910511016845703,-1.2049999237060547,-0.8299995064735413,-0.7177030444145203,0.0,0,0
1759676245.7419329,0,-1.2049999237060547,-0.8299995064735413,-0.7177030358951306,0.0,True,0.01089334487915039,-1.2049999237060547,-0.8299995064735413,-0.7177030444145203,0.0,0,0
1759676245.7527642,0,-1.2049999237060547,-0.8299995064735413,-0.7177030361986976,0.0,True,0.010831356048583984,-1.2049999237060547,-0.8299995064735413,-0.7177030444145203,0.0,0,0
1759676245.7639334,0,-1.2049999237060547,-0.8299995064735413,-0.7177030364295884,0.0,True,0.011169195175170898,-1.2049999237060547,-0.8299995064735413,-0.7177030444145203,0.0,0,0
1759676245.7752821,0,-1.2049999237060547,-0.8299995064735413,-0.7177030366343189,0.0,True,0.011348724365234375,-1.2049999237060547,-0.8299995064735413,-0.7177030444145203,0.0,0,0
1759676245.7862005,0,-1.2049999237060547,-0.8299995064735413,-0.7177030369189836,0.0,True,0.010918378829956055,-1.2049999237060547,-0.8299995064735413,-0.7177030444145203,0.0,0,0
1759676245.797042,0,-1.2049999237060547,-0.8299995064735413,-0.7177030372038011,0.0,True,0.01084136962890625,-1.2049999237060547,-0.8299995064735413,-0.7177030444145203,0.0,0,0
1759676245.8077826,0,-1.2049999237060547,-0.8299995064735413,-0.717703037483993,0.0,True,0.01074075698852539,-1.2049999237060547,-0.8299995064735413,-0.7177030444145203,0.0,0,0
1759676245.8263772,0,-1.2049999237060547,-0.8299995064735413,-0.7177030366616535,0.0,True,0.01859450340270996,-1.2049999237060547,-0.8299995064735413,-0.7177030444145203,0.0,0,0
1759676245.8377898,0,-1.2049999237060547,-0.8299995064735413,-0.7177030371244513,0.0,True,0.011412620544433594,-1.2049999237060547,-0.8299995064735413,-0.7177030444145203,0.0,0,0
1759676245.8486419,0,-1.2049999237060547,-0.8299995064735413,-0.7177030376602449,0.0,True,0.01085209846496582,-1.2049999237060547,-0.8299995064735413,-0.7177030444145203,0.0,0,0
1759676245.8595371,0,-1.2049999237060547,-0.8299995064735413,-0.7177030380941396,0.0,True,0.010895252227783203,-1.2049999237060547,-0.8299995064735413,-0.7177030444145203,0.0,0,0
1759676245.8701885,0,-1.2049999237060547,-0.8299995064735413,-0.7177030384780316,0.0,True,0.010651350021362305,-1.2049999237060547,-0.8299995064735413,-0.7177030444145203,0.0,0,0
1759676245.8809302,0,-1.2049999237060547,-0.8299995064735413,-0.7177030387861052,0.0,True,0.010741710662841797,-1.2049999237060547,-0.8299995064735413,-0.7177030444145203,0.0,0,0
1759676245.8912406,0,-1.2049999237060547,-0.8299995064735413,-0.7177030390955288,0.0,True,0.01031041145324707,-1.2049999237060547,-0.8299995064735413,-0.7177030444145203,0.0,0,0
1759676245.9020677,0,-1.2049999237060547,-0.8299995064735413,-0.7177030393022577,0.0,True,0.010827064514160156,-1.2049999237060547,-0.8299995064735413,-0.7177030444145203,0.0,0,0
1759676245.9123502,0,-1.2049999237060547,-0.8299995064735413,-0.7177030395439292,0.0,True,0.010282516479492188,-1.2049999237060547,-0.8299995064735413,-0.7177030444145203,0.0,0,0
1759676245.9232292,0,-1.2049999237060547,-0.8299995064735413,-0.717703039696616,0.0,True,0.010879039764404297,-1.2049999237060547,-0.8299995064735413,-0.7177030444145203,0.0,0,0
1759676245.9339824,0,-1.2049999237060547,-0.8299995064735413,-0.7177030398538058,0.0,True,0.010753154754638672,-1.2049999237060547,-0.8299995064735413,-0.7177030444145203,0.0,0,0
1759676245.944655,0,-1.2049999237060547,-0.8299995064735413,-0.7177030400128306,0.0,True,0.010672569274902344,-1.2049999237060547,-0.8299995064735413,-0.7177030444145203,0.0,0,0
1759676245.9555557,0,-1.2049999237060547,-0.8299995064735413,-0.7177030401429274,0.0,True,0.010900735855102539,-1.2049999237060547,-0.8299995064735413,-0.7177030444145203,0.0,0,0
1759676245.9663453,0,-1.2049999237060547,-0.8299995064735413,-0.7177030402815276,0.0,True,0.010789632797241211,-1.2049999237060547,-0.8299995064735413,-0.7177030444145203,0.0,0,0
1759676245.976641,0,-1.2049999237060547,-0.8299995064735413,-0.7177030404587565,0.0,True,0.010295629501342773,-1.2049999237060547,-0.8299995064735413,-0.7177030444145203,0.0,0,0
1759676245.9875686,0,-1.2049999237060547,-0.8299995064735413,-0.717703040566839,0.0,True,0.010927677154541016,-1.2049999237060547,-0.8299995064735413,-0.7177030444145203,0.0,0,0
1759676245.9982128,0,-1.2049999237060547,-0.8299995064735413,-0.7177030406969074,0.0,True,0.010644197463989258,-1.2049999237060547,-0.8299995064735413,-0.7177030444145203,0.0,0,0
1759676246.0089076,0,-1.2049999237060547,-0.8299995064735413,-0.7177030408187264,0.0,True,0.010694742202758789,-1.2049999237060547,-0.8299995064735413,-0.7177030444145203,0.0,0.5235987755982988,0.029605518357260815
1759676246.0200138,0,-1.2049999237060547,-0.8299995064735413,-0.7177030409054304,0.0,True,0.011106252670288086,-1.2049999237060547,-0.8299995064735413,-0.7177030444145203,0.0,0.5235987755982988,0.02873231552148599
1759676246.0308096,0,-1.2049999237060547,-0.8299995064735413,-0.7177030410200445,0.0,True,0.010795831680297852,-1.2049999237060547,-0.8299995064735413,-0.7177030444145203,0.0,0.5235987755982988,0.029602611996349597
1759676246.0412314,0,-1.2049999237060547,-0.8299995064735413,-0.7177030411592114,0.0,True,0.0104217529296875,-1.2049999237060547,-0.8299995064735413,-0.7177030444145203,0.0,0.5235987755982988,0.030975324696388796
1759676246.051979,0,-1.2049999237060547,-0.8299995064735413,-0.7177030412646452,0.0,True,0.010747671127319336,-1.2049999237060547,-0.8299995064735413,-0.7177030444145203,0.0,0.5235987755982988,0.03276652683128264
1759676246.06273,0,-1.2049999237060547,-0.8299995064735413,-0.7177030413651924,0.0,True,0.010751008987426758,-1.2049999237060547,-0.8299995064735413,-0.7177030444145203,0.0,0.5235987755982988,0.03376092864714904
1759676246.073434,0,-1.2049999237060547,-0.8299995064735413,-0.7177030414662617,0.0,True,0.01070404052734375,-1.2049999237060547,-0.8299995064735413,-0.7177030444145203,0.0,0.5235987755982988,0.03125430721538829
1759676246.0841544,0,-1.2049999237060547,-0.8299995064735413,-0.7177030415629986,0.0,True,0.010720252990722656,-1.2049999237060547,-0.8299995064735413,-0.7177030444145203,0.0,0.5235987755982988,0.0325904490953845
1759676246.0952947,0,-1.2049999237060547,-0.8299995064735413,-0.7177030416318502,0.0,True,0.01114034652709961,-1.2049999237060547,-0.8299995064735413,-0.7177030444145203,0.0,0.5235987755982988,0.03210719368388069
1759676246.106492,0,-1.2049999237060547,-0.8299995064735413,-0.7177030417022152,0.0,True,0.011197328567504883,-1.2049999237060547,-0.8299995064735413,-0.7177030444145203,0.0,0.5235987755982988,0.033817890114926266
1759676246.117149,0,-1.2049999237060547,-0.8299995064735413,-0.7177030418077575,0.0,True,0.010657072067260742,-1.2049999237060547,-0.8299995064735413,-0.7177030444145203,0.0,0.5235987755982988,0.03355198076762208
1759676246.127895,0,-1.2049999237060547,-0.8299995064735413,-0.7177030419027055,0.0,True,0.010746002197265625,-1.2049999237060547,-0.8299995064735413,-0.7177030444145203,0.0,0.5235987755982988,0.03221253345389064
1759676246.1386778,0,-1.2049999237060547,-0.8299995064735413,-0.7177030419898749,0.0,True,0.010782718658447266,-1.2049999237060547,-0.8299995064735413,-0.7177030444145203,0.0,0.5235987755982988,0.03406682862798023
1759676246.1494787,0,-1.2049999237060547,-0.8299995064735413,-0.7177030420720509,0.0,True,0.010800838470458984,-1.2049999237060547,-0.8299995064735413,-0.7177030444145203,0.0,0.5235987755982988,0.03225184299487696
1759676246.160432,0,-1.2049999237060547,-0.8299995064735413,-0.7177030421437713,0.0,True,0.010953426361083984,-1.2049999237060547,-0.8299995064735413,-0.7177030444145203,0.0,0.5235987755982988,0.03497306831264077
1759676246.1713107,0,-1.2049999237060547,-0.8299995064735413,-0.7177030422184139,0.0,True,0.010878562927246094,-1.2049999237060547,-0.8299995064735413,-0.7177030444145203,0.0,0.5235987755982988,0.031590201678809424
1759676246.182042,0,-1.2049999237060547,-0.8299995064735413,-0.7177030422980923,0.0,True,0.010731220245361328,-1.2049999237060547,-0.8299995064735413,-0.7177030444145203,0.0,0.5235987755982988,0.0330386875309515
1759676246.1927783,0,-1.2049999237060547,-0.8299995064735413,-0.7177030423734685,0.0,True,0.010736465454101562,-1.2049999237060547,-0.8299995064735413,-0.7177030444145203,0.0,0.5235987755982988,0.03355767568898727
1759676246.2040675,0,-1.2049999237060547,-0.8299995064735413,-0.717703042421757,0.0,True,0.011289119720458984,-1.2049999237060547,-0.8299995064735413,-0.7177030444145203,0.0,0.5235987755982988,0.02982357323795691
1759676246.2198513,0,-1.2011670480710612,-0.8333141039931152,-0.7147641550204753,0.038537590632157975,True,0.01578378677368164,-1.1990814208984375,-0.8351154327392578,-0.7075440287590027,0.038537590632157975,0.5235987755982988,0.03116071706506536
1759676246.2307348,0,-1.1997570546294976,-0.8345323815405071,-0.712555313441257,0.038537590632157975,True,0.010883569717407227,-1.1990814208984375,-0.8351154327392578,-0.7075440287590027,0.038537590632157975,0.5235987755982988,0.03152597260790737
1759676246.2416394,0,-1.199218025091948,-0.8349976627210979,-0.7109214425471961,0.038537590632157975,True,0.010904550552368164,-1.1990814208984375,-0.8351154327392578,-0.7075440287590027,0.038537590632157975,0.5235987755982988,0.03221310062993761
1759676246.2526264,0,-1.1990110468589554,-0.8351759829265774,-0.7097367576238227,0.038537590632157975,True,0.010987043380737305,-1.1990814208984375,-0.8351154327392578,-0.7075440287590027,0.038537590632157975,0.5235987755982988,0.029786859030490033
1759676246.263418,0,-1.1989340489980909,-0.8352420779081738,-0.7088870994845848,0.038537590632157975,True,0.010791540145874023,-1.1990814208984375,-0.8351154327392578,-0.7075440287590027,0.038537590632157975,0.5235987755982988,0.03189471876397664
1759676246.2740521,0,-1.1989063107192768,-0.8352657159006636,-0.7082786005924149,0.038537590632157975,True,0.010634183883666992,-1.1990814208984375,-0.8351154327392578,-0.7075440287590027,0.038537590632157975,0.5235987755982988,0.030555810384811005
1759676246.2849014,0,-1.1988932512320598,-0.8352767339006784,-0.707835395946784,0.038537590632157975,True,0.010849237442016602,-1.1990814208984375,-0.8351154327392578,-0.7075440287590027,0.038537590632157975,0.5235987755982988,0.02890518526953731
1759676246.2958126,0,-1.1988875248845836,-0.835281483377247,-0.7075180514535031,0.038537590632157975,True,0.010911226272583008,-1.1990814208984375,-0.8351154327392578,-0.7075440287590027,0.038537590632157975,0.5235987755982988,0.029890066934393757
1759676246.306536,0,-1.19888740675302,-0.8352814619860875,-0.707298298340616,0.038537590632157975,True,0.010723352432250977,-1.1990814208984375,-0.8351154327392578,-0.7075440287590027,0.038537590632157975,0.5235987755982988,0.030380365680713402
1759676246.3178961,0,-1.1988802153629063,-0.83528752038054,-0.7071270830450942,0.038537590632157975,True,0.01136016845703125,-1.1990814208984375,-0.8351154327392578,-0.7075440287590027,0.038537590632157975,0.5235987755982988,0.029792578523387882
1759676246.3283842,0,-1.1988872087337687,-0.835281471495796,-0.707033886129171,0.038537590632157975,True,0.010488033294677734,-1.1990814208984375,-0.8351154327392578,-0.7075440287590027,0.038537590632157975,0.5235987755982988,0.028005396490424612
1759676246.339594,0,-1.1988817951897153,-0.8352860524964064,-0.7069497621289837,0.038537590632157975,True,0.011209726333618164,-1.1990814208984375,-0.8351154327392578,-0.7075440287590027,0.038537590632157975,0.5235987755982988,0.029057849901194005
1759676246.3499415,0,-1.1988893663890594,-0.8352795476977152,-0.7069188452381816,0.038537590632157975,True,0.010347604751586914,-1.1990814208984375,-0.8351154327392578,-0.7075440287590027,0.038537590632157975,0.5235987755982988,0.02802433907305052
1759676246.360863,0,-1.1988858331444388,-0.8352825472782988,-0.7068837194273598,0.038537590632157975,True,0.010921478271484375,-1.1990814208984375,-0.8351154327392578,-0.7075440287590027,0.038537590632157975,0.5235987755982988,0.02867505907553867
1759676246.3722286,0,-1.1988795092424414,-0.8352879362451392,-0.706855832593611,0.038537590632157975,True,0.011365652084350586,-1.1990814208984375,-0.8351154327392578,-0.7075440287590027,0.038537590632157975,0.5235987755982988,0.027702711510620856
1759676246.3831983,0,-1.1988815228179504,-0.8352862046181715,-0.7068532375936432,0.038537590632157975,True,0.01096963882446289,-1.1990814208984375,-0.8351154327392578,-0.7075440287590027,0.038537590632157975,0.5235987755982988,0.028108140794449708
1759676246.3940368,0,-1.198883759233495,-0.8352842890520545,-0.7068580432675962,0.038537590632157975,True,0.010838508605957031,-1.1990814208984375,-0.8351154327392578,-0.7075440287590027,0.038537590632157975,0.5235987755982988,0.027180900767933322
1759676246.4049067,0,-1.1988842617797573,-0.8352838589074545,-0.7068651179976833,0.038537590632157975,True,0.010869979858398438,-1.1990814208984375,-0.8351154327392578,-0.7075440287590027,0.038537590632157975,0.5235987755982988,0.02921825744925285
1759676246.4330466,0,-1.1879659802876363,-0.8442020783345742,-0.692664097128791,0.09800749687904803,True,0.028139829635620117,-1.1825147867202759,-0.8486075401306152,-0.6613467931747437,0.09800749687904803,0.5235987755982988,0.030897088759641138
1759676246.4439905,0,-1.1842815170142196,-0.8471862300090288,-0.6826701997614322,0.09800749687904803,True,0.010943889617919922,-1.1825147867202759,-0.8486075401306152,-0.6613467931747437,0.09800749687904803,0.5235987755982988,0.02786158327051297
1759676246.4549048,0,-1.1828725066256374,-0.8483222935160009,-0.6753533648605412,0.09800749687904803,True,0.010914325714111328,-1.1825147867202759,-0.8486075401306152,-0.6613467931747437,0.09800749687904803,0.5235987755982988,0.026750490354674
1759676246.465837,0,-1.1823319601323599,-0.848754380752963,-0.6701348342131084,0.09800749687904803,True,0.010932207107543945,-1.1825147867202759,-0.8486075401306152,-0.6613467931747437,0.09800749687904803,0.5235987755982988,0.030446457091130953
1759676246.4766135,0,-1.1821287596224013,-0.8489141740111711,-0.6664294162860234,0.09800749687904803,True,0.010776519775390625,-1.1825147867202759,-0.8486075401306152,-0.6613467931747437,0.09800749687904803,0.5235987755982988,0.031047706736881273
1759676246.4872997,0,-1.1820528991436694,-0.8489719737266881,-0.6637926708036161,0.09800749687904803,True,0.010686159133911133,-1.1825147867202759,-0.8486075401306152,-0.6613467931747437,0.09800749687904803,0.5235987755982988,0.02964174388120596
1759676246.4984384,0,-1.182009947636959,-0.8490036823916928,-0.6618583134043803,0.09800749687904803,True,0.011138677597045898,-1.1825147867202759,-0.8486075401306152,-0.6613467931747437,0.09800749687904803,0.5235987755982988,0.028700139919353454
1759676246.5091496,0,-1.1820056788931286,-0.8490053353364796,-0.6605388010917643,0.09800749687904803,True,0.010711193084716797,-1.1825147867202759,-0.8486075401306152,-0.6613467931747437,0.09800749687904803,0.5235987755982988,0.02779787300449675
1759676246.5210094,0,-1.1819697836430199,-0.8490319552915034,-0.6594758872574644,0.09800749687904803,True,0.011859893798828125,-1.1825147867202759,-0.8486075401306152,-0.6613467931747437,0.09800749687904803,0.5235987755982988,0.02767771899772562
1759676246.5317807,0,-1.1819879897371837,-0.84901677915324,-0.6588718152235913,0.09800749687904803,True,0.01077127456665039,-1.1825147867202759,-0.8486075401306152,-0.6613467931747437,0.09800749687904803,0.5235987755982988,0.030045885846834604
1759676246.5427167,0,-1.1819899234652909,-0.8490145725585205,-0.6584370459899773,0.09800749687904803,True,0.01093602180480957,-1.1825147867202759,-0.8486075401306152,-0.6613467931747437,0.09800749687904803,0.5235987755982988,0.029894636599390196
1759676246.5538075,0,-1.181985976220705,-0.8490171394207752,-0.6581357722983388,0.09800749687904803,True,0.011090755462646484,-1.1825147867202759,-0.8486075401306152,-0.6613467931747437,0.09800749687904803,0.5235987755982988,0.027881221162132507
1759676246.5652602,0,-1.1819736792529882,-0.849026315751759,-0.6579119347328461,0.09800749687904803,True,0.011452674865722656,-1.1825147867202759,-0.8486075401306152,-0.6613467931747437,0.09800749687904803,0.5235987755982988,0.027696227658686998
1759676246.5760489,0,-1.1819885879375418,-0.8490145401848043,-0.6578551246943078,0.09800749687904803,True,0.010788679122924805,-1.1825147867202759,-0.8486075401306152,-0.6613467931747437,0.09800749687904803,0.5235987755982988,0.028640298511028464
1759676246.5862813,0,-1.1820107410917702,-0.8489972867149099,-0.6578924501751438,0.09800749687904803,True,0.01023244857788086,-1.1825147867202759,-0.8486075401306152,-0.6613467931747437,0.09800749687904803,0.5235987755982988,0.029509378932814738
1759676246.5968955,0,-1.182007908279229,-0.8489994498440488,-0.6578995762969733,0.09800749687904803,True,0.010614156723022461,-1.1825147867202759,-0.8486075401306152,-0.6613467931747437,0.09800749687904803,0.5235987755982988,0.028124818788028083
1759676246.6077702,0,-1.1819991119488993,-0.8490062474525377,-0.657908263740481,0.09800749687904803,True,0.010874748229980469,-1.1825147867202759,-0.8486075401306152,-0.6613467931747437,0.09800749687904803,0.5235987755982988,0.02919692489065972
1759676246.6220603,0,-1.169476360479488,-0.8581024050851631,-0.6409018490290066,0.13054536584758766,True,0.014290094375610352,-1.1626498699188232,-0.8630200624465942,-0.6001355051994324,0.13054536584758766,0.5235987755982988,0.029415575130928875
1759676246.63229,0,-1.1648482462056278,-0.8614463439773956,-0.6278152253774838,0.13054536584758766,True,0.01022958755493164,-1.1626498699188232,-0.8630200624465942,-0.6001355051994324,0.13054536584758766,0.5235987755982988,0.027851987759951926
