timestamp,observer_vehicle_id,vehicle_0_x,vehicle_0_y,vehicle_0_theta,vehicle_0_velocity,vehicle_1_x,vehicle_1_y,vehicle_1_theta,vehicle_1_velocity,vehicle_2_x,vehicle_2_y,vehicle_2_theta,vehicle_2_velocity,vehicle_3_x,vehicle_3_y,vehicle_3_theta,vehicle_3_velocity
1759830036.9265573,1,0.0,0.0,0.0,0.0,8.0,6.0,-0.05483113549895436,0.0,0.0,0.0,0.0,0.0,0.0,0.0,0.0,0.0
1759830036.9379456,1,0.0,0.0,0.0,0.0,8.0,6.0,-0.05483113549895436,0.0,0.0,0.0,0.0,0.0,0.0,0.0,0.0,0.0
1759830036.9481454,1,0.0,0.0,0.0,0.0,8.0,6.0,-0.05483113549895436,0.0,0.0,0.0,0.0,0.0,0.0,0.0,0.0,0.0
1759830036.9588435,1,0.0,0.0,0.0,0.0,8.0,6.0,-0.05483113549895436,0.0,0.0,0.0,0.0,0.0,0.0,0.0,0.0,0.0
1759830036.9692976,1,0.0,0.0,0.0,0.0,8.0,6.0,-0.05483113549895436,0.0,0.0,0.0,0.0,0.0,0.0,0.0,0.0,0.0
1759830036.9807317,1,0.0,0.0,0.0,0.0,8.0,6.0,-0.05483113549895436,0.0,0.0,0.0,0.0,0.0,0.0,0.0,0.0,0.0
1759830036.9917307,1,0.0,0.0,0.0,0.0,8.0,6.0,-0.05483113549895436,0.0,0.0,0.0,0.0,0.0,0.0,0.0,0.0,0.0
1759830037.0028265,1,0.0,0.0,0.0,0.0,8.0,6.0,-0.05483113549895436,0.0,0.0,0.0,0.0,0.0,0.0,0.0,0.0,0.0
1759830037.0138092,1,0.0,0.0,0.0,0.0,8.0,6.0,-0.05483113549895436,0.0,0.0,0.0,0.0,0.0,0.0,0.0,0.0,0.0
1759830037.0245385,1,0.0,0.0,0.0,0.0,8.0,6.0,-0.05483113549895436,0.0,0.0,0.0,0.0,0.0,0.0,0.0,0.0,0.0
1759830037.0353708,1,0.0,0.0,0.0,0.0,8.0,6.0,-0.05483113549895436,0.0,0.0,0.0,0.0,0.0,0.0,0.0,0.0,0.0
1759830037.0461578,1,0.0,0.0,0.0,0.0,8.0,6.0,-0.05483113549895436,0.0,0.0,0.0,0.0,0.0,0.0,0.0,0.0,0.0
1759830037.05729,1,0.0,0.0,0.0,0.0,8.0,6.0,-0.05483113549895436,0.0,0.0,0.0,0.0,0.0,0.0,0.0,0.0,0.0
1759830037.0673227,1,0.0,0.0,0.0,0.0,8.0,6.0,-0.05483113549895436,0.0,0.0,0.0,0.0,0.0,0.0,0.0,0.0,0.0
1759830037.0783436,1,0.0,0.0,0.0,0.0,8.0,6.0,-0.05483113549895436,0.0,0.0,0.0,0.0,0.0,0.0,0.0,0.0,0.0
1759830037.088511,1,0.0,0.0,0.0,0.0,8.0,6.0,-0.05483113549895436,0.0,0.0,0.0,0.0,0.0,0.0,0.0,0.0,0.0
1759830037.0986462,1,0.0,0.0,0.0,0.0,8.0,6.0,-0.05483113549895436,0.0,0.0,0.0,0.0,0.0,0.0,0.0,0.0,0.0
1759830037.1099415,1,0.0,0.0,0.0,0.0,8.0,6.0,-0.05483113549895436,0.0,0.0,0.0,0.0,0.0,0.0,0.0,0.0,0.0
1759830037.121507,1,0.0,0.0,0.0,0.0,8.000000945727031,5.99999905427297,-2.8798461898590713,0.0,0.0,0.0,0.0,0.0,0.0,0.0,0.0,0.0
1759830037.1325982,1,0.0,0.0,0.0,0.0,8.000000951017842,5.999999048982158,-3.1212015966806277,0.0,0.0,0.0,0.0,0.0,0.0,0.0,0.0,0.0
1759830037.1437216,1,0.0,0.0,0.0,0.0,8.00000095267779,5.999999047322208,3.1392478396901744,0.0,0.0,0.0,0.0,0.0,0.0,0.0,0.0,0.0
1759830037.1542833,1,0.0,0.0,0.0,0.0,8.000000953294668,5.999999046705331,3.1364012718438516,0.0,0.0,0.0,0.0,0.0,0.0,0.0,0.0,0.0
1759830037.1653738,1,0.0,0.0,0.0,0.0,8.000000953529359,5.9999990464706405,3.136031153463575,0.0,0.0,0.0,0.0,0.0,0.0,0.0,0.0,0.0
1759830037.1768699,1,0.0,0.0,0.0,0.0,8.000000953618951,5.999999046381049,3.1363432499595554,0.0,0.0,0.0,0.0,0.0,0.0,0.0,0.0,0.0
1759830037.1875978,1,0.0,0.0,0.0,0.0,8.000000953653169,5.999999046346831,3.1369748688090606,0.0,0.0,0.0,0.0,0.0,0.0,0.0,0.0,0.0
1759830037.1987379,1,0.0,0.0,0.0,0.0,8.00000095366624,5.999999046333762,3.1375460233080403,0.0,0.0,0.0,0.0,0.0,0.0,0.0,0.0,0.0
1759830037.2097704,1,0.0,0.0,0.0,0.0,8.00000095367123,5.999999046328769,3.138065385776187,0.0,0.0,0.0,0.0,0.0,0.0,0.0,0.0,0.0
1759830037.2211738,1,0.0,0.0,0.0,0.0,8.000000953673139,5.999999046326862,3.138487390668516,0.0,0.0,0.0,0.0,0.0,0.0,0.0,0.0,0.0
1759830037.2313564,1,0.0,0.0,0.0,0.0,8.000000953673867,5.999999046326134,3.1389074003149897,0.0,0.0,0.0,0.0,0.0,0.0,0.0,0.0,0.0
1759830037.2422602,1,0.0,0.0,0.0,0.0,8.000000953674144,5.999999046325856,3.1392041853531225,0.0,0.0,0.0,0.0,0.0,0.0,0.0,0.0,0.0
1759830037.253905,1,0.0,0.0,0.0,0.0,8.00000095367425,5.999999046325749,3.1394222596286063,0.0,0.0,0.0,0.0,0.0,0.0,0.0,0.0,0.0
1759830037.2640536,1,0.0,0.0,0.0,0.0,8.000000953674292,5.9999990463257085,3.1396718420547156,0.0,0.0,0.0,0.0,0.0,0.0,0.0,0.0,0.0
1759830037.274603,1,0.0,0.0,0.0,0.0,8.000000953674308,5.999999046325693,3.1398593547758384,0.0,0.0,0.0,0.0,0.0,0.0,0.0,0.0,0.0
1759830037.285458,1,0.0,0.0,0.0,0.0,8.000000953674313,5.999999046325687,3.1400049705970154,0.0,0.0,0.0,0.0,0.0,0.0,0.0,0.0,0.0
1759830037.296256,1,0.0,0.0,0.0,0.0,8.000000953674315,5.999999046325685,3.140132987069796,0.0,0.0,0.0,0.0,0.0,0.0,0.0,0.0,0.0
1759830037.307547,1,0.0,0.0,0.0,0.0,8.000000953674316,5.9999990463256845,3.1402323225919417,0.0,0.0,0.0,0.0,0.0,0.0,0.0,0.0,0.0
1759830037.3244958,1,0.0,0.0,0.0,0.0,8.000000953674316,5.999999046325684,3.140193763665362,0.0,0.0,0.0,0.0,0.0,0.0,0.0,0.0,0.0
1759830037.335122,1,0.0,1.4778269290924075,-0.7737883697347965,0.0,8.000000953674316,5.999999046325684,3.1403468958188014,0.0,0.0,0.0,0.0,0.0,0.0,0.0,0.0,0.0
1759830037.3460891,1,0.0,2.576780029167419,-1.3491988667165251,0.0,8.000000953674316,5.999999046325684,3.140469563328814,0.0,0.0,0.0,0.0,0.0,0.0,0.0,0.0,0.0
1759830037.3563292,1,0.0,3.3981555075090384,-1.779270060991236,0.0,8.000000953674316,5.999999046325684,3.140580715750813,0.0,0.0,0.0,0.0,0.0,0.0,0.0,0.0,0.0
1759830037.3676527,1,0.0,4.013609656829989,-2.1015210996443527,0.0,8.000000953674316,5.999999046325684,3.140648991758871,0.0,0.0,0.0,0.0,0.0,0.0,0.0,0.0,0.0
1759830037.3783894,1,0.0,4.508594802703642,-2.3606947156669937,0.0,8.000000953674316,5.999999046325684,3.1407174755479517,0.0,0.0,0.0,0.0,0.0,0.0,0.0,0.0,0.0
1759830037.389235,1,0.0,4.875382880572459,-2.5527445039237104,0.0,8.000000953674316,5.999999046325684,3.140774326961157,0.0,0.0,0.0,0.0,0.0,0.0,0.0,0.0,0.0
1759830037.3998828,1,0.0,5.148372694071771,-2.695681635859429,0.0,8.000000953674316,5.999999046325684,3.140826668879086,0.0,0.0,0.0,0.0,0.0,0.0,0.0,0.0,0.0
1759830037.4102495,1,0.0,5.35244833472561,-2.802535391313119,0.0,8.000000953674316,5.999999046325684,3.1408762270472224,0.0,0.0,0.0,0.0,0.0,0.0,0.0,0.0,0.0
1759830037.4204001,1,0.0,5.505649359065428,-2.8827512599861933,0.0,8.000000953674316,5.999999046325684,3.140921767136321,0.0,0.0,0.0,0.0,0.0,0.0,0.0,0.0,0.0
1759830037.431111,1,0.0,5.628994069580559,-2.947334399314645,0.0,8.000000953674316,5.999999046325684,3.1409531156762203,0.0,0.0,0.0,0.0,0.0,0.0,0.0,0.0,0.0
1759830037.441823,1,0.0,5.720370966042231,-2.9951792303652787,0.0,8.000000953674316,5.999999046325684,3.1409818096471422,0.0,0.0,0.0,0.0,0.0,0.0,0.0,0.0,0.0
1759830037.4522293,1,0.0,5.788369224678242,-3.030783035289227,0.0,8.000000953674316,5.999999046325684,3.141012582660659,0.0,0.0,0.0,0.0,0.0,0.0,0.0,0.0,0.0
1759830037.4631846,1,0.0,5.8391365903346975,-3.0573647657569247,0.0,8.000000953674316,5.999999046325684,3.1410341376050326,0.0,0.0,0.0,0.0,0.0,0.0,0.0,0.0,0.0
1759830037.4746044,1,0.0,5.877174443316605,-3.0772813389818814,0.0,8.000000953674316,5.999999046325684,3.141050149132992,0.0,0.0,0.0,0.0,0.0,0.0,0.0,0.0,0.0
1759830037.4861033,1,0.0,5.907767574096305,-3.093299864781547,0.0,8.000000953674316,5.999999046325684,3.141067030422194,0.0,0.0,0.0,0.0,0.0,0.0,0.0,0.0,0.0
1759830037.4973028,1,0.0,5.9304307459364125,-3.1051662737946417,0.0,8.000000953674316,5.999999046325684,3.1410884877511727,0.0,0.0,0.0,0.0,0.0,0.0,0.0,0.0,0.0
1759830037.5079873,1,0.0,5.947302173781024,-3.1140001327465816,0.0,8.000000953674316,5.999999046325684,3.141114636692514,0.0,0.0,0.0,0.0,0.0,0.0,0.0,0.0,0.0
1759830037.5226028,1,0.0,5.959851003967854,-3.1205706848600894,0.0,8.000000953674316,5.999999046325684,3.1411020529031184,0.0,0.0,0.0,0.0,0.0,0.0,0.0,0.0,0.0
1759830037.5333338,1,0.0,5.969282354346095,-3.125508928364732,0.0,8.000000953674316,5.999999046325684,3.141133864574032,0.0,0.0,0.0,0.0,0.0,0.0,0.0,0.0,0.0
1759830037.544161,1,0.0,5.976909274364089,-1.5692740874470812,0.0,8.000000953674316,5.999999046325684,3.1411623818913377,0.0,0.0,0.0,0.0,0.0,0.0,0.0,0.0,0.0
1759830037.555435,1,0.0,5.982564206531152,-0.4154134935706071,0.0,8.000000953674316,5.999999046325684,3.1411829493313626,0.0,0.0,0.0,0.0,0.0,0.0,0.0,0.0,0.0
1759830037.5663161,1,0.0,5.986777136557875,0.4442137838187213,0.0,8.000000953674316,5.999999046325684,3.141204425453818,0.0,0.0,0.0,0.0,0.0,0.0,0.0,0.0,0.0
1759830037.576481,1,0.0,5.989931608053732,1.08786789779304,0.0,8.000000953674316,5.999999046325684,3.1412288275570344,0.0,0.0,0.0,0.0,0.0,0.0,0.0,0.0,0.0
1759830037.5869691,1,0.0,5.992301684021178,1.571470031742268,0.0,8.000000953674316,5.999999046325684,3.1412470760872964,0.0,0.0,0.0,0.0,0.0,0.0,0.0,0.0,0.0
1759830037.5978649,1,0.0,5.994088511898888,1.9360633133625549,0.0,8.000000953674316,5.999999046325684,3.141260003819573,0.0,0.0,0.0,0.0,0.0,0.0,0.0,0.0,0.0
1759830037.6091282,1,0.0,5.995540137380181,2.2322602243858825,0.0,8.000000953674316,5.999999046325684,3.141269697433902,0.0,0.0,0.0,0.0,0.0,0.0,0.0,0.0,0.0
1759830037.6204545,1,0.0,5.996619957410379,2.452592094780594,0.0,8.000000953674316,5.999999046325684,3.141279360775968,0.0,0.0,0.0,0.0,0.0,0.0,0.0,0.0,0.0
1759830037.6315436,1,0.0,5.997426902687168,2.6172452380532802,0.0,8.000000953674316,5.999999046325684,3.1412909524057344,0.0,0.0,0.0,0.0,0.0,0.0,0.0,0.0,0.0
1759830037.642238,1,0.0,5.998032764363402,2.7408682794787413,0.0,8.000000953674316,5.999999046325684,3.1413046300309517,0.0,0.0,0.0,0.0,0.0,0.0,0.0,0.0,0.0
1759830037.653463,1,0.0,5.998519513502555,2.8401870041211077,0.0,8.000000953674316,5.999999046325684,3.141314079069385,0.0,0.0,0.0,0.0,0.0,0.0,0.0,0.0,0.0
1759830037.6639376,1,0.0,5.998880980793856,2.9139425950079856,0.0,8.000000953674316,5.999999046325684,3.1413274886922125,0.0,0.0,0.0,0.0,0.0,0.0,0.0,0.0,0.0
1759830037.6752117,1,0.0,5.999150221341087,2.9688797805561125,0.0,8.000000953674316,5.999999046325684,3.141335320728759,0.0,0.0,0.0,0.0,0.0,0.0,0.0,0.0,0.0
1759830037.6859188,1,0.0,5.999351768827749,3.010004536041031,0.0,8.000000953674316,5.999999046325684,3.1413460664639743,0.0,0.0,0.0,0.0,0.0,0.0,0.0,0.0,0.0
1759830037.696723,1,0.0,5.999503235230483,3.0409104971112995,0.0,8.000000953674316,5.999999046325684,3.141355635175735,0.0,0.0,0.0,0.0,0.0,0.0,0.0,0.0,0.0
1759830037.707548,1,0.0,5.999625215932986,3.0658000486873473,0.0,8.000000953674316,5.999999046325684,3.1413644624493138,0.0,0.0,0.0,0.0,0.0,0.0,0.0,0.0,0.0
1759830037.833476,1,0.0,5.999717057330371,3.0845398259646744,0.0,8.000000953674316,5.999999046325684,3.1410963399676497,0.0,0.0,0.0,0.0,0.0,0.0,0.0,0.0,0.0
1759830037.8410716,1,0.0,5.999785553490425,3.0985161244565784,0.0,8.000000953674316,5.999999046325684,3.141231054467843,0.0,0.0,0.0,0.0,0.0,0.0,0.0,0.0,0.0
1759830037.851541,1,0.0,5.999836606753979,3.1089332872559026,0.0,8.000000953674316,5.999999046325684,3.1413214277782266,0.0,0.0,0.0,0.0,0.0,0.0,0.0,0.0,0.0
1759830037.8624146,1,0.0,5.99987479148774,3.1167246909851407,0.0,8.000000953674316,5.999999046325684,3.1413772215138884,0.0,0.0,0.0,0.0,0.0,0.0,0.0,0.0,0.0
1759830037.8731537,1,0.0,5.999903473779244,3.1225771689512847,0.0,8.000000953674316,5.999999046325684,3.14141425608028,0.0,0.0,0.0,0.0,0.0,0.0,0.0,0.0,0.0
1759830037.8844173,1,0.0,5.999926605522044,3.1272970852468704,0.0,8.000000953674316,5.999999046325684,3.1414386559245706,0.0,0.0,0.0,0.0,0.0,0.0,0.0,0.0,0.0
1759830037.8950627,1,0.0,5.999943771638607,3.130799745379095,0.0,8.000000953674316,5.999999046325684,3.1414573411408426,0.0,0.0,0.0,0.0,0.0,0.0,0.0,0.0,0.0
1759830037.9065862,1,0.0,5.999956548661596,3.133406832944197,0.0,8.000000953674316,5.999999046325684,3.141469282513455,0.0,0.0,0.0,0.0,0.0,0.0,0.0,0.0,0.0
1759830037.9400814,1,0.0,5.999965835992677,3.135301866348529,0.0,8.000000953674316,5.999999046325684,3.1414370492876014,0.0,0.0,0.0,0.0,0.0,0.0,0.0,0.0,0.0
1759830037.9470088,1,0.0,5.9999729089966465,3.136745077393186,0.0,8.000000953674316,5.999999046325684,3.1414643329769056,0.0,3.961799621582032,1.485674858093262,-0.7778975357459308,0.0,0.0,0.0,0.0,0.0
1759830037.9583178,1,0.0,5.999978759425984,3.137938828205707,0.0,8.000000953674316,5.999999046325684,3.141479445879984,0.0,6.9017665562261765,2.588162458584816,-1.355158692815998,0.0,0.0,0.0,0.0,0.0
1759830037.968841,1,0.0,5.999983112368355,3.138827024301058,0.0,8.000000953674316,5.999999046325684,3.1414915193748953,0.0,9.095012258356657,3.4106295968837466,-1.7858014789070735,0.0,0.0,0.0,0.0,0.0
1759830037.9805403,1,0.0,5.99998635936127,3.1394895569474017,0.0,8.000000953674316,5.999999046325684,3.141498637209869,0.0,10.735313143710904,4.025742428891589,-2.1078738042331606,0.0,0.0,0.0,0.0,0.0
1759830037.9914196,1,0.0,5.999988794636578,3.1399864626803575,0.0,8.000000953674316,5.999999046325684,3.141505444195964,0.0,11.968772756035836,4.488289783513439,-2.3500630324926517,0.0,0.0,0.0,0.0,0.0
1759830038.0014958,1,0.0,5.9999906305015225,3.1403610617299282,0.0,8.000000953674316,5.999999046325684,3.141512131912682,0.0,12.901060085110243,4.837897531916342,-2.5331172212869197,0.0,0.0,0.0,0.0,0.0
1759830038.012052,1,0.0,5.999992018869946,3.1406443513550566,0.0,8.000000953674316,5.999999046325684,3.1415166837888044,0.0,13.607926770679873,5.102972539004952,-2.671910170281633,0.0,0.0,0.0,0.0,0.0
1759830038.0225677,1,0.0,5.9999930730142115,3.1408594442141107,0.0,8.000000953674316,5.999999046325684,3.141520394064969,0.0,14.146011219423748,5.304754207283906,-2.7775628046099494,0.0,0.0,0.0,0.0,0.0
1759830038.0338874,1,0.0,5.999993875651754,3.141023218385716,0.0,8.000000953674316,5.999999046325684,3.1415223433546817,0.0,14.585601251378911,5.469600469267092,-2.863876105447675,0.0,0.0,0.0,0.0,0.0
1759830038.0445764,1,0.0,5.999994489859708,3.1411485444434892,0.0,8.000000953674316,5.999999046325684,3.1415250614628594,0.0,14.916426722538484,5.593660020951932,-2.9288335347369063,0.0,0.0,0.0,0.0,0.0
1759830038.0551364,1,0.0,5.999994997973029,3.1412522224222004,0.0,8.000000953674316,5.999999046325684,3.141527710917538,0.0,15.16643990469772,5.687414964261645,-2.9779235082040665,0.0,0.0,0.0,0.0,0.0
1759830038.0651863,1,0.0,5.999995382217297,3.1413306255411744,0.0,8.000000953674316,5.999999046325684,3.1415307384040005,0.0,15.356254332876485,5.7585953748286824,-3.015193483980964,0.0,0.0,0.0,0.0,0.0
1759830038.0756142,1,0.0,5.99999567373821,3.1413901089239804,0.0,8.000000953674316,5.999999046325684,3.141532850736322,0.0,15.500831217620894,5.812811706607836,-3.0435810888855226,0.0,0.0,0.0,0.0,0.0
1759830038.0858448,1,0.0,5.999995895827447,3.141435425120801,0.0,8.000000953674316,5.999999046325684,3.141534981411006,0.0,15.611405988763519,5.854277245786321,-3.0652923944040915,0.0,0.0,0.0,0.0,0.0
1759830038.0962553,1,0.0,5.999996065620952,3.1414700706351777,0.0,8.000000953674316,5.999999046325684,3.141536688446518,0.0,15.696272836829793,5.886102313811174,-3.0819559610361957,0.0,0.0,0.0,0.0,0.0
1759830038.1071742,1,0.0,5.999996195838951,3.141496640965941,0.0,8.000000953674316,5.999999046325684,3.14153768648816,0.0,15.761610314493097,5.9106038679349115,-3.094784944760981,0.0,0.0,0.0,0.0,0.0
1759830038.1173177,1,0.0,5.999996296211837,3.1415171215506925,0.0,8.000000953674316,5.999999046325684,3.1415396855570226,0.0,15.815887938959056,5.930957977109646,-3.105442331391089,0.0,0.0,0.0,0.0,0.0
1759830038.132256,1,0.0,5.999996373339203,3.141532859003749,0.0,8.000000953674316,5.999999046325684,3.141536224303966,0.0,15.856982292972827,5.9463683598648105,-3.1135111889239737,0.0,0.0,0.0,0.0,0.0
1759830038.1432922,1,0.0,5.999996437766119,3.1415460049932085,0.0,8.000000953674316,5.999999046325684,3.1415383685121263,0.0,15.88843075641044,5.958161533653915,-3.1196860802733113,0.0,0.0,0.0,0.0,0.0
1759830038.1549063,1,0.0,5.999996487038628,3.141556058802093,0.0,8.000000953674316,5.999999046325684,3.1415400668831186,0.0,15.91257521891222,5.967215707092084,-3.1244268343941735,0.0,0.0,0.0,0.0,0.0
1759830038.1656375,1,0.0,5.999996524927174,3.1415637897700113,0.0,8.000000953674316,5.999999046325684,3.1415426004691778,0.0,15.931213177307377,5.974204941490267,-3.1280863889632506,0.0,0.0,0.0,0.0,0.0
1759830038.1759298,1,0.0,5.9999965541936975,3.1415697614574505,0.0,8.000000953674316,5.999999046325684,3.141545268507455,0.0,15.94566534500073,5.979624504375275,-3.130924065450876,0.0,0.0,0.0,0.0,0.0
1759830038.187254,1,0.0,5.999996576851153,3.1415743845978823,0.0,8.000000953674316,5.999999046325684,3.1415465574071746,0.0,15.956896512028226,5.983836192010586,-3.133129299937407,0.0,0.0,0.0,0.0,0.0
1759830038.1975484,1,0.0,5.999996594489503,3.1415779836150106,0.0,8.000000953674316,5.999999046325684,3.141548732766747,0.0,15.965673038916194,5.987127389593573,-3.1348525669601424,0.0,0.0,0.0,0.0,0.0
1759830038.209109,1,0.0,5.999996608245485,3.141580790454303,0.0,8.000000953674316,5.999999046325684,3.141549546073211,0.0,15.97254347832002,5.989703804370008,-3.136201574580976,0.0,0.0,0.0,0.0,0.0
1759830038.220553,1,0.0,5.999996619019308,3.1415829887988673,0.0,8.000000953674316,5.999999046325684,3.1415505415150484,0.0,15.978404689592777,5.991901758597292,-3.1373524207218875,0.0,0.0,0.0,0.0,0.0
1759830038.2312686,1,0.0,5.999996627500757,3.1415847193960538,0.0,8.000000953674316,5.999999046325684,3.1415522381990613,0.0,15.982945270857021,5.993604476571384,-3.1382439617672926,0.0,0.0,0.0,0.0,0.0
1759830038.2419767,1,0.0,5.999996634790251,3.141586206780832,0.0,8.000000953674316,5.999999046325684,3.1415538178405455,0.0,15.986476372653597,5.994928639745099,-3.13893729198295,0.0,0.0,0.0,0.0,0.0
1759830038.2522314,1,0.0,5.999996640461599,3.1415873639909284,0.0,8.000000953674316,5.999999046325684,3.141555599454863,0.0,15.989234772456468,5.995963039671176,-3.1394789025171037,0.0,0.0,0.0,0.0,0.0
1759830038.2638109,1,0.0,5.999996644881603,3.141588265870545,0.0,8.000000953674316,5.999999046325684,3.14155616789461,0.0,15.991393147572898,5.9967724303398375,-3.139902698479711,0.0,0.0,0.0,0.0,0.0
1759830038.2745883,1,0.0,5.9999966483446086,3.1415889724794908,0.0,8.000000953674316,5.999999046325684,3.1415574226651692,0.0,15.99309095106888,5.9974091066508315,-3.1402360614162186,0.0,0.0,0.0,0.0,0.0
1759830038.2849376,1,0.0,5.999996651069905,3.141589528562521,0.0,8.000000953674316,5.999999046325684,3.1415589456544435,0.0,15.994432391641746,5.997912146865657,-3.140499452656477,0.0,0.0,0.0,0.0,0.0
1759830038.295501,1,0.0,5.99999665322173,3.1415899676317434,0.0,8.000000953674316,5.999999046325684,3.1415601598527,0.0,15.995602690590465,5.998347522417006,-3.1407243644906626,0.0,0.0,0.0,0.0,0.0
1759830038.3058589,1,0.0,5.999996654927564,3.141590315698581,0.0,8.000000953674316,5.999999046325684,3.141561402577846,0.0,15.996514732208693,5.998686820869616,-3.1408996435964283,0.0,0.0,0.0,0.0,0.0
1759830038.3161614,1,0.0,5.999996656395069,3.1415906151356903,0.0,8.000000953674316,5.999999046325684,3.1415625676890855,0.0,15.997228195403386,5.998952244018202,-3.1410367592589843,0.0,0.0,0.0,0.0,0.0
1759830038.3284097,1,0.0,5.999996657542869,3.141590849338566,0.0,8.000000953674316,5.999999046325684,3.1415624251837286,0.0,15.997786720344042,5.999160026913544,-3.1411440983871435,0.0,0.0,0.0,0.0,0.0
1759830038.338836,1,0.0,5.999996658446963,3.141591033814391,0.0,8.000000953674316,5.999999046325684,3.1415636487401457,0.0,15.99822704790941,5.999323837926752,-3.141228721961725,0.0,0.0,0.0,0.0,0.0
1759830038.3492615,1,0.0,5.999996659161699,3.141591179652694,0.0,8.000000953674316,5.999999046325684,3.1415648271249825,0.0,15.998575458720913,5.9994534539956375,-3.141295680677488,0.0,0.0,0.0,0.0,0.0
1759830038.359271,1,0.0,5.9999966597291605,3.141591295440408,0.0,8.000000953674316,5.999999046325684,3.1415661161795327,0.0,15.9988523216178,5.999556452752078,-3.141348889083789,0.0,0.0,0.0,0.0,0.0
1759830038.3701644,1,0.0,5.99999666018062,3.141591387558539,0.0,8.000000953674316,5.999999046325684,3.1415667566142,0.0,15.999072779062715,5.999638467507141,-3.1413912573080363,0.0,0.0,0.0,0.0,0.0
1759830038.3811605,1,0.0,5.999996660541072,3.141591461106823,0.0,8.000000953674316,5.999999046325684,3.141567344112431,0.0,15.999248946869209,5.999704005595478,-3.141425113806435,0.0,0.0,0.0,0.0,0.0
1759830038.3924382,1,0.0,5.999996660829801,3.141591520020541,0.0,8.000000953674316,5.999999046325684,3.1415678385573234,0.0,15.999390181474412,5.999756547806318,-3.1414522567293104,0.0,0.0,0.0,0.0,0.0
1759830038.4028828,1,0.0,5.9999966610622835,3.1415915674574943,0.0,8.000000953674316,5.999999046325684,3.1415688195458884,0.0,15.999514496163762,5.999802795456524,-3.141476147928075,0.0,0.0,0.0,0.0,0.0
1759830038.4143364,1,0.0,5.999996661266866,3.141591609201463,0.0,8.000000953674316,5.999999046325684,3.1415692582961725,0.0,15.999613033153226,5.999839453266191,-3.1414950850851664,0.0,0.0,0.0,0.0,0.0
1759830038.425284,1,0.0,5.999996661429741,3.1415916424353703,0.0,8.000000953674316,5.999999046325684,3.1415699904946415,0.0,15.999691508419566,5.99986864769757,-3.1415101667154715,0.0,0.0,0.0,0.0,0.0
1759830038.4361484,1,0.0,5.999996661559915,3.1415916689967385,0.0,8.000000953674316,5.999999046325684,3.1415707609673937,0.0,15.999754248738064,5.99989198840106,-3.1415222243526473,0.0,0.0,0.0,0.0,0.0
1759830038.4471116,1,0.0,5.99999666166432,3.141591690300065,0.0,8.000000953674316,5.999999046325684,3.141571455978738,0.0,15.999804585744384,5.999910714814431,-3.141531898281203,0.0,0.0,0.0,0.0,0.0
1759830038.4574838,1,0.0,5.999996661748451,3.1415917074665103,0.0,8.000000953674316,5.999999046325684,3.141572373176249,0.0,15.999845161222837,5.999925809736393,-3.141539696207785,0.0,0.0,0.0,0.0,0.0
1759830038.4679034,1,0.0,5.999996661816475,3.141591721346473,0.0,8.000000953674316,5.999999046325684,3.1415731785061265,0.0,15.99987797934958,5.999938018762165,-3.141546003301446,0.0,0.0,0.0,0.0,0.0
1759830038.4780712,1,0.0,5.999996661871692,3.1415917326131035,0.0,8.000000953674316,5.999999046325684,3.1415739969452687,0.0,15.999904627129288,5.999947932290495,-3.1415511245578718,0.0,0.0,0.0,0.0,0.0
1759830038.4895713,1,0.0,5.999996661916557,3.1415917417674035,0.0,8.000000953674316,5.999999046325684,3.1415742230028343,0.0,15.999926285746636,5.999955989746652,-3.141555286980951,0.0,0.0,0.0,0.0,0.0
1759830038.4998515,1,0.0,5.999996661953227,3.1415917492498506,0.0,8.000000953674316,5.999999046325684,3.141574965198135,0.0,15.99994571201896,5.9999632167240255,-3.1415590203847485,0.0,0.0,0.0,0.0,0.0
1759830038.5106344,1,0.0,5.999996661986327,3.1415917560038777,0.0,8.000000953674316,5.999999046325684,3.1415754836937975,0.0,15.99996135885973,5.99996903767425,-3.141562027445176,0.0,0.0,0.0,0.0,0.0
1759830038.5209584,1,0.0,5.999996662013083,3.141591761463198,0.0,8.000000953674316,5.999999046325684,3.1415761400261673,0.0,15.999974017072477,5.9999737467926835,-3.1415644601414106,0.0,0.0,0.0,0.0,0.0
1759830038.5347285,1,0.0,5.999996662034653,3.141591765864462,0.0,8.000000953674316,5.999999046325684,3.1415756218948125,0.0,15.999984230385328,5.999977546357503,-3.141566422968882,0.0,0.0,0.0,0.0,0.0
1759830038.5448182,1,0.0,5.999996662052236,3.1415917694520865,0.0,8.000000953674316,5.999999046325684,3.141576556127715,0.0,15.999992562601337,5.999980646115169,-3.1415680242810833,0.0,0.0,0.0,0.0,0.0
1759830038.5555768,1,0.0,5.999996662066597,3.141591772382598,0.0,8.000000953674316,5.999999046325684,3.1415772182273365,0.0,15.999999374309194,5.999983180212177,-3.1415693333771135,0.0,0.0,0.0,0.0,0.0
1759830038.565984,1,0.0,5.999996662078377,3.1415917747862734,0.0,8.000000953674316,5.999999046325684,3.1415779038617693,0.0,16.000004966034044,5.9999852604501305,-3.1415704080128672,0.0,0.0,0.0,0.0,0.0
1759830038.5775151,1,0.0,5.999996662088051,3.141591776760208,0.0,8.000000953674316,5.999999046325684,3.1415781897012724,0.0,16.000009561743163,5.999986970149513,-3.141571291231098,0.0,0.0,0.0,0.0,0.0
1759830038.5880773,1,0.0,5.99999666209604,3.1415917783902025,0.0,8.000000953674316,5.999999046325684,3.1415787701250437,0.0,16.000013760025166,5.999988531997743,-3.141572098070501,0.0,0.0,0.0,0.0,0.0
1759830038.599034,1,0.0,5.999996662102652,3.141591779739615,0.0,8.000000953674316,5.999999046325684,3.141579206289224,0.0,16.000017179131557,5.99998980397644,-3.141572755165418,0.0,0.0,0.0,0.0,0.0
1759830038.610418,1,0.0,5.99999666210876,3.14159178098581,0.0,8.000000953674316,5.999999046325684,3.141579514129262,0.0,16.000019971401265,5.999990842758851,-3.141573291792834,0.0,0.0,0.0,0.0,0.0
1759830038.6215756,1,0.0,5.9999966621137615,3.1415917820063624,0.0,8.000000953674316,5.999999046325684,3.1415799011573817,0.0,16.00002226106264,5.999991694560507,-3.141573731827357,0.0,0.0,0.0,0.0,0.0
1759830038.6327066,1,0.0,5.999996662117872,3.141591782845153,0.0,8.000000953674316,5.999999046325684,3.1415802987875665,0.0,16.000024145356633,5.999992395557067,-3.1415740939570664,0.0,0.0,0.0,0.0,0.0
1759830038.6429338,1,0.0,5.999996662121268,3.1415917835382037,0.0,8.000000953674316,5.999999046325684,3.1415808961070795,0.0,16.00002570426071,5.999992975501809,-3.1415743935522906,0.0,0.0,0.0,0.0,0.0
1759830038.653767,1,0.0,5.99999666212408,3.1415917841120025,0.0,8.000000953674316,5.999999046325684,3.141581285018299,0.0,16.000026996564845,5.999993456265827,-3.141574641911476,0.0,0.0,0.0,0.0,0.0
1759830038.6651225,1,0.0,5.999996662126414,3.1415917845881687,0.0,8.000000953674316,5.999999046325684,3.1415815317386535,0.0,16.000028070317676,5.999993855724213,-3.141574848268765,0.0,0.0,0.0,0.0,0.0
1759830038.6755404,1,0.0,5.999996662128361,3.141591784985462,0.0,8.000000953674316,5.999999046325684,3.141581992339834,0.0,16.000028967330653,5.9999941894317,-3.141575020659618,0.0,0.0,0.0,0.0,0.0
1759830038.6856878,1,0.0,5.999996662129992,3.141591785318197,0.0,8.000000953674316,5.999999046325684,3.141582467800479,0.0,16.000029719516345,5.999994469260423,-3.141575165217095,0.0,0.0,0.0,0.0,0.0
1759830038.6963687,1,0.0,5.999996662131361,3.141591785597404,0.0,8.000000953674316,5.999999046325684,3.1415827774550387,0.0,16.000030351462193,5.999994704357422,-3.14157528666649,0.0,0.0,0.0,0.0,0.0
1759830038.7066958,1,0.0,5.999996662132514,3.141591785832626,0.0,8.000000953674316,5.999999046325684,3.1415831335829836,0.0,16.000030952221692,5.999994927852452,-3.1415754021223923,0.0,0.0,0.0,0.0,0.0
1759830038.7177494,1,0.0,5.999996662133607,3.141591786055597,0.0,8.000000953674316,5.999999046325684,3.1415833290701656,0.0,16.000031451109827,5.999995113449215,-3.141575498000326,0.0,0.0,0.0,0.0,0.0
1759830038.7336028,1,0.0,5.999996662134508,3.1415917862394473,0.0,8.000000953674316,5.999999046325684,3.1415827082665118,0.0,16.000031862660336,5.999995266554564,-3.141575577093433,0.0,0.0,0.0,0.0,0.0
1759830038.7450194,1,0.0,5.999996662135262,3.141591786393182,0.0,8.000000953674316,5.999999046325684,3.1415831122098936,0.0,16.000032206965844,5.999995394643376,-3.1415756432631783,0.0,0.0,0.0,0.0,0.0
1759830038.7550797,1,0.0,5.999996662135895,3.1415917865225556,0.0,8.000000953674316,5.999999046325684,3.141583754926824,0.0,16.000032496855045,5.999995502488188,-3.1415756989750214,0.0,0.0,0.0,0.0,0.0
1759830038.7656565,1,0.0,5.99999666213643,3.1415917866316305,0.0,8.000000953674316,5.999999046325684,3.141584205120095,0.0,16.00003274137995,5.999995593456538,-3.141575745968608,0.0,0.0,0.0,0.0,0.0
1759830038.7769754,1,0.0,5.999996662136881,3.1415917867237204,0.0,8.000000953674316,5.999999046325684,3.1415844667944484,0.0,16.00003294792572,5.999995670295862,-3.1415757856632416,0.0,0.0,0.0,0.0,0.0
1759830038.7878923,1,0.0,5.999996662137264,3.141591786801796,0.0,8.000000953674316,5.999999046325684,3.141584769521959,0.0,16.000033123121813,5.999995735472453,-3.1415758193329935,0.0,0.0,0.0,0.0,0.0
1759830038.798926,1,0.0,5.999996662137631,3.141591786876738,0.0,8.000000953674316,5.999999046325684,3.1415850334609416,0.0,16.000033272143543,5.999995790911636,-3.1415758479724714,0.0,0.0,0.0,0.0,0.0
1759830038.8102896,1,0.0,5.9999966621379395,3.1415917869396375,0.0,8.000000953674316,5.999999046325684,3.141585236311542,0.0,16.000033399185096,5.999995838173736,-3.1415758723877274,0.0,0.0,0.0,0.0,0.0
1759830038.8207693,1,0.0,5.9999966621382,3.141591786992711,0.0,8.000000953674316,5.999999046325684,3.141585554307049,0.0,16.00003352342049,5.999995884391887,-3.1415758962636873,0.0,0.0,0.0,0.0,0.0
1759830038.8327,1,0.0,5.999996662138419,3.1415917870374814,0.0,8.000000953674316,5.999999046325684,3.1415856574368313,0.0,16.000033628219622,5.999995923379344,-3.141575916404323,0.0,0.0,0.0,0.0,0.0
1759830038.8440351,1,0.0,5.999996662138605,3.141591787075429,0.0,8.000000953674316,5.999999046325684,3.141585854632515,0.0,16.000033717046303,5.999995956424717,-3.141575933475322,0.0,0.0,0.0,0.0,0.0
1759830038.8547213,1,0.0,5.999996662138763,3.141591787107746,0.0,8.000000953674316,5.999999046325684,3.1415861320843863,0.0,16.0000337926939,5.999995984567198,-3.1415759480135215,0.0,0.0,0.0,0.0,0.0
1759830038.865798,1,0.0,5.999996662138898,3.141591787135323,0.0,8.000000953674316,5.999999046325684,3.1415863385167935,0.0,16.000033857246954,5.9999960085822766,-3.1415759604195364,0.0,0.0,0.0,0.0,0.0
1759830038.8761914,1,0.0,5.999996662139013,3.1415917871589687,0.0,8.000000953674316,5.999999046325684,3.1415866052360855,0.0,16.000033912596034,5.9999960291732855,-3.141575971056701,0.0,0.0,0.0,0.0,0.0
1759830038.8868122,1,0.0,5.9999966621391145,3.141591787179587,0.0,8.000000953674316,5.999999046325684,3.141586816861931,0.0,16.000033960859163,5.999996047128172,-3.1415759803320644,0.0,0.0,0.0,0.0,0.0
1759830038.89777,1,0.0,5.999996662139204,3.1415917871978336,0.0,8.000000953674316,5.999999046325684,3.1415869724840615,0.0,16.00003400357203,5.999996063018247,-3.1415759885407613,0.0,0.0,0.0,0.0,0.0
1759830038.9081554,1,0.0,5.999996662139284,3.1415917872139825,0.0,8.000000953674316,5.999999046325684,3.1415871798000516,0.0,16.000034041372917,5.999996077080962,-3.141575995805458,0.0,0.0,0.0,0.0,0.0
1759830038.9189558,1,0.0,5.999996662139354,3.141591787228274,0.0,8.000000953674316,5.999999046325684,3.1415873287448584,0.0,16.000034074826704,5.999996089526466,-3.1415760022347143,0.0,0.0,0.0,0.0,0.0
1759830038.9442008,1,0.0,5.999996662139354,3.141591787228274,0.0,8.000000953674316,5.999999046325684,3.141586197600141,0.0,16.000034074826704,5.999996089526466,-3.1415760022347143,0.0,0.0,0.0,0.0,0.0
1759830038.9503963,1,0.0,5.999996662139354,3.141591787228274,0.0,8.000000953674316,5.999999046325684,3.141587096977002,0.0,16.000034074826704,5.999996089526466,-3.1415760022347143,0.0,0.0,0.0,0.0,0.0
1759830038.9608963,1,0.0,5.999996662139354,3.141591787228274,0.0,8.000000953674316,5.999999046325684,3.1415875007625704,0.0,16.000034074826704,5.999996089526466,-3.1415760022347143,0.0,0.0,0.0,0.0,0.0
1759830038.971122,1,0.0,5.999996662139354,3.141591787228274,0.0,8.000000953674316,5.999999046325684,3.141587813539818,0.0,16.000034074826704,5.999996089526466,-3.1415760022347143,0.0,0.0,0.0,0.0,0.0
1759830038.982371,1,0.0,5.999996662139354,3.141591787228274,0.0,8.000000953674316,5.999999046325684,3.1415879824872217,0.0,16.000034074826704,5.999996089526466,-3.1415760022347143,0.0,0.0,0.0,0.0,0.0
1759830038.9934006,1,0.0,5.999996662139354,3.141591787228274,0.0,8.000000953674316,5.999999046325684,3.1415881453749765,0.0,16.000034074826704,5.999996089526466,-3.1415760022347143,0.0,0.0,0.0,0.0,0.0
1759830039.004017,1,0.0,5.999996662139354,3.141591787228274,0.0,8.000000953674316,5.999999046325684,3.141588322556659,0.0,16.00003409471652,5.999996121197482,-2.5133056359693047,2.348951518247552e-07,0.0,0.0,0.0,0.0
1759830039.015185,1,0.0,5.999996662139354,3.141591787228274,0.0,8.000000953674316,5.999999046325684,3.1415884402099934,0.0,16.000034111607768,5.999996159832515,-1.957286362566577,4.780116339633768e-07,0.0,0.0,0.0,0.0
1759830039.0265856,1,0.0,5.999996662139354,3.141591787228274,0.0,8.000000953674316,5.999999046325684,3.1415885357026276,0.0,16.000034123820367,5.999996200590672,-1.4652064677288954,6.931697206560569e-07,0.0,0.0,0.0,0.0
1759830039.0379164,1,0.0,5.999996662139354,3.141591787228274,0.0,8.000000953674316,5.999999046325684,3.1415886377757847,0.0,16.000034137561908,5.999996230903108,-1.0297157607975471,8.835846273790789e-07,0.0,0.0,0.0,0.0
1759830039.0489805,1,0.0,5.999996662139354,3.141591787228274,0.0,8.000000953674316,5.999999046325684,3.141588756873615,0.0,16.00003415391921,5.999996252374794,-0.6126258835180455,1.0301213164659263e-06,0.0,0.0,0.0,0.0
1759830039.0598245,1,0.0,5.999996662139354,3.141591787228274,0.0,8.000000953674316,5.999999046325684,3.1415888829867047,0.0,16.000034158718236,5.999996241288298,-0.6126258835180455,1.0301213164659263e-06,0.0,0.0,0.0,0.0
1759830039.0698793,1,0.0,5.999996662139354,3.141591787228274,0.0,8.000000953674316,5.999999046325684,3.141589044077353,0.0,16.000034163517263,5.999996230201802,-0.6126258835180455,1.0301213164659263e-06,0.0,0.0,0.0,0.0
1759830039.080511,1,0.0,5.999996662139354,3.141591787228274,0.0,8.000000953674316,5.999999046325684,3.1415891491669257,0.0,16.00003416831629,5.999996219115306,-0.6126258835180455,1.0301213164659263e-06,0.0,0.0,0.0,0.0
1759830039.0908108,1,0.0,5.999996662139354,3.141591787228274,0.0,8.000000953674316,5.999999046325684,3.1415892612015117,0.0,16.000034173115317,5.99999620802881,-0.6126258835180455,1.0301213164659263e-06,0.0,0.0,0.0,0.0
1759830039.100821,1,0.0,5.999996662139354,3.141591787228274,0.0,8.000000953674316,5.999999046325684,3.141589377003557,0.0,16.000034177914344,5.9999961969423135,-0.6126258835180455,1.0301213164659263e-06,0.0,0.0,0.0,0.0
1759830039.1112163,1,0.0,5.999996662139354,3.141591787228274,0.0,8.000000953674316,5.999999046325684,3.141589458455986,0.0,16.00003418271337,5.999996185855817,-0.6126258835180455,1.0301213164659263e-06,0.0,0.0,0.0,0.0
1759830039.121427,1,0.0,5.999996662139354,3.141591787228274,0.0,8.000000953674316,5.999999046325684,3.1415895428842866,0.0,16.000034187512398,5.999996174769321,-0.6126258835180455,1.0301213164659263e-06,0.0,0.0,0.0,0.0
1759830039.1453521,1,0.0,5.999996662139354,3.141591787228274,0.0,8.000000953674316,5.999999046325684,3.14158898347854,0.0,16.000034192311425,5.999996163682825,-0.6126258835180455,1.0301213164659263e-06,0.0,0.0,0.0,0.0
1759830039.1506612,1,0.0,5.999996662139354,3.141591787228274,0.0,8.000000953674316,5.999999046325684,3.1415894556076367,0.0,16.000034197110452,5.999996152596329,-0.6126258835180455,1.0301213164659263e-06,0.0,0.0,0.0,0.0
1759830039.1609974,1,0.0,5.999996662139354,3.141591787228274,0.0,8.000000953674316,5.999999046325684,3.1415896321282695,0.0,16.00003420190948,5.999996141509833,-0.6126258835180455,1.0301213164659263e-06,0.0,0.0,0.0,0.0
1759830039.1722999,1,0.0,5.999996662139354,3.141591787228274,0.0,8.000000953674316,5.999999046325684,3.1415897169906266,0.0,16.000034206708506,5.9999961304233365,-0.6126258835180455,1.0301213164659263e-06,0.0,0.0,0.0,0.0
1759830039.1823647,1,0.0,5.999996662139354,3.141591787228274,0.0,8.000000953674316,5.999999046325684,3.1415898413018315,0.0,16.000034211507533,5.99999611933684,-0.6126258835180455,1.0301213164659263e-06,0.0,0.0,0.0,0.0
1759830039.1933882,1,0.0,5.999996662139354,3.141591787228274,0.0,8.000000953674316,5.999999046325684,3.1415899091436152,0.0,16.00003421630656,5.999996108250344,-0.6126258835180455,1.0301213164659263e-06,0.0,0.0,0.0,0.0
1759830039.2045631,1,0.0,5.999996662139354,3.141591787228274,0.0,8.000000953674316,5.999999046325684,3.141589965348601,0.0,16.000034221105587,5.999996097163848,-0.6126258835180455,1.0301213164659263e-06,0.0,0.0,0.0,0.0
1759830039.2160923,1,0.0,5.999996662139354,3.141591787228274,0.0,8.000000953674316,5.999999046325684,3.1415900086056716,0.0,16.000034225904614,5.999996086077352,-0.6126258835180455,1.0301213164659263e-06,0.0,0.0,0.0,0.0
1759830039.227515,1,0.0,5.999996662139354,3.141591787228274,0.0,8.000000953674316,5.999999046325684,3.1415900598004995,0.0,16.00003423070364,5.999996074990856,-0.6126258835180455,1.0301213164659263e-06,0.0,0.0,0.0,0.0
1759830039.2386463,1,0.0,5.999996662139354,3.141591787228274,0.0,8.000000953674316,5.999999046325684,3.141590123130321,0.0,16.000034235502667,5.9999960639043595,-0.6126258835180455,1.0301213164659263e-06,0.0,0.0,0.0,0.0
1759830039.2489207,1,0.0,5.999996662139354,3.141591787228274,0.0,8.000000953674316,5.999999046325684,3.1415902121672517,0.0,16.000034240301694,5.999996052817863,-0.6126258835180455,1.0301213164659263e-06,0.0,0.0,0.0,0.0
1759830039.25984,1,0.0,5.999996662139354,3.141591787228274,0.0,8.000000953674316,5.999999046325684,3.1415902689444373,0.0,16.00003424510072,5.999996041731367,-0.6126258835180455,1.0301213164659263e-06,0.0,0.0,0.0,0.0
1759830039.2705529,1,0.0,5.999996662139354,3.141591787228274,0.0,8.000000953674316,5.999999046325684,3.141590327326721,0.0,16.00003424989975,5.999996030644871,-0.6126258835180455,1.0301213164659263e-06,0.0,0.0,0.0,0.0
1759830039.281063,1,0.0,5.999996662139354,3.141591787228274,0.0,8.000000953674316,5.999999046325684,3.1415903875538564,0.0,16.000034254698775,5.999996019558375,-0.6126258835180455,1.0301213164659263e-06,0.0,0.0,0.0,0.0
1759830039.2918034,1,0.0,5.999996662139354,3.141591787228274,0.0,8.000000953674316,5.999999046325684,3.141590435569297,0.0,16.000034259497802,5.999996008471879,-0.6126258835180455,1.0301213164659263e-06,0.0,0.0,0.0,0.0
1759830039.3031268,1,0.0,5.999996662139354,3.141591787228274,0.0,8.000000953674316,5.999999046325684,3.141590464579446,0.0,16.00003426429683,5.9999959973853825,-0.6126258835180455,1.0301213164659263e-06,0.0,0.0,0.0,0.0
1759830039.3132045,1,0.0,5.999996662139354,3.141591787228274,0.0,8.000000953674316,5.999999046325684,3.141590530281549,0.0,16.000034269095856,5.999995986298886,-0.6126258835180455,1.0301213164659263e-06,0.0,0.0,0.0,0.0
1759830039.324246,1,0.0,5.999996662139354,3.141591787228274,0.0,8.000000953674316,5.999999046325684,3.1415905637813886,0.0,16.000034273894883,5.99999597521239,-0.6126258835180455,1.0301213164659263e-06,0.0,0.0,0.0,0.0
1759830039.3406425,1,0.0,5.999996662139354,3.141591787228274,0.0,8.000000953674316,5.999999046325684,3.141590464371692,0.0,16.00003427869391,5.999995964125894,-0.6126258835180455,1.0301213164659263e-06,0.0,0.0,0.0,0.0
1759830039.3519459,1,0.0,5.999996662139354,3.141591787228274,0.0,8.000000953674316,5.999999046325684,3.141590530673996,0.0,16.000034283492937,5.999995953039398,-0.6126258835180455,1.0301213164659263e-06,0.0,0.0,0.0,0.0
1759830039.363195,1,0.0,5.999996662139354,3.141591787228274,0.0,8.000000953674316,5.999999046325684,3.1415905998561247,0.0,16.000034288291964,5.999995941952902,-0.6126258835180455,1.0301213164659263e-06,0.0,0.0,0.0,0.0
1759830039.3740106,1,0.0,5.999996662139354,3.141591787228274,0.0,8.000000953674316,5.999999046325684,3.1415906694011184,0.0,16.00003429309099,5.9999959308664055,-0.6126258835180455,1.0301213164659263e-06,0.0,0.0,0.0,0.0
1759830039.385484,1,0.0,5.999996662139354,3.141591787228274,0.0,8.000000953674316,5.999999046325684,3.1415907143679203,0.0,16.000034297890018,5.999995919779909,-0.6126258835180455,1.0301213164659263e-06,0.0,0.0,0.0,0.0
1759830039.3964164,1,0.0,5.999996662139354,3.141591787228274,0.0,8.000000953674316,5.999999046325684,3.1415907662104754,0.0,16.000034302689045,5.999995908693413,-0.6126258835180455,1.0301213164659263e-06,0.0,0.0,0.0,0.0
1759830039.4071465,1,0.0,5.999996662139354,3.141591787228274,0.0,8.000000953674316,5.999999046325684,3.1415908163798534,0.0,16.00003430748807,5.999995897606917,-0.6126258835180455,1.0301213164659263e-06,0.0,0.0,0.0,0.0
1759830039.418468,1,0.0,5.999996662139354,3.141591787228274,0.0,8.000000953674316,5.999999046325684,3.1415908489028386,0.0,16.0000343122871,5.999995886520421,-0.6126258835180455,1.0301213164659263e-06,0.0,0.0,0.0,0.0
1759830039.4313664,1,0.0,5.999996662139354,3.141591787228274,0.0,8.000000953674316,5.999999046325684,3.141590850970424,0.0,16.000034317086126,5.999995875433925,-0.6126258835180455,1.0301213164659263e-06,0.0,0.0,0.0,0.0
1759830039.4421012,1,0.0,5.999996662139354,3.141591787228274,0.0,8.000000953674316,5.999999046325684,3.141590899977345,0.0,16.000034321885153,5.9999958643474285,-0.6126258835180455,1.0301213164659263e-06,0.0,0.0,0.0,0.0
1759830039.4535697,1,0.0,5.999996662139354,3.141591787228274,0.0,8.000000953674316,5.999999046325684,3.1415909324583655,0.0,16.00003432668418,5.999995853260932,-0.6126258835180455,1.0301213164659263e-06,0.0,0.0,0.0,0.0
1759830039.4637892,1,0.0,5.999996662139354,3.141591787228274,0.0,8.000000953674316,5.999999046325684,3.1415909833293743,0.0,16.000034331483207,5.999995842174436,-0.6126258835180455,1.0301213164659263e-06,0.0,0.0,0.0,0.0
1759830039.4744947,1,0.0,5.999996662139354,3.141591787228274,0.0,8.000000953674316,5.999999046325684,3.1415910190266167,0.0,16.000034336282233,5.99999583108794,-0.6126258835180455,1.0301213164659263e-06,0.0,0.0,0.0,0.0
1759830039.4858298,1,0.0,5.999996662139354,3.141591787228274,0.0,8.000000953674316,5.999999046325684,3.141591040371111,0.0,16.00003434108126,5.999995820001444,-0.6126258835180455,1.0301213164659263e-06,0.0,0.0,0.0,0.0
1759830039.497343,1,0.0,5.999996662139354,3.141591787228274,0.0,8.000000953674316,5.999999046325684,3.1415910591656555,0.0,16.000034345880287,5.999995808914948,-0.6126258835180455,1.0301213164659263e-06,0.0,0.0,0.0,0.0
1759830039.5075881,1,0.0,5.999996662139354,3.141591787228274,0.0,8.000000953674316,5.999999046325684,3.1415910976952937,0.0,16.000034350679314,5.9999957978284515,-0.6126258835180455,1.0301213164659263e-06,0.0,0.0,0.0,0.0
1759830039.5176194,1,0.0,5.999996662139354,3.141591787228274,0.0,8.000000953674316,5.999999046325684,3.1415911346615566,0.0,16.00003435547834,5.999995786741955,-0.6126258835180455,1.0301213164659263e-06,0.0,0.0,0.0,0.0
1759830039.5291345,1,0.0,5.999996662139354,3.141591787228274,0.0,8.000000953674316,5.999999046325684,3.14159114580103,0.0,16.00003436027737,5.999995775655459,-0.6126258835180455,1.0301213164659263e-06,0.0,0.0,0.0,0.0
1759830039.5419037,1,0.0,5.999996662139354,3.141591787228274,0.0,8.000000953674316,5.999999046325684,3.141591142326913,0.0,16.000034365076395,5.999995764568963,-0.6126258835180455,1.0301213164659263e-06,0.0,0.0,0.0,0.0
1759830039.5533273,1,0.0,5.999996662139354,3.141591787228274,0.0,8.000000953674316,5.999999046325684,3.14159116342317,0.0,16.000034369875422,5.999995753482467,-0.6126258835180455,1.0301213164659263e-06,0.0,0.0,0.0,0.0
1759830039.5634928,1,0.0,5.999996662139354,3.141591787228274,0.0,8.000000953674316,5.999999046325684,3.1415912009355083,0.0,16.00003437467445,5.999995742395971,-0.6126258835180455,1.0301213164659263e-06,0.0,0.0,0.0,0.0
1759830039.5746994,1,0.0,5.999996662139354,3.141591787228274,0.0,8.000000953674316,5.999999046325684,3.14159122092569,0.0,16.000034379473476,5.9999957313094745,-0.6126258835180455,1.0301213164659263e-06,0.0,0.0,0.0,0.0
1759830039.5856104,1,0.0,5.999996662139354,3.141591787228274,0.0,8.000000953674316,5.999999046325684,3.141591242731238,0.0,16.000034384272503,5.999995720222978,-0.6126258835180455,1.0301213164659263e-06,0.0,0.0,0.0,0.0
1759830039.5966887,1,0.0,5.999996662139354,3.141591787228274,0.0,8.000000953674316,5.999999046325684,3.1415912613520867,0.0,16.00003438907153,5.999995709136482,-0.6126258835180455,1.0301213164659263e-06,0.0,0.0,0.0,0.0
1759830039.6069272,1,0.0,5.999996662139354,3.141591787228274,0.0,8.000000953674316,5.999999046325684,3.14159128804914,0.0,16.000034393870557,5.999995698049986,-0.6126258835180455,1.0301213164659263e-06,0.0,0.0,0.0,0.0
1759830039.61758,1,0.0,5.999996662139354,3.141591787228274,0.0,8.000000953674316,5.999999046325684,3.1415913072369612,0.0,16.000034398669584,5.99999568696349,-0.6126258835180455,1.0301213164659263e-06,0.0,0.0,0.0,0.0
1759830039.6288161,1,0.0,5.999996662139354,3.141591787228274,0.0,8.000000953674316,5.999999046325684,3.1415913188182873,0.0,16.00003440346861,5.999995675876994,-0.6126258835180455,1.0301213164659263e-06,0.0,0.0,0.0,0.0
1759830039.6402605,1,0.0,5.999996662139354,3.141591787228274,0.0,8.000000953674316,5.999999046325684,3.141591329074151,0.0,16.000034408267638,5.9999956647904975,-0.6126258835180455,1.0301213164659263e-06,0.0,0.0,0.0,0.0
1759830039.6517143,1,0.0,5.999996662139354,3.141591787228274,0.0,8.000000953674316,5.999999046325684,3.1415913406851406,0.0,16.000034413066665,5.999995653704001,-0.6126258835180455,1.0301213164659263e-06,0.0,0.0,0.0,0.0
1759830039.6627436,1,0.0,5.999996662139354,3.141591787228274,0.0,8.000000953674316,5.999999046325684,3.1415913571256144,0.0,16.00003441786569,5.999995642617505,-0.6126258835180455,1.0301213164659263e-06,0.0,0.0,0.0,0.0
1759830039.6735659,1,0.0,5.999996662139354,3.141591787228274,0.0,8.000000953674316,5.999999046325684,3.141591374763678,0.0,16.00003442266472,5.999995631531009,-0.6126258835180455,1.0301213164659263e-06,0.0,0.0,0.0,0.0
1759830039.6846204,1,0.0,5.999996662139354,3.141591787228274,0.0,8.000000953674316,5.999999046325684,3.141591389081153,0.0,16.000034427463746,5.999995620444513,-0.6126258835180455,1.0301213164659263e-06,0.0,0.0,0.0,0.0
1759830039.6947632,1,0.0,5.999996662139354,3.141591787228274,0.0,8.000000953674316,5.999999046325684,3.1415914099836275,0.0,16.000034432262773,5.999995609358017,-0.6126258835180455,1.0301213164659263e-06,0.0,0.0,0.0,0.0
1759830039.705708,1,0.0,5.999996662139354,3.141591787228274,0.0,8.000000953674316,5.999999046325684,3.1415914219831844,0.0,16.0000344370618,5.9999955982715205,-0.6126258835180455,1.0301213164659263e-06,0.0,0.0,0.0,0.0
1759830039.7169025,1,0.0,5.999996662139354,3.141591787228274,0.0,8.000000953674316,5.999999046325684,3.141591431447033,0.0,16.000034441860826,5.999995587185024,-0.6126258835180455,1.0301213164659263e-06,0.0,0.0,0.0,0.0
1759830039.7275155,1,0.0,5.999996662139354,3.141591787228274,0.0,8.000000953674316,5.999999046325684,3.1415914455737273,0.0,16.000034446659853,5.999995576098528,-0.6126258835180455,1.0301213164659263e-06,0.0,0.0,0.0,0.0
1759830039.7433286,1,0.0,5.999996662139354,3.141591787228274,0.0,8.000000953674316,5.999999046325684,3.1415914230245825,0.0,16.00003445145888,5.999995565012032,-0.6126258835180455,1.0301213164659263e-06,0.0,0.0,0.0,0.0
1759830039.7537038,1,0.0,5.999996662139354,3.141591787228274,0.0,8.000000953674316,5.999999046325684,3.141591446872484,0.0,16.000034456257907,5.999995553925536,-0.6126258835180455,1.0301213164659263e-06,0.0,0.0,0.0,0.0
1759830039.7648046,1,0.0,5.999996662139354,3.141591787228274,0.0,8.000000953674316,5.999999046325684,3.1415914644853107,0.0,16.000034461056934,5.99999554283904,-0.6126258835180455,1.0301213164659263e-06,0.0,0.0,0.0,0.0
1759830039.7755861,1,0.0,5.999996662139354,3.141591787228274,0.0,8.000000953674316,5.999999046325684,3.1415914814986508,0.0,16.00003446585596,5.9999955317525435,-0.6126258835180455,1.0301213164659263e-06,0.0,0.0,0.0,0.0
1759830039.7869463,1,0.0,5.999996662139354,3.141591787228274,0.0,8.000000953674316,5.999999046325684,3.141591492744647,0.0,16.000034470654988,5.999995520666047,-0.6126258835180455,1.0301213164659263e-06,0.0,0.0,0.0,0.0
1759830039.797713,1,0.0,5.999996662139354,3.141591787228274,0.0,8.000000953674316,5.999999046325684,3.1415915065934925,0.0,16.000034475454015,5.999995509579551,-0.6126258835180455,1.0301213164659263e-06,0.0,0.0,0.0,0.0
1759830039.808193,1,0.0,5.999996662139354,3.141591787228274,0.0,8.000000953674316,5.999999046325684,3.1415915205903957,0.0,16.000034480253042,5.999995498493055,-0.6126258835180455,1.0301213164659263e-06,0.0,0.0,0.0,0.0
1759830039.8186321,1,0.0,5.999996662139354,3.141591787228274,0.0,8.000000953674316,5.999999046325684,3.1415915329674977,0.0,16.00003448505207,5.999995487406559,-0.6126258835180455,1.0301213164659263e-06,0.0,0.0,0.0,0.0
1759830039.8291054,1,0.0,5.999996662139354,3.141591787228274,0.0,8.000000953674316,5.999999046325684,3.141591543594007,0.0,16.000034489851096,5.999995476320063,-0.6126258835180455,1.0301213164659263e-06,0.0,0.0,0.0,0.0
1759830039.840421,1,0.0,5.999996662139354,3.141591787228274,0.0,8.000000953674316,5.999999046325684,3.1415915488448682,0.0,16.000034494650123,5.9999954652335665,-0.6126258835180455,1.0301213164659263e-06,0.0,0.0,0.0,0.0
1759830039.8507106,1,0.0,5.999996662139354,3.141591787228274,0.0,8.000000953674316,5.999999046325684,3.141591559534028,0.0,16.00003449944915,5.99999545414707,-0.6126258835180455,1.0301213164659263e-06,0.0,0.0,0.0,0.0
1759830039.8621657,1,0.0,5.999996662139354,3.141591787228274,0.0,8.000000953674316,5.999999046325684,3.141591563811584,0.0,16.000034504248177,5.999995443060574,-0.6126258835180455,1.0301213164659263e-06,0.0,0.0,0.0,0.0
1759830039.873678,1,0.0,5.999996662139354,3.141591787228274,0.0,8.000000953674316,5.999999046325684,3.1415915684246922,0.0,16.000034509047204,5.999995431974078,-0.6126258835180455,1.0301213164659263e-06,0.0,0.0,0.0,0.0
1759830039.8848486,1,0.0,5.999996662139354,3.141591787228274,0.0,8.000000953674316,5.999999046325684,3.141591575380575,0.0,16.00003451384623,5.999995420887582,-0.6126258835180455,1.0301213164659263e-06,0.0,0.0,0.0,0.0
1759830039.8961678,1,0.0,5.999996662139354,3.141591787228274,0.0,8.000000953674316,5.999999046325684,3.141591581815515,0.0,16.000034518645258,5.999995409801086,-0.6126258835180455,1.0301213164659263e-06,0.0,0.0,0.0,0.0
1759830039.9074006,1,0.0,5.999996662139354,3.141591787228274,0.0,8.000000953674316,5.999999046325684,3.141591588674702,0.0,16.000034523444285,5.9999953987145895,-0.6126258835180455,1.0301213164659263e-06,0.0,0.0,0.0,0.0
1759830039.917821,1,0.0,5.999996662139354,3.141591787228274,0.0,8.000000953674316,5.999999046325684,3.141591598626798,0.0,16.00003452824331,5.999995387628093,-0.6126258835180455,1.0301213164659263e-06,0.0,0.0,0.0,0.0
1759830039.931048,1,0.0,5.999996662139354,3.141591787228274,0.0,8.000000953674316,5.999999046325684,3.141591596833017,0.0,16.00003453304234,5.999995376541597,-0.6126258835180455,1.0301213164659263e-06,0.0,0.0,0.0,0.0
1759830039.9492424,1,0.0,5.999996662139354,3.141591787228274,0.0,8.000000953674316,5.999999046325684,3.1415915798635083,0.0,16.000034537841366,5.999995365455101,-0.6126258835180455,1.0301213164659263e-06,0.0,0.0,0.0,0.0
1759830039.9607234,1,0.0,5.999996662139354,3.141591787228274,0.0,8.000000953674316,5.999999046325684,3.141591594025117,0.0,16.000034542640392,5.999995354368605,-0.6126258835180455,1.0301213164659263e-06,0.0,0.0,0.0,0.0
1759830039.9721966,1,0.0,5.999996662139354,3.141591787228274,0.0,8.000000953674316,5.999999046325684,3.141591607532705,0.0,16.00003454743942,5.999995343282109,-0.6126258835180455,1.0301213164659263e-06,0.0,0.0,0.0,0.0
1759830039.9828706,1,0.0,5.999996662139354,3.141591787228274,0.0,8.000000953674316,5.999999046325684,3.141591621161554,0.0,16.000034552238446,5.9999953321956125,-0.6126258835180455,1.0301213164659263e-06,0.0,0.0,0.0,0.0
1759830039.9934788,1,0.0,5.999996662139354,3.141591787228274,0.0,8.000000953674316,5.999999046325684,3.141591632351748,0.0,16.000034557037473,5.999995321109116,-0.6126258835180455,1.0301213164659263e-06,0.0,0.0,0.0,0.0
1759830040.00502,1,0.0,5.999996662139354,3.141591787228274,0.0,8.000000953674316,5.999999046325684,3.141591638680815,0.0,16.0000345618365,5.99999531002262,-0.6126258835180455,1.0301213164659263e-06,0.0,0.0,0.0,0.0
1759830040.0156991,1,0.0,5.999996662139354,3.141591787228274,0.0,8.000000953674316,5.999999046325684,3.1415916467399256,0.0,16.000034566635527,5.999995298936124,-0.6126258835180455,1.0301213164659263e-06,0.0,0.0,0.0,0.0
1759830040.0269523,1,0.0,5.999996662139354,3.141591787228274,0.0,8.000000953674316,5.999999046325684,3.1415916521667455,0.0,16.000034571434554,5.999995287849628,-0.6126258835180455,1.0301213164659263e-06,0.0,0.0,0.0,0.0
1759830040.0377476,1,0.0,5.999996662139354,3.141591787228274,0.0,8.000000953674316,5.999999046325684,3.141591658318182,0.0,16.00003457623358,5.999995276763132,-0.6126258835180455,1.0301213164659263e-06,0.0,0.0,0.0,0.0
1759830040.0481997,1,0.0,5.999996662139354,3.141591787228274,0.0,8.000000953674316,5.999999046325684,3.141591664710095,0.0,16.000034581032608,5.9999952656766355,-0.6126258835180455,1.0301213164659263e-06,0.0,0.0,0.0,0.0
1759830040.0597632,1,0.0,5.999996662139354,3.141591787228274,0.0,8.000000953674316,5.999999046325684,3.1415916675190445,0.0,16.000034585831635,5.999995254590139,-0.6126258835180455,1.0301213164659263e-06,0.0,0.0,0.0,0.0
1759830040.070038,1,0.0,5.999996662139354,3.141591787228274,0.0,8.000000953674316,5.999999046325684,3.141591673547042,0.0,16.000034590630662,5.999995243503643,-0.6126258835180455,1.0301213164659263e-06,0.0,0.0,0.0,0.0
1759830040.080438,1,0.0,5.999996662139354,3.141591787228274,0.0,8.000000953674316,5.999999046325684,3.1415916786287212,0.0,16.00003459542969,5.999995232417147,-0.6126258835180455,1.0301213164659263e-06,0.0,0.0,0.0,0.0
1759830040.0910933,1,0.0,5.999996662139354,3.141591787228274,0.0,8.000000953674316,5.999999046325684,3.141591682498328,0.0,16.000034600228716,5.999995221330651,-0.6126258835180455,1.0301213164659263e-06,0.0,0.0,0.0,0.0
1759830040.1019497,1,0.0,5.999996662139354,3.141591787228274,0.0,8.000000953674316,5.999999046325684,3.141591685636879,0.0,16.000034605027743,5.999995210244155,-0.6126258835180455,1.0301213164659263e-06,0.0,0.0,0.0,0.0
1759830040.112731,1,0.0,5.999996662139354,3.141591787228274,0.0,8.000000953674316,5.999999046325684,3.1415916888812134,0.0,16.00003460982677,5.9999951991576586,-0.6126258835180455,1.0301213164659263e-06,0.0,0.0,0.0,0.0
1759830040.123036,1,0.0,5.999996662139354,3.141591787228274,0.0,8.000000953674316,5.999999046325684,3.141591693021752,0.0,16.000034614625797,5.999995188071162,-0.6126258835180455,1.0301213164659263e-06,0.0,0.0,0.0,0.0
1759830040.1345615,1,0.0,5.999996662139354,3.141591787228274,0.0,8.000000953674316,5.999999046325684,3.141591694379759,0.0,16.000034619424824,5.999995176984666,-0.6126258835180455,1.0301213164659263e-06,0.0,0.0,0.0,0.0
1759830040.1524796,1,0.0,5.999996662139354,3.141591787228274,0.0,8.000000953674316,5.999999046325684,3.1415916842417015,0.0,16.00003462422385,5.99999516589817,-0.6126258835180455,1.0301213164659263e-06,0.0,0.0,0.0,0.0
1759830040.1633935,1,0.0,5.999996662139354,3.141591787228274,0.0,8.000000953674316,5.999999046325684,3.1415916909233363,0.0,16.000034629022878,5.999995154811674,-0.6126258835180455,1.0301213164659263e-06,0.0,0.0,0.0,0.0
1759830040.1747515,1,0.0,5.999996662139354,3.141591787228274,0.0,8.000000953674316,5.999999046325684,3.1415916966553112,0.0,16.000034633821905,5.999995143725178,-0.6126258835180455,1.0301213164659263e-06,0.0,0.0,0.0,0.0
1759830040.1861875,1,0.0,5.999996662139354,3.141591787228274,0.0,8.000000953674316,5.999999046325684,3.141591701362735,0.0,16.00003463862093,5.999995132638682,-0.6126258835180455,1.0301213164659263e-06,0.0,0.0,0.0,0.0
1759830040.1976964,1,0.0,5.999996662139354,3.141591787228274,0.0,8.000000953674316,5.999999046325684,3.1415917053283096,0.0,16.00003464341996,5.999995121552185,-0.6126258835180455,1.0301213164659263e-06,0.0,0.0,0.0,0.0
1759830040.2078881,1,0.0,5.999996662139354,3.141591787228274,0.0,8.000000953674316,5.999999046325684,3.1415917108864893,0.0,16.000034648218985,5.999995110465689,-0.6126258835180455,1.0301213164659263e-06,0.0,0.0,0.0,0.0
1759830040.2193615,1,0.0,5.999996662139354,3.141591787228274,0.0,8.000000953674316,5.999999046325684,3.141591713607296,0.0,16.000034653018012,5.999995099379193,-0.6126258835180455,1.0301213164659263e-06,0.0,0.0,0.0,0.0
1759830040.2307055,1,0.0,5.999996662139354,3.141591787228274,0.0,8.000000953674316,5.999999046325684,3.1415917162654576,0.0,16.00003465781704,5.999995088292697,-0.6126258835180455,1.0301213164659263e-06,0.0,0.0,0.0,0.0
1759830040.2409582,1,0.0,5.999996662139354,3.141591787228274,0.0,8.000000953674316,5.999999046325684,3.141591720319429,0.0,16.000034662616066,5.999995077206201,-0.6126258835180455,1.0301213164659263e-06,0.0,0.0,0.0,0.0
1759830040.2521133,1,0.0,5.999996662139354,3.141591787228274,0.0,8.000000953674316,5.999999046325684,3.141591722597049,0.0,16.000034667415093,5.999995066119705,-0.6126258835180455,1.0301213164659263e-06,0.0,0.0,0.0,0.0
1759830040.262794,1,0.0,5.999996662139354,3.141591787228274,0.0,8.000000953674316,5.999999046325684,3.141591725318621,0.0,16.00003467221412,5.999995055033208,-0.6126258835180455,1.0301213164659263e-06,0.0,0.0,0.0,0.0
1759830040.2742982,1,0.0,5.999996662139354,3.141591787228274,0.0,8.000000953674316,5.999999046325684,3.14159172677625,0.0,16.000034677013147,5.999995043946712,-0.6126258835180455,1.0301213164659263e-06,0.0,0.0,0.0,0.0
1759830040.2843106,1,0.0,5.999996662139354,3.141591787228274,0.0,8.000000953674316,5.999999046325684,3.1415917301271516,0.0,16.000034681812174,5.999995032860216,-0.6126258835180455,1.0301213164659263e-06,0.0,0.0,0.0,0.0
1759830040.295228,1,0.0,5.999996662139354,3.141591787228274,0.0,8.000000953674316,5.999999046325684,3.141591731991692,0.0,16.0000346866112,5.99999502177372,-0.6126258835180455,1.0301213164659263e-06,0.0,0.0,0.0,0.0
1759830040.3061125,1,0.0,5.999996662139354,3.141591787228274,0.0,8.000000953674316,5.999999046325684,3.1415917337612207,0.0,16.000034691410228,5.999995010687224,-0.6126258835180455,1.0301213164659263e-06,0.0,0.0,0.0,0.0
1759830040.317504,1,0.0,5.999996662139354,3.141591787228274,0.0,8.000000953674316,5.999999046325684,3.1415917349346074,0.0,16.000034696209255,5.999994999600728,-0.6126258835180455,1.0301213164659263e-06,0.0,0.0,0.0,0.0
1759830040.3288605,1,0.0,5.999996662139354,3.141591787228274,0.0,8.000000953674316,5.999999046325684,3.141591736275764,0.0,16.000034701008282,5.999994988514231,-0.6126258835180455,1.0301213164659263e-06,0.0,0.0,0.0,0.0
1759830040.3391345,1,0.0,5.999996662139354,3.141591787228274,0.0,8.000000953674316,5.999999046325684,3.1415917388290886,0.0,16.00003470580731,5.999994977427735,-0.6126258835180455,1.0301213164659263e-06,0.0,0.0,0.0,0.0
1759830040.3557467,1,0.0,5.999996662139354,3.141591787228274,0.0,8.000000953674316,5.999999046325684,3.14159173493311,0.0,16.000034710606336,5.999994966341239,-0.6126258835180455,1.0301213164659263e-06,0.0,0.0,0.0,0.0
1759830040.3661778,1,0.0,5.999996662139354,3.141591787228274,0.0,8.000000953674316,5.999999046325684,3.1415917384878895,0.0,16.000034715405363,5.999994955254743,-0.6126258835180455,1.0301213164659263e-06,0.0,0.0,0.0,0.0
1759830040.3767097,1,0.0,5.999996662139354,3.141591787228274,0.0,8.000000953674316,5.999999046325684,3.1415917417210117,0.0,16.00003472020439,5.999994944168247,-0.6126258835180455,1.0301213164659263e-06,0.0,0.0,0.0,0.0
1759830040.3875172,1,0.0,5.999996662139354,3.141591787228274,0.0,8.000000953674316,5.999999046325684,3.141591744125467,0.0,16.000034725003417,5.999994933081751,-0.6126258835180455,1.0301213164659263e-06,0.0,0.0,0.0,0.0
1759830040.3983357,1,0.0,5.999996662139354,3.141591787228274,0.0,8.000000953674316,5.999999046325684,3.1415917461464407,0.0,16.000034729802444,5.999994921995254,-0.6126258835180455,1.0301213164659263e-06,0.0,0.0,0.0,0.0
1759830040.4096756,1,0.0,5.999996662139354,3.141591787228274,0.0,8.000000953674316,5.999999046325684,3.141591747493088,0.0,16.00003473460147,5.999994910908758,-0.6126258835180455,1.0301213164659263e-06,0.0,0.0,0.0,0.0
1759830040.4204557,1,0.0,5.999996662139354,3.141591787228274,0.0,8.000000953674316,5.999999046325684,3.1415917492255936,0.0,16.000034739400498,5.999994899822262,-0.6126258835180455,1.0301213164659263e-06,0.0,0.0,0.0,0.0
1759830040.4345021,1,0.0,5.999996662139354,3.141591787228274,0.0,8.000000953674316,5.999999046325684,3.14159174835285,0.0,16.000034744199525,5.999994888735766,-0.6126258835180455,1.0301213164659263e-06,0.0,0.0,0.0,0.0
1759830040.4448829,1,0.0,5.999996662139354,3.141591787228274,0.0,8.000000953674316,5.999999046325684,3.1415917507618545,0.0,16.00003474899855,5.99999487764927,-0.6126258835180455,1.0301213164659263e-06,0.0,0.0,0.0,0.0
1759830040.4552963,1,0.0,5.999996662139354,3.141591787228274,0.0,8.000000953674316,5.999999046325684,3.1415917529246826,0.0,16.00003475379758,5.999994866562774,-0.6126258835180455,1.0301213164659263e-06,0.0,0.0,0.0,0.0
1759830040.4664187,1,0.0,5.999996662139354,3.141591787228274,0.0,8.000000953674316,5.999999046325684,3.1415917542429703,0.0,16.000034758596605,5.999994855476277,-0.6126258835180455,1.0301213164659263e-06,0.0,0.0,0.0,0.0
1759830040.477322,1,0.0,5.999996662139354,3.141591787228274,0.0,8.000000953674316,5.999999046325684,3.1415917555757016,0.0,16.000034763395632,5.999994844389781,-0.6126258835180455,1.0301213164659263e-06,0.0,0.0,0.0,0.0
1759830040.488218,1,0.0,5.999996662139354,3.141591787228274,0.0,8.000000953674316,5.999999046325684,3.141591756807861,0.0,16.00003476819466,5.999994833303285,-0.6126258835180455,1.0301213164659263e-06,0.0,0.0,0.0,0.0
1759830040.4993324,1,0.0,5.999996662139354,3.141591787228274,0.0,8.000000953674316,5.999999046325684,3.1415917578135577,0.0,16.000034772993686,5.999994822216789,-0.6126258835180455,1.0301213164659263e-06,0.0,0.0,0.0,0.0
