timestamp,vehicle_id,x,y,theta,velocity,gps_available,dt,gps_x,gps_y,gps_theta,gps_velocity,control_steering,control_acceleration
1759830036.9265573,1,8.0,6.0,-0.05483113549895435,0.0,False,0.01,nan,nan,nan,nan,0.0,0.0
1759830036.9379456,1,8.0,6.0,-0.05483113549895435,0.0,False,0.011388301849365234,nan,nan,nan,nan,0.0,0.0
1759830036.9481454,1,8.0,6.0,-0.05483113549895435,0.0,False,0.010199785232543945,nan,nan,nan,nan,0.0,0.0
1759830036.9588435,1,8.0,6.0,-0.05483113549895435,0.0,False,0.010698080062866211,nan,nan,nan,nan,0.0,0.0
1759830036.9692976,1,8.0,6.0,-0.05483113549895435,0.0,False,0.010454177856445312,nan,nan,nan,nan,0.0,0.0
1759830036.9807317,1,8.0,6.0,-0.05483113549895435,0.0,False,0.011434078216552734,nan,nan,nan,nan,0.0,0.0
1759830036.9917307,1,8.0,6.0,-0.05483113549895435,0.0,False,0.010998964309692383,nan,nan,nan,nan,0.0,0.0
1759830037.0028265,1,8.0,6.0,-0.05483113549895435,0.0,False,0.011095762252807617,nan,nan,nan,nan,0.0,0.0
1759830037.0138092,1,8.0,6.0,-0.05483113549895435,0.0,False,0.010982751846313477,nan,nan,nan,nan,0.0,0.0
1759830037.0245385,1,8.0,6.0,-0.05483113549895435,0.0,False,0.010729312896728516,nan,nan,nan,nan,0.0,0.0
1759830037.0353708,1,8.0,6.0,-0.05483113549895435,0.0,False,0.01083230972290039,nan,nan,nan,nan,0.0,0.0
1759830037.0461578,1,8.0,6.0,-0.05483113549895435,0.0,False,0.010787010192871094,nan,nan,nan,nan,0.0,0.0
1759830037.05729,1,8.0,6.0,-0.05483113549895435,0.0,False,0.011132240295410156,nan,nan,nan,nan,0.0,0.0
1759830037.0673227,1,8.0,6.0,-0.05483113549895435,0.0,False,0.01003265380859375,nan,nan,nan,nan,0.0,0.0
1759830037.0783436,1,8.0,6.0,-0.05483113549895435,0.0,False,0.011020898818969727,nan,nan,nan,nan,0.0,0.0
1759830037.088511,1,8.0,6.0,-0.05483113549895435,0.0,False,0.010167360305786133,nan,nan,nan,nan,0.0,0.0
1759830037.0986462,1,8.0,6.0,-0.05483113549895435,0.0,False,0.010135173797607422,nan,nan,nan,nan,0.0,0.0
1759830037.1099415,1,8.0,6.0,-0.05483113549895435,0.0,False,0.011295318603515625,nan,nan,nan,nan,0.0,0.0
1759830037.121507,1,8.000000945727031,5.99999905427297,-2.8798461898590713,0.0,True,0.011565446853637695,8.000000953674316,5.999999046325684,3.141591787338257,0.0,0.0,0.0
1759830037.1325982,1,8.000000951017842,5.999999048982158,-3.1212015966806277,0.0,True,0.011091232299804688,8.000000953674316,5.999999046325684,3.141591787338257,0.0,0.0,0.0
1759830037.1437216,1,8.00000095267779,5.999999047322208,3.1392478396901744,0.0,True,0.011123418807983398,8.000000953674316,5.999999046325684,3.141591787338257,0.0,0.0,0.0
1759830037.1542833,1,8.000000953294668,5.999999046705331,3.1364012718438516,0.0,True,0.010561704635620117,8.000000953674316,5.999999046325684,3.141591787338257,0.0,0.0,0.0
1759830037.1653738,1,8.000000953529359,5.9999990464706405,3.136031153463575,0.0,True,0.011090517044067383,8.000000953674316,5.999999046325684,3.141591787338257,0.0,0.0,0.0
1759830037.1768699,1,8.000000953618951,5.999999046381049,3.1363432499595554,0.0,True,0.01149606704711914,8.000000953674316,5.999999046325684,3.141591787338257,0.0,0.0,0.0
1759830037.1875978,1,8.000000953653169,5.999999046346831,3.1369748688090606,0.0,True,0.010727882385253906,8.000000953674316,5.999999046325684,3.141591787338257,0.0,0.0,0.0
1759830037.1987379,1,8.00000095366624,5.999999046333762,3.1375460233080403,0.0,True,0.011140108108520508,8.000000953674316,5.999999046325684,3.141591787338257,0.0,0.0,0.0
1759830037.2097704,1,8.00000095367123,5.999999046328769,3.138065385776187,0.0,True,0.011032581329345703,8.000000953674316,5.999999046325684,3.141591787338257,0.0,0.0,0.0
1759830037.2211738,1,8.000000953673139,5.999999046326862,3.138487390668516,0.0,True,0.011403322219848633,8.000000953674316,5.999999046325684,3.141591787338257,0.0,0.0,0.0
1759830037.2313564,1,8.000000953673867,5.999999046326134,3.1389074003149897,0.0,True,0.010182619094848633,8.000000953674316,5.999999046325684,3.141591787338257,0.0,0.0,0.0
1759830037.2422602,1,8.000000953674144,5.999999046325856,3.1392041853531225,0.0,True,0.01090383529663086,8.000000953674316,5.999999046325684,3.141591787338257,0.0,0.0,0.0
1759830037.253905,1,8.00000095367425,5.999999046325749,3.1394222596286063,0.0,True,0.011644840240478516,8.000000953674316,5.999999046325684,3.141591787338257,0.0,0.0,0.0
1759830037.2640536,1,8.000000953674292,5.9999990463257085,3.1396718420547156,0.0,True,0.01014852523803711,8.000000953674316,5.999999046325684,3.141591787338257,0.0,0.0,0.0
1759830037.274603,1,8.000000953674308,5.999999046325693,3.1398593547758384,0.0,True,0.010549306869506836,8.000000953674316,5.999999046325684,3.141591787338257,0.0,0.0,0.0
1759830037.285458,1,8.000000953674313,5.999999046325687,3.1400049705970154,0.0,True,0.01085519790649414,8.000000953674316,5.999999046325684,3.141591787338257,0.0,0.0,0.0
1759830037.296256,1,8.000000953674315,5.999999046325685,3.140132987069796,0.0,True,0.010797977447509766,8.000000953674316,5.999999046325684,3.141591787338257,0.0,0.0,0.0
1759830037.307547,1,8.000000953674316,5.9999990463256845,3.1402323225919417,0.0,True,0.011291027069091797,8.000000953674316,5.999999046325684,3.141591787338257,0.0,0.0,0.0
1759830037.3244958,1,8.000000953674316,5.999999046325684,3.140193763665362,0.0,True,0.016948699951171875,8.000000953674316,5.999999046325684,3.141591787338257,0.0,0.0,0.0
1759830037.335122,1,8.000000953674316,5.999999046325684,3.1403468958188014,0.0,True,0.01062631607055664,8.000000953674316,5.999999046325684,3.141591787338257,0.0,0.0,0.0
1759830037.3460891,1,8.000000953674316,5.999999046325684,3.140469563328814,0.0,True,0.010967016220092773,8.000000953674316,5.999999046325684,3.141591787338257,0.0,0.0,0.0
1759830037.3563292,1,8.000000953674316,5.999999046325684,3.140580715750813,0.0,True,0.01024007797241211,8.000000953674316,5.999999046325684,3.141591787338257,0.0,0.0,0.0
1759830037.3676527,1,8.000000953674316,5.999999046325684,3.140648991758871,0.0,True,0.01132345199584961,8.000000953674316,5.999999046325684,3.141591787338257,0.0,0.0,0.0
1759830037.3783894,1,8.000000953674316,5.999999046325684,3.1407174755479517,0.0,True,0.010736703872680664,8.000000953674316,5.999999046325684,3.141591787338257,0.0,0.0,0.0
1759830037.389235,1,8.000000953674316,5.999999046325684,3.140774326961157,0.0,True,0.010845661163330078,8.000000953674316,5.999999046325684,3.141591787338257,0.0,0.0,0.0
1759830037.3998828,1,8.000000953674316,5.999999046325684,3.140826668879086,0.0,True,0.010647773742675781,8.000000953674316,5.999999046325684,3.141591787338257,0.0,0.0,0.0
1759830037.4102495,1,8.000000953674316,5.999999046325684,3.1408762270472224,0.0,True,0.010366678237915039,8.000000953674316,5.999999046325684,3.141591787338257,0.0,0.0,0.0
1759830037.4204001,1,8.000000953674316,5.999999046325684,3.140921767136321,0.0,True,0.010150671005249023,8.000000953674316,5.999999046325684,3.141591787338257,0.0,0.0,0.0
1759830037.431111,1,8.000000953674316,5.999999046325684,3.1409531156762203,0.0,True,0.010710954666137695,8.000000953674316,5.999999046325684,3.141591787338257,0.0,0.0,0.0
1759830037.441823,1,8.000000953674316,5.999999046325684,3.1409818096471422,0.0,True,0.010711908340454102,8.000000953674316,5.999999046325684,3.141591787338257,0.0,0.0,0.0
1759830037.4522293,1,8.000000953674316,5.999999046325684,3.141012582660659,0.0,True,0.010406255722045898,8.000000953674316,5.999999046325684,3.141591787338257,0.0,0.0,0.0
1759830037.4631846,1,8.000000953674316,5.999999046325684,3.1410341376050326,0.0,True,0.010955333709716797,8.000000953674316,5.999999046325684,3.141591787338257,0.0,0.0,0.0
1759830037.4746044,1,8.000000953674316,5.999999046325684,3.141050149132992,0.0,True,0.01141977310180664,8.000000953674316,5.999999046325684,3.141591787338257,0.0,0.0,0.0
1759830037.4861033,1,8.000000953674316,5.999999046325684,3.141067030422194,0.0,True,0.01149892807006836,8.000000953674316,5.999999046325684,3.141591787338257,0.0,0.0,0.0
1759830037.4973028,1,8.000000953674316,5.999999046325684,3.1410884877511727,0.0,True,0.011199474334716797,8.000000953674316,5.999999046325684,3.141591787338257,0.0,0.0,0.0
1759830037.5079873,1,8.000000953674316,5.999999046325684,3.141114636692514,0.0,True,0.010684490203857422,8.000000953674316,5.999999046325684,3.141591787338257,0.0,0.0,0.0
1759830037.5226028,1,8.000000953674316,5.999999046325684,3.1411020529031184,0.0,True,0.014615535736083984,8.000000953674316,5.999999046325684,3.141591787338257,0.0,0.0,0.0
1759830037.5333338,1,8.000000953674316,5.999999046325684,3.141133864574032,0.0,True,0.010730981826782227,8.000000953674316,5.999999046325684,3.141591787338257,0.0,0.0,0.0
1759830037.544161,1,8.000000953674316,5.999999046325684,3.1411623818913377,0.0,True,0.010827302932739258,8.000000953674316,5.999999046325684,3.141591787338257,0.0,0.0,0.0
1759830037.555435,1,8.000000953674316,5.999999046325684,3.1411829493313626,0.0,True,0.011273860931396484,8.000000953674316,5.999999046325684,3.141591787338257,0.0,0.0,0.0
1759830037.5663161,1,8.000000953674316,5.999999046325684,3.141204425453818,0.0,True,0.010881185531616211,8.000000953674316,5.999999046325684,3.141591787338257,0.0,0.0,0.0
1759830037.576481,1,8.000000953674316,5.999999046325684,3.1412288275570344,0.0,True,0.010164976119995117,8.000000953674316,5.999999046325684,3.141591787338257,0.0,0.0,0.0
1759830037.5869691,1,8.000000953674316,5.999999046325684,3.1412470760872964,0.0,True,0.010488033294677734,8.000000953674316,5.999999046325684,3.141591787338257,0.0,0.0,0.0
1759830037.5978649,1,8.000000953674316,5.999999046325684,3.141260003819573,0.0,True,0.010895729064941406,8.000000953674316,5.999999046325684,3.141591787338257,0.0,0.0,0.0
1759830037.6091282,1,8.000000953674316,5.999999046325684,3.141269697433902,0.0,True,0.011263370513916016,8.000000953674316,5.999999046325684,3.141591787338257,0.0,0.0,0.0
1759830037.6204545,1,8.000000953674316,5.999999046325684,3.141279360775968,0.0,True,0.011326313018798828,8.000000953674316,5.999999046325684,3.141591787338257,0.0,0.0,0.0
1759830037.6315436,1,8.000000953674316,5.999999046325684,3.1412909524057344,0.0,True,0.011089086532592773,8.000000953674316,5.999999046325684,3.141591787338257,0.0,0.0,0.0
1759830037.642238,1,8.000000953674316,5.999999046325684,3.1413046300309517,0.0,True,0.010694265365600586,8.000000953674316,5.999999046325684,3.141591787338257,0.0,0.0,0.0
1759830037.653463,1,8.000000953674316,5.999999046325684,3.141314079069385,0.0,True,0.011224985122680664,8.000000953674316,5.999999046325684,3.141591787338257,0.0,0.0,0.0
1759830037.6639376,1,8.000000953674316,5.999999046325684,3.1413274886922125,0.0,True,0.010474681854248047,8.000000953674316,5.999999046325684,3.141591787338257,0.0,0.0,0.0
1759830037.6752117,1,8.000000953674316,5.999999046325684,3.141335320728759,0.0,True,0.011274099349975586,8.000000953674316,5.999999046325684,3.141591787338257,0.0,0.0,0.0
1759830037.6859188,1,8.000000953674316,5.999999046325684,3.1413460664639743,0.0,True,0.01070713996887207,8.000000953674316,5.999999046325684,3.141591787338257,0.0,0.0,0.0
1759830037.696723,1,8.000000953674316,5.999999046325684,3.141355635175735,0.0,True,0.010804176330566406,8.000000953674316,5.999999046325684,3.141591787338257,0.0,0.0,0.0
1759830037.707548,1,8.000000953674316,5.999999046325684,3.1413644624493138,0.0,True,0.010824918746948242,8.000000953674316,5.999999046325684,3.141591787338257,0.0,0.0,0.0
1759830037.833476,1,8.000000953674316,5.999999046325684,3.1410963399676497,0.0,True,0.1,8.000000953674316,5.999999046325684,3.141591787338257,0.0,0.0,0.0
1759830037.8410716,1,8.000000953674316,5.999999046325684,3.141231054467843,0.0,True,0.007595539093017578,8.000000953674316,5.999999046325684,3.141591787338257,0.0,0.0,0.0
1759830037.851541,1,8.000000953674316,5.999999046325684,3.1413214277782266,0.0,True,0.010469436645507812,8.000000953674316,5.999999046325684,3.141591787338257,0.0,0.0,0.0
1759830037.8624146,1,8.000000953674316,5.999999046325684,3.1413772215138884,0.0,True,0.010873556137084961,8.000000953674316,5.999999046325684,3.141591787338257,0.0,0.0,0.0
1759830037.8731537,1,8.000000953674316,5.999999046325684,3.14141425608028,0.0,True,0.01073908805847168,8.000000953674316,5.999999046325684,3.141591787338257,0.0,0.0,0.0
1759830037.8844173,1,8.000000953674316,5.999999046325684,3.1414386559245706,0.0,True,0.011263608932495117,8.000000953674316,5.999999046325684,3.141591787338257,0.0,0.0,0.0
1759830037.8950627,1,8.000000953674316,5.999999046325684,3.1414573411408426,0.0,True,0.010645389556884766,8.000000953674316,5.999999046325684,3.141591787338257,0.0,0.0,0.0
1759830037.9065862,1,8.000000953674316,5.999999046325684,3.141469282513455,0.0,True,0.01152348518371582,8.000000953674316,5.999999046325684,3.141591787338257,0.0,0.0,0.0
1759830037.9400814,1,8.000000953674316,5.999999046325684,3.1414370492876014,0.0,True,0.033495187759399414,8.000000953674316,5.999999046325684,3.141591787338257,0.0,0.0,0.0
1759830037.9470088,1,8.000000953674316,5.999999046325684,3.1414643329769056,0.0,True,0.006927490234375,8.000000953674316,5.999999046325684,3.141591787338257,0.0,0.0,0.0
1759830037.9583178,1,8.000000953674316,5.999999046325684,3.141479445879984,0.0,True,0.011308908462524414,8.000000953674316,5.999999046325684,3.141591787338257,0.0,0.0,0.0
1759830037.968841,1,8.000000953674316,5.999999046325684,3.1414915193748953,0.0,True,0.010523319244384766,8.000000953674316,5.999999046325684,3.141591787338257,0.0,0.0,0.0
1759830037.9805403,1,8.000000953674316,5.999999046325684,3.141498637209869,0.0,True,0.011699199676513672,8.000000953674316,5.999999046325684,3.141591787338257,0.0,0.0,0.0
1759830037.9914196,1,8.000000953674316,5.999999046325684,3.141505444195964,0.0,True,0.010879278182983398,8.000000953674316,5.999999046325684,3.141591787338257,0.0,0.0,0.0
1759830038.0014958,1,8.000000953674316,5.999999046325684,3.141512131912682,0.0,True,0.010076284408569336,8.000000953674316,5.999999046325684,3.141591787338257,0.0,0.0,0.0
1759830038.012052,1,8.000000953674316,5.999999046325684,3.1415166837888044,0.0,True,0.010556221008300781,8.000000953674316,5.999999046325684,3.141591787338257,0.0,0.0,0.0
1759830038.0225677,1,8.000000953674316,5.999999046325684,3.141520394064969,0.0,True,0.010515689849853516,8.000000953674316,5.999999046325684,3.141591787338257,0.0,0.0,0.0
1759830038.0338874,1,8.000000953674316,5.999999046325684,3.1415223433546817,0.0,True,0.011319637298583984,8.000000953674316,5.999999046325684,3.141591787338257,0.0,0.0,0.0
1759830038.0445764,1,8.000000953674316,5.999999046325684,3.1415250614628594,0.0,True,0.010689020156860352,8.000000953674316,5.999999046325684,3.141591787338257,0.0,0.0,0.0
1759830038.0551364,1,8.000000953674316,5.999999046325684,3.141527710917538,0.0,True,0.010560035705566406,8.000000953674316,5.999999046325684,3.141591787338257,0.0,0.0,0.0
1759830038.0651863,1,8.000000953674316,5.999999046325684,3.1415307384040005,0.0,True,0.010049819946289062,8.000000953674316,5.999999046325684,3.141591787338257,0.0,0.0,0.0
1759830038.0756142,1,8.000000953674316,5.999999046325684,3.141532850736322,0.0,True,0.01042795181274414,8.000000953674316,5.999999046325684,3.141591787338257,0.0,0.0,0.0
1759830038.0858448,1,8.000000953674316,5.999999046325684,3.141534981411006,0.0,True,0.010230541229248047,8.000000953674316,5.999999046325684,3.141591787338257,0.0,0.0,0.0
1759830038.0962553,1,8.000000953674316,5.999999046325684,3.141536688446518,0.0,True,0.010410547256469727,8.000000953674316,5.999999046325684,3.141591787338257,0.0,0.0,0.0
1759830038.1071742,1,8.000000953674316,5.999999046325684,3.14153768648816,0.0,True,0.010918855667114258,8.000000953674316,5.999999046325684,3.141591787338257,0.0,0.0,0.0
1759830038.1173177,1,8.000000953674316,5.999999046325684,3.1415396855570226,0.0,True,0.010143518447875977,8.000000953674316,5.999999046325684,3.141591787338257,0.0,0.0,0.0
1759830038.132256,1,8.000000953674316,5.999999046325684,3.141536224303966,0.0,True,0.0149383544921875,8.000000953674316,5.999999046325684,3.141591787338257,0.0,0.0,0.0
1759830038.1432922,1,8.000000953674316,5.999999046325684,3.1415383685121263,0.0,True,0.011036157608032227,8.000000953674316,5.999999046325684,3.141591787338257,0.0,0.0,0.0
1759830038.1549063,1,8.000000953674316,5.999999046325684,3.1415400668831186,0.0,True,0.011614084243774414,8.000000953674316,5.999999046325684,3.141591787338257,0.0,0.0,0.0
1759830038.1656375,1,8.000000953674316,5.999999046325684,3.1415426004691778,0.0,True,0.010731220245361328,8.000000953674316,5.999999046325684,3.141591787338257,0.0,0.0,0.0
1759830038.1759298,1,8.000000953674316,5.999999046325684,3.141545268507455,0.0,True,0.010292291641235352,8.000000953674316,5.999999046325684,3.141591787338257,0.0,0.0,0.0
1759830038.187254,1,8.000000953674316,5.999999046325684,3.1415465574071746,0.0,True,0.011324167251586914,8.000000953674316,5.999999046325684,3.141591787338257,0.0,0.0,0.0
1759830038.1975484,1,8.000000953674316,5.999999046325684,3.141548732766747,0.0,True,0.010294437408447266,8.000000953674316,5.999999046325684,3.141591787338257,0.0,0.0,0.0
1759830038.209109,1,8.000000953674316,5.999999046325684,3.141549546073211,0.0,True,0.011560678482055664,8.000000953674316,5.999999046325684,3.141591787338257,0.0,0.0,0.0
1759830038.220553,1,8.000000953674316,5.999999046325684,3.1415505415150484,0.0,True,0.011443853378295898,8.000000953674316,5.999999046325684,3.141591787338257,0.0,0.0,0.0
1759830038.2312686,1,8.000000953674316,5.999999046325684,3.1415522381990613,0.0,True,0.010715723037719727,8.000000953674316,5.999999046325684,3.141591787338257,0.0,0.0,0.0
1759830038.2419767,1,8.000000953674316,5.999999046325684,3.1415538178405455,0.0,True,0.010708093643188477,8.000000953674316,5.999999046325684,3.141591787338257,0.0,0.0,0.0
1759830038.2522314,1,8.000000953674316,5.999999046325684,3.141555599454863,0.0,True,0.010254621505737305,8.000000953674316,5.999999046325684,3.141591787338257,0.0,0.0,0.0
1759830038.2638109,1,8.000000953674316,5.999999046325684,3.14155616789461,0.0,True,0.011579513549804688,8.000000953674316,5.999999046325684,3.141591787338257,0.0,0.0,0.0
1759830038.2745883,1,8.000000953674316,5.999999046325684,3.1415574226651692,0.0,True,0.010777473449707031,8.000000953674316,5.999999046325684,3.141591787338257,0.0,0.0,0.0
1759830038.2849376,1,8.000000953674316,5.999999046325684,3.1415589456544435,0.0,True,0.010349273681640625,8.000000953674316,5.999999046325684,3.141591787338257,0.0,0.0,0.0
1759830038.295501,1,8.000000953674316,5.999999046325684,3.1415601598527,0.0,True,0.010563373565673828,8.000000953674316,5.999999046325684,3.141591787338257,0.0,0.0,0.0
1759830038.3058589,1,8.000000953674316,5.999999046325684,3.141561402577846,0.0,True,0.010357856750488281,8.000000953674316,5.999999046325684,3.141591787338257,0.0,0.0,0.0
1759830038.3161614,1,8.000000953674316,5.999999046325684,3.1415625676890855,0.0,True,0.010302543640136719,8.000000953674316,5.999999046325684,3.141591787338257,0.0,0.0,0.0
1759830038.3284097,1,8.000000953674316,5.999999046325684,3.1415624251837286,0.0,True,0.01224827766418457,8.000000953674316,5.999999046325684,3.141591787338257,0.0,0.0,0.0
1759830038.338836,1,8.000000953674316,5.999999046325684,3.1415636487401457,0.0,True,0.01042628288269043,8.000000953674316,5.999999046325684,3.141591787338257,0.0,0.0,0.0
1759830038.3492615,1,8.000000953674316,5.999999046325684,3.1415648271249825,0.0,True,0.010425567626953125,8.000000953674316,5.999999046325684,3.141591787338257,0.0,0.0,0.0
1759830038.359271,1,8.000000953674316,5.999999046325684,3.1415661161795327,0.0,True,0.010009527206420898,8.000000953674316,5.999999046325684,3.141591787338257,0.0,0.0,0.0
1759830038.3701644,1,8.000000953674316,5.999999046325684,3.1415667566142,0.0,True,0.01089334487915039,8.000000953674316,5.999999046325684,3.141591787338257,0.0,0.0,0.0
1759830038.3811605,1,8.000000953674316,5.999999046325684,3.141567344112431,0.0,True,0.010996103286743164,8.000000953674316,5.999999046325684,3.141591787338257,0.0,0.0,0.0
1759830038.3924382,1,8.000000953674316,5.999999046325684,3.1415678385573234,0.0,True,0.01127767562866211,8.000000953674316,5.999999046325684,3.141591787338257,0.0,0.0,0.0
1759830038.4028828,1,8.000000953674316,5.999999046325684,3.1415688195458884,0.0,True,0.01044464111328125,8.000000953674316,5.999999046325684,3.141591787338257,0.0,0.0,0.0
1759830038.4143364,1,8.000000953674316,5.999999046325684,3.1415692582961725,0.0,True,0.011453628540039062,8.000000953674316,5.999999046325684,3.141591787338257,0.0,0.0,0.0
1759830038.425284,1,8.000000953674316,5.999999046325684,3.1415699904946415,0.0,True,0.010947465896606445,8.000000953674316,5.999999046325684,3.141591787338257,0.0,0.0,0.0
1759830038.4361484,1,8.000000953674316,5.999999046325684,3.1415707609673937,0.0,True,0.010864496231079102,8.000000953674316,5.999999046325684,3.141591787338257,0.0,0.0,0.0
1759830038.4471116,1,8.000000953674316,5.999999046325684,3.141571455978738,0.0,True,0.010963201522827148,8.000000953674316,5.999999046325684,3.141591787338257,0.0,0.0,0.0
1759830038.4574838,1,8.000000953674316,5.999999046325684,3.141572373176249,0.0,True,0.010372161865234375,8.000000953674316,5.999999046325684,3.141591787338257,0.0,0.0,0.0
1759830038.4679034,1,8.000000953674316,5.999999046325684,3.1415731785061265,0.0,True,0.010419607162475586,8.000000953674316,5.999999046325684,3.141591787338257,0.0,0.0,0.0
1759830038.4780712,1,8.000000953674316,5.999999046325684,3.1415739969452687,0.0,True,0.010167837142944336,8.000000953674316,5.999999046325684,3.141591787338257,0.0,0.0,0.0
1759830038.4895713,1,8.000000953674316,5.999999046325684,3.1415742230028343,0.0,True,0.011500120162963867,8.000000953674316,5.999999046325684,3.141591787338257,0.0,0.0,0.0
1759830038.4998515,1,8.000000953674316,5.999999046325684,3.141574965198135,0.0,True,0.010280132293701172,8.000000953674316,5.999999046325684,3.141591787338257,0.0,0.0,0.0
1759830038.5106344,1,8.000000953674316,5.999999046325684,3.1415754836937975,0.0,True,0.010782957077026367,8.000000953674316,5.999999046325684,3.141591787338257,0.0,0.0,0.0
1759830038.5209584,1,8.000000953674316,5.999999046325684,3.1415761400261673,0.0,True,0.01032400131225586,8.000000953674316,5.999999046325684,3.141591787338257,0.0,0.0,0.0
1759830038.5347285,1,8.000000953674316,5.999999046325684,3.1415756218948125,0.0,True,0.013770103454589844,8.000000953674316,5.999999046325684,3.141591787338257,0.0,0.0,0.0
1759830038.5448182,1,8.000000953674316,5.999999046325684,3.141576556127715,0.0,True,0.010089635848999023,8.000000953674316,5.999999046325684,3.141591787338257,0.0,0.0,0.0
1759830038.5555768,1,8.000000953674316,5.999999046325684,3.1415772182273365,0.0,True,0.010758638381958008,8.000000953674316,5.999999046325684,3.141591787338257,0.0,0.0,0.0
1759830038.565984,1,8.000000953674316,5.999999046325684,3.1415779038617693,0.0,True,0.010407209396362305,8.000000953674316,5.999999046325684,3.141591787338257,0.0,0.0,0.0
1759830038.5775151,1,8.000000953674316,5.999999046325684,3.1415781897012724,0.0,True,0.01153111457824707,8.000000953674316,5.999999046325684,3.141591787338257,0.0,0.0,0.0
1759830038.5880773,1,8.000000953674316,5.999999046325684,3.1415787701250437,0.0,True,0.01056218147277832,8.000000953674316,5.999999046325684,3.141591787338257,0.0,0.0,0.0
1759830038.599034,1,8.000000953674316,5.999999046325684,3.141579206289224,0.0,True,0.010956764221191406,8.000000953674316,5.999999046325684,3.141591787338257,0.0,0.0,0.0
1759830038.610418,1,8.000000953674316,5.999999046325684,3.141579514129262,0.0,True,0.011384010314941406,8.000000953674316,5.999999046325684,3.141591787338257,0.0,0.0,0.0
1759830038.6215756,1,8.000000953674316,5.999999046325684,3.1415799011573817,0.0,True,0.011157512664794922,8.000000953674316,5.999999046325684,3.141591787338257,0.0,0.0,0.0
1759830038.6327066,1,8.000000953674316,5.999999046325684,3.1415802987875665,0.0,True,0.011131048202514648,8.000000953674316,5.999999046325684,3.141591787338257,0.0,0.0,0.0
1759830038.6429338,1,8.000000953674316,5.999999046325684,3.1415808961070795,0.0,True,0.010227203369140625,8.000000953674316,5.999999046325684,3.141591787338257,0.0,0.0,0.0
1759830038.653767,1,8.000000953674316,5.999999046325684,3.141581285018299,0.0,True,0.010833263397216797,8.000000953674316,5.999999046325684,3.141591787338257,0.0,0.0,0.0
1759830038.6651225,1,8.000000953674316,5.999999046325684,3.1415815317386535,0.0,True,0.011355400085449219,8.000000953674316,5.999999046325684,3.141591787338257,0.0,0.0,0.0
1759830038.6755404,1,8.000000953674316,5.999999046325684,3.141581992339834,0.0,True,0.010417938232421875,8.000000953674316,5.999999046325684,3.141591787338257,0.0,0.0,0.0
1759830038.6856878,1,8.000000953674316,5.999999046325684,3.141582467800479,0.0,True,0.010147333145141602,8.000000953674316,5.999999046325684,3.141591787338257,0.0,0.0,0.0
1759830038.6963687,1,8.000000953674316,5.999999046325684,3.1415827774550387,0.0,True,0.010680913925170898,8.000000953674316,5.999999046325684,3.141591787338257,0.0,0.0,0.0
1759830038.7066958,1,8.000000953674316,5.999999046325684,3.1415831335829836,0.0,True,0.01032710075378418,8.000000953674316,5.999999046325684,3.141591787338257,0.0,0.0,0.0
1759830038.7177494,1,8.000000953674316,5.999999046325684,3.1415833290701656,0.0,True,0.01105356216430664,8.000000953674316,5.999999046325684,3.141591787338257,0.0,0.0,0.0
1759830038.7336028,1,8.000000953674316,5.999999046325684,3.1415827082665118,0.0,True,0.015853404998779297,8.000000953674316,5.999999046325684,3.141591787338257,0.0,0.0,0.0
1759830038.7450194,1,8.000000953674316,5.999999046325684,3.1415831122098936,0.0,True,0.01141667366027832,8.000000953674316,5.999999046325684,3.141591787338257,0.0,0.0,0.0
1759830038.7550797,1,8.000000953674316,5.999999046325684,3.141583754926824,0.0,True,0.010060310363769531,8.000000953674316,5.999999046325684,3.141591787338257,0.0,0.0,0.0
1759830038.7656565,1,8.000000953674316,5.999999046325684,3.141584205120095,0.0,True,0.010576725006103516,8.000000953674316,5.999999046325684,3.141591787338257,0.0,0.0,0.0
1759830038.7769754,1,8.000000953674316,5.999999046325684,3.1415844667944484,0.0,True,0.01131892204284668,8.000000953674316,5.999999046325684,3.141591787338257,0.0,0.0,0.0
1759830038.7878923,1,8.000000953674316,5.999999046325684,3.141584769521959,0.0,True,0.010916948318481445,8.000000953674316,5.999999046325684,3.141591787338257,0.0,0.0,0.0
1759830038.798926,1,8.000000953674316,5.999999046325684,3.1415850334609416,0.0,True,0.011033773422241211,8.000000953674316,5.999999046325684,3.141591787338257,0.0,0.0,0.0
1759830038.8102896,1,8.000000953674316,5.999999046325684,3.141585236311542,0.0,True,0.011363506317138672,8.000000953674316,5.999999046325684,3.141591787338257,0.0,0.0,0.0
1759830038.8207693,1,8.000000953674316,5.999999046325684,3.141585554307049,0.0,True,0.01047968864440918,8.000000953674316,5.999999046325684,3.141591787338257,0.0,0.0,0.0
1759830038.8327,1,8.000000953674316,5.999999046325684,3.1415856574368313,0.0,True,0.011930704116821289,8.000000953674316,5.999999046325684,3.141591787338257,0.0,0.0,0.0
1759830038.8440351,1,8.000000953674316,5.999999046325684,3.141585854632515,0.0,True,0.011335134506225586,8.000000953674316,5.999999046325684,3.141591787338257,0.0,0.0,0.0
1759830038.8547213,1,8.000000953674316,5.999999046325684,3.1415861320843863,0.0,True,0.010686159133911133,8.000000953674316,5.999999046325684,3.141591787338257,0.0,0.0,0.0
1759830038.865798,1,8.000000953674316,5.999999046325684,3.1415863385167935,0.0,True,0.011076688766479492,8.000000953674316,5.999999046325684,3.141591787338257,0.0,0.0,0.0
1759830038.8761914,1,8.000000953674316,5.999999046325684,3.1415866052360855,0.0,True,0.010393381118774414,8.000000953674316,5.999999046325684,3.141591787338257,0.0,0.0,0.0
1759830038.8868122,1,8.000000953674316,5.999999046325684,3.141586816861931,0.0,True,0.010620832443237305,8.000000953674316,5.999999046325684,3.141591787338257,0.0,0.0,0.0
1759830038.89777,1,8.000000953674316,5.999999046325684,3.1415869724840615,0.0,True,0.010957717895507812,8.000000953674316,5.999999046325684,3.141591787338257,0.0,0.0,0.0
1759830038.9081554,1,8.000000953674316,5.999999046325684,3.1415871798000516,0.0,True,0.010385513305664062,8.000000953674316,5.999999046325684,3.141591787338257,0.0,0.0,0.0
1759830038.9189558,1,8.000000953674316,5.999999046325684,3.1415873287448584,0.0,True,0.010800361633300781,8.000000953674316,5.999999046325684,3.141591787338257,0.0,0.0,0.0
1759830038.9442008,1,8.000000953674316,5.999999046325684,3.141586197600141,0.0,True,0.025244951248168945,8.000000953674316,5.999999046325684,3.141591787338257,0.0,0.0,0.0
1759830038.9503963,1,8.000000953674316,5.999999046325684,3.141587096977002,0.0,True,0.006195545196533203,8.000000953674316,5.999999046325684,3.141591787338257,0.0,0.0,0.0
1759830038.9608963,1,8.000000953674316,5.999999046325684,3.1415875007625704,0.0,True,0.010499954223632812,8.000000953674316,5.999999046325684,3.141591787338257,0.0,0.0,0.0
1759830038.971122,1,8.000000953674316,5.999999046325684,3.141587813539818,0.0,True,0.010225772857666016,8.000000953674316,5.999999046325684,3.141591787338257,0.0,0.0,0.0
1759830038.982371,1,8.000000953674316,5.999999046325684,3.1415879824872217,0.0,True,0.011249065399169922,8.000000953674316,5.999999046325684,3.141591787338257,0.0,0.0,0.0
1759830038.9934006,1,8.000000953674316,5.999999046325684,3.1415881453749765,0.0,True,0.011029481887817383,8.000000953674316,5.999999046325684,3.141591787338257,0.0,0.0,0.0
1759830039.004017,1,8.000000953674316,5.999999046325684,3.141588322556659,0.0,True,0.010616540908813477,8.000000953674316,5.999999046325684,3.141591787338257,0.0,0.0,0.0
1759830039.015185,1,8.000000953674316,5.999999046325684,3.1415884402099934,0.0,True,0.01116800308227539,8.000000953674316,5.999999046325684,3.141591787338257,0.0,0.0,0.0
1759830039.0265856,1,8.000000953674316,5.999999046325684,3.1415885357026276,0.0,True,0.011400461196899414,8.000000953674316,5.999999046325684,3.141591787338257,0.0,0.0,0.0
1759830039.0379164,1,8.000000953674316,5.999999046325684,3.1415886377757847,0.0,True,0.011330842971801758,8.000000953674316,5.999999046325684,3.141591787338257,0.0,0.0,0.0
1759830039.0489805,1,8.000000953674316,5.999999046325684,3.141588756873615,0.0,True,0.01106405258178711,8.000000953674316,5.999999046325684,3.141591787338257,0.0,0.0,0.0
1759830039.0598245,1,8.000000953674316,5.999999046325684,3.1415888829867047,0.0,True,0.010843992233276367,8.000000953674316,5.999999046325684,3.141591787338257,0.0,0.0,0.0
1759830039.0698793,1,8.000000953674316,5.999999046325684,3.141589044077353,0.0,True,0.010054826736450195,8.000000953674316,5.999999046325684,3.141591787338257,0.0,0.0,0.0
1759830039.080511,1,8.000000953674316,5.999999046325684,3.1415891491669257,0.0,True,0.010631799697875977,8.000000953674316,5.999999046325684,3.141591787338257,0.0,0.0,0.0
1759830039.0908108,1,8.000000953674316,5.999999046325684,3.1415892612015117,0.0,True,0.0102996826171875,8.000000953674316,5.999999046325684,3.141591787338257,0.0,0.0,0.0
1759830039.100821,1,8.000000953674316,5.999999046325684,3.141589377003557,0.0,True,0.010010242462158203,8.000000953674316,5.999999046325684,3.141591787338257,0.0,0.0,0.0
1759830039.1112163,1,8.000000953674316,5.999999046325684,3.141589458455986,0.0,True,0.010395288467407227,8.000000953674316,5.999999046325684,3.141591787338257,0.0,0.0,0.0
1759830039.121427,1,8.000000953674316,5.999999046325684,3.1415895428842866,0.0,True,0.010210752487182617,8.000000953674316,5.999999046325684,3.141591787338257,0.0,0.0,0.0
1759830039.1453521,1,8.000000953674316,5.999999046325684,3.14158898347854,0.0,True,0.023925065994262695,8.000000953674316,5.999999046325684,3.141591787338257,0.0,0.0,0.0
1759830039.1506612,1,8.000000953674316,5.999999046325684,3.1415894556076367,0.0,True,0.005309104919433594,8.000000953674316,5.999999046325684,3.141591787338257,0.0,0.0,0.0
1759830039.1609974,1,8.000000953674316,5.999999046325684,3.1415896321282695,0.0,True,0.010336160659790039,8.000000953674316,5.999999046325684,3.141591787338257,0.0,0.0,0.0
1759830039.1722999,1,8.000000953674316,5.999999046325684,3.1415897169906266,0.0,True,0.011302471160888672,8.000000953674316,5.999999046325684,3.141591787338257,0.0,0.0,0.0
1759830039.1823647,1,8.000000953674316,5.999999046325684,3.1415898413018315,0.0,True,0.010064840316772461,8.000000953674316,5.999999046325684,3.141591787338257,0.0,0.0,0.0
1759830039.1933882,1,8.000000953674316,5.999999046325684,3.1415899091436152,0.0,True,0.011023521423339844,8.000000953674316,5.999999046325684,3.141591787338257,0.0,0.0,0.0
1759830039.2045631,1,8.000000953674316,5.999999046325684,3.141589965348601,0.0,True,0.011174917221069336,8.000000953674316,5.999999046325684,3.141591787338257,0.0,0.0,0.0
1759830039.2160923,1,8.000000953674316,5.999999046325684,3.1415900086056716,0.0,True,0.011529207229614258,8.000000953674316,5.999999046325684,3.141591787338257,0.0,0.0,0.0
1759830039.227515,1,8.000000953674316,5.999999046325684,3.1415900598004995,0.0,True,0.01142263412475586,8.000000953674316,5.999999046325684,3.141591787338257,0.0,0.0,0.0
1759830039.2386463,1,8.000000953674316,5.999999046325684,3.141590123130321,0.0,True,0.01113128662109375,8.000000953674316,5.999999046325684,3.141591787338257,0.0,0.0,0.0
1759830039.2489207,1,8.000000953674316,5.999999046325684,3.1415902121672517,0.0,True,0.010274410247802734,8.000000953674316,5.999999046325684,3.141591787338257,0.0,0.0,0.0
1759830039.25984,1,8.000000953674316,5.999999046325684,3.1415902689444373,0.0,True,0.010919332504272461,8.000000953674316,5.999999046325684,3.141591787338257,0.0,0.0,0.0
1759830039.2705529,1,8.000000953674316,5.999999046325684,3.141590327326721,0.0,True,0.010712862014770508,8.000000953674316,5.999999046325684,3.141591787338257,0.0,0.0,0.0
1759830039.281063,1,8.000000953674316,5.999999046325684,3.1415903875538564,0.0,True,0.01051020622253418,8.000000953674316,5.999999046325684,3.141591787338257,0.0,0.0,0.0
1759830039.2918034,1,8.000000953674316,5.999999046325684,3.141590435569297,0.0,True,0.010740280151367188,8.000000953674316,5.999999046325684,3.141591787338257,0.0,0.0,0.0
1759830039.3031268,1,8.000000953674316,5.999999046325684,3.141590464579446,0.0,True,0.01132345199584961,8.000000953674316,5.999999046325684,3.141591787338257,0.0,0.0,0.0
1759830039.3132045,1,8.000000953674316,5.999999046325684,3.141590530281549,0.0,True,0.010077714920043945,8.000000953674316,5.999999046325684,3.141591787338257,0.0,0.0,0.0
1759830039.324246,1,8.000000953674316,5.999999046325684,3.1415905637813886,0.0,True,0.011041402816772461,8.000000953674316,5.999999046325684,3.141591787338257,0.0,0.0,0.0
1759830039.3406425,1,8.000000953674316,5.999999046325684,3.141590464371692,0.0,True,0.016396522521972656,8.000000953674316,5.999999046325684,3.141591787338257,0.0,0.0,0.0
1759830039.3519459,1,8.000000953674316,5.999999046325684,3.141590530673996,0.0,True,0.011303424835205078,8.000000953674316,5.999999046325684,3.141591787338257,0.0,0.0,0.0
1759830039.363195,1,8.000000953674316,5.999999046325684,3.1415905998561247,0.0,True,0.011249065399169922,8.000000953674316,5.999999046325684,3.141591787338257,0.0,0.0,0.0
1759830039.3740106,1,8.000000953674316,5.999999046325684,3.1415906694011184,0.0,True,0.010815620422363281,8.000000953674316,5.999999046325684,3.141591787338257,0.0,0.0,0.0
1759830039.385484,1,8.000000953674316,5.999999046325684,3.1415907143679203,0.0,True,0.011473417282104492,8.000000953674316,5.999999046325684,3.141591787338257,0.0,0.0,0.0
1759830039.3964164,1,8.000000953674316,5.999999046325684,3.1415907662104754,0.0,True,0.010932445526123047,8.000000953674316,5.999999046325684,3.141591787338257,0.0,0.0,0.0
1759830039.4071465,1,8.000000953674316,5.999999046325684,3.1415908163798534,0.0,True,0.01073002815246582,8.000000953674316,5.999999046325684,3.141591787338257,0.0,0.0,0.0
1759830039.418468,1,8.000000953674316,5.999999046325684,3.1415908489028386,0.0,True,0.011321544647216797,8.000000953674316,5.999999046325684,3.141591787338257,0.0,0.0,0.0
1759830039.4313664,1,8.000000953674316,5.999999046325684,3.141590850970424,0.0,True,0.012898445129394531,8.000000953674316,5.999999046325684,3.141591787338257,0.0,0.0,0.0
1759830039.4421012,1,8.000000953674316,5.999999046325684,3.141590899977345,0.0,True,0.010734796524047852,8.000000953674316,5.999999046325684,3.141591787338257,0.0,0.0,0.0
1759830039.4535697,1,8.000000953674316,5.999999046325684,3.1415909324583655,0.0,True,0.01146841049194336,8.000000953674316,5.999999046325684,3.141591787338257,0.0,0.0,0.0
1759830039.4637892,1,8.000000953674316,5.999999046325684,3.1415909833293743,0.0,True,0.010219573974609375,8.000000953674316,5.999999046325684,3.141591787338257,0.0,0.0,0.0
1759830039.4744947,1,8.000000953674316,5.999999046325684,3.1415910190266167,0.0,True,0.01070547103881836,8.000000953674316,5.999999046325684,3.141591787338257,0.0,0.0,0.0
1759830039.4858298,1,8.000000953674316,5.999999046325684,3.141591040371111,0.0,True,0.011335134506225586,8.000000953674316,5.999999046325684,3.141591787338257,0.0,0.0,0.0
1759830039.497343,1,8.000000953674316,5.999999046325684,3.1415910591656555,0.0,True,0.011513233184814453,8.000000953674316,5.999999046325684,3.141591787338257,0.0,0.0,0.0
1759830039.5075881,1,8.000000953674316,5.999999046325684,3.1415910976952937,0.0,True,0.010245084762573242,8.000000953674316,5.999999046325684,3.141591787338257,0.0,0.0,0.0
1759830039.5176194,1,8.000000953674316,5.999999046325684,3.1415911346615566,0.0,True,0.01003122329711914,8.000000953674316,5.999999046325684,3.141591787338257,0.0,0.0,0.0
1759830039.5291345,1,8.000000953674316,5.999999046325684,3.14159114580103,0.0,True,0.011515140533447266,8.000000953674316,5.999999046325684,3.141591787338257,0.0,0.0,0.0
1759830039.5419037,1,8.000000953674316,5.999999046325684,3.141591142326913,0.0,True,0.012769222259521484,8.000000953674316,5.999999046325684,3.141591787338257,0.0,0.0,0.0
1759830039.5533273,1,8.000000953674316,5.999999046325684,3.14159116342317,0.0,True,0.011423587799072266,8.000000953674316,5.999999046325684,3.141591787338257,0.0,0.0,0.0
1759830039.5634928,1,8.000000953674316,5.999999046325684,3.1415912009355083,0.0,True,0.01016545295715332,8.000000953674316,5.999999046325684,3.141591787338257,0.0,0.0,0.0
1759830039.5746994,1,8.000000953674316,5.999999046325684,3.14159122092569,0.0,True,0.011206626892089844,8.000000953674316,5.999999046325684,3.141591787338257,0.0,0.0,0.0
1759830039.5856104,1,8.000000953674316,5.999999046325684,3.141591242731238,0.0,True,0.010910987854003906,8.000000953674316,5.999999046325684,3.141591787338257,0.0,0.0,0.0
1759830039.5966887,1,8.000000953674316,5.999999046325684,3.1415912613520867,0.0,True,0.011078357696533203,8.000000953674316,5.999999046325684,3.141591787338257,0.0,0.0,0.0
1759830039.6069272,1,8.000000953674316,5.999999046325684,3.14159128804914,0.0,True,0.010238409042358398,8.000000953674316,5.999999046325684,3.141591787338257,0.0,0.0,0.0
1759830039.61758,1,8.000000953674316,5.999999046325684,3.1415913072369612,0.0,True,0.010652780532836914,8.000000953674316,5.999999046325684,3.141591787338257,0.0,0.0,0.0
1759830039.6288161,1,8.000000953674316,5.999999046325684,3.1415913188182873,0.0,True,0.011236190795898438,8.000000953674316,5.999999046325684,3.141591787338257,0.0,0.0,0.0
1759830039.6402605,1,8.000000953674316,5.999999046325684,3.141591329074151,0.0,True,0.011444330215454102,8.000000953674316,5.999999046325684,3.141591787338257,0.0,0.0,0.0
1759830039.6517143,1,8.000000953674316,5.999999046325684,3.1415913406851406,0.0,True,0.011453866958618164,8.000000953674316,5.999999046325684,3.141591787338257,0.0,0.0,0.0
1759830039.6627436,1,8.000000953674316,5.999999046325684,3.1415913571256144,0.0,True,0.011029243469238281,8.000000953674316,5.999999046325684,3.141591787338257,0.0,0.0,0.0
1759830039.6735659,1,8.000000953674316,5.999999046325684,3.141591374763678,0.0,True,0.010822296142578125,8.000000953674316,5.999999046325684,3.141591787338257,0.0,0.0,0.0
1759830039.6846204,1,8.000000953674316,5.999999046325684,3.141591389081153,0.0,True,0.011054515838623047,8.000000953674316,5.999999046325684,3.141591787338257,0.0,0.0,0.0
1759830039.6947632,1,8.000000953674316,5.999999046325684,3.1415914099836275,0.0,True,0.010142803192138672,8.000000953674316,5.999999046325684,3.141591787338257,0.0,0.0,0.0
1759830039.705708,1,8.000000953674316,5.999999046325684,3.1415914219831844,0.0,True,0.010944843292236328,8.000000953674316,5.999999046325684,3.141591787338257,0.0,0.0,0.0
1759830039.7169025,1,8.000000953674316,5.999999046325684,3.141591431447033,0.0,True,0.011194467544555664,8.000000953674316,5.999999046325684,3.141591787338257,0.0,0.0,0.0
1759830039.7275155,1,8.000000953674316,5.999999046325684,3.1415914455737273,0.0,True,0.010612964630126953,8.000000953674316,5.999999046325684,3.141591787338257,0.0,0.0,0.0
1759830039.7433286,1,8.000000953674316,5.999999046325684,3.1415914230245825,0.0,True,0.015813112258911133,8.000000953674316,5.999999046325684,3.141591787338257,0.0,0.0,0.0
1759830039.7537038,1,8.000000953674316,5.999999046325684,3.141591446872484,0.0,True,0.010375261306762695,8.000000953674316,5.999999046325684,3.141591787338257,0.0,0.0,0.0
1759830039.7648046,1,8.000000953674316,5.999999046325684,3.1415914644853107,0.0,True,0.01110076904296875,8.000000953674316,5.999999046325684,3.141591787338257,0.0,0.0,0.0
1759830039.7755861,1,8.000000953674316,5.999999046325684,3.1415914814986508,0.0,True,0.010781526565551758,8.000000953674316,5.999999046325684,3.141591787338257,0.0,0.0,0.0
1759830039.7869463,1,8.000000953674316,5.999999046325684,3.141591492744647,0.0,True,0.01136016845703125,8.000000953674316,5.999999046325684,3.141591787338257,0.0,0.0,0.0
1759830039.797713,1,8.000000953674316,5.999999046325684,3.1415915065934925,0.0,True,0.010766744613647461,8.000000953674316,5.999999046325684,3.141591787338257,0.0,0.0,0.0
1759830039.808193,1,8.000000953674316,5.999999046325684,3.1415915205903957,0.0,True,0.010479927062988281,8.000000953674316,5.999999046325684,3.141591787338257,0.0,0.0,0.0
1759830039.8186321,1,8.000000953674316,5.999999046325684,3.1415915329674977,0.0,True,0.010439157485961914,8.000000953674316,5.999999046325684,3.141591787338257,0.0,0.0,0.0
1759830039.8291054,1,8.000000953674316,5.999999046325684,3.141591543594007,0.0,True,0.010473251342773438,8.000000953674316,5.999999046325684,3.141591787338257,0.0,0.0,0.0
1759830039.840421,1,8.000000953674316,5.999999046325684,3.1415915488448682,0.0,True,0.011315584182739258,8.000000953674316,5.999999046325684,3.141591787338257,0.0,0.0,0.0
1759830039.8507106,1,8.000000953674316,5.999999046325684,3.141591559534028,0.0,True,0.010289669036865234,8.000000953674316,5.999999046325684,3.141591787338257,0.0,0.0,0.0
1759830039.8621657,1,8.000000953674316,5.999999046325684,3.141591563811584,0.0,True,0.011455059051513672,8.000000953674316,5.999999046325684,3.141591787338257,0.0,0.0,0.0
1759830039.873678,1,8.000000953674316,5.999999046325684,3.1415915684246922,0.0,True,0.011512279510498047,8.000000953674316,5.999999046325684,3.141591787338257,0.0,0.0,0.0
1759830039.8848486,1,8.000000953674316,5.999999046325684,3.141591575380575,0.0,True,0.011170625686645508,8.000000953674316,5.999999046325684,3.141591787338257,0.0,0.0,0.0
1759830039.8961678,1,8.000000953674316,5.999999046325684,3.141591581815515,0.0,True,0.011319160461425781,8.000000953674316,5.999999046325684,3.141591787338257,0.0,0.0,0.0
1759830039.9074006,1,8.000000953674316,5.999999046325684,3.141591588674702,0.0,True,0.011232852935791016,8.000000953674316,5.999999046325684,3.141591787338257,0.0,0.0,0.0
1759830039.917821,1,8.000000953674316,5.999999046325684,3.141591598626798,0.0,True,0.01042032241821289,8.000000953674316,5.999999046325684,3.141591787338257,0.0,0.0,0.0
1759830039.931048,1,8.000000953674316,5.999999046325684,3.141591596833017,0.0,True,0.013226985931396484,8.000000953674316,5.999999046325684,3.141591787338257,0.0,0.0,0.0
1759830039.9492424,1,8.000000953674316,5.999999046325684,3.1415915798635083,0.0,True,0.01819443702697754,8.000000953674316,5.999999046325684,3.141591787338257,0.0,0.0,0.0
1759830039.9607234,1,8.000000953674316,5.999999046325684,3.141591594025117,0.0,True,0.011481046676635742,8.000000953674316,5.999999046325684,3.141591787338257,0.0,0.0,0.0
1759830039.9721966,1,8.000000953674316,5.999999046325684,3.141591607532705,0.0,True,0.01147317886352539,8.000000953674316,5.999999046325684,3.141591787338257,0.0,0.0,0.0
1759830039.9828706,1,8.000000953674316,5.999999046325684,3.141591621161554,0.0,True,0.010673999786376953,8.000000953674316,5.999999046325684,3.141591787338257,0.0,0.0,0.0
1759830039.9934788,1,8.000000953674316,5.999999046325684,3.141591632351748,0.0,True,0.010608196258544922,8.000000953674316,5.999999046325684,3.141591787338257,0.0,0.0,0.0
1759830040.00502,1,8.000000953674316,5.999999046325684,3.141591638680815,0.0,True,0.011541128158569336,8.000000953674316,5.999999046325684,3.141591787338257,0.0,0.0,0.0
1759830040.0156991,1,8.000000953674316,5.999999046325684,3.1415916467399256,0.0,True,0.010679244995117188,8.000000953674316,5.999999046325684,3.141591787338257,0.0,0.0,0.0
1759830040.0269523,1,8.000000953674316,5.999999046325684,3.1415916521667455,0.0,True,0.011253118515014648,8.000000953674316,5.999999046325684,3.141591787338257,0.0,0.0,0.0
1759830040.0377476,1,8.000000953674316,5.999999046325684,3.141591658318182,0.0,True,0.010795354843139648,8.000000953674316,5.999999046325684,3.141591787338257,0.0,0.0,0.0
1759830040.0481997,1,8.000000953674316,5.999999046325684,3.141591664710095,0.0,True,0.010452032089233398,8.000000953674316,5.999999046325684,3.141591787338257,0.0,0.0,0.0
1759830040.0597632,1,8.000000953674316,5.999999046325684,3.1415916675190445,0.0,True,0.011563539505004883,8.000000953674316,5.999999046325684,3.141591787338257,0.0,0.0,0.0
1759830040.070038,1,8.000000953674316,5.999999046325684,3.141591673547042,0.0,True,0.010274887084960938,8.000000953674316,5.999999046325684,3.141591787338257,0.0,0.0,0.0
1759830040.080438,1,8.000000953674316,5.999999046325684,3.1415916786287212,0.0,True,0.010399818420410156,8.000000953674316,5.999999046325684,3.141591787338257,0.0,0.0,0.0
1759830040.0910933,1,8.000000953674316,5.999999046325684,3.141591682498328,0.0,True,0.010655403137207031,8.000000953674316,5.999999046325684,3.141591787338257,0.0,0.0,0.0
1759830040.1019497,1,8.000000953674316,5.999999046325684,3.141591685636879,0.0,True,0.010856389999389648,8.000000953674316,5.999999046325684,3.141591787338257,0.0,0.0,0.0
1759830040.112731,1,8.000000953674316,5.999999046325684,3.1415916888812134,0.0,True,0.010781288146972656,8.000000953674316,5.999999046325684,3.141591787338257,0.0,0.0,0.0
1759830040.123036,1,8.000000953674316,5.999999046325684,3.141591693021752,0.0,True,0.010304927825927734,8.000000953674316,5.999999046325684,3.141591787338257,0.0,0.0,0.0
1759830040.1345615,1,8.000000953674316,5.999999046325684,3.141591694379759,0.0,True,0.011525630950927734,8.000000953674316,5.999999046325684,3.141591787338257,0.0,0.0,0.0
1759830040.1524796,1,8.000000953674316,5.999999046325684,3.1415916842417015,0.0,True,0.017918109893798828,8.000000953674316,5.999999046325684,3.141591787338257,0.0,0.0,0.0
1759830040.1633935,1,8.000000953674316,5.999999046325684,3.1415916909233363,0.0,True,0.010913848876953125,8.000000953674316,5.999999046325684,3.141591787338257,0.0,0.0,0.0
1759830040.1747515,1,8.000000953674316,5.999999046325684,3.1415916966553112,0.0,True,0.011358022689819336,8.000000953674316,5.999999046325684,3.141591787338257,0.0,0.0,0.0
1759830040.1861875,1,8.000000953674316,5.999999046325684,3.141591701362735,0.0,True,0.011435985565185547,8.000000953674316,5.999999046325684,3.141591787338257,0.0,0.0,0.0
1759830040.1976964,1,8.000000953674316,5.999999046325684,3.1415917053283096,0.0,True,0.011508941650390625,8.000000953674316,5.999999046325684,3.141591787338257,0.0,0.0,0.0
1759830040.2078881,1,8.000000953674316,5.999999046325684,3.1415917108864893,0.0,True,0.010191679000854492,8.000000953674316,5.999999046325684,3.141591787338257,0.0,0.0,0.0
1759830040.2193615,1,8.000000953674316,5.999999046325684,3.141591713607296,0.0,True,0.011473417282104492,8.000000953674316,5.999999046325684,3.141591787338257,0.0,0.0,0.0
1759830040.2307055,1,8.000000953674316,5.999999046325684,3.1415917162654576,0.0,True,0.011343955993652344,8.000000953674316,5.999999046325684,3.141591787338257,0.0,0.0,0.0
1759830040.2409582,1,8.000000953674316,5.999999046325684,3.141591720319429,0.0,True,0.010252714157104492,8.000000953674316,5.999999046325684,3.141591787338257,0.0,0.0,0.0
1759830040.2521133,1,8.000000953674316,5.999999046325684,3.141591722597049,0.0,True,0.011155128479003906,8.000000953674316,5.999999046325684,3.141591787338257,0.0,0.0,0.0
1759830040.262794,1,8.000000953674316,5.999999046325684,3.141591725318621,0.0,True,0.010680675506591797,8.000000953674316,5.999999046325684,3.141591787338257,0.0,0.0,0.0
1759830040.2742982,1,8.000000953674316,5.999999046325684,3.14159172677625,0.0,True,0.011504173278808594,8.000000953674316,5.999999046325684,3.141591787338257,0.0,0.0,0.0
1759830040.2843106,1,8.000000953674316,5.999999046325684,3.1415917301271516,0.0,True,0.010012388229370117,8.000000953674316,5.999999046325684,3.141591787338257,0.0,0.0,0.0
1759830040.295228,1,8.000000953674316,5.999999046325684,3.141591731991692,0.0,True,0.010917425155639648,8.000000953674316,5.999999046325684,3.141591787338257,0.0,0.0,0.0
1759830040.3061125,1,8.000000953674316,5.999999046325684,3.1415917337612207,0.0,True,0.010884523391723633,8.000000953674316,5.999999046325684,3.141591787338257,0.0,0.0,0.0
1759830040.317504,1,8.000000953674316,5.999999046325684,3.1415917349346074,0.0,True,0.011391401290893555,8.000000953674316,5.999999046325684,3.141591787338257,0.0,0.0,0.0
1759830040.3288605,1,8.000000953674316,5.999999046325684,3.141591736275764,0.0,True,0.011356592178344727,8.000000953674316,5.999999046325684,3.141591787338257,0.0,0.0,0.0
1759830040.3391345,1,8.000000953674316,5.999999046325684,3.1415917388290886,0.0,True,0.010273933410644531,8.000000953674316,5.999999046325684,3.141591787338257,0.0,0.0,0.0
1759830040.3557467,1,8.000000953674316,5.999999046325684,3.14159173493311,0.0,True,0.01661229133605957,8.000000953674316,5.999999046325684,3.141591787338257,0.0,0.0,0.0
1759830040.3661778,1,8.000000953674316,5.999999046325684,3.1415917384878895,0.0,True,0.010431051254272461,8.000000953674316,5.999999046325684,3.141591787338257,0.0,0.0,0.0
1759830040.3767097,1,8.000000953674316,5.999999046325684,3.1415917417210117,0.0,True,0.010531902313232422,8.000000953674316,5.999999046325684,3.141591787338257,0.0,0.0,0.0
1759830040.3875172,1,8.000000953674316,5.999999046325684,3.141591744125467,0.0,True,0.010807514190673828,8.000000953674316,5.999999046325684,3.141591787338257,0.0,0.0,0.0
1759830040.3983357,1,8.000000953674316,5.999999046325684,3.1415917461464407,0.0,True,0.0108184814453125,8.000000953674316,5.999999046325684,3.141591787338257,0.0,0.0,0.0
1759830040.4096756,1,8.000000953674316,5.999999046325684,3.141591747493088,0.0,True,0.011339902877807617,8.000000953674316,5.999999046325684,3.141591787338257,0.0,0.0,0.0
1759830040.4204557,1,8.000000953674316,5.999999046325684,3.1415917492255936,0.0,True,0.010780096054077148,8.000000953674316,5.999999046325684,3.141591787338257,0.0,0.0,0.0
1759830040.4345021,1,8.000000953674316,5.999999046325684,3.14159174835285,0.0,True,0.014046430587768555,8.000000953674316,5.999999046325684,3.141591787338257,0.0,0.0,0.0
1759830040.4448829,1,8.000000953674316,5.999999046325684,3.1415917507618545,0.0,True,0.010380744934082031,8.000000953674316,5.999999046325684,3.141591787338257,0.0,0.0,0.0
1759830040.4552963,1,8.000000953674316,5.999999046325684,3.1415917529246826,0.0,True,0.010413408279418945,8.000000953674316,5.999999046325684,3.141591787338257,0.0,0.0,0.0
1759830040.4664187,1,8.000000953674316,5.999999046325684,3.1415917542429703,0.0,True,0.011122465133666992,8.000000953674316,5.999999046325684,3.141591787338257,0.0,0.0,0.0
1759830040.477322,1,8.000000953674316,5.999999046325684,3.1415917555757016,0.0,True,0.010903358459472656,8.000000953674316,5.999999046325684,3.141591787338257,0.0,0.0,0.0
1759830040.488218,1,8.000000953674316,5.999999046325684,3.141591756807861,0.0,True,0.010895967483520508,8.000000953674316,5.999999046325684,3.141591787338257,0.0,0.0,0.0
1759830040.4993324,1,8.000000953674316,5.999999046325684,3.1415917578135577,0.0,True,0.011114358901977539,8.000000953674316,5.999999046325684,3.141591787338257,0.0,0.0,0.0
1759830040.5106223,1,8.000000953674316,5.999999046325684,3.1415917586822424,0.0,True,0.011289834976196289,8.000000953674316,5.999999046325684,3.141591787338257,0.0,0.0,0.0
1759830040.5216055,1,8.000000953674316,5.999999046325684,3.141591759736137,0.0,True,0.01098322868347168,8.000000953674316,5.999999046325684,3.141591787338257,0.0,0.0,0.0
1759830040.5327256,1,8.000000953674316,5.999999046325684,3.1415917606679002,0.0,True,0.011120080947875977,8.000000953674316,5.999999046325684,3.141591787338257,0.0,0.0,0.0
1759830040.5431619,1,8.000000953674316,5.999999046325684,3.141591761931201,0.0,True,0.010436296463012695,8.000000953674316,5.999999046325684,3.141591787338257,0.0,0.0,0.0
1759830040.5557232,1,8.000000953674316,5.999999046325684,3.1415917619663674,0.0,True,0.012561321258544922,8.000000953674316,5.999999046325684,3.141591787338257,0.0,0.0,0.0
1759830040.565957,1,8.000000953674316,5.999999046325684,3.141591763359191,0.0,True,0.010233879089355469,8.000000953674316,5.999999046325684,3.141591787338257,0.0,0.0,0.0
1759830040.5760117,1,8.000000953674316,5.999999046325684,3.141591764701637,0.0,True,0.010054588317871094,8.000000953674316,5.999999046325684,3.141591787338257,0.0,0.0,0.0
1759830040.587359,1,8.000000953674316,5.999999046325684,3.141591765226618,0.0,True,0.011347293853759766,8.000000953674316,5.999999046325684,3.141591787338257,0.0,0.0,0.0
1759830040.5986614,1,8.000000953674316,5.999999046325684,3.14159176578511,0.0,True,0.011302471160888672,8.000000953674316,5.999999046325684,3.141591787338257,0.0,0.0,0.0
1759830040.6094508,1,8.000000953674316,5.999999046325684,3.1415917666108086,0.0,True,0.01078939437866211,8.000000953674316,5.999999046325684,3.141591787338257,0.0,0.0,0.0
1759830040.6208198,1,8.000000953674316,5.999999046325684,3.1415917671524802,0.0,True,0.011368989944458008,8.000000953674316,5.999999046325684,3.141591787338257,0.0,0.0,0.0
1759830040.6315057,1,8.000000953674316,5.999999046325684,3.141591767990576,0.0,True,0.010685920715332031,8.000000953674316,5.999999046325684,3.141591787338257,0.0,0.0,0.0
1759830040.6429174,1,8.000000953674316,5.999999046325684,3.141591768487052,0.0,True,0.011411666870117188,8.000000953674316,5.999999046325684,3.141591787338257,0.0,0.0,0.0
1759830040.6532836,1,8.000000953674316,5.999999046325684,3.141591769396026,0.0,True,0.010366201400756836,8.000000953674316,5.999999046325684,3.141591787338257,0.0,0.0,0.0
1759830040.6640155,1,8.000000953674316,5.999999046325684,3.1415917700787404,0.0,True,0.010731935501098633,8.000000953674316,5.999999046325684,3.141591787338257,0.0,0.0,0.0
1759830040.6744406,1,8.000000953674316,5.999999046325684,3.141591770809642,0.0,True,0.010425090789794922,8.000000953674316,5.999999046325684,3.141591787338257,0.0,0.0,0.0
1759830040.685524,1,8.000000953674316,5.999999046325684,3.1415917712445047,0.0,True,0.011083364486694336,8.000000953674316,5.999999046325684,3.141591787338257,0.0,0.0,0.0
1759830040.6963837,1,8.000000953674316,5.999999046325684,3.1415917717595825,0.0,True,0.01085972785949707,8.000000953674316,5.999999046325684,3.141591787338257,0.0,0.0,0.0
1759830040.7072861,1,8.000000953674316,5.999999046325684,3.1415917722561044,0.0,True,0.01090240478515625,8.000000953674316,5.999999046325684,3.141591787338257,0.0,0.0,0.0
1759830040.7175982,1,8.000000953674316,5.999999046325684,3.1415917729257608,0.0,True,0.010312080383300781,8.000000953674316,5.999999046325684,3.141591787338257,0.0,0.0,0.0
1759830040.7283573,1,8.000000953674316,5.999999046325684,3.1415917733961045,0.0,True,0.010759115219116211,8.000000953674316,5.999999046325684,3.141591787338257,0.0,0.0,0.0
1759830040.738729,1,8.000000953674316,5.999999046325684,3.1415917739541275,0.0,True,0.010371685028076172,8.000000953674316,5.999999046325684,3.141591787338257,0.0,0.0,0.0
1759830040.7558963,1,8.000000953674316,5.999999046325684,3.141591772598728,0.0,True,0.017167329788208008,8.000000953674316,5.999999046325684,3.141591787338257,0.0,0.0,0.0
1759830040.7625546,1,8.000000953674316,5.999999046325684,3.141591774574559,0.0,True,0.006658315658569336,8.000000953674316,5.999999046325684,3.141591787338257,0.0,0.0,0.0
1759830040.7741668,1,8.000000953674316,5.999999046325684,3.1415917749275373,0.0,True,0.011612176895141602,8.000000953674316,5.999999046325684,3.141591787338257,0.0,0.0,0.0
1759830040.7854443,1,8.000000953674316,5.999999046325684,3.1415917752930085,0.0,True,0.011277437210083008,8.000000953674316,5.999999046325684,3.141591787338257,0.0,0.0,0.0
1759830040.7964191,1,8.000000953674316,5.999999046325684,3.141591775740519,0.0,True,0.010974884033203125,8.000000953674316,5.999999046325684,3.141591787338257,0.0,0.0,0.0
1759830040.807049,1,8.000000953674316,5.999999046325684,3.14159177624801,0.0,True,0.010629892349243164,8.000000953674316,5.999999046325684,3.141591787338257,0.0,0.0,0.0
1759830040.8173897,1,8.000000953674316,5.999999046325684,3.141591776771829,0.0,True,0.010340690612792969,8.000000953674316,5.999999046325684,3.141591787338257,0.0,0.0,0.0
1759830040.8283906,1,8.000000953674316,5.999999046325684,3.1415917770884043,0.0,True,0.011000871658325195,8.000000953674316,5.999999046325684,3.141591787338257,0.0,0.0,0.0
1759830040.8389523,1,8.000000953674316,5.999999046325684,3.141591777487463,0.0,True,0.010561704635620117,8.000000953674316,5.999999046325684,3.141591787338257,0.0,0.0,0.0
1759830040.8495538,1,8.000000953674316,5.999999046325684,3.1415917778518487,0.0,True,0.010601520538330078,8.000000953674316,5.999999046325684,3.141591787338257,0.0,0.0,0.0
1759830040.8608847,1,8.000000953674316,5.999999046325684,3.1415917780476867,0.0,True,0.011330842971801758,8.000000953674316,5.999999046325684,3.141591787338257,0.0,0.0,0.0
1759830040.872271,1,8.000000953674316,5.999999046325684,3.141591778257027,0.0,True,0.011386394500732422,8.000000953674316,5.999999046325684,3.141591787338257,0.0,0.0,0.0
1759830040.8838403,1,8.000000953674316,5.999999046325684,3.1415917784623044,0.0,True,0.01156926155090332,8.000000953674316,5.999999046325684,3.141591787338257,0.0,0.0,0.0
1759830040.8952577,1,8.000000953674316,5.999999046325684,3.141591778723729,0.0,True,0.011417388916015625,8.000000953674316,5.999999046325684,3.141591787338257,0.0,0.0,0.0
1759830040.905444,1,8.000000953674316,5.999999046325684,3.1415917792047665,0.0,True,0.010186195373535156,8.000000953674316,5.999999046325684,3.141591787338257,0.0,0.0,0.0
1759830040.916227,1,8.000000953674316,5.999999046325684,3.1415917795256316,0.0,True,0.010783195495605469,8.000000953674316,5.999999046325684,3.141591787338257,0.0,0.0,0.0
1759830040.927145,1,8.000000953674316,5.999999046325684,3.1415917797921296,0.0,True,0.010917901992797852,8.000000953674316,5.999999046325684,3.141591787338257,0.0,0.0,0.0
1759830040.9399557,1,8.000000953674316,5.999999046325684,3.1415917797587625,0.0,True,0.012810707092285156,8.000000953674316,5.999999046325684,3.141591787338257,0.0,0.0,0.0
1759830040.9624135,1,8.000000953674316,5.999999046325684,3.141591778456,0.0,True,0.02245783805847168,8.000000953674316,5.999999046325684,3.141591787338257,0.0,0.0,0.0
1759830040.9736571,1,8.000000953674316,5.999999046325684,3.1415917792199757,0.0,True,0.011243581771850586,8.000000953674316,5.999999046325684,3.141591787338257,0.0,0.0,0.0
1759830040.983877,1,8.000000953674316,5.999999046325684,3.141591780068154,0.0,True,0.010219812393188477,8.000000953674316,5.999999046325684,3.141591787338257,0.0,0.0,0.0
1759830040.9938896,1,8.000000953674316,5.999999046325684,3.1415917807471736,0.0,True,0.010012626647949219,8.000000953674316,5.999999046325684,3.141591787338257,0.0,0.0,0.0
1759830041.0051389,1,8.000000953674316,5.999999046325684,3.141591781115972,0.0,True,0.011249303817749023,8.000000953674316,5.999999046325684,3.141591787338257,0.0,0.0,0.0
1759830041.0155003,1,8.000000953674316,5.999999046325684,3.1415917815187875,0.0,True,0.010361433029174805,8.000000953674316,5.999999046325684,3.141591787338257,0.0,0.0,0.0
