timestamp,vehicle_id,x,y,theta,velocity,gps_available,dt,gps_x,gps_y,gps_theta,gps_velocity,control_steering,control_acceleration
1759501128.2105267,1,-1.735,-0.35,-0.7801621756414647,0.0,False,0.01,nan,nan,nan,nan,0.0,0.0
1759501129.0936348,1,-1.7349997780623945,-0.3499999055584658,-0.7229650665630665,0.0,True,0.1,-1.7349997758865356,-0.34999990463256836,-0.7177032232284546,0.0,0.0,0.0
1759501129.2219062,1,-1.7349997766141767,-0.3499999049422029,-0.7180977573906624,0.0,True,0.1,-1.7349997758865356,-0.34999990463256836,-0.7177032232284546,0.0,0.0,0.0
1759501129.3398385,1,-1.7349997761595117,-0.34999990474872844,-0.7176988286120434,0.0,True,0.1,-1.7349997758865356,-0.34999990463256836,-0.7177032232284546,0.0,0.0,0.0
1759501129.4766371,1,-1.7349997759905325,-0.3499999046768224,-0.7176742829607967,0.0,True,0.1,-1.7349997758865356,-0.34999990463256836,-0.7177032232284546,0.0,0.0,0.0
1759501129.595428,1,-1.7349997759262439,-0.3499999046494655,-0.7176783463519811,0.0,True,0.1,-1.7349997758865356,-0.34999990463256836,-0.7177032232284546,0.0,0.0,0.0
1759501129.711345,1,-1.734999775901702,-0.34999990463902214,-0.7176830809058714,0.0,True,0.1,-1.7349997758865356,-0.34999990463256836,-0.7177032232284546,0.0,0.0,0.0
1759501129.8180754,1,-1.7349997758923286,-0.34999990463503344,-0.7176868319936478,0.0,True,0.1,-1.7349997758865356,-0.34999990463256836,-0.7177032232284546,0.0,0.0,0.0
1759501129.9160836,1,-1.7349997758887483,-0.34999990463350994,-0.7176898771097875,0.0,True,0.0980081558227539,-1.7349997758865356,-0.34999990463256836,-0.7177032232284546,0.0,0.0,0.0
1759501130.012417,1,-1.7349997758873807,-0.349999904632928,-0.7176923778060527,0.0,True,0.09633350372314453,-1.7349997758865356,-0.34999990463256836,-0.7177032232284546,0.0,0.0,0.0
1759501130.105368,1,-1.7349997758868585,-0.34999990463270575,-0.7176944837413259,0.0,True,0.09295082092285156,-1.7349997758865356,-0.34999990463256836,-0.7177032232284546,0.0,0.0,0.0
1759501130.2157006,1,-1.7349997758866589,-0.3499999046326208,-0.7176961492169234,0.0,True,0.1,-1.7349997758865356,-0.34999990463256836,-0.7177032232284546,0.0,0.0,0.0
1759501130.3195822,1,-1.7349997758865827,-0.3499999046325884,-0.717697615867511,0.0,True,0.1,-1.7349997758865356,-0.34999990463256836,-0.7177032232284546,0.0,0.0,0.0
1759501130.4135523,1,-1.7349997758865536,-0.349999904632576,-0.7176988997960034,0.0,True,0.09397006034851074,-1.7349997758865356,-0.34999990463256836,-0.7177032232284546,0.0,0.0,0.0
1759501130.5337234,1,-1.7349997758865425,-0.3499999046325713,-0.7176999181783259,0.0,True,0.1,-1.7349997758865356,-0.34999990463256836,-0.7177032232284546,0.0,0.0,0.0
1759501130.6257186,1,-1.7349997758865383,-0.34999990463256947,-0.7177007704630824,0.0,True,0.0919952392578125,-1.7349997758865356,-0.34999990463256836,-0.7177032232284546,0.0,0.0,0.0
1759501130.7226915,1,-1.7349997758865368,-0.3499999046325688,-0.7177014266948696,0.0,True,0.09697294235229492,-1.7349997758865356,-0.34999990463256836,-0.7177032232284546,0.0,0.0,0.0
1759501130.8298867,1,-1.734999775886536,-0.3499999046325685,-0.717701940100099,0.0,True,0.1,-1.7349997758865356,-0.34999990463256836,-0.7177032232284546,0.0,0.0,0.0
1759501130.918132,1,-1.7349997758865359,-0.3499999046325684,-0.7177023389037771,0.0,True,0.08824539184570312,-1.7349997758865356,-0.34999990463256836,-0.7177032232284546,0.0,0.0,0.0
1759501131.0122,1,-1.7349997758865356,-0.34999990463256836,-0.7177026294556779,0.0,True,0.09406805038452148,-1.7349997758865356,-0.34999990463256836,-0.7177032232284546,0.0,0.0,0.0
1759501131.112905,1,-1.7349997758865356,-0.34999990463256836,-0.7177028434566015,0.0,True,0.1,-1.7349997758865356,-0.34999990463256836,-0.7177032232284546,0.0,0.0,0.0
1759501131.213428,1,-1.7349997758865356,-0.34999990463256836,-0.7177029981253984,0.0,True,0.1,-1.7349997758865356,-0.34999990463256836,-0.7177032232284546,0.0,0.0,0.0
1759501131.3126044,1,-1.7349997758865356,-0.34999990463256836,-0.7177031050919584,0.0,True,0.09917640686035156,-1.7349997758865356,-0.34999990463256836,-0.7177032232284546,0.0,0.0,0.0
1759501131.413557,1,-1.7349997758865356,-0.34999990463256836,-0.7177031761476247,0.0,True,0.1,-1.7349997758865356,-0.34999990463256836,-0.7177032232284546,0.0,0.0,0.0
1759501131.5161226,1,-1.7349997758865356,-0.34999990463256836,-0.7177032207847027,0.0,True,0.1,-1.7349997758865356,-0.34999990463256836,-0.7177032232284546,0.0,0.0,0.0
1759501131.6077254,1,-1.7349997758865356,-0.34999990463256836,-0.7177032450962919,0.0,True,0.09160280227661133,-1.7349997758865356,-0.34999990463256836,-0.7177032232284546,0.0,0.0,0.0
1759501131.70477,1,-1.7349997758865356,-0.34999990463256836,-0.7177032587568579,0.0,True,0.09704470634460449,-1.7349997758865356,-0.34999990463256836,-0.7177032232284546,0.0,0.0,0.0
1759501131.8097706,1,-1.7349997758865356,-0.34999990463256836,-0.7177032645424841,0.0,True,0.1,-1.7349997758865356,-0.34999990463256836,-0.7177032232284546,0.0,0.0,0.0
1759501131.9062257,1,-1.7349997758865356,-0.34999990463256836,-0.717703264306067,0.0,True,0.09645509719848633,-1.7349997758865356,-0.34999990463256836,-0.7177032232284546,0.0,0.0,0.0
1759501132.0308266,1,-1.7349997758865356,-0.34999990463256836,-0.7177032614210042,0.0,True,0.1,-1.7349997758865356,-0.34999990463256836,-0.7177032232284546,0.0,0.0,0.0
1759501132.1435018,1,-1.7349997758865356,-0.34999990463256836,-0.7177032567932748,0.0,True,0.1,-1.7349997758865356,-0.34999990463256836,-0.7177032232284546,0.0,0.0,0.0
1759501132.238862,1,-1.7349997758865356,-0.34999990463256836,-0.7177032513313737,0.0,True,0.09536027908325195,-1.7349997758865356,-0.34999990463256836,-0.7177032232284546,0.0,0.0,0.0
1759501132.3304694,1,-1.7349997758865356,-0.34999990463256836,-0.7177032460499468,0.0,True,0.09160733222961426,-1.7349997758865356,-0.34999990463256836,-0.7177032232284546,0.0,0.0,0.0
1759501132.4235458,1,-1.7349997758865356,-0.34999990463256836,-0.7177032414757463,0.0,True,0.09307646751403809,-1.7349997758865356,-0.34999990463256836,-0.7177032232284546,0.0,0.0,0.0
1759501132.5387278,1,-1.7349997758865356,-0.34999990463256836,-0.7177032376267007,0.0,True,0.1,-1.7349997758865356,-0.34999990463256836,-0.7177032232284546,0.0,0.0,0.0
1759501132.6351168,1,-1.7349997758865356,-0.34999990463256836,-0.7177032342129941,0.0,True,0.0963890552520752,-1.7349997758865356,-0.34999990463256836,-0.7177032232284546,0.0,0.0,0.0
1759501132.7234004,1,-1.7349997758865356,-0.34999990463256836,-0.7177032313641192,0.0,True,0.08828353881835938,-1.7349997758865356,-0.34999990463256836,-0.7177032232284546,0.0,0.0,0.0
1759501132.8239627,1,-1.7349997758865356,-0.34999990463256836,-0.7177032292081496,0.0,True,0.1,-1.7349997758865356,-0.34999990463256836,-0.7177032232284546,0.0,0.0,0.0
1759501132.9135606,1,-1.7349997758865356,-0.34999990463256836,-0.7177032274674247,0.0,True,0.08959794044494629,-1.7349997758865356,-0.34999990463256836,-0.7177032232284546,0.0,0.0,0.0
1759501133.0076063,1,-1.7349997758865356,-0.34999990463256836,-0.7177032261658525,0.0,True,0.09404563903808594,-1.7349997758865356,-0.34999990463256836,-0.7177032232284546,0.0,0.0,0.0
1759501133.1092768,1,-1.7349997758865356,-0.34999990463256836,-0.7177032251892257,0.0,True,0.1,-1.7349997758865356,-0.34999990463256836,-0.7177032232284546,0.0,0.0,0.0
1759501133.1986816,1,-1.7349997758865356,-0.34999990463256836,-0.7177032244739081,0.0,True,0.08940482139587402,-1.7349997758865356,-0.34999990463256836,-0.7177032232284546,0.0,0.0,0.0
1759501133.2859137,1,-1.7349997758865356,-0.34999990463256836,-0.7177032239748549,0.0,True,0.08723211288452148,-1.7349997758865356,-0.34999990463256836,-0.7177032232284546,0.0,0.0,0.0
1759501133.401824,1,-1.7349997758865356,-0.34999990463256836,-0.7177032236203758,0.0,True,0.1,-1.7349997758865356,-0.34999990463256836,-0.7177032232284546,0.0,0.0,0.0
1759501133.497134,1,-1.7349997758865356,-0.34999990463256836,-0.7177032233860565,0.0,True,0.09530997276306152,-1.7349997758865356,-0.34999990463256836,-0.7177032232284546,0.0,0.0,0.0
1759501133.6117878,1,-1.7349997758865356,-0.34999990463256836,-0.7177032232343841,0.0,True,0.1,-1.7349997758865356,-0.34999990463256836,-0.7177032232284546,0.0,0.0,0.0
1759501133.704695,1,-1.7349997758865356,-0.34999990463256836,-0.7177032231508917,0.0,True,0.09290719032287598,-1.7349997758865356,-0.34999990463256836,-0.7177032232284546,0.0,0.0,0.0
1759501133.7964077,1,-1.7349997758865356,-0.34999990463256836,-0.7177032231083675,0.0,True,0.09171271324157715,-1.7349997758865356,-0.34999990463256836,-0.7177032232284546,0.0,0.0,0.0
1759501133.9084249,1,-1.7349997758865356,-0.34999990463256836,-0.7177032230876996,0.0,True,0.1,-1.7349997758865356,-0.34999990463256836,-0.7177032232284546,0.0,0.0,0.0
1759501134.0045366,1,-1.7349997758865356,-0.34999990463256836,-0.7177032230881277,0.0,True,0.09611177444458008,-1.7349997758865356,-0.34999990463256836,-0.7177032232284546,0.0,0.0,0.0
1759501134.0915606,1,-1.7349997758865356,-0.34999990463256836,-0.7177032231013101,0.0,True,0.08702397346496582,-1.7349997758865356,-0.34999990463256836,-0.7177032232284546,0.0,0.0,0.0
1759501134.192643,1,-1.7349997758865356,-0.34999990463256836,-0.7177032231141709,0.0,True,0.1,-1.7349997758865356,-0.34999990463256836,-0.7177032232284546,0.0,0.0,0.0
1759501134.288342,1,-1.7349997758865356,-0.34999990463256836,-0.7177032231313234,0.0,True,0.09569907188415527,-1.7349997758865356,-0.34999990463256836,-0.7177032232284546,0.0,0.0,0.0
1759501134.3774648,1,-1.7349997758865356,-0.34999990463256836,-0.7177032231492646,0.0,True,0.08912277221679688,-1.7349997758865356,-0.34999990463256836,-0.7177032232284546,0.0,0.0,0.0
1759501134.4705908,1,-1.7349997758865356,-0.34999990463256836,-0.7177032231646336,0.0,True,0.09312605857849121,-1.7349997758865356,-0.34999990463256836,-0.7177032232284546,0.0,0.0,0.0
1759501134.5557187,1,-1.7349997758865356,-0.34999990463256836,-0.7177032231785958,0.0,True,0.0851278305053711,-1.7349997758865356,-0.34999990463256836,-0.7177032232284546,0.0,0.0,0.0
1759501134.6498828,1,-1.7349997758865356,-0.34999990463256836,-0.7177032231895861,0.0,True,0.09416413307189941,-1.7349997758865356,-0.34999990463256836,-0.7177032232284546,0.0,0.0,0.0
1759501134.7538593,1,-1.7349997758865356,-0.34999990463256836,-0.717703223198793,0.0,True,0.1,-1.7349997758865356,-0.34999990463256836,-0.7177032232284546,0.0,0.0,0.0
1759501134.8597727,1,-1.7349997758865356,-0.34999990463256836,-0.7177032232065805,0.0,True,0.1,-1.7349997758865356,-0.34999990463256836,-0.7177032232284546,0.0,0.0,0.0
1759501134.9593349,1,-1.7349997758865356,-0.34999990463256836,-0.7177032232128404,0.0,True,0.09956216812133789,-1.7349997758865356,-0.34999990463256836,-0.7177032232284546,0.0,0.0,0.0
1759501135.05417,1,-1.7349997758865356,-0.34999990463256836,-0.7177032232176668,0.0,True,0.09483504295349121,-1.7349997758865356,-0.34999990463256836,-0.7177032232284546,0.0,0.0,0.0
1759501135.1464067,1,-1.7349997758865356,-0.34999990463256836,-0.7177032232212248,0.0,True,0.09223675727844238,-1.7349997758865356,-0.34999990463256836,-0.7177032232284546,0.0,0.0,0.0
1759501135.2474482,1,-1.7349997758865356,-0.34999990463256836,-0.7177032232238112,0.0,True,0.1,-1.7349997758865356,-0.34999990463256836,-0.7177032232284546,0.0,0.0,0.0
1759501135.3406963,1,-1.7349997758865356,-0.34999990463256836,-0.7177032232256533,0.0,True,0.09324812889099121,-1.7349997758865356,-0.34999990463256836,-0.7177032232284546,0.0,0.0,0.0
1759501135.4372294,1,-1.7349997758865356,-0.34999990463256836,-0.717703223226934,0.0,True,0.09653306007385254,-1.7349997758865356,-0.34999990463256836,-0.7177032232284546,0.0,0.0,0.0
1759501135.5478873,1,-1.7349997758865356,-0.34999990463256836,-0.7177032232278044,0.0,True,0.1,-1.7349997758865356,-0.34999990463256836,-0.7177032232284546,0.0,0.0,0.0
1759501135.6555264,1,-1.7349997758865356,-0.34999990463256836,-0.7177032232283622,0.0,True,0.1,-1.7349997758865356,-0.34999990463256836,-0.7177032232284546,0.0,0.0,0.0
1759501135.7570834,1,-1.7349997758865356,-0.34999990463256836,-0.7177032232286891,0.0,True,0.1,-1.7349997758865356,-0.34999990463256836,-0.7177032232284546,0.0,0.0,0.0
1759501135.8516586,1,-1.7349997758865356,-0.34999990463256836,-0.7177032232288489,0.0,True,0.09457516670227051,-1.7349997758865356,-0.34999990463256836,-0.7177032232284546,0.0,0.0,0.0
1759501135.941338,1,-1.7349997758865356,-0.34999990463256836,-0.7177032232289076,0.0,True,0.08967947959899902,-1.7349997758865356,-0.34999990463256836,-0.7177032232284546,0.0,0.0,0.0
1759501136.0399108,1,-1.7349997758865356,-0.34999990463256836,-0.7177032232289235,0.0,True,0.0985727310180664,-1.7349997758865356,-0.34999990463256836,-0.7177032232284546,0.0,0.0,0.0
1759501136.1293876,1,-1.7349997758865356,-0.34999990463256836,-0.717703223228888,0.0,True,0.0894768238067627,-1.7349997758865356,-0.34999990463256836,-0.7177032232284546,0.0,0.0,0.0
1759501136.2395518,1,-1.7349997758865356,-0.34999990463256836,-0.7177032232288472,0.0,True,0.1,-1.7349997758865356,-0.34999990463256836,-0.7177032232284546,0.0,0.0,0.0
1759501136.330961,1,-1.7349997758865356,-0.34999990463256836,-0.7177032232287868,0.0,True,0.09140920639038086,-1.7349997758865356,-0.34999990463256836,-0.7177032232284546,0.0,0.0,0.0
1759501136.4236438,1,-1.7349997758865356,-0.34999990463256836,-0.7177032232287299,0.0,True,0.0926828384399414,-1.7349997758865356,-0.34999990463256836,-0.7177032232284546,0.0,0.0,0.0
1759501136.5239227,1,-1.7349997758865356,-0.34999990463256836,-0.7177032232286784,0.0,True,0.1,-1.7349997758865356,-0.34999990463256836,-0.7177032232284546,0.0,0.0,0.0
1759501136.6310909,1,-1.7349997758865356,-0.34999990463256836,-0.7177032232286322,0.0,True,0.1,-1.7349997758865356,-0.34999990463256836,-0.7177032232284546,0.0,0.0,0.0
1759501136.739636,1,-1.7349997758865356,-0.34999990463256836,-0.7177032232285914,0.0,True,0.1,-1.7349997758865356,-0.34999990463256836,-0.7177032232284546,0.0,0.0,0.0
1759501136.8408196,1,-1.7349997758865356,-0.34999990463256836,-0.7177032232285576,0.0,True,0.1,-1.7349997758865356,-0.34999990463256836,-0.7177032232284546,0.0,0.0,0.0
1759501136.9589283,1,-1.7349997758865356,-0.34999990463256836,-0.7177032232285292,0.0,True,0.1,-1.7349997758865356,-0.34999990463256836,-0.7177032232284546,0.0,0.0,0.0
1759501137.0514832,1,-1.7349997758865356,-0.34999990463256836,-0.7177032232285061,0.0,True,0.09255480766296387,-1.7349997758865356,-0.34999990463256836,-0.7177032232284546,0.0,0.0,0.0
1759501137.1595302,1,-1.7349997758865356,-0.34999990463256836,-0.7177032232284919,0.0,True,0.1,-1.7349997758865356,-0.34999990463256836,-0.7177032232284546,0.0,0.0,0.0
1759501137.2634478,1,-1.7349997758865356,-0.34999990463256836,-0.7177032232284795,0.0,True,0.1,-1.7349997758865356,-0.34999990463256836,-0.7177032232284546,0.0,0.0,0.0
1759501137.3722818,1,-1.7349997758865356,-0.34999990463256836,-0.7177032232284688,0.0,True,0.1,-1.7349997758865356,-0.34999990463256836,-0.7177032232284546,0.0,0.0,0.0
1759501137.4633336,1,-1.7349997758865356,-0.34999990463256836,-0.7177032232284617,0.0,True,0.09105181694030762,-1.7349997758865356,-0.34999990463256836,-0.7177032232284546,0.0,0.0,0.0
1759501137.566735,1,-1.7349997758865356,-0.34999990463256836,-0.7177032232284581,0.0,True,0.1,-1.7349997758865356,-0.34999990463256836,-0.7177032232284546,0.0,0.0,0.0
1759501137.6719708,1,-1.7349997758865356,-0.34999990463256836,-0.7177032232284546,0.0,True,0.1,-1.7349997758865356,-0.34999990463256836,-0.7177032232284546,0.0,0.0,0.0
1759501137.7753603,1,-1.7349997758865356,-0.34999990463256836,-0.7177032232284546,0.0,True,0.1,-1.7349997758865356,-0.34999990463256836,-0.7177032232284546,0.0,0.0,0.0
1759501137.8827615,1,-1.7349997758865356,-0.34999990463256836,-0.7177032232284546,0.0,True,0.1,-1.7349997758865356,-0.34999990463256836,-0.7177032232284546,0.0,0.0,0.0
1759501137.9981403,1,-1.7349997758865356,-0.34999990463256836,-0.7177032232284546,0.0,True,0.1,-1.7349997758865356,-0.34999990463256836,-0.7177032232284546,0.0,0.0,0.0
1759501138.0916853,1,-1.7349997758865356,-0.34999990463256836,-0.7177032232284546,0.0,True,0.09354496002197266,-1.7349997758865356,-0.34999990463256836,-0.7177032232284546,0.0,0.0,0.0
1759501138.1918545,1,-1.7349997758865356,-0.34999990463256836,-0.7177032232284546,0.0,True,0.1,-1.7349997758865356,-0.34999990463256836,-0.7177032232284546,0.0,0.0,0.0
1759501138.3205526,1,-1.7349997758865356,-0.34999990463256836,-0.7177032232284546,0.0,True,0.1,-1.7349997758865356,-0.34999990463256836,-0.7177032232284546,0.0,0.0,0.0
1759501138.4178681,1,-1.7349997758865356,-0.34999990463256836,-0.7177032232284546,0.0,True,0.09731554985046387,-1.7349997758865356,-0.34999990463256836,-0.7177032232284546,0.0,0.0,0.0
1759501138.5306363,1,-1.7349997758865356,-0.34999990463256836,-0.7177032232284546,0.0,True,0.1,-1.7349997758865356,-0.34999990463256836,-0.7177032232284546,0.0,0.0,0.0
1759501138.6405218,1,-1.7349997758865356,-0.34999990463256836,-0.7177032232284546,0.0,True,0.1,-1.7349997758865356,-0.34999990463256836,-0.7177032232284546,0.0,0.0,0.0
1759501138.7561555,1,-1.7349997758865356,-0.34999990463256836,-0.7177032232284546,0.0,True,0.1,-1.7349997758865356,-0.34999990463256836,-0.7177032232284546,0.0,0.0,0.0
1759501138.8486364,1,-1.7349997758865356,-0.34999990463256836,-0.7177032232284546,0.0,True,0.09248089790344238,-1.7349997758865356,-0.34999990463256836,-0.7177032232284546,0.0,0.0,0.0
1759501138.9759648,1,-1.7349997758865356,-0.34999990463256836,-0.7177032232284546,0.0,True,0.1,-1.7349997758865356,-0.34999990463256836,-0.7177032232284546,0.0,0.0,0.0
1759501139.0723808,1,-1.7349997758865356,-0.34999990463256836,-0.7177032232284546,0.0,True,0.09641599655151367,-1.7349997758865356,-0.34999990463256836,-0.7177032232284546,0.0,0.0,0.0
1759501139.1651843,1,-1.7349997758865356,-0.34999990463256836,-0.7177032232284546,0.0,True,0.0928034782409668,-1.7349997758865356,-0.34999990463256836,-0.7177032232284546,0.0,0.0,0.0
1759501139.265219,1,-1.7349997758865356,-0.34999990463256836,-0.7177032232284546,0.0,True,0.1,-1.7349997758865356,-0.34999990463256836,-0.7177032232284546,0.0,0.0,0.0
1759501139.3700848,1,-1.7349997758865356,-0.34999990463256836,-0.7177032232284546,0.0,True,0.1,-1.7349997758865356,-0.34999990463256836,-0.7177032232284546,0.0,0.0,0.0
1759501139.4909856,1,-1.7349997758865356,-0.34999990463256836,-0.7177032232284546,0.0,True,0.1,-1.7349997758865356,-0.34999990463256836,-0.7177032232284546,0.0,0.0,0.0
1759501139.5973465,1,-1.7349997758865356,-0.34999990463256836,-0.7177032232284546,0.0,True,0.1,-1.7349997758865356,-0.34999990463256836,-0.7177032232284546,0.0,0.0,0.0
1759501139.7017062,1,-1.7349997758865356,-0.34999990463256836,-0.7177032232284546,0.0,True,0.1,-1.7349997758865356,-0.34999990463256836,-0.7177032232284546,0.0,0.0,0.0
1759501139.8114967,1,-1.7349997758865356,-0.34999990463256836,-0.7177032232284546,0.0,True,0.1,-1.7349997758865356,-0.34999990463256836,-0.7177032232284546,0.0,0.0,0.0
1759501139.9170113,1,-1.7349997758865356,-0.34999990463256836,-0.7177032232284546,0.0,True,0.1,-1.7349997758865356,-0.34999990463256836,-0.7177032232284546,0.0,0.0,0.0
1759501140.0168974,1,-1.7349997758865356,-0.34999990463256836,-0.7177032232284546,0.0,True,0.09988617897033691,-1.7349997758865356,-0.34999990463256836,-0.7177032232284546,0.0,0.0,0.0
1759501140.1341913,1,-1.7349997758865356,-0.34999990463256836,-0.7177032232284546,0.0,True,0.1,-1.7349997758865356,-0.34999990463256836,-0.7177032232284546,0.0,0.0,0.0
1759501140.2339122,1,-1.7349997758865356,-0.34999990463256836,-0.7177032232284546,0.0,True,0.09972095489501953,-1.7349997758865356,-0.34999990463256836,-0.7177032232284546,0.0,0.0,0.0
1759501140.3340385,1,-1.7349997758865356,-0.34999990463256836,-0.7177032232284546,0.0,True,0.1,-1.7349997758865356,-0.34999990463256836,-0.7177032232284546,0.0,0.0,0.0
1759501140.4272764,1,-1.7349997758865356,-0.34999990463256836,-0.7177032232284546,0.0,True,0.09323787689208984,-1.7349997758865356,-0.34999990463256836,-0.7177032232284546,0.0,0.0,0.0
1759501140.5520992,1,-1.7349997758865356,-0.34999990463256836,-0.7177032232284546,0.0,True,0.1,-1.7349997758865356,-0.34999990463256836,-0.7177032232284546,0.0,0.0,0.0
1759501140.6489499,1,-1.7349997758865356,-0.34999990463256836,-0.7177032232284546,0.0,True,0.09685063362121582,-1.7349997758865356,-0.34999990463256836,-0.7177032232284546,0.0,0.0,0.0
1759501140.7432287,1,-1.7349997758865356,-0.34999990463256836,-0.7177032232284546,0.0,True,0.09427881240844727,-1.7349997758865356,-0.34999990463256836,-0.7177032232284546,0.0,0.0,0.0
1759501140.8615675,1,-1.7349997758865356,-0.34999990463256836,-0.7177032232284546,0.0,True,0.1,-1.7349997758865356,-0.34999990463256836,-0.7177032232284546,0.0,0.0,0.0
1759501140.962873,1,-1.7349997758865356,-0.34999990463256836,-0.7177032232284546,0.0,True,0.1,-1.7349997758865356,-0.34999990463256836,-0.7177032232284546,0.0,0.0,0.0
1759501141.0637007,1,-1.7349997758865356,-0.34999990463256836,-0.7177032232284546,0.0,True,0.1,-1.7349997758865356,-0.34999990463256836,-0.7177032232284546,0.0,0.0,0.0
1759501141.170945,1,-1.7349997758865356,-0.34999990463256836,-0.7177032232284546,0.0,True,0.1,-1.7349997758865356,-0.34999990463256836,-0.7177032232284546,0.0,0.0,0.0
1759501141.2767165,1,-1.7349997758865356,-0.34999990463256836,-0.7177032232284546,0.0,True,0.1,-1.7349997758865356,-0.34999990463256836,-0.7177032232284546,0.0,0.0,0.0
1759501141.3830047,1,-1.7349997758865356,-0.34999990463256836,-0.7177032232284546,0.0,True,0.1,-1.7349997758865356,-0.34999990463256836,-0.7177032232284546,0.0,0.0,0.0
1759501141.4855616,1,-1.7349997758865356,-0.34999990463256836,-0.7177032232284546,0.0,True,0.1,-1.7349997758865356,-0.34999990463256836,-0.7177032232284546,0.0,0.0,0.0
1759501141.584625,1,-1.7349997758865356,-0.34999990463256836,-0.7177032232284546,0.0,True,0.09906339645385742,-1.7349997758865356,-0.34999990463256836,-0.7177032232284546,0.0,0.0,0.0
1759501141.708228,1,-1.7349997758865356,-0.34999990463256836,-0.7177032232284546,0.0,True,0.1,-1.7349997758865356,-0.34999990463256836,-0.7177032232284546,0.0,0.0,0.0
1759501141.8119278,1,-1.7349997758865356,-0.34999990463256836,-0.7177032232284546,0.0,True,0.1,-1.7349997758865356,-0.34999990463256836,-0.7177032232284546,0.0,0.0,0.0
1759501141.9172328,1,-1.7349997758865356,-0.34999990463256836,-0.7177032232284546,0.0,True,0.1,-1.7349997758865356,-0.34999990463256836,-0.7177032232284546,0.0,0.0,0.0
1759501142.0139906,1,-1.7349997758865356,-0.34999990463256836,-0.7177032232284546,0.0,True,0.09675788879394531,-1.7349997758865356,-0.34999990463256836,-0.7177032232284546,0.0,0.0,0.0
1759501142.1334314,1,-1.7349997758865356,-0.34999990463256836,-0.7177032232284546,0.0,True,0.1,-1.7349997758865356,-0.34999990463256836,-0.7177032232284546,0.0,0.0,0.0
1759501142.2743974,1,-1.7349997758865356,-0.34999990463256836,-0.7177032232284546,0.0,True,0.1,-1.7349997758865356,-0.34999990463256836,-0.7177032232284546,0.0,0.0,0.0
1759501142.3822303,1,-1.7349997758865356,-0.34999990463256836,-0.7177032232284546,0.0,True,0.1,-1.7349997758865356,-0.34999990463256836,-0.7177032232284546,0.0,0.0,0.0
1759501142.488529,1,-1.7349997758865356,-0.34999990463256836,-0.7177032232284546,0.0,True,0.1,-1.7349997758865356,-0.34999990463256836,-0.7177032232284546,0.0,0.0,0.0
1759501142.591014,1,-1.7349997758865356,-0.34999990463256836,-0.7177032232284546,0.0,True,0.1,-1.7349997758865356,-0.34999990463256836,-0.7177032232284546,0.0,0.0,0.0
1759501142.6804109,1,-1.7349997758865356,-0.34999990463256836,-0.7177032232284546,0.0,True,0.08939695358276367,-1.7349997758865356,-0.34999990463256836,-0.7177032232284546,0.0,0.0,0.0
1759501142.7884912,1,-1.7349997758865356,-0.34999990463256836,-0.7177032232284546,0.0,True,0.1,-1.7349997758865356,-0.34999990463256836,-0.7177032232284546,0.0,0.0,0.0
1759501142.899175,1,-1.7349997758865356,-0.34999990463256836,-0.7177032232284546,0.0,True,0.1,-1.7349997758865356,-0.34999990463256836,-0.7177032232284546,0.0,0.0,0.0
1759501143.0154057,1,-1.7349997758865356,-0.34999990463256836,-0.7177032232284546,0.0,True,0.1,-1.7349997758865356,-0.34999990463256836,-0.7177032232284546,0.0,0.0,0.0
1759501143.1299365,1,-1.7349997758865356,-0.34999990463256836,-0.7177032232284546,0.0,True,0.1,-1.7349997758865356,-0.34999990463256836,-0.7177032232284546,0.0,0.0,0.0
1759501143.237226,1,-1.7349997758865356,-0.34999990463256836,-0.7177032232284546,0.0,True,0.1,-1.7349997758865356,-0.34999990463256836,-0.7177032232284546,0.0,0.0,0.0
1759501143.3364937,1,-1.7349997758865356,-0.34999990463256836,-0.7177032232284546,0.0,True,0.09926772117614746,-1.7349997758865356,-0.34999990463256836,-0.7177032232284546,0.0,0.0,0.0
1759501143.4535503,1,-1.7349997758865356,-0.34999990463256836,-0.7177032232284546,0.0,True,0.1,-1.7349997758865356,-0.34999990463256836,-0.7177032232284546,0.0,0.0,0.0
1759501143.5595853,1,-1.7349997758865356,-0.34999990463256836,-0.7177032232284546,0.0,True,0.1,-1.7349997758865356,-0.34999990463256836,-0.7177032232284546,0.0,0.0,0.0
1759501143.6668618,1,-1.7349997758865356,-0.34999990463256836,-0.7177032232284546,0.0,True,0.1,-1.7349997758865356,-0.34999990463256836,-0.7177032232284546,0.0,0.0,0.0
1759501143.759635,1,-1.7349997758865356,-0.34999990463256836,-0.7177032232284546,0.0,True,0.0927731990814209,-1.7349997758865356,-0.34999990463256836,-0.7177032232284546,0.0,0.0,0.0
1759501143.8493888,1,-1.7349997758865356,-0.34999990463256836,-0.7177032232284546,0.0,True,0.08975386619567871,-1.7349997758865356,-0.34999990463256836,-0.7177032232284546,0.0,0.0,0.0
1759501143.9546533,1,-1.7349997758865356,-0.34999990463256836,-0.7177032232284546,0.0,True,0.1,-1.7349997758865356,-0.34999990463256836,-0.7177032232284546,0.0,0.0,0.0
1759501144.0663025,1,-1.7349997758865356,-0.34999990463256836,-0.7177032232284546,0.0,True,0.1,-1.7349997758865356,-0.34999990463256836,-0.7177032232284546,0.0,0.0,0.0
1759501144.1680412,1,-1.7349997758865356,-0.34999990463256836,-0.7177032232284546,0.0,True,0.1,-1.7349997758865356,-0.34999990463256836,-0.7177032232284546,0.0,0.0,0.0
1759501144.2644887,1,-1.7349997758865356,-0.34999990463256836,-0.7177032232284546,0.0,True,0.09644746780395508,-1.7349997758865356,-0.34999990463256836,-0.7177032232284546,0.0,0.0,0.0
1759501144.357203,1,-1.7349997758865356,-0.34999990463256836,-0.7177032232284546,0.0,True,0.09271430969238281,-1.7349997758865356,-0.34999990463256836,-0.7177032232284546,0.0,0.0,0.0
1759501144.462998,1,-1.7349997758865356,-0.34999990463256836,-0.7177032232284546,0.0,True,0.1,-1.7349997758865356,-0.34999990463256836,-0.7177032232284546,0.0,0.0,0.0
1759501144.572788,1,-1.7349997758865356,-0.34999990463256836,-0.7177032232284546,0.0,True,0.1,-1.7349997758865356,-0.34999990463256836,-0.7177032232284546,0.0,0.0,0.0
1759501144.687755,1,-1.7349997758865356,-0.34999990463256836,-0.7177032232284546,0.0,True,0.1,-1.7349997758865356,-0.34999990463256836,-0.7177032232284546,0.0,0.0,0.0
1759501144.788757,1,-1.7349997758865356,-0.34999990463256836,-0.7177032232284546,0.0,True,0.1,-1.7349997758865356,-0.34999990463256836,-0.7177032232284546,0.0,0.0,0.0
1759501144.8926563,1,-1.7349997758865356,-0.34999990463256836,-0.7177032232284546,0.0,True,0.1,-1.7349997758865356,-0.34999990463256836,-0.7177032232284546,0.0,0.0,0.0
1759501144.994464,1,-1.7349997758865356,-0.34999990463256836,-0.7177032232284546,0.0,True,0.1,-1.7349997758865356,-0.34999990463256836,-0.7177032232284546,0.0,0.0,0.0
1759501145.084143,1,-1.7349997758865356,-0.34999990463256836,-0.7177032232284546,0.0,True,0.08967900276184082,-1.7349997758865356,-0.34999990463256836,-0.7177032232284546,0.0,0.0,0.0
1759501145.189565,1,-1.7349997758865356,-0.34999990463256836,-0.7177032232284546,0.0,True,0.1,-1.7349997758865356,-0.34999990463256836,-0.7177032232284546,0.0,0.0,0.0
1759501145.2988627,1,-1.7349997758865356,-0.34999990463256836,-0.7177032232284546,0.0,True,0.1,-1.7349997758865356,-0.34999990463256836,-0.7177032232284546,0.0,0.0,0.0
1759501145.4114199,1,-1.7349997758865356,-0.34999990463256836,-0.7177032232284546,0.0,True,0.1,-1.7349997758865356,-0.34999990463256836,-0.7177032232284546,0.0,0.0,0.0
1759501145.5061646,1,-1.7349997758865356,-0.34999990463256836,-0.7177032232284546,0.0,True,0.09474468231201172,-1.7349997758865356,-0.34999990463256836,-0.7177032232284546,0.0,0.0,0.0
1759501145.6034784,1,-1.7349997758865356,-0.34999990463256836,-0.7177032232284546,0.0,True,0.09731388092041016,-1.7349997758865356,-0.34999990463256836,-0.7177032232284546,0.0,0.0,0.0
1759501145.7109983,1,-1.7349997758865356,-0.34999990463256836,-0.7177032232284546,0.0,True,0.1,-1.7349997758865356,-0.34999990463256836,-0.7177032232284546,0.0,0.0,0.0
1759501145.8249435,1,-1.7349997758865356,-0.34999990463256836,-0.7177032232284546,0.0,True,0.1,-1.7349997758865356,-0.34999990463256836,-0.7177032232284546,0.0,0.0,0.0
1759501145.921162,1,-1.7349997758865356,-0.34999990463256836,-0.7177032232284546,0.0,True,0.09621834754943848,-1.7349997758865356,-0.34999990463256836,-0.7177032232284546,0.0,0.0,0.0
1759501146.0374784,1,-1.7349997758865356,-0.34999990463256836,-0.7177032232284546,0.0,True,0.1,-1.7349997758865356,-0.34999990463256836,-0.7177032232284546,0.0,0.0,0.0
1759501146.1376498,1,-1.7349997758865356,-0.34999990463256836,-0.7177032232284546,0.0,True,0.1,-1.7349997758865356,-0.34999990463256836,-0.7177032232284546,0.0,0.0,0.0
1759501146.2304113,1,-1.7349997758865356,-0.34999990463256836,-0.7177032232284546,0.0,True,0.09276151657104492,-1.7349997758865356,-0.34999990463256836,-0.7177032232284546,0.0,0.0,0.0
