timestamp,observer_vehicle_id,vehicle_0_x,vehicle_0_y,vehicle_0_theta,vehicle_0_velocity,vehicle_1_x,vehicle_1_y,vehicle_1_theta,vehicle_1_velocity
1759663727.6948626,0,-1.205,-0.83,-0.7801621756414646,0.0,0.0,0.0,0.0,0.0
1759663727.706129,0,-1.205,-0.83,-0.7801621756414646,0.0,0.0,0.0,0.0,0.0
1759663727.7173278,0,-1.205,-0.83,-0.7801621756414646,0.0,0.0,0.0,0.0,0.0
1759663727.7280796,0,-1.205,-0.83,-0.7801621756414646,0.0,0.0,0.0,0.0,0.0
1759663727.7383573,0,-1.205,-0.83,-0.7801621756414646,0.0,0.0,0.0,0.0,0.0
1759663727.7493155,0,-1.205,-0.83,-0.7801621756414646,0.0,0.0,0.0,0.0,0.0
1759663727.7600965,0,-1.205,-0.83,-0.7801621756414646,0.0,0.0,0.0,0.0,0.0
1759663727.7704868,0,-1.205,-0.83,-0.7801621756414646,0.0,0.0,0.0,0.0,0.0
1759663727.7805882,0,-1.205,-0.83,-0.7801621756414646,0.0,0.0,0.0,0.0,0.0
1759663727.7908587,0,-1.205,-0.83,-0.7801621756414646,0.0,0.0,0.0,0.0,0.0
1759663727.8010652,0,-1.205,-0.83,-0.7801621756414646,0.0,0.0,0.0,0.0,0.0
1759663727.8114626,0,-1.205,-0.83,-0.7801621756414646,0.0,0.0,0.0,0.0,0.0
1759663727.822774,0,-1.205,-0.83,-0.7801621756414646,0.0,0.0,0.0,0.0,0.0
1759663727.8341947,0,-1.205,-0.83,-0.7801621756414646,0.0,0.0,0.0,0.0,0.0
1759663727.8447692,0,-1.205,-0.83,-0.7801621756414646,0.0,0.0,0.0,0.0,0.0
1759663727.8550546,0,-1.205,-0.83,-0.7801621756414646,0.0,0.0,0.0,0.0,0.0
1759663727.8657098,0,-1.205,-0.83,-0.7801621756414646,0.0,0.0,0.0,0.0,0.0
1759663727.8759437,0,-1.205,-0.83,-0.7801621756414646,0.0,0.0,0.0,0.0,0.0
1759663727.8896291,0,-1.2049999243418377,-0.8299995105862618,-0.7229993778345758,0.0,0.0,0.0,0.0,0.0
1759663727.9004693,0,-1.2049999239185727,-0.8299995078482668,-0.7181169107634204,0.0,0.0,0.0,0.0,0.0
1759663727.9118,0,-1.2049999237857767,-0.8299995069892429,-0.717655240993146,0.0,0.0,0.0,0.0,0.0
1759663727.9228208,0,-1.2049999237364264,-0.8299995066700088,-0.717596292320753,0.0,0.0,0.0,0.0,0.0
1759663727.9331036,0,-1.2049999237176512,-0.8299995065485567,-0.7175924088627976,0.0,0.0,0.0,0.0,0.0
1759663727.9436707,0,-1.2049999237104838,-0.829999506502193,-0.7175994920759052,0.0,0.0,0.0,0.0,0.0
1759663727.9540231,0,-1.2049999237077464,-0.8299995064844852,-0.7176106460467864,0.0,0.0,0.0,0.0,0.0
1759663727.9651556,0,-1.2049999237067008,-0.8299995064777215,-0.7176206080415319,0.0,0.0,0.0,0.0,0.0
1759663727.9752336,0,-1.2049999237063016,-0.829999506475138,-0.7176316967486756,0.0,0.0,0.0,0.0,0.0
1759663727.9860518,0,-1.204999923706149,-0.8299995064741511,-0.7176399202157597,0.0,0.0,0.0,0.0,0.0
1759663727.9977376,0,-1.2049999237060907,-0.8299995064737742,-0.7176461593975585,0.0,0.0,0.0,0.0,0.0
1759663728.008414,0,-1.2049999237060685,-0.8299995064736302,-0.7176528729525913,0.0,0.0,0.0,0.0,0.0
1759663728.01994,0,-1.20499992370606,-0.8299995064735752,-0.7176577641915003,0.0,0.0,0.0,0.0,0.0
1759663728.030418,0,-1.2049999237060567,-0.8299995064735542,-0.7176628373611891,0.0,0.0,0.0,0.0,0.0
1759663728.0408144,0,-1.2049999237060554,-0.8299995064735463,-0.7176670299224241,0.0,0.0,0.0,0.0,0.0
1759663728.052342,0,-1.204999923706055,-0.8299995064735431,-0.7176697414589022,0.0,0.0,0.0,0.0,0.0
1759663728.0628583,0,-1.2049999237060547,-0.8299995064735419,-0.7176728017001093,0.0,0.0,0.0,0.0,0.0
1759663728.074063,0,-1.2049999237060547,-0.8299995064735415,-0.7176750306311632,0.0,0.0,0.0,0.0,0.0
1759663728.0872605,0,-1.2049999237060547,-0.8299995064735414,-0.7176760609613098,0.0,0.0,0.0,0.0,0.0
1759663728.0950725,0,-1.2049999237060547,-0.8299995064735413,-0.7176798071802395,0.0,0.0,0.0,0.0,0.0
1759663728.106382,0,-1.2049999237060547,-0.8299995064735413,-0.7176811266469976,0.0,0.0,0.0,0.0,0.0
1759663728.1178763,0,-1.2049999237060547,-0.8299995064735413,-0.7176822031931742,0.0,0.0,0.0,0.0,0.0
1759663728.129348,0,-1.2049999237060547,-0.8299995064735413,-0.7176832942868572,0.0,0.0,0.0,0.0,0.0
1759663728.1408174,0,-1.2049999237060547,-0.8299995064735413,-0.7176843673342947,0.0,0.0,0.0,0.0,0.0
1759663728.1510842,0,-1.2049999237060547,-0.8299995064735413,-0.7176858036798777,0.0,0.0,0.0,0.0,0.0
1759663728.1619895,0,-1.2049999237060547,-0.8299995064735413,-0.7176868159496586,0.0,0.0,0.0,0.0,0.0
1759663728.1727734,0,-1.2049999237060547,-0.8299995064735413,-0.7176877479369672,0.0,0.0,0.0,0.0,0.0
1759663728.1833606,0,-1.2049999237060547,-0.8299995064735413,-0.7176886432639229,0.0,0.0,0.0,0.0,0.0
1759663728.1940982,0,-1.2049999237060547,-0.8299995064735413,-0.7176893956607344,0.0,0.0,0.0,0.0,0.0
1759663728.2054713,0,-1.2049999237060547,-0.8299995064735413,-0.7176899093633651,0.0,0.0,0.0,0.0,0.0
1759663728.215911,0,-1.2049999237060547,-0.8299995064735413,-0.7176906656240369,0.0,0.0,0.0,0.0,0.0
1759663728.2262259,0,-1.2049999237060547,-0.8299995064735413,-0.717691374322813,0.0,0.0,0.0,0.0,0.0
1759663728.2371304,0,-1.2049999237060547,-0.8299995064735413,-0.7176918544544256,0.0,0.0,0.0,0.0,0.0
1759663728.2474508,0,-1.2049999237060547,-0.8299995064735413,-0.7176924390299639,0.0,0.0,0.0,0.0,0.0
1759663728.258592,0,-1.2049999237060547,-0.8299995064735413,-0.717692789300017,0.0,-0.34453477714413344,-0.06950269103897143,-0.14252079209265392,0.0
1759663728.269921,0,-1.2049999237060547,-0.8299995064735413,-0.7176931050168633,0.0,-0.6175015766803099,-0.12456803825680238,-0.2554366631909657,0.0
1759663728.2813497,0,-1.2049999237060547,-0.8299995064735413,-0.717693424833131,0.0,-0.8343270795581426,-0.16830805214104144,-0.34512903814418866,0.0
1759663728.294381,0,-1.2049999237060547,-0.8299995064735413,-0.7176934686662655,0.0,-1.0067350798631518,-0.20308776313907817,-0.4164475998587904,0.0
1759663728.3046105,0,-1.2049999237060547,-0.8299995064735413,-0.7176941219790436,0.0,-1.1446505435246752,-0.23090932571054926,-0.4734979251867415,0.0
1759663728.3162427,0,-1.2049999237060547,-0.8299995064735413,-0.7176944586707137,0.0,-1.255074797912526,-0.25318511133528143,-0.519176194103593,0.0
1759663728.3277204,0,-1.2049999237060547,-0.8299995064735413,-0.7176948037135631,0.0,-1.343742622010449,-0.271071991825136,-0.5558546642084597,0.0
1759663728.3379576,0,-1.2049999237060547,-0.8299995064735413,-0.7176953335719602,0.0,-1.4152276851808283,-0.2854926093912801,-0.5854252866875187,0.0
1759663728.349452,0,-1.2049999237060547,-0.8299995064735413,-0.7176955975659212,0.0,-1.472916882125277,-0.2971301992588453,-0.6092890896738639,0.0
1759663728.359776,0,-1.2049999237060547,-0.8299995064735413,-0.7176960207621725,0.0,-1.5196573893185563,-0.30655911977998124,-0.6286238406189384,0.0
1759663728.3701212,0,-1.2049999237060547,-0.8299995064735413,-0.7176963891768562,0.0,-1.5576165338133312,-0.31421658389374274,-0.6443260794042311,0.0
1759663728.3808618,0,-1.2049999237060547,-0.8299995064735413,-0.717696653629929,0.0,-1.592817159344568,-0.3213175744554374,-0.6588872249421458,0.0
1759663728.3915558,0,-1.2049999237060547,-0.8299995064735413,-0.717696902812845,0.0,-1.6207283427644146,-0.32694807240934964,-0.6704330085121328,0.0
1759663728.4021945,0,-1.2049999237060547,-0.8299995064735413,-0.717697144041658,0.0,-1.6429172849040234,-0.3314242277710643,-0.6796117208489493,0.0
1759663728.4135785,0,-1.2049999237060547,-0.8299995064735413,-0.7176972803560275,0.0,-1.6605879883911172,-0.33498892290891086,-0.6869214115532971,0.0
1759663728.4238083,0,-1.2049999237060547,-0.8299995064735413,-0.7176975659999059,0.0,-1.674715434145429,-0.33783883984783564,-0.6927653927497387,0.0
1759663728.4342844,0,-1.2049999237060547,-0.8299995064735413,-0.7176977967784025,0.0,-1.6860344134625838,-0.3401222073757169,-0.6974476193491347,0.0
1759663728.4452379,0,-1.2049999237060547,-0.8299995064735413,-0.717697953084258,0.0,-1.6951208830389444,-0.3419552127194318,-0.7012063424948303,0.0
1759663728.4560554,0,-1.2049999237060547,-0.8299995064735413,-0.7176981237102744,0.0,-1.7024349120175994,-0.34343066521385707,-0.704231875104534,0.0
1759663728.4669302,0,-1.2049999237060547,-0.8299995064735413,-0.7176982866738832,0.0,-1.7083366846206767,-0.3446212244985076,-0.7066732115441046,0.0
1759663728.4782639,0,-1.2049999237060547,-0.8299995064735413,-0.7176984030147615,0.0,-1.7131084402779626,-0.34558382647997044,-0.7086471034153002,0.0
1759663728.4970188,0,-1.2049999237060547,-0.8299995064735413,-0.7176978566351888,0.0,-1.7169441120051827,-0.3463575930912648,-0.7102337733512124,0.0
1759663728.508411,0,-1.2049999237060547,-0.8299995064735413,-0.7176981918611389,0.0,-1.7205096833072044,-0.3470768725864612,-0.7117087131248957,0.0
1759663728.5188665,0,-1.2049999237060547,-0.8299995064735413,-0.7176986004224997,0.0,-1.723340845926604,-0.3476480004779568,-0.7128798562600085,0.0
1759663728.5292969,0,-1.2049999237060547,-0.8299995064735413,-0.7176989306317764,0.0,-1.7255945260276497,-0.34810263333987584,-0.713812117077877,0.0
1759663728.5407436,0,-1.2049999237060547,-0.8299995064735413,-0.7176991151423149,0.0,-1.7273910445578442,-0.34846504340885315,-0.7145552677288933,0.0
1759663728.5521653,0,-1.2049999237060547,-0.8299995064735413,-0.717699278232601,0.0,-1.7288270331826274,-0.3487547241039373,-0.7151492810181659,0.0
1759663728.5632606,0,-1.2049999237060547,-0.8299995064735413,-0.7176994529156744,0.0,-1.7299783193348413,-0.3489869720250268,-0.7156255238395696,0.0
1759663728.5747752,0,-1.2049999237060547,-0.8299995064735413,-0.7176995819875955,0.0,-1.7309033212990708,-0.3491735718401839,-0.7160081615916188,0.0
1759663728.5848558,0,-1.2049999237060547,-0.8299995064735413,-0.7176998006648425,0.0,-1.73164967743721,-0.3493241335933518,-0.7163169004332318,0.0
1759663728.5956576,0,-1.2049999237060547,-0.8299995064735413,-0.717699939778969,0.0,-1.7322528207314518,-0.34944580514819273,-0.7165663976269643,0.0
1759663728.6058803,0,-1.2049999237060547,-0.8299995064735413,-0.7177000977617887,0.0,-1.7327417666197042,-0.34954443976292654,-0.7167686557440165,0.0
1759663728.6173272,0,-1.2049999237060547,-0.8299995064735413,-0.7177001610715461,0.0,-1.7331899028278894,-0.34963484187756655,-0.7169540324653022,0.0
1759663728.628809,0,-1.2049999237060547,-0.8299995064735413,-0.7177002272880184,0.0,-1.7335449523404514,-0.3497064656967342,-0.7171009027992112,0.0
1759663728.6398048,0,-1.2049999237060547,-0.8299995064735413,-0.7177003297424314,0.0,-1.7338271597140709,-0.34976339513665944,-0.7172176411405654,0.0
1759663728.651302,0,-1.2049999237060547,-0.8299995064735413,-0.7177004024913796,0.0,-1.7340519364123652,-0.34980873913805116,-0.7173106226193886,0.0
1759663728.661574,0,-1.2049999237060547,-0.8299995064735413,-0.7177005425086236,0.0,-1.734231687134908,-0.34984500008980896,-0.7173849785830111,0.0
1759663728.673022,0,-1.2049999237060547,-0.8299995064735413,-0.7177006067727607,0.0,-1.7343755988550615,-0.3498740312718151,-0.7174445093291313,0.0
1759663728.6844554,0,-1.2049999237060547,-0.8299995064735413,-0.7177006729120183,0.0,-1.7344911273194015,-0.34989733672512746,-0.7174922990134803,0.0
1759663728.6981816,0,-1.2049999237060547,-0.8299995064735413,-0.717700637124647,0.0,-1.7345838838500844,-0.3499160484167232,-0.7175306688243142,0.0
1759663728.7085822,0,-1.2049999237060547,-0.8299995064735413,-0.7177007864986091,0.0,-1.73465886774233,-0.3499311748499351,-0.7175616867778734,0.0
1759663728.7189147,0,-1.2049999237060547,-0.8299995064735413,-0.7177009241137213,0.0,-1.734719635059443,-0.34994343338621864,-0.7175868238808388,0.0
1759663728.7304718,0,-1.2049999237060547,-0.8299995064735413,-0.7177009870817058,0.0,-1.7347749692342183,-0.34995459589957995,-0.7176097135016897,0.0
1759663728.7408829,0,-1.2049999237060547,-0.8299995064735413,-0.7177010940322219,0.0,-1.734818914357062,-0.34996346090972785,-0.7176278919095944,0.0
1759663728.751226,0,-1.2049999237060547,-0.8299995064735413,-0.7177011911824245,0.0,-1.73485390357804,-0.3499705192538389,-0.7176423656051958,0.0
1759663728.7624962,0,-1.2049999237060547,-0.8299995064735413,-0.7177012397706459,0.0,-1.734881803402257,-0.349976147460311,-0.7176539066899004,0.0
1759663728.7736058,0,-1.2049999237060547,-0.8299995064735413,-0.7177012945979016,0.0,-1.734904113103745,-0.34998064797634765,-0.7176631353557372,0.0
1759663728.784718,0,-1.2049999237060547,-0.8299995064735413,-0.7177013501005263,0.0,-1.7349219992060647,-0.3499842561236985,-0.7176705341486579,0.0
1759663728.7953093,0,-1.2049999237060547,-0.8299995064735413,-0.7177014230062646,0.0,-1.7349363841960048,-0.34998715799479463,-0.717676484665983,0.0
1759663728.8067584,0,-1.2049999237060547,-0.8299995064735413,-0.7177014614990362,0.0,-1.7349479710756623,-0.34998949540561747,-0.7176812777126541,0.0
1759663728.8179286,0,-1.2049999237060547,-0.8299995064735413,-0.7177015112568714,0.0,-1.7349573317481308,-0.34999138372566424,-0.7176851498629948,0.0
1759663728.8292482,0,-1.2049999237060547,-0.8299995064735413,-0.7177015570890077,0.0,-1.7349658285373013,-0.34999309777530946,-0.7176886646580262,0.0
1759663728.8399587,0,-1.2049999237060547,-0.8299995064735413,-0.7177016216168007,0.0,-1.7349725606469342,-0.3499944558377371,-0.7176914494729736,0.0
1759663728.8501744,0,-1.2049999237060547,-0.8299995064735413,-0.7177016949736768,0.0,-1.7349779109286612,-0.34999553514526277,-0.717693662678839,0.0
1759663728.8613396,0,-1.2049999237060547,-0.8299995064735413,-0.7177017321911663,0.0,-1.7349821691680305,-0.34999639415606487,-0.7176954241487635,0.0
1759663728.872908,0,-1.2049999237060547,-0.8299995064735413,-0.7177017582083174,0.0,-1.734985565764523,-0.34999707934842356,-0.7176968291901545,0.0
1759663728.884032,0,-1.2049999237060547,-0.8299995064735413,-0.717701800344038,0.0,-1.7349882837169546,-0.34999762763852554,-0.7176979535025871,0.0
1759663728.9135518,0,-1.2049999237060547,-0.8299995064735413,-0.7177014132866261,0.0,-1.7349904211313925,-0.34999805881721974,-0.7176988376687699,0.0
1759663728.9242399,0,-1.2049999237060547,-0.8299995064735413,-0.7177015971893361,0.0,-1.7349921485839708,-0.3499984072946763,-0.7176995522494918,0.0
1759663728.9345205,0,-1.2049999237060547,-0.8299995064735413,-0.7177017743398117,0.0,-1.7349937168444545,-0.3499987236584547,-0.717700200978564,0.0
1759663728.9447758,0,-1.2049999237060547,-0.8299995064735413,-0.7177019069738009,0.0,-1.7349949595100422,-0.3499989743402672,-0.717700715021545,0.0
1759663728.9560964,0,-1.2049999237060547,-0.8299995064735413,-0.717701985215017,0.0,-1.7349959455182082,-0.3499991732468086,-0.7177011228952173,0.0
1759663728.9669085,0,-1.2049999237060547,-0.8299995064735413,-0.7177020563668499,0.0,-1.7349967303933707,-0.34999933157896995,-0.7177014475678984,0.0
1759663728.9783027,0,-1.2049999237060547,-0.8299995064735413,-0.7177021038765048,0.0,-1.734997356381374,-0.34999945785896747,-0.71770170651507,0.0
1759663728.9895823,0,-1.2049999237060547,-0.8299995064735413,-0.7177021468177287,0.0,-1.7349978570458227,-0.34999955885755685,-0.717701913620705,0.0
1759663728.9999495,0,-1.2049999237060547,-0.8299995064735413,-0.717702200645995,0.0,-1.7349982589288093,-0.3499996399290507,-0.7177020798642467,0.0
1759663729.0112994,0,-1.2049999237060547,-0.8299995064735413,-0.7177022298417981,0.0,-1.734998581959007,-0.3499997050936422,-0.7177022134894211,0.0
1759663729.0216305,0,-1.2049999237060547,-0.8299995064735413,-0.7177022729248979,0.0,-1.7349988425845537,-0.34999975766939956,-0.7177023213001902,0.0
1759663729.032299,0,-1.2049999237060547,-0.8299995064735413,-0.7177023051561644,0.0,-1.7349990532873272,-0.3499998001742808,-0.7177024084598275,0.0
1759663729.0429294,0,-1.2049999237060547,-0.8299995064735413,-0.7177023341774511,0.0,-1.734999224057617,-0.34999983462361794,-0.7177024791009315,0.0
1759663729.0543013,0,-1.2049999237060547,-0.8299995064735413,-0.7177023497566299,0.0,-1.734999381613408,-0.34999986640720604,-0.7177025442757051,0.0
1759663729.0644493,0,-1.2049999237060547,-0.8299995064735413,-0.7177023837664169,0.0,-1.7349995064723567,-0.3499998915948896,-0.7177025959250523,0.0
1759663729.075649,0,-1.2049999237060547,-0.8299995064735413,-0.7177023997625671,0.0,-1.7349996055534203,-0.34999991158242355,-0.7177026369110792,0.0
1759663729.086039,0,-1.2049999237060547,-0.8299995064735413,-0.7177024266899482,0.0,-1.7349996844538145,-0.34999992749892916,-0.717702669549139,0.0
1759663729.0961862,0,-1.2049999237060547,-0.8299995064735413,-0.717702454571798,0.0,-1.7349997474548415,-0.34999994020806974,-0.7177026956102419,0.0
1759663729.107545,0,-1.2049999237060547,-0.8299995064735413,-0.7177024640316141,0.0,-1.734999797816565,-0.349999950367495,-0.7177027164429509,0.0
1759663729.1179025,0,-1.2049999237060547,-0.8299995064735413,-0.717702487200043,0.0,-1.7349998382252345,-0.34999995851909954,-0.7177027331584641,0.0
1759663729.1286197,0,-1.2049999237060547,-0.8299995064735413,-0.7177025048078054,0.0,-1.7349998707140089,-0.3499999650730308,-0.7177027465978212,0.0
1759663729.1395721,0,-1.2049999237060547,-0.8299995064735413,-0.7177025190256572,0.0,-1.734999896893693,-0.349999970354235,-0.71770275742735,0.0
1759663729.1508696,0,-1.2049999237060547,-0.8299995064735413,-0.7177025299249831,0.0,-1.734999918034979,-0.34999997461904764,-0.7177027661726872,0.0
1759663729.161848,0,-1.2049999237060547,-0.8299995064735413,-0.7177025457121893,0.0,-1.734999937170649,-0.3499999784792691,-0.7177027740883781,0.0
1759663729.1719067,0,-1.2049999237060547,-0.8299995064735413,-0.7177025710363232,0.0,-1.7349999523475372,-0.3499999815408891,-0.7177027803664733,0.0
1759663729.1822743,0,-1.2049999237060547,-0.8299995064735413,-0.7177025902190017,0.0,-1.7349999644097678,-0.3499999839741921,-0.7177027853561543,0.0
1759663729.1928852,0,-1.2049999237060547,-0.8299995064735413,-0.7177026049208592,0.0,-1.734999974017773,-0.34999998591240633,-0.7177027893306167,0.0
1759663729.2045083,0,-1.2049999237060547,-0.8299995064735413,-0.7177026095779269,0.0,-1.7349999816819774,-0.34999998745849936,-0.7177027925010034,0.0
1759663729.2145905,0,-1.2049999237060547,-0.8299995064735413,-0.717702630380618,0.0,-1.734999987822372,-0.3499999886971957,-0.7177027950410485,0.0
1759663729.2260706,0,-1.2049999237060547,-0.8299995064735413,-0.7177026373138613,0.0,-1.7349999927462039,-0.34999998969047585,-0.7177027970778485,0.0
1759663729.2363148,0,-1.2049999237060547,-0.8299995064735413,-0.7177026557304415,0.0,-1.7349999967103966,-0.3499999904901689,-0.7177027987176826,0.0
1759663729.2477148,0,-1.2049999237060547,-0.8299995064735413,-0.717702663329824,0.0,-1.7349999999055488,-0.3499999911347241,-0.7177028000393942,0.0
1759663729.2580106,0,-1.2049999237060547,-0.8299995064735413,-0.7177026804011781,0.0,-1.735000002490819,-0.3499999916562483,-0.7177028011088211,0.0
1759663729.268462,0,-1.2049999237060547,-0.8299995064735413,-0.7177026948801934,0.0,-1.7350000045872398,-0.3499999920791574,-0.7177028019760298,0.0
1759663729.2799299,0,-1.2049999237060547,-0.8299995064735413,-0.7177027005759644,0.0,-1.735000006518634,-0.3499999924687757,-0.7177028027749732,0.0
1759663729.3064995,0,-1.2049999237060547,-0.8299995064735413,-0.7177026068065047,0.0,-1.7350000080247934,-0.3499999927726119,-0.7177028033980135,0.0
1759663729.3100057,0,-1.2049999237060547,-0.8299995064735413,-0.7177026961061869,0.0,-1.7350000092352083,-0.34999999301678786,-0.7177028038987157,0.0
1759663729.320607,0,-1.2049999237060547,-0.8299995064735413,-0.717702724441029,0.0,-1.7350000102015888,-0.3499999932117349,-0.7177028042984702,0.0
1759663729.3320613,0,-1.2049999237060547,-0.8299995064735413,-0.7177027384981701,0.0,-1.735000010974366,-0.34999999336762655,-0.7177028046181384,0.0
1759663729.3434007,0,-1.2049999237060547,-0.8299995064735413,-0.7177027512240848,0.0,-1.7350000115940596,-0.34999999349263683,-0.7177028048744818,0.0
1759663729.3541956,0,-1.2049999237060547,-0.8299995064735413,-0.71770276596631,0.0,-1.7350000120926048,-0.3499999935932079,-0.7177028050807108,0.0
1759663729.3653445,0,-1.2049999237060547,-0.8299995064735413,-0.7177027770156741,0.0,-1.7350000124945373,-0.34999999367428936,-0.7177028052469748,0.0
1759663729.3757677,0,-1.2049999237060547,-0.8299995064735413,-0.7177027908905025,0.0,-1.735000012819679,-0.3499999937398799,-0.7177028053814735,0.0
1759663729.3864553,0,-1.2049999237060547,-0.8299995064735413,-0.7177028016243021,0.0,-1.735000013116015,-0.3499999937996595,-0.7177028055040563,0.0
1759663729.3975296,0,-1.2049999237060547,-0.8299995064735413,-0.7177028092438942,0.0,-1.7350000133506,-0.3499999938469821,-0.7177028056010951,0.0
1759663729.4078054,0,-1.2049999237060547,-0.8299995064735413,-0.7177028204139013,0.0,-1.7350000135369446,-0.3499999938845732,-0.7177028056781787,0.0
1759663729.4182298,0,-1.2049999237060547,-0.8299995064735413,-0.7177028296661145,0.0,-1.7350000136853085,-0.34999999391450254,-0.7177028057395511,0.0
1759663729.4288049,0,-1.2049999237060547,-0.8299995064735413,-0.7177028372312115,0.0,-1.7350000138037067,-0.3499999939383869,-0.717702805788528,0.0
1759663729.4391773,0,-1.2049999237060547,-0.8299995064735413,-0.7177028451466008,0.0,-1.7350000138984478,-0.3499999939574989,-0.7177028058277186,0.0
1759663729.4496324,0,-1.2049999237060547,-0.8299995064735413,-0.7177028520871004,0.0,-1.7350000139744373,-0.3499999939728282,-0.7177028058591525,0.0
1759663729.4596462,0,-1.2049999237060547,-0.8299995064735413,-0.7177028603700801,0.0,-1.735000014035565,-0.34999999398515946,-0.7177028058844387,0.0
1759663729.4696598,0,-1.2049999237060547,-0.8299995064735413,-0.7177028677751114,0.0,-1.735000014084853,-0.3499999939951023,-0.7177028059048274,0.0
1759663729.4796813,0,-1.2049999237060547,-0.8299995064735413,-0.7177028743453295,0.0,-1.735000014124687,-0.349999994003138,-0.7177028059213052,0.0
1759663729.4980726,0,-1.2049999237060547,-0.8299995064735413,-0.7177028498047733,0.0,-1.7350000141566535,-0.3499999940095866,-0.7177028059345285,0.0
1759663729.5012946,0,-1.2049999237060547,-0.8299995064735413,-0.7177028877224867,0.0,-1.7350000141828608,-0.34999999401487336,-0.7177028059453695,0.0
1759663729.5114298,0,-1.2049999237060547,-0.8299995064735413,-0.7177028942326302,0.0,-1.7350000142071984,-0.34999999401978293,-0.717702805955437,0.0
1759663729.521685,0,-1.2049999237060547,-0.8299995064735413,-0.7177028978527868,0.0,-1.7350000142264903,-0.34999999402367465,-0.7177028059634173,0.0
1759663729.5324135,0,-1.2049999237060547,-0.8299995064735413,-0.7177028999198001,0.0,-1.7350000142418123,-0.34999999402676557,-0.7177028059697554,0.0
1759663729.5431626,0,-1.2049999237060547,-0.8299995064735413,-0.7177029025231985,0.0,-1.7350000142540125,-0.34999999402922666,-0.7177028059748022,0.0
1759663729.5536609,0,-1.2049999237060547,-0.8299995064735413,-0.7177029064427067,0.0,-1.7350000142637538,-0.3499999940311918,-0.7177028059788318,0.0
1759663729.565165,0,-1.2049999237060547,-0.8299995064735413,-0.7177029075319687,0.0,-1.7350000142715432,-0.34999999403276316,-0.7177028059820542,0.0
1759663729.5764697,0,-1.2049999237060547,-0.8299995064735413,-0.7177029100997796,0.0,-1.7350000142777897,-0.34999999403402327,-0.717702805984638,0.0
1759663729.5875998,0,-1.2049999237060547,-0.8299995064735413,-0.7177029138045299,0.0,-1.735000014282813,-0.3499999940350366,-0.717702805986716,0.0
1759663729.5978663,0,-1.2049999237060547,-0.8299995064735413,-0.7177029200222496,0.0,-1.7350000142868673,-0.34999999403585447,-0.717702805988393,0.0
1759663729.608878,0,-1.2049999237060547,-0.8299995064735413,-0.717702923699063,0.0,-1.7350000142901443,-0.3499999940365155,-0.7177028059897486,0.0
1759663729.6204574,0,-1.2049999237060547,-0.8299995064735413,-0.717702925895356,0.0,-1.7350000142927982,-0.34999999403705084,-0.7177028059908463,0.0
1759663729.6308467,0,-1.2049999237060547,-0.8299995064735413,-0.7177029314046024,0.0,-1.7350000142952398,-0.3499999940375434,-0.7177028059918563,0.0
1759663729.6413262,0,-1.2049999237060547,-0.8299995064735413,-0.717702936244784,0.0,-1.7350000142971764,-0.34999999403793414,-0.7177028059926575,0.0
1759663729.652328,0,-1.2049999237060547,-0.8299995064735413,-0.7177029394044006,0.0,-1.7350000142987159,-0.3499999940382447,-0.7177028059932943,0.0
1759663729.6631706,0,-1.2049999237060547,-0.8299995064735413,-0.7177029428723891,0.0,-1.735000014299943,-0.34999999403849225,-0.7177028059938019,0.0
1759663729.673716,0,-1.2049999237060547,-0.8299995064735413,-0.7177029468906326,0.0,-1.7350000143009239,-0.3499999940386901,-0.7177028059942077,0.0
1759663729.6846282,0,-1.2049999237060547,-0.8299995064735413,-0.7177029498822325,0.0,-1.7350000143017095,-0.34999999403884857,-0.7177028059945326,0.0
1759663729.7194645,0,-1.2049999237060547,-0.8299995064735413,-0.717702909874264,0.0,-1.7350000143023243,-0.3499999940389726,-0.7177028059947869,0.0
1759663729.7232437,0,-1.2049999237060547,-0.8299995064735413,-0.7177029381237645,0.0,-1.735000014302826,-0.3499999940390738,-0.7177028059949943,0.0
1759663729.7339485,0,-1.2049999237060547,-0.8299995064735413,-0.7177029499445773,0.0,-1.7350000143032325,-0.3499999940391558,-0.7177028059951625,0.0
1759663729.7442188,0,-1.2049999237060547,-0.8299995064735413,-0.7177029587347654,0.0,-1.7350000143035629,-0.3499999940392225,-0.7177028059952991,0.0
1759663729.7545493,0,-1.2049999237060547,-0.8299995064735413,-0.7177029653112221,0.0,-1.7349982108248911,-0.3500015684976393,-0.7183012880915478,0.001450827202665397
1759663729.7646282,0,-1.2049999237060547,-0.8299995064735413,-0.7177029708259628,0.0,-1.734994850695893,-0.3500183465751939,-0.7187816950699831,0.002615420631670055
1759663729.7753313,0,-1.2049999237060547,-0.8299995064735413,-0.7177029743271337,0.0,-1.7349905868033313,-0.35004437532038124,-0.7191693703089906,0.003555216973664112
1759663729.786003,0,-1.2049999237060547,-0.8299995064735413,-0.7177029773305392,0.0,-1.734985855526847,-0.3500755811850325,-0.7194841064675761,0.004318196937881786
1759663729.7961257,0,-1.2049999237060547,-0.8299995064735413,-0.7177029807452834,0.0,-1.7349809476737421,-0.35010921329657774,-0.7197412175578947,0.004941484175407022
1759663729.8071828,0,-1.2049999237060547,-0.8299995064735413,-0.7177029824568173,0.0,-1.7349760393621274,-0.35014348624122643,-0.719953057701202,0.005455027285730683
1759663729.8184702,0,-1.2049999237060547,-0.8299995064735413,-0.7177029838413683,0.0,-1.7349712386251959,-0.35017727331244697,-0.7201292145821664,0.005882068442447189
1759663729.828969,0,-1.2049999237060547,-0.8299995064735413,-0.7177029863420046,0.0,-1.7349666173224487,-0.3502098661332627,-0.7202768558731072,0.006239983158319522
1759663729.839984,0,-1.2049999237060547,-0.8299995064735413,-0.7177029880488632,0.0,-1.7349621990861868,-0.3502409114248427,-0.7204020864878682,0.00654357084926056
1759663729.8500085,0,-1.2049999237060547,-0.8299995064735413,-0.7177029908645984,0.0,-1.7349580076844622,-0.3502701957258497,-0.720509117858604,0.00680304058478343
1759663729.8609369,0,-1.2049999237060547,-0.8299995064735413,-0.7177029923300804,0.0,-1.7353687889085723,-0.34995524138679757,-0.7201959725764105,0.009381089695447762
1759663729.8714855,0,-1.2049999237060547,-0.8299995064735413,-0.7177029941699367,0.0,-1.735842729112066,-0.3496277732048317,-0.7198496301979679,0.013714164355603508
1759663729.8827462,0,-1.2049999237060547,-0.8299995064735413,-0.7177029951779712,0.0,-1.736209686610457,-0.3494182672453188,-0.7195834087328423,0.017162743933385054
1759663729.8931193,0,-1.2049999237060547,-0.8299995064735413,-0.7177029972086473,0.0,-1.7364940123022876,-0.34929258362221705,-0.719379398743853,0.019918803295274543
1759663729.9076562,0,-1.2049999237060547,-0.8299995064735413,-0.7177029950598809,0.0,-1.7367115372586488,-0.3492287894849634,-0.7192285124793812,0.02212397472060356
1759663729.9184992,0,-1.2049999237060547,-0.8299995064735413,-0.7177029974496278,0.0,-1.7368789920003558,-0.34920671383028806,-0.7191162368731303,0.023900538767045582
1759663729.929824,0,-1.2049999237060547,-0.8299995064735413,-0.7177029993798687,0.0,-1.7370069348457342,-0.34921402893682024,-0.7190351593238974,0.02533761915666621
1759663729.940919,0,-1.2049999237060547,-0.8299995064735413,-0.7177030013459706,0.0,-1.7371039167645765,-0.34924150516128716,-0.7189788377840328,0.026505680941414783
1759663729.9509754,0,-1.2049999237060547,-0.8299995064735413,-0.7177030040020185,0.0,-1.7371769325815782,-0.34928208092121626,-0.718941523523058,0.02745986675947081
1759663729.962058,0,-1.2049999237060547,-0.8299995064735413,-0.7177030054043101,0.0,-1.737230518391453,-0.34933181269837954,-0.7189204483750408,0.028243604926588853
1759663729.973442,0,-1.2049999237060547,-0.8299995064735413,-0.7177030064501312,0.0,-1.7373137630336293,-0.3493260306935278,-0.7188217151555907,0.028886760600968783
1759663729.9848452,0,-1.2049999237060547,-0.8299995064735413,-0.7177030075233901,0.0,-1.7374625246223512,-0.3492681373815255,-0.7186421834145786,0.029621273457750393
1759663729.996018,0,-1.2049999237060547,-0.8299995064735413,-0.7177030088099876,0.0,-1.7375767829216922,-0.34923572075359316,-0.7185067897275311,0.030219254480885912
1759663730.006403,0,-1.2049999237060547,-0.8299995064735413,-0.7177030106192959,0.0,-1.7376642868618397,-0.3492217583227423,-0.7184056531711005,0.030709558749420232
1759663730.0171878,0,-1.2049999237060547,-0.8299995064735413,-0.7177030119373935,0.0,-1.7377306060166846,-0.34922169780376117,-0.718331997624912,0.03111550429515266
1759663730.0279677,0,-1.2049999237060547,-0.8299995064735413,-0.7177030131331392,0.0,-1.7377802136067888,-0.3492319784364057,-0.7182802207081682,0.031455048415112034
1759663730.0391312,0,-1.2049999237060547,-0.8299995064735413,-0.7177030140058491,0.0,-1.7378164686260025,-0.3492501961452064,-0.7182462185425013,0.0317426802031757
1759663730.0502946,0,-1.2049999237060547,-0.8299995064735413,-0.7177030148914714,0.0,-1.737842113014847,-0.349274396360067,-0.7182265002165061,0.031989436046046205
1759663730.0615625,0,-1.2049999237060547,-0.8299995064735413,-0.7177030157353883,0.0,-1.7378592558423112,-0.3493032070482498,-0.7182184004426472,0.032204127521244616
1759663730.0719302,0,-1.2049999237060547,-0.8299995064735413,-0.717703017119657,0.0,-1.7378698499205958,-0.3493350601924856,-0.7182191140821174,0.03239251020991182
1759663730.082758,0,-1.2049999237060547,-0.8299995064735413,-0.7177030181020196,0.0,-1.7378750242986518,-0.34936952743357563,-0.7182273737816339,0.03256070647705375
1759663730.093311,0,-1.2049999237060547,-0.8299995064735413,-0.7177030191574758,0.0,-1.7387128513077705,-0.34867172558496573,-0.7174865395801819,0.03513991985529319
1759663730.119333,0,-1.2049999237060547,-0.8299995064735413,-0.717703012443291,0.0,-1.7397483905999593,-0.3478620610871712,-0.7166198398739836,0.039542230463557475
1759663730.1225758,0,-1.2049999237060547,-0.8299995064735413,-0.7177030190457021,0.0,-1.7405729298415975,-0.3472603542706474,-0.7159256106940843,0.04308924895991176
1759663730.133031,0,-1.2049999237060547,-0.8299995064735413,-0.7177030210583091,0.0,-1.741219054568791,-0.3468278730731787,-0.7153815428749659,0.04593651712677297
1759663730.1436176,0,-1.2049999237060547,-0.8299995064735413,-0.7177030223498555,0.0,-1.7417244463130372,-0.34652317834284924,-0.7149567721254972,0.04822992767124527
1759663730.1539779,0,-1.2049999237060547,-0.8299995064735413,-0.7177030235067079,0.0,-1.742118978604235,-0.3463145925731412,-0.7146265513788388,0.05008441572068688
1759663730.1644893,0,-1.2049999237060547,-0.8299995064735413,-0.7177030244248837,0.0,-1.742425538288636,-0.3461788109842047,-0.7143719900389212,0.051589897520066326
1759663730.1753113,0,-1.2049999237060547,-0.8299995064735413,-0.7177030251023258,0.0,-1.7426619142577318,-0.3460985017250089,-0.7141783977261102,0.05281736631431618
1759663730.1859968,0,-1.2049999237060547,-0.8299995064735413,-0.7177030257931634,0.0,-1.7428425560150311,-0.3460600374294764,-0.7140335831228254,0.05382309831687063
1759663730.196053,0,-1.2049999237060547,-0.8299995064735413,-0.7177030266863192,0.0,-1.7429792935710018,-0.3460525048542801,-0.7139273012417522,0.05465140070657532
1759663730.2069156,0,-1.2049999237060547,-0.8299995064735413,-0.7177030271703906,0.0,-1.7434049634133413,-0.34574100587287754,-0.7134386510895173,0.05559866668533614
1759663730.2184389,0,-1.2049999237060547,-0.8299995064735413,-0.7177030274073832,0.0,-1.7437342741262893,-0.3455156992533198,-0.713060090905293,0.056364802749611365
1759663730.2296066,0,-1.2049999237060547,-0.8299995064735413,-0.7177030278529024,0.0,-1.7439884810141433,-0.345356146832679,-0.712767642067796,0.05698903333063346
1759663730.239859,0,-1.2049999237060547,-0.8299995064735413,-0.7177030286424078,0.0,-1.7441844079870303,-0.3452461952181793,-0.7125421844685702,0.05750118807517783
1759663730.2505317,0,-1.2049999237060547,-0.8299995064735413,-0.7177030292135527,0.0,-1.744334068271422,-0.3451751099003459,-0.7123701983061582,0.05792552321663741
1759663730.261309,0,-1.2049999237060547,-0.8299995064735413,-0.717703029705616,0.0,-1.7444470733413204,-0.3451343477210786,-0.7122407817890081,0.058280819163187746
1759663730.272634,0,-1.2049999237060547,-0.8299995064735413,-0.7177030300145315,0.0,-1.7445306321682301,-0.34511789589062664,-0.71214578686033,0.05858233633147057
1759663730.284026,0,-1.2049999237060547,-0.8299995064735413,-0.7177030303430563,0.0,-1.7445907088526929,-0.34512064467844206,-0.7120783820337155,0.0588416128960449
1759663730.2948327,0,-1.2049999237060547,-0.8299995064735413,-0.7177030308793935,0.0,-1.7446323878670371,-0.34513794950726157,-0.7120326404449628,0.05906692970331273
1759663730.3147242,0,-1.2049999237060547,-0.8299995064735413,-0.7177030289791269,0.0,-1.7446535305721462,-0.34517725913877156,-0.7120121492682201,0.059277253188611115
1759663730.3175588,0,-1.2049999237060547,-0.8299995064735413,-0.7177030321981697,0.0,-1.7456207749642028,-0.3443337223365556,-0.7111592482902572,0.05912560558643422
1759663730.3277082,0,-1.2049999237060547,-0.8299995064735413,-0.7177030329078881,0.0,-1.7469475105641386,-0.34319435969725554,-0.7100758474634316,0.05890722592901889
1759663730.3389823,0,-1.2049999237060547,-0.8299995064735413,-0.7177030330832324,0.0,-1.7479897134252211,-0.3423025126032643,-0.7092283178576662,0.058750163883494355
1759663730.3499296,0,-1.2049999237060547,-0.8299995064735413,-0.7177030333623975,0.0,-1.7488089729891176,-0.3416053866912033,-0.708565693115998,0.05864108920214413
1759663730.3606277,0,-1.2049999237060547,-0.8299995064735413,-0.7177030337240353,0.0,-1.749452892678537,-0.3410620481680061,-0.7080485767655689,0.05856977046687585
1759663730.3717084,0,-1.2049999237060547,-0.8299995064735413,-0.717703033994475,0.0,-1.7499576018231038,-0.3406416734611365,-0.7076472705181729,0.05852920935133003
1759663730.3830788,0,-1.2049999237060547,-0.8299995064735413,-0.7177030342165924,0.0,-1.7503515834216803,-0.34031982811279843,-0.7073383215457049,0.058513802887294554
1759663730.3941977,0,-1.2049999237060547,-0.8299995064735413,-0.7177030345226161,0.0,-1.750657882127124,-0.34007635684391574,-0.707102552605364,0.05851835030033767
1759663730.4050167,0,-1.2049999237060547,-0.8299995064735413,-0.7177030348966493,0.0,-1.7508945976528152,-0.33989533357844387,-0.7069248724949032,0.058538692737802
1759663730.4154298,0,-1.2049999237060547,-0.8299995064735413,-0.7177030353286948,0.0,-1.7510760628884456,-0.33976402811908457,-0.7067932815478549,0.05857138480696795
1759663730.426041,0,-1.2049999237060547,-0.8299995064735413,-0.7177030356776138,0.0,-1.7513317062517804,-0.3395053611481098,-0.7065608103787572,0.05853986699381797
1759663730.436784,0,-1.2049999237060547,-0.8299995064735413,-0.7177030359722759,0.0,-1.751801740633769,-0.3390779044514416,-0.7060476450802163,0.058534288973007345
1759663730.4471238,0,-1.2049999237060547,-0.8299995064735413,-0.7177030363233392,0.0,-1.7521686955453926,-0.33874915288893764,-0.7056473940771266,0.05854556766312134
1759663730.457462,0,-1.2049999237060547,-0.8299995064735413,-0.7177030366432042,0.0,-1.752454475555402,-0.3384985423615121,-0.705336162919427,0.05857042773959024
1759663730.4682486,0,-1.2049999237060547,-0.8299995064735413,-0.7177030368598665,0.0,-1.7526757714114294,-0.33831059102702665,-0.7050957668825886,0.05860701170680566
1759663730.47925,0,-1.2049999237060547,-0.8299995064735413,-0.7177030370416091,0.0,-1.7528458502745359,-0.3381728443254006,-0.7049117166208019,0.058653547484458654
1759663730.489855,0,-1.2049999237060547,-0.8299995064735413,-0.7177030372975661,0.0,-1.7529755639350058,-0.3380747634454969,-0.7047720958295646,0.05870772920044893
1759663730.5004632,0,-1.2049999237060547,-0.8299995064735413,-0.7177030375450713,0.0,-1.7530730967007437,-0.33800856705097454,-0.704667942327684,0.058768350661465206
1759663730.5282645,0,-1.2049999237060547,-0.8299995064735413,-0.7177030354462737,0.0,-1.7531325987474082,-0.3379891392049171,-0.7046071668457685,0.05886147697754305
1759663730.5385711,0,-1.2049999237060547,-0.8299995064735413,-0.7177030364117059,0.0,-1.753174010552067,-0.3379867045195699,-0.7045660920342325,0.05895434878870194
1759663730.5494835,0,-1.2049999237060547,-0.8299995064735413,-0.7177030372336154,0.0,-1.7532003308828075,-0.33799896547746217,-0.7045415439572484,0.059048368630290206
1759663730.560753,0,-1.2049999237060547,-0.8299995064735413,-0.7177030378171878,0.0,-1.7542264819036824,-0.3370882209625847,-0.7035968265499821,0.058785556385647496
1759663730.571446,0,-1.2049999237060547,-0.8299995064735413,-0.7177030383373637,0.0,-1.7556427849682406,-0.3358611921311134,-0.7023761938811829,0.058475394974348824
1759663730.5823972,0,-1.2049999237060547,-0.8299995064735413,-0.7177030387220587,0.0,-1.7567565887693313,-0.3348979038417226,-0.7014188786331537,0.05824599635864362
1759663730.5927193,0,-1.2049999237060547,-0.8299995064735413,-0.7177030391019912,0.0,-1.7576337321747662,-0.3341417488582869,-0.7006675747259518,0.05807932950758158
1759663730.6031332,0,-1.2049999237060547,-0.8299995064735413,-0.7177030394031139,0.0,-1.7583239554952435,-0.3335501526968386,-0.7000791552436334,0.05796262731413947
1759663730.6139333,0,-1.2049999237060547,-0.8299995064735413,-0.7177030396139692,0.0,-1.7588657053248975,-0.3330902284446047,-0.6996203528449565,0.057886412339297304
1759663730.6241767,0,-1.2049999237060547,-0.8299995064735413,-0.7177030398533795,0.0,-1.7592905092988491,-0.33273435207832064,-0.6992636012088661,0.057841696095294035
1759663730.634575,0,-1.2049999237060547,-0.8299995064735413,-0.7177030400465175,0.0,-1.7596220241853213,-0.3324620776828889,-0.6989883996110292,0.05782260731827431
1759663730.6458552,0,-1.2049999237060547,-0.8299995064735413,-0.7177030401365521,0.0,-1.7598779765726682,-0.3322584423124442,-0.6987795979205053,0.057825744650710796
1759663730.6566854,0,-1.2049999237060547,-0.8299995064735413,-0.7177030402739942,0.0,-1.7600740374355233,-0.3321093969718666,-0.6986233921256068,0.05784627239843364
1759663730.667716,0,-1.2049999237060547,-0.8299995064735413,-0.7177030403935483,0.0,-1.760342453723045,-0.3318397542282429,-0.6983736798411487,0.05781260160306146
1759663730.6785738,0,-1.2049999237060547,-0.8299995064735413,-0.7177030405279101,0.0,-1.760841715923091,-0.33138820889646453,-0.6978026727750526,0.057800840319731726
1759663730.689687,0,-1.2049999237060547,-0.8299995064735413,-0.7177030406382006,0.0,-1.7612310841914882,-0.33104106854628057,-0.6973566547013621,0.057809557573271796
1759663730.7011857,0,-1.2049999237060547,-0.8299995064735413,-0.7174055330360162,0.005235987755982988,-1.7615336220653408,-0.33077707388705135,-0.6970094768176014,0.05783539683554603
1759663730.722034,0,-1.2049821563879208,-0.8300167684506685,-0.7174024306364802,0.005421233290906649,-1.7617595311841712,-0.33059144465638063,-0.696749553842053,0.05789049675824196
1759663730.7330396,0,-1.20497609356905,-0.830022056021984,-0.717391491918387,0.005421233290906649,-1.7619335621506893,-0.33045528539235297,-0.696548759236474,0.05795343058672916
1759663730.7434993,0,-1.2049738068788154,-0.8300240502867473,-0.7174023089163764,0.005421233290906649,-1.7620667018260017,-0.33035812912267953,-0.6963946098144701,0.05802209414174845
1759663730.7539155,0,-1.204972935752601,-0.8300248100080361,-0.7173769457649721,0.005421233290906649,-1.7621671667576877,-0.3302923592007135,-0.6962777606756582,0.05809563778218154
1759663730.7646482,0,-1.2049725861469873,-0.830025114917571,-0.7173719832818235,0.005421233290906649,-1.7622411647426302,-0.33025239952057206,-0.696191141791755,0.05817400768461239
1759663730.7756712,0,-1.2049724371299766,-0.83002524489533,-0.7173725239853219,0.005421233290906649,-1.7622936242890983,-0.33023381598476614,-0.6961291324241422,0.058257160528012816
1759663730.7862828,0,-1.2049724021449575,-0.8300252753929419,-0.7173696236177921,0.005421233290906649,-1.7632880941342468,-0.3293717579356177,-0.6951614932315819,0.058543584868917004
1759663730.7968912,0,-1.2041272200455502,-0.829448270025727,-0.7168300316543972,0.006034099799155825,-1.7646436685994236,-0.3282295545751523,-0.6938958205761511,0.05915671163229818
1759663730.8079808,0,-1.2041271924265267,-0.8294482941298011,-0.7168333103762436,0.006034099799155825,-1.765707448017982,-0.3273432089153862,-0.6929021638462703,0.05966098546540157
1759663730.8188791,0,-1.2041271910497877,-0.8294482953285344,-0.7168287213288603,0.006034099799155825,-1.7665424360663433,-0.3266569684476962,-0.6921221440997036,0.06007987443687336
1759663730.8297622,0,-1.204127191255734,-0.8294482951471884,-0.7168461001024223,0.006034099799155825,-1.7671972279019947,-0.3261280381440524,-0.6915106961888814,0.06043182733500285
1759663730.8404546,0,-1.2041272004844337,-0.8294482870898018,-0.7168299753120647,0.006034099799155825,-1.7677099579932565,-0.32572284518447064,-0.6910323736819265,0.060731021465783776
1759663730.8513849,0,-1.2041271925945716,-0.8294482939771106,-0.7168356341385448,0.006034099799155825,-1.7681097718729728,-0.3254160219042236,-0.6906601107250546,0.060989122243821865
1759663730.862368,0,-1.204127187041715,-0.8294482988244718,-0.7168256639125321,0.006034099799155825,-1.7684197936411084,-0.3251874160764509,-0.6903723701314862,0.06121507729557062
1759663730.8726869,0,-1.204127216797566,-0.8294482728477731,-0.716844337575433,0.006034099799155825,-1.7686590776243767,-0.32502007856157944,-0.6901512663605208,0.0614148725390242
1759663730.8840508,0,-1.2041271780203742,-0.8294483066997893,-0.7168516617848489,0.006034099799155825,-1.768840475617463,-0.3249034969416934,-0.6899849636171753,0.061595750755036226
1759663730.894514,0,-1.2041272064205073,-0.8294482819068161,-0.7168587169488505,0.006034099799155825,-1.7689764865414717,-0.32482631022865444,-0.6898616093464898,0.06176056154675621
1759663730.9046614,0,-1.2041272324233057,-0.8294482592065808,-0.7168462065144686,0.006034099799155825,-1.7692143473872999,-0.32459063699852375,-0.689624980592914,0.06182756247904546
1759663730.915598,0,-1.2000587115219246,-0.8336733776173738,-0.7135103936649008,0.051482873600777336,-1.769674822011092,-0.3241854257080967,-0.6890514323558133,0.06194439259844926
1759663730.9265602,0,-1.1984842547160932,-0.8350248535145678,-0.7108633519018108,0.051482873600777336,-1.7700325201478335,-0.3238769875526466,-0.6886028019640866,0.06205591538234094
1759663730.937416,0,-1.1978829951118346,-0.8355389771012673,-0.7089083675612287,0.051482873600777336,-1.7703095401647566,-0.3236447278536409,-0.6882523474435596,0.062163493340259605
1759663730.9484746,0,-1.1976497699260646,-0.8357369724605571,-0.7074655247013206,0.051482873600777336,-1.7705227669005206,-0.3234730482886671,-0.6879795552366743,0.062268701401515
1759663730.9592986,0,-1.197563101789004,-0.8358094976887535,-0.7064434874797887,0.051482873600777336,-1.7706857404781644,-0.3233492054305395,-0.6877680203284837,0.06237206721802855
1759663730.9700563,0,-1.19753039506744,-0.835836118041197,-0.7056913640450195,0.051482873600777336,-1.770808876828209,-0.32326346357878244,-0.6876050778995652,0.06247427696154172
1759663730.9809833,0,-1.197515338666947,-0.8358479292332966,-0.7051741462420636,0.051482873600777336,-1.7709001418325643,-0.3232084941540093,-0.68748098524064,0.06257628095963012
1759663730.9916952,0,-1.1975121718144648,-0.8358498656480426,-0.7047879060148737,0.051482873600777336,-1.7709660825289177,-0.32317806834993945,-0.6873877894088856,0.06267818772446095
1759663731.0029328,0,-1.1975038758128687,-0.835856338561171,-0.7044802301279466,0.051482873600777336,-1.7710112865319738,-0.32316820404931296,-0.6873197763388066,0.06278138102065481
1759663731.0137186,0,-1.1975065276111585,-0.8358536865972318,-0.7042816973642225,0.051482873600777336,-1.7710400912987745,-0.32317457800330346,-0.6872717266311392,0.06288528231937288
1759663731.0243058,0,-1.197510072530639,-0.8358504023425902,-0.7041870827357349,0.051482873600777336,-1.7720605789470119,-0.32230335344078404,-0.6862338225758923,0.0631103524820717
1759663731.0345595,0,-1.1974858198732434,-0.8360850570225219,-0.7039115045487563,0.052820558713467615,-1.7734719614601597,-0.32112851961460026,-0.6848731335373877,0.0632211459689509
1759663731.0457284,0,-1.1974759140871427,-0.8360933098152777,-0.7038164983586064,0.052820558713467615,-1.7745796608101378,-0.32021201500133606,-0.683804335688456,0.06333366311779652
1759663731.0561285,0,-1.19748222649432,-0.8360878829786887,-0.703819961165022,0.052820558713467615,-1.7754503186804012,-0.3194972762520242,-0.6829635866839673,0.06344642433668281
1759663731.0667853,0,-1.197481248269063,-0.8360886612460162,-0.7038031889170959,0.052820558713467615,-1.7761336242633599,-0.31894259428482535,-0.6823033071679379,0.06356040519277449
1759663731.077853,0,-1.197475463822476,-0.8360935273695537,-0.7037633340279279,0.052820558713467615,-1.7766682116202446,-0.3185155905474676,-0.6817864714087668,0.06367675186435999
1759663731.0888355,0,-1.1974743738323297,-0.8360944365262921,-0.7037549437391994,0.052820558713467615,-1.7770851154508323,-0.3181899458486102,-0.6813832690654715,0.0637953399530132
1759663731.0995576,0,-1.1974773881339107,-0.8360918875681532,-0.703777446192455,0.052820558713467615,-1.7774088502076173,-0.3179447341400706,-0.6810701166149906,0.0639156872578021
1759663731.1205275,0,-1.1880316537574092,-0.844121154768698,-0.6917172708465347,0.09267494194327207,-1.777644872796754,-0.31778132435093853,-0.6808423873696101,0.06406105796180987
1759663731.1311152,0,-1.184709364858829,-0.8467729406655241,-0.682757366059095,0.09267494194327207,-1.7778244583991967,-0.31766633296058777,-0.6806691918500647,0.06420437502743115
1759663731.1424384,0,-1.1832865023599404,-0.848089651485875,-0.6758459345290506,0.09416486289236642,-1.77838319987836,-0.31717475517197086,-0.6799897411103055,0.06422784483394625
1759663731.1528156,0,-1.1828103639611716,-0.8484564114120514,-0.6711726180375602,0.09416486289236642,-1.7788193204850284,-0.31679602885855346,-0.6794558735136452,0.06427049483454102
1759663731.1641634,0,-1.182599793627323,-0.8486128248063112,-0.6677195278510111,0.09416486289236642,-1.7791579549500212,-0.31650800963250103,-0.6790375993817483,0.06433095116815957
1759663731.1752746,0,-1.182522598689594,-0.8486655093819774,-0.6652558794782192,0.09416486289236642,-1.7794199931292651,-0.3162915932396629,-0.6787102239380179,0.06440546229451563
1759663731.1856105,0,-1.1825111114726568,-0.8486686169677573,-0.6635889713460048,0.09416486289236642,-1.779622154803401,-0.3161311382999424,-0.6784540851944416,0.06448983898907087
1759663731.196418,0,-1.182493211822914,-0.8486780303975493,-0.6623515424521592,0.09416486289236642,-1.7797763462235796,-0.3160160760128664,-0.6782549039885016,0.06458365416666324
1759663731.2074916,0,-1.1824785201567949,-0.8486860618328221,-0.6614608087543715,0.09416486289236642,-1.779892104470077,-0.31593782236864415,-0.6781012678083023,0.06468616108486894
1759663731.2182732,0,-1.1824797681841874,-0.848682787287599,-0.6608675385511491,0.09416486289236642,-1.779977377988605,-0.3158889045710488,-0.6779837845539879,0.06479549472320367
1759663731.2285655,0,-1.1824924586129353,-0.8486715250659803,-0.6605012042882262,0.09416486289236642,-1.7800385651788813,-0.3158631701676161,-0.6778949372891421,0.06490968945734231
1759663731.2394552,0,-1.1821573027843784,-0.8491122605649065,-0.6592272005642358,0.09580694843724702,-1.7815453499759102,-0.31462289025390444,-0.6759879232955595,0.0658985298119718
1759663731.2503393,0,-1.1821531042644564,-0.8491147432700995,-0.6590251163067969,0.09580694843724702,-1.7827264732212493,-0.31366270349461906,-0.6744866815630848,0.06672291140107732
1759663731.261379,0,-1.1821473661884117,-0.8491186594626593,-0.6589299992697051,0.09580694843724702,-1.7836519645121989,-0.3129218531303332,-0.6733046796277764,0.06741946411895139
1759663731.2722812,0,-1.1821486861254646,-0.8491173986643614,-0.6588626097235472,0.09580694843724702,-1.7843767675266005,-0.31235272185590257,-0.6723738940465995,0.06801586056228692
1759663731.2828026,0,-1.1821590508700874,-0.8491094226778912,-0.6589023641899211,0.09580694843724702,-1.7849439477969982,-0.3119179894182814,-0.6716409114349176,0.06853283754520688
1759663731.2931728,0,-1.1821669765699894,-0.8491034411848056,-0.6589350774281129,0.09580694843724702,-1.7853866480959137,-0.31158913684943984,-0.6710645166156899,0.06898726121121154
1759663731.3036172,0,-1.18216816165691,-0.8491026728494542,-0.6590134502684692,0.09580694843724702,-1.7857304586438985,-0.3113443441291423,-0.6706127868217939,0.06939312068077075
1759663731.3176029,0,-1.1725783273512622,-0.8562046429174218,-0.6460024735008669,0.11102044519861082,-1.7859909404978551,-0.31117242395969735,-0.6702658359436722,0.06977388323254154
1759663731.3288033,0,-1.16900616414383,-0.8587711920105192,-0.6358601750213729,0.11102044519861082,-1.7861886252244452,-0.31105412345772543,-0.6699983056839943,0.07012614432658047
1759663731.3398564,0,-1.167636551038904,-0.8597393380961242,-0.6284286349292715,0.11102044519861082,-1.7864653451302661,-0.3108042630994065,-0.6696455660131342,0.0715054462976623
1759663731.3501623,0,-1.1665604018658986,-0.860674926242659,-0.6216311915124019,0.11267442794812156,-1.7869413767913438,-0.31041849476471095,-0.6688562125360906,0.07283335605287995
1759663731.3613696,0,-1.166333704392635,-0.8608226878787579,-0.6177185613291903,0.11267442794812156,-1.7873077526545713,-0.3101387798060663,-0.6682356062754152,0.07394411444860496
1759663731.3723857,0,-1.1662495819477832,-0.8608715636507146,-0.6149192490300757,0.11267442794812156,-1.7875885428913691,-0.3099405726089988,-0.6677474694269672,0.07488474187621658
1759663731.3832037,0,-1.16622123360794,-0.8608835588110848,-0.612980092904999,0.11267442794812156,-1.787802345628042,-0.30980518730424705,-0.6673636229488847,0.07569169803328095
1759663731.3939621,0,-1.1662105825554017,-0.8608852091202249,-0.6116064072762953,0.11267442794812156,-1.7879634411231995,-0.3097185590796205,-0.6670622391731076,0.07639398438955215
1759663731.4049733,0,-1.1661973136951023,-0.8608901477913647,-0.610638826736746,0.11267442794812156,-1.7880826571587598,-0.3096703645277518,-0.6668264964780423,0.07701577718112027
1759663731.4156802,0,-1.1662010896413433,-0.8608846876281663,-0.6100024998175079,0.11267442794812156,-1.7881689073180607,-0.3096519652639503,-0.6666427499406565,0.077573520568438
1759663731.4264934,0,-1.166198652045713,-0.8608843953491445,-0.6095446079037464,0.11267442794812156,-1.7882288036102827,-0.309657267747335,-0.66650059871658,0.07808206615464229
1759663731.4374313,0,-1.1661934417541329,-0.8608866448746377,-0.6092709144923807,0.11267442794812156,-1.7882675026445203,-0.3096816357588907,-0.6663918510488651,0.07855330695269325
1759663731.4481971,0,-1.1661967417004433,-0.8608836179425796,-0.6091399442887024,0.11267442794812156,-1.7892334440902722,-0.30891552831693575,-0.6639916098235689,0.07857985752197365
1759663731.4586575,0,-1.1657159324869986,-0.8613860606150391,-0.6075893032820431,0.11402085366209937,-1.7905509496158387,-0.30788827125104024,-0.661053103094531,0.07887166165719524
1759663731.4697387,0,-1.165700407639733,-0.8613964453396225,-0.6075269029129614,0.11402085366209937,-1.791580834966636,-0.30709045543822144,-0.6587406845541938,0.07916022407807441
1759663731.480284,0,-1.1657115384358336,-0.8613889133949637,-0.6076036455143664,0.11402085366209937,-1.7923862584171841,-0.30647247165045816,-0.6569184434803443,0.07944480148205024
1759663731.4909487,0,-1.1657121134045532,-0.8613887047763387,-0.6076530761028198,0.11402085366209937,-1.7930148670877273,-0.3059971457253453,-0.6554833160524225,0.07972797308288353
1759663731.5017612,0,-1.1657077644546419,-0.8613919105126121,-0.607690902985021,0.11402085366209937,-1.7935037489174557,-0.3056354453127882,-0.6543548058744693,0.08001196976283383
1759663731.5294988,0,-1.1517267897686627,-0.8703820424593465,-0.5869252610905449,0.12940551423034483,-1.7938569957982042,-0.30539604350196603,-0.6535161925400848,0.08038483592873559
1759663731.5395782,0,-1.147038276912581,-0.8732905597796031,-0.5733225416780846,0.12940551423034483,-1.794129205204456,-0.30522206937320173,-0.6528575601806677,0.08074185672630403
1759663731.549692,0,-1.1452330880645658,-0.8743881410006764,-0.5634827976613692,0.12940551423034483,-1.7943365412485648,-0.30510086694275323,-0.6523433251822751,0.08108755942605538
1759663731.5607128,0,-1.1436634633601088,-0.8755166715291848,-0.5539861435833267,0.13082710430922082,-1.7948965394901673,-0.30462871580546785,-0.6508319254832745,0.08125062923097583
1759663731.5715384,0,-1.1433840777666815,-0.8756686148807715,-0.5489258668426555,0.13082710430922082,-1.7953301862795155,-0.3042686563991061,-0.6496423110488675,0.08143904624418932
1759663731.5824797,0,-1.143268185756558,-0.8757237567665054,-0.5452702199713185,0.13082710430922082,-1.7956646022305867,-0.3039976091005113,-0.648705775719808,0.0816492237880524
1759663731.5934324,0,-1.1432201103591764,-0.8757411522934898,-0.5426856257053004,0.13082710430922082,-1.7959209427105913,-0.3037973792372973,-0.6479686369301149,0.08187787859580502
1759663731.60403,0,-1.1432130615596452,-0.8757372329517371,-0.5409516692071085,0.13082710430922082,-1.7961160132448006,-0.30365317633613403,-0.6473884927745718,0.08212049466182837
1759663731.6144166,0,-1.1432169474934735,-0.8757293129791166,-0.5397945643482854,0.13082710430922082,-1.7962627369295956,-0.30355361158839733,-0.6469325124456556,0.08237426595149219
1759663731.625476,0,-1.1431915826392294,-0.8757398750001991,-0.5389103488392453,0.13048160202119607,-1.7963703746108246,-0.30349101011904084,-0.6465761326918674,0.082641866463195
1759663731.6366644,0,-1.1431761115678363,-0.8757457848561523,-0.5382295912886829,0.13082710430922082,-1.796446689650733,-0.30345857966919954,-0.6462992658256496,0.08292261235094767
1759663731.647411,0,-1.1431867601742052,-0.8757378163082902,-0.537920079185825,0.13082710430922082,-1.7964982778312084,-0.3034501545684664,-0.6460854373630033,0.0832128245623791
1759663731.6586478,0,-1.1431717973637088,-0.8757452599386556,-0.537685243281674,0.1306410630584892,-1.796529494264174,-0.3034621649729971,-0.6459227373836277,0.08351482049820497
1759663731.6693738,0,-1.1424681916837787,-0.8763330674528095,-0.5355341289378057,0.13101280915798655,-1.798040061592501,-0.3023115270440751,-0.6416137869749889,0.08481814334097582
1759663731.6802037,0,-1.1424695309313326,-0.8763321624479887,-0.5355134004558363,0.1313762955611765,-1.7992179779853499,-0.30142435945600665,-0.638217285438248,0.08592123062821011
1759663731.6905828,0,-1.1424875329922068,-0.8763220925060088,-0.5356505697094971,0.13137131329867213,-1.8001366496990687,-0.3007423725000748,-0.6355357993660418,0.08686597973685854
1759663731.701308,0,-1.14248133728405,-0.876326084282058,-0.5357594770200863,0.13115338788542208,-1.8008512323132462,-0.3002223260406529,-0.633419769673426,0.08768928198365449
1759663731.7190354,0,-1.1278959350412077,-0.8842548210430234,-0.5163414078932437,0.15326798103358646,-1.8013931935179652,-0.29984415277966847,-0.6317778935733824,0.08845946676555637
1759663731.7290692,0,-1.1227023895498567,-0.8869689764788102,-0.5023412246997503,0.15369611455007093,-1.801812614968635,-0.29956282256292627,-0.6304803235952235,0.08914562048045993
1759663731.7399158,0,-1.1206662248876365,-0.8880063773857142,-0.49199064558927896,0.15369786261393734,-1.802133609705472,-0.2993600293912375,-0.6294598348218126,0.08977131708290685
1759663731.7505682,0,-1.1198872857416349,-0.8883838151956799,-0.48465866617529785,0.15315704300645885,-1.8023766654816273,-0.29921958599467813,-0.6286598835238346,0.09034928462751586
1759663731.760893,0,-1.119597888164504,-0.8885101729527056,-0.4794034704255471,0.15362987675562573,-1.8025580135032873,-0.2991285716507149,-0.6280355756698496,0.09088865167106931
1759663731.7715847,0,-1.1194650053824537,-0.8885599120151255,-0.47567865776370516,0.15279530206032454,-1.8026894253488603,-0.29907808788869117,-0.627553465658491,0.09140105283764616
1759663731.7825146,0,-1.1193991989591405,-0.8885790915107549,-0.4729080491680041,0.15299009380498285,-1.8027803546342087,-0.2990609469074969,-0.6271866075558965,0.09189510233614644
1759663731.793252,0,-1.1183154974419276,-0.8893183513950943,-0.46801960739735565,0.1536877667238468,-1.8032758451869648,-0.29864340010405876,-0.6254355279699718,0.09161210271345124
1759663731.8037362,0,-1.1183187097295884,-0.8893098106298732,-0.4667220601291595,0.1542576666006575,-1.8036583761418843,-0.2983222184942653,-0.6240555011443328,0.09145522026429069
1759663731.8142478,0,-1.1183177180049444,-0.889305770435583,-0.4659985723281732,0.15307766202686796,-1.803952075625172,-0.29807858099958356,-0.6229672689402246,0.09139898857847419
1759663731.8246589,0,-1.118321365092082,-0.8893008746731671,-0.4654305658736764,0.15359537862672792,-1.8041758271719783,-0.2978973523121505,-0.6221088655917457,0.09142276992847373
1759663731.834962,0,-1.1183275278175504,-0.8892960019393098,-0.46511682062608756,0.15379715994922702,-1.8043443296290718,-0.2977664998300499,-0.6214319635492129,0.09151042689989326
1759663731.8459582,0,-1.1182967293747048,-0.8893095359271401,-0.4648886984299577,0.15313040526383342,-1.8044682163662322,-0.2976776857641693,-0.6208999841629902,0.09165468226972182
1759663731.8567212,0,-1.11829593765478,-0.8893092160821271,-0.46478496735712715,0.15324449321023376,-1.8045567628851933,-0.29762287543442895,-0.6204827551619548,0.09184386613189223
1759663731.8678756,0,-1.1182770807179547,-0.8893179961946677,-0.46476025981069097,0.15273626282701985,-1.8046166055543527,-0.29759659888137996,-0.6201574623845959,0.09207299716422619
1759663731.8790994,0,-1.118266636798367,-0.8893229817569817,-0.464763721465209,0.15276087779200528,-1.80465326278979,-0.29759403509107746,-0.6199056898400775,0.09233615891425218
1759663731.8900619,0,-1.1182752160905405,-0.88931915684438,-0.46484049359614865,0.1531996958652969,-1.8046713904054485,-0.2976108420771053,-0.6197125251868084,0.09262651389322378
1759663731.9010403,0,-1.1182781073685364,-0.8893185194210173,-0.46506781358654964,0.15243692131071074,-1.8046743922905466,-0.29764394154896057,-0.6195665325803442,0.09294052366897762
1759663731.9130082,0,-1.1017686558816022,-0.8968755096384577,-0.445277282576316,0.16243331459436325,-1.8064568657992142,-0.2963521057447875,-0.6137558531564743,0.09189857062842918
1759663731.923269,0,-1.0958813841389738,-0.8994333370465031,-0.4318648392601771,0.1618085427442444,-1.8078538136082203,-0.2953279439923468,-0.6091724176333431,0.09113846129863233
1759663731.9340649,0,-1.0935923715748483,-0.9004011830775274,-0.42194390677181315,0.16142873189546847,-1.8089471379646254,-0.2945194051517295,-0.605557560976669,0.09060504704600458
1759663731.944988,0,-1.0927021840767162,-0.9007579661122104,-0.41471921306482223,0.16147027552813378,-1.8098015663370255,-0.29388409393249043,-0.602706374352058,0.09025245051590292
1759663731.9560282,0,-1.0923494348106035,-0.9008852945827213,-0.40945280170644066,0.16199993508037594,-1.8104674613083216,-0.2933883389263043,-0.6004588260633752,0.09004486745550085
1759663731.9666867,0,-1.0922299696778694,-0.9009181024003071,-0.4059262070704489,0.16104876833273618,-1.8109850056329448,-0.2930043548483155,-0.5986873984731029,0.0899509018587745
1759663731.977345,0,-1.0921811617451995,-0.9009250795517607,-0.4033592663530763,0.16123267052531365,-1.8113848101328847,-0.2927108495592152,-0.5972942480319838,0.08994860535495139
1759663731.9885058,0,-1.0921342152134499,-0.9009341293576597,-0.4014739160584868,0.16110046290541655,-1.8116900142235237,-0.29249181220337295,-0.5962045412118445,0.09002427126103796
1759663731.9991577,0,-1.092141269064862,-0.9009245719611527,-0.4003470861110998,0.1605489287171726,-1.8119204702149194,-0.2923325412935439,-0.5953552125868495,0.09016024118701609
