timestamp,vehicle_id,x,y,theta,velocity,gps_available,dt,gps_x,gps_y,gps_theta,gps_velocity,control_steering,control_acceleration
1759663727.6948626,0,-1.205,-0.83,-0.7801621756414647,0.0,False,0.01,nan,nan,nan,nan,0.0,0.0
1759663727.706129,0,-1.205,-0.83,-0.7801621756414647,0.0,False,0.011266469955444336,nan,nan,nan,nan,0.0,0.0
1759663727.7173278,0,-1.205,-0.83,-0.7801621756414647,0.0,False,0.011198759078979492,nan,nan,nan,nan,0.0,0.0
1759663727.7280796,0,-1.205,-0.83,-0.7801621756414647,0.0,False,0.010751724243164062,nan,nan,nan,nan,0.0,0.0
1759663727.7383573,0,-1.205,-0.83,-0.7801621756414647,0.0,False,0.010277748107910156,nan,nan,nan,nan,0.0,0.0
1759663727.7493155,0,-1.205,-0.83,-0.7801621756414647,0.0,False,0.010958194732666016,nan,nan,nan,nan,0.0,0.0
1759663727.7600965,0,-1.205,-0.83,-0.7801621756414647,0.0,False,0.010781049728393555,nan,nan,nan,nan,0.0,0.0
1759663727.7704868,0,-1.205,-0.83,-0.7801621756414647,0.0,False,0.010390281677246094,nan,nan,nan,nan,0.0,0.0
1759663727.7805882,0,-1.205,-0.83,-0.7801621756414647,0.0,False,0.010101318359375,nan,nan,nan,nan,0.0,0.0
1759663727.7908587,0,-1.205,-0.83,-0.7801621756414647,0.0,False,0.01027059555053711,nan,nan,nan,nan,0.0,0.0
1759663727.8010652,0,-1.205,-0.83,-0.7801621756414647,0.0,False,0.010206460952758789,nan,nan,nan,nan,0.0,0.0
1759663727.8114626,0,-1.205,-0.83,-0.7801621756414647,0.0,False,0.01039743423461914,nan,nan,nan,nan,0.0,0.0
1759663727.822774,0,-1.205,-0.83,-0.7801621756414647,0.0,False,0.01131129264831543,nan,nan,nan,nan,0.0,0.0
1759663727.8341947,0,-1.205,-0.83,-0.7801621756414647,0.0,False,0.011420726776123047,nan,nan,nan,nan,0.0,0.0
1759663727.8447692,0,-1.205,-0.83,-0.7801621756414647,0.0,False,0.010574579238891602,nan,nan,nan,nan,0.0,0.0
1759663727.8550546,0,-1.205,-0.83,-0.7801621756414647,0.0,False,0.010285377502441406,nan,nan,nan,nan,0.0,0.0
1759663727.8657098,0,-1.205,-0.83,-0.7801621756414647,0.0,False,0.01065516471862793,nan,nan,nan,nan,0.0,0.0
1759663727.8759437,0,-1.205,-0.83,-0.7801621756414647,0.0,False,0.010233879089355469,nan,nan,nan,nan,0.0,0.0
1759663727.8896291,0,-1.2049999243418377,-0.8299995105862618,-0.7229993778345758,0.0,True,0.013685464859008789,-1.2049999237060547,-0.8299995064735413,-0.7177030444145203,0.0,0.0,0.0
1759663727.9004693,0,-1.2049999239185727,-0.8299995078482668,-0.7181169107634204,0.0,True,0.010840177536010742,-1.2049999237060547,-0.8299995064735413,-0.7177030444145203,0.0,0.0,0.0
1759663727.9118,0,-1.2049999237857767,-0.8299995069892429,-0.717655240993146,0.0,True,0.011330604553222656,-1.2049999237060547,-0.8299995064735413,-0.7177030444145203,0.0,0.0,0.0
1759663727.9228208,0,-1.2049999237364264,-0.8299995066700088,-0.7175962923207528,0.0,True,0.011020898818969727,-1.2049999237060547,-0.8299995064735413,-0.7177030444145203,0.0,0.0,0.0
1759663727.9331036,0,-1.2049999237176512,-0.8299995065485567,-0.7175924088627976,0.0,True,0.010282754898071289,-1.2049999237060547,-0.8299995064735413,-0.7177030444145203,0.0,0.0,0.0
1759663727.9436707,0,-1.2049999237104838,-0.829999506502193,-0.7175994920759052,0.0,True,0.010567188262939453,-1.2049999237060547,-0.8299995064735413,-0.7177030444145203,0.0,0.0,0.0
1759663727.9540231,0,-1.2049999237077464,-0.8299995064844852,-0.7176106460467864,0.0,True,0.010352373123168945,-1.2049999237060547,-0.8299995064735413,-0.7177030444145203,0.0,0.0,0.0
1759663727.9651556,0,-1.2049999237067008,-0.8299995064777215,-0.7176206080415319,0.0,True,0.011132478713989258,-1.2049999237060547,-0.8299995064735413,-0.7177030444145203,0.0,0.0,0.0
1759663727.9752336,0,-1.2049999237063016,-0.829999506475138,-0.7176316967486756,0.0,True,0.010077953338623047,-1.2049999237060547,-0.8299995064735413,-0.7177030444145203,0.0,0.0,0.0
1759663727.9860518,0,-1.204999923706149,-0.8299995064741511,-0.7176399202157597,0.0,True,0.010818243026733398,-1.2049999237060547,-0.8299995064735413,-0.7177030444145203,0.0,0.0,0.0
1759663727.9977376,0,-1.2049999237060907,-0.8299995064737742,-0.7176461593975585,0.0,True,0.011685848236083984,-1.2049999237060547,-0.8299995064735413,-0.7177030444145203,0.0,0.0,0.0
1759663728.008414,0,-1.2049999237060685,-0.8299995064736302,-0.7176528729525913,0.0,True,0.010676383972167969,-1.2049999237060547,-0.8299995064735413,-0.7177030444145203,0.0,0.0,0.0
1759663728.01994,0,-1.20499992370606,-0.8299995064735752,-0.7176577641915003,0.0,True,0.011525869369506836,-1.2049999237060547,-0.8299995064735413,-0.7177030444145203,0.0,0.0,0.0
1759663728.030418,0,-1.2049999237060567,-0.8299995064735542,-0.7176628373611891,0.0,True,0.010478019714355469,-1.2049999237060547,-0.8299995064735413,-0.7177030444145203,0.0,0.0,0.0
1759663728.0408144,0,-1.2049999237060554,-0.8299995064735463,-0.7176670299224241,0.0,True,0.010396480560302734,-1.2049999237060547,-0.8299995064735413,-0.7177030444145203,0.0,0.0,0.0
1759663728.052342,0,-1.204999923706055,-0.8299995064735431,-0.7176697414589022,0.0,True,0.011527538299560547,-1.2049999237060547,-0.8299995064735413,-0.7177030444145203,0.0,0.0,0.0
1759663728.0628583,0,-1.2049999237060547,-0.8299995064735419,-0.7176728017001093,0.0,True,0.01051640510559082,-1.2049999237060547,-0.8299995064735413,-0.7177030444145203,0.0,0.0,0.0
1759663728.074063,0,-1.2049999237060547,-0.8299995064735415,-0.7176750306311632,0.0,True,0.011204719543457031,-1.2049999237060547,-0.8299995064735413,-0.7177030444145203,0.0,0.0,0.0
1759663728.0872605,0,-1.2049999237060547,-0.8299995064735414,-0.7176760609613098,0.0,True,0.01319742202758789,-1.2049999237060547,-0.8299995064735413,-0.7177030444145203,0.0,0.0,0.0
1759663728.0950725,0,-1.2049999237060547,-0.8299995064735413,-0.7176798071802395,0.0,True,0.007812023162841797,-1.2049999237060547,-0.8299995064735413,-0.7177030444145203,0.0,0.0,0.0
1759663728.106382,0,-1.2049999237060547,-0.8299995064735413,-0.7176811266469976,0.0,True,0.011309385299682617,-1.2049999237060547,-0.8299995064735413,-0.7177030444145203,0.0,0.0,0.0
1759663728.1178763,0,-1.2049999237060547,-0.8299995064735413,-0.7176822031931742,0.0,True,0.01149439811706543,-1.2049999237060547,-0.8299995064735413,-0.7177030444145203,0.0,0.0,0.0
1759663728.129348,0,-1.2049999237060547,-0.8299995064735413,-0.7176832942868572,0.0,True,0.011471748352050781,-1.2049999237060547,-0.8299995064735413,-0.7177030444145203,0.0,0.0,0.0
1759663728.1408174,0,-1.2049999237060547,-0.8299995064735413,-0.7176843673342947,0.0,True,0.011469364166259766,-1.2049999237060547,-0.8299995064735413,-0.7177030444145203,0.0,0.0,0.0
1759663728.1510842,0,-1.2049999237060547,-0.8299995064735413,-0.7176858036798777,0.0,True,0.010266780853271484,-1.2049999237060547,-0.8299995064735413,-0.7177030444145203,0.0,0.0,0.0
1759663728.1619895,0,-1.2049999237060547,-0.8299995064735413,-0.7176868159496586,0.0,True,0.010905265808105469,-1.2049999237060547,-0.8299995064735413,-0.7177030444145203,0.0,0.0,0.0
1759663728.1727734,0,-1.2049999237060547,-0.8299995064735413,-0.7176877479369672,0.0,True,0.010783910751342773,-1.2049999237060547,-0.8299995064735413,-0.7177030444145203,0.0,0.0,0.0
1759663728.1833606,0,-1.2049999237060547,-0.8299995064735413,-0.7176886432639229,0.0,True,0.010587215423583984,-1.2049999237060547,-0.8299995064735413,-0.7177030444145203,0.0,0.0,0.0
1759663728.1940982,0,-1.2049999237060547,-0.8299995064735413,-0.7176893956607344,0.0,True,0.01073765754699707,-1.2049999237060547,-0.8299995064735413,-0.7177030444145203,0.0,0.0,0.0
1759663728.2054713,0,-1.2049999237060547,-0.8299995064735413,-0.7176899093633651,0.0,True,0.011373043060302734,-1.2049999237060547,-0.8299995064735413,-0.7177030444145203,0.0,0.0,0.0
1759663728.215911,0,-1.2049999237060547,-0.8299995064735413,-0.7176906656240369,0.0,True,0.010439634323120117,-1.2049999237060547,-0.8299995064735413,-0.7177030444145203,0.0,0.0,0.0
1759663728.2262259,0,-1.2049999237060547,-0.8299995064735413,-0.717691374322813,0.0,True,0.01031494140625,-1.2049999237060547,-0.8299995064735413,-0.7177030444145203,0.0,0.0,0.0
1759663728.2371304,0,-1.2049999237060547,-0.8299995064735413,-0.7176918544544257,0.0,True,0.010904550552368164,-1.2049999237060547,-0.8299995064735413,-0.7177030444145203,0.0,0.0,0.0
1759663728.2474508,0,-1.2049999237060547,-0.8299995064735413,-0.7176924390299639,0.0,True,0.010320425033569336,-1.2049999237060547,-0.8299995064735413,-0.7177030444145203,0.0,0.0,0.0
1759663728.258592,0,-1.2049999237060547,-0.8299995064735413,-0.7176927893000169,0.0,True,0.011141061782836914,-1.2049999237060547,-0.8299995064735413,-0.7177030444145203,0.0,0.0,0.0
1759663728.269921,0,-1.2049999237060547,-0.8299995064735413,-0.7176931050168633,0.0,True,0.011329174041748047,-1.2049999237060547,-0.8299995064735413,-0.7177030444145203,0.0,0.0,0.0
1759663728.2813497,0,-1.2049999237060547,-0.8299995064735413,-0.717693424833131,0.0,True,0.011428594589233398,-1.2049999237060547,-0.8299995064735413,-0.7177030444145203,0.0,0.0,0.0
1759663728.294381,0,-1.2049999237060547,-0.8299995064735413,-0.7176934686662655,0.0,True,0.013031244277954102,-1.2049999237060547,-0.8299995064735413,-0.7177030444145203,0.0,0.0,0.0
1759663728.3046105,0,-1.2049999237060547,-0.8299995064735413,-0.7176941219790436,0.0,True,0.01022958755493164,-1.2049999237060547,-0.8299995064735413,-0.7177030444145203,0.0,0.0,0.0
1759663728.3162427,0,-1.2049999237060547,-0.8299995064735413,-0.7176944586707137,0.0,True,0.011632204055786133,-1.2049999237060547,-0.8299995064735413,-0.7177030444145203,0.0,0.0,0.0
1759663728.3277204,0,-1.2049999237060547,-0.8299995064735413,-0.7176948037135631,0.0,True,0.01147770881652832,-1.2049999237060547,-0.8299995064735413,-0.7177030444145203,0.0,0.0,0.0
1759663728.3379576,0,-1.2049999237060547,-0.8299995064735413,-0.7176953335719602,0.0,True,0.01023721694946289,-1.2049999237060547,-0.8299995064735413,-0.7177030444145203,0.0,0.0,0.0
1759663728.349452,0,-1.2049999237060547,-0.8299995064735413,-0.7176955975659212,0.0,True,0.01149439811706543,-1.2049999237060547,-0.8299995064735413,-0.7177030444145203,0.0,0.0,0.0
1759663728.359776,0,-1.2049999237060547,-0.8299995064735413,-0.7176960207621725,0.0,True,0.01032400131225586,-1.2049999237060547,-0.8299995064735413,-0.7177030444145203,0.0,0.0,0.0
1759663728.3701212,0,-1.2049999237060547,-0.8299995064735413,-0.7176963891768562,0.0,True,0.010345220565795898,-1.2049999237060547,-0.8299995064735413,-0.7177030444145203,0.0,0.0,0.0
1759663728.3808618,0,-1.2049999237060547,-0.8299995064735413,-0.717696653629929,0.0,True,0.010740518569946289,-1.2049999237060547,-0.8299995064735413,-0.7177030444145203,0.0,0.0,0.0
1759663728.3915558,0,-1.2049999237060547,-0.8299995064735413,-0.717696902812845,0.0,True,0.010694026947021484,-1.2049999237060547,-0.8299995064735413,-0.7177030444145203,0.0,0.0,0.0
1759663728.4021945,0,-1.2049999237060547,-0.8299995064735413,-0.717697144041658,0.0,True,0.010638713836669922,-1.2049999237060547,-0.8299995064735413,-0.7177030444145203,0.0,0.0,0.0
1759663728.4135785,0,-1.2049999237060547,-0.8299995064735413,-0.7176972803560275,0.0,True,0.011384010314941406,-1.2049999237060547,-0.8299995064735413,-0.7177030444145203,0.0,0.0,0.0
1759663728.4238083,0,-1.2049999237060547,-0.8299995064735413,-0.7176975659999059,0.0,True,0.010229825973510742,-1.2049999237060547,-0.8299995064735413,-0.7177030444145203,0.0,0.0,0.0
1759663728.4342844,0,-1.2049999237060547,-0.8299995064735413,-0.7176977967784026,0.0,True,0.010476112365722656,-1.2049999237060547,-0.8299995064735413,-0.7177030444145203,0.0,0.0,0.0
1759663728.4452379,0,-1.2049999237060547,-0.8299995064735413,-0.717697953084258,0.0,True,0.010953426361083984,-1.2049999237060547,-0.8299995064735413,-0.7177030444145203,0.0,0.0,0.0
1759663728.4560554,0,-1.2049999237060547,-0.8299995064735413,-0.7176981237102744,0.0,True,0.010817527770996094,-1.2049999237060547,-0.8299995064735413,-0.7177030444145203,0.0,0.0,0.0
1759663728.4669302,0,-1.2049999237060547,-0.8299995064735413,-0.7176982866738832,0.0,True,0.010874748229980469,-1.2049999237060547,-0.8299995064735413,-0.7177030444145203,0.0,0.0,0.0
1759663728.4782639,0,-1.2049999237060547,-0.8299995064735413,-0.7176984030147615,0.0,True,0.011333703994750977,-1.2049999237060547,-0.8299995064735413,-0.7177030444145203,0.0,0.0,0.0
1759663728.4970188,0,-1.2049999237060547,-0.8299995064735413,-0.7176978566351888,0.0,True,0.018754959106445312,-1.2049999237060547,-0.8299995064735413,-0.7177030444145203,0.0,0.0,0.0
1759663728.508411,0,-1.2049999237060547,-0.8299995064735413,-0.7176981918611389,0.0,True,0.01139211654663086,-1.2049999237060547,-0.8299995064735413,-0.7177030444145203,0.0,0.0,0.0
1759663728.5188665,0,-1.2049999237060547,-0.8299995064735413,-0.7176986004224997,0.0,True,0.010455608367919922,-1.2049999237060547,-0.8299995064735413,-0.7177030444145203,0.0,0.0,0.0
1759663728.5292969,0,-1.2049999237060547,-0.8299995064735413,-0.7176989306317765,0.0,True,0.010430335998535156,-1.2049999237060547,-0.8299995064735413,-0.7177030444145203,0.0,0.0,0.0
1759663728.5407436,0,-1.2049999237060547,-0.8299995064735413,-0.7176991151423149,0.0,True,0.011446714401245117,-1.2049999237060547,-0.8299995064735413,-0.7177030444145203,0.0,0.0,0.0
1759663728.5521653,0,-1.2049999237060547,-0.8299995064735413,-0.717699278232601,0.0,True,0.011421680450439453,-1.2049999237060547,-0.8299995064735413,-0.7177030444145203,0.0,0.0,0.0
1759663728.5632606,0,-1.2049999237060547,-0.8299995064735413,-0.7176994529156744,0.0,True,0.011095285415649414,-1.2049999237060547,-0.8299995064735413,-0.7177030444145203,0.0,0.0,0.0
1759663728.5747752,0,-1.2049999237060547,-0.8299995064735413,-0.7176995819875955,0.0,True,0.011514663696289062,-1.2049999237060547,-0.8299995064735413,-0.7177030444145203,0.0,0.0,0.0
1759663728.5848558,0,-1.2049999237060547,-0.8299995064735413,-0.7176998006648425,0.0,True,0.010080575942993164,-1.2049999237060547,-0.8299995064735413,-0.7177030444145203,0.0,0.0,0.0
1759663728.5956576,0,-1.2049999237060547,-0.8299995064735413,-0.717699939778969,0.0,True,0.01080179214477539,-1.2049999237060547,-0.8299995064735413,-0.7177030444145203,0.0,0.0,0.0
1759663728.6058803,0,-1.2049999237060547,-0.8299995064735413,-0.7177000977617887,0.0,True,0.010222673416137695,-1.2049999237060547,-0.8299995064735413,-0.7177030444145203,0.0,0.0,0.0
1759663728.6173272,0,-1.2049999237060547,-0.8299995064735413,-0.7177001610715461,0.0,True,0.011446952819824219,-1.2049999237060547,-0.8299995064735413,-0.7177030444145203,0.0,0.0,0.0
1759663728.628809,0,-1.2049999237060547,-0.8299995064735413,-0.7177002272880184,0.0,True,0.011481761932373047,-1.2049999237060547,-0.8299995064735413,-0.7177030444145203,0.0,0.0,0.0
1759663728.6398048,0,-1.2049999237060547,-0.8299995064735413,-0.7177003297424314,0.0,True,0.010995864868164062,-1.2049999237060547,-0.8299995064735413,-0.7177030444145203,0.0,0.0,0.0
1759663728.651302,0,-1.2049999237060547,-0.8299995064735413,-0.7177004024913796,0.0,True,0.011497259140014648,-1.2049999237060547,-0.8299995064735413,-0.7177030444145203,0.0,0.0,0.0
1759663728.661574,0,-1.2049999237060547,-0.8299995064735413,-0.7177005425086236,0.0,True,0.010271787643432617,-1.2049999237060547,-0.8299995064735413,-0.7177030444145203,0.0,0.0,0.0
1759663728.673022,0,-1.2049999237060547,-0.8299995064735413,-0.7177006067727607,0.0,True,0.011448144912719727,-1.2049999237060547,-0.8299995064735413,-0.7177030444145203,0.0,0.0,0.0
1759663728.6844554,0,-1.2049999237060547,-0.8299995064735413,-0.7177006729120183,0.0,True,0.01143336296081543,-1.2049999237060547,-0.8299995064735413,-0.7177030444145203,0.0,0.0,0.0
1759663728.6981816,0,-1.2049999237060547,-0.8299995064735413,-0.717700637124647,0.0,True,0.013726234436035156,-1.2049999237060547,-0.8299995064735413,-0.7177030444145203,0.0,0.0,0.0
1759663728.7085822,0,-1.2049999237060547,-0.8299995064735413,-0.7177007864986091,0.0,True,0.010400533676147461,-1.2049999237060547,-0.8299995064735413,-0.7177030444145203,0.0,0.0,0.0
1759663728.7189147,0,-1.2049999237060547,-0.8299995064735413,-0.7177009241137213,0.0,True,0.010332584381103516,-1.2049999237060547,-0.8299995064735413,-0.7177030444145203,0.0,0.0,0.0
1759663728.7304718,0,-1.2049999237060547,-0.8299995064735413,-0.7177009870817059,0.0,True,0.01155710220336914,-1.2049999237060547,-0.8299995064735413,-0.7177030444145203,0.0,0.0,0.0
1759663728.7408829,0,-1.2049999237060547,-0.8299995064735413,-0.7177010940322219,0.0,True,0.01041102409362793,-1.2049999237060547,-0.8299995064735413,-0.7177030444145203,0.0,0.0,0.0
1759663728.751226,0,-1.2049999237060547,-0.8299995064735413,-0.7177011911824245,0.0,True,0.010343074798583984,-1.2049999237060547,-0.8299995064735413,-0.7177030444145203,0.0,0.0,0.0
1759663728.7624962,0,-1.2049999237060547,-0.8299995064735413,-0.7177012397706459,0.0,True,0.011270284652709961,-1.2049999237060547,-0.8299995064735413,-0.7177030444145203,0.0,0.0,0.0
1759663728.7736058,0,-1.2049999237060547,-0.8299995064735413,-0.7177012945979016,0.0,True,0.011109590530395508,-1.2049999237060547,-0.8299995064735413,-0.7177030444145203,0.0,0.0,0.0
1759663728.784718,0,-1.2049999237060547,-0.8299995064735413,-0.7177013501005263,0.0,True,0.011112213134765625,-1.2049999237060547,-0.8299995064735413,-0.7177030444145203,0.0,0.0,0.0
1759663728.7953093,0,-1.2049999237060547,-0.8299995064735413,-0.7177014230062646,0.0,True,0.010591268539428711,-1.2049999237060547,-0.8299995064735413,-0.7177030444145203,0.0,0.0,0.0
1759663728.8067584,0,-1.2049999237060547,-0.8299995064735413,-0.7177014614990362,0.0,True,0.011449098587036133,-1.2049999237060547,-0.8299995064735413,-0.7177030444145203,0.0,0.0,0.0
1759663728.8179286,0,-1.2049999237060547,-0.8299995064735413,-0.7177015112568714,0.0,True,0.011170148849487305,-1.2049999237060547,-0.8299995064735413,-0.7177030444145203,0.0,0.0,0.0
1759663728.8292482,0,-1.2049999237060547,-0.8299995064735413,-0.7177015570890077,0.0,True,0.011319637298583984,-1.2049999237060547,-0.8299995064735413,-0.7177030444145203,0.0,0.0,0.0
1759663728.8399587,0,-1.2049999237060547,-0.8299995064735413,-0.7177016216168006,0.0,True,0.010710477828979492,-1.2049999237060547,-0.8299995064735413,-0.7177030444145203,0.0,0.0,0.0
1759663728.8501744,0,-1.2049999237060547,-0.8299995064735413,-0.7177016949736768,0.0,True,0.01021575927734375,-1.2049999237060547,-0.8299995064735413,-0.7177030444145203,0.0,0.0,0.0
1759663728.8613396,0,-1.2049999237060547,-0.8299995064735413,-0.7177017321911663,0.0,True,0.011165142059326172,-1.2049999237060547,-0.8299995064735413,-0.7177030444145203,0.0,0.0,0.0
1759663728.872908,0,-1.2049999237060547,-0.8299995064735413,-0.7177017582083174,0.0,True,0.011568546295166016,-1.2049999237060547,-0.8299995064735413,-0.7177030444145203,0.0,0.0,0.0
1759663728.884032,0,-1.2049999237060547,-0.8299995064735413,-0.7177018003440381,0.0,True,0.011123895645141602,-1.2049999237060547,-0.8299995064735413,-0.7177030444145203,0.0,0.0,0.0
1759663728.9135518,0,-1.2049999237060547,-0.8299995064735413,-0.7177014132866262,0.0,True,0.02951979637145996,-1.2049999237060547,-0.8299995064735413,-0.7177030444145203,0.0,0.0,0.0
1759663728.9242399,0,-1.2049999237060547,-0.8299995064735413,-0.7177015971893361,0.0,True,0.010688066482543945,-1.2049999237060547,-0.8299995064735413,-0.7177030444145203,0.0,0.0,0.0
1759663728.9345205,0,-1.2049999237060547,-0.8299995064735413,-0.7177017743398117,0.0,True,0.010280609130859375,-1.2049999237060547,-0.8299995064735413,-0.7177030444145203,0.0,0.0,0.0
1759663728.9447758,0,-1.2049999237060547,-0.8299995064735413,-0.7177019069738009,0.0,True,0.01025533676147461,-1.2049999237060547,-0.8299995064735413,-0.7177030444145203,0.0,0.0,0.0
1759663728.9560964,0,-1.2049999237060547,-0.8299995064735413,-0.717701985215017,0.0,True,0.01132059097290039,-1.2049999237060547,-0.8299995064735413,-0.7177030444145203,0.0,0.0,0.0
1759663728.9669085,0,-1.2049999237060547,-0.8299995064735413,-0.7177020563668499,0.0,True,0.010812044143676758,-1.2049999237060547,-0.8299995064735413,-0.7177030444145203,0.0,0.0,0.0
1759663728.9783027,0,-1.2049999237060547,-0.8299995064735413,-0.7177021038765048,0.0,True,0.011394262313842773,-1.2049999237060547,-0.8299995064735413,-0.7177030444145203,0.0,0.0,0.0
1759663728.9895823,0,-1.2049999237060547,-0.8299995064735413,-0.7177021468177287,0.0,True,0.011279582977294922,-1.2049999237060547,-0.8299995064735413,-0.7177030444145203,0.0,0.0,0.0
1759663728.9999495,0,-1.2049999237060547,-0.8299995064735413,-0.717702200645995,0.0,True,0.010367155075073242,-1.2049999237060547,-0.8299995064735413,-0.7177030444145203,0.0,0.0,0.0
1759663729.0112994,0,-1.2049999237060547,-0.8299995064735413,-0.7177022298417981,0.0,True,0.011349916458129883,-1.2049999237060547,-0.8299995064735413,-0.7177030444145203,0.0,0.0,0.0
1759663729.0216305,0,-1.2049999237060547,-0.8299995064735413,-0.7177022729248979,0.0,True,0.010331153869628906,-1.2049999237060547,-0.8299995064735413,-0.7177030444145203,0.0,0.0,0.0
1759663729.032299,0,-1.2049999237060547,-0.8299995064735413,-0.7177023051561644,0.0,True,0.010668516159057617,-1.2049999237060547,-0.8299995064735413,-0.7177030444145203,0.0,0.0,0.0
1759663729.0429294,0,-1.2049999237060547,-0.8299995064735413,-0.7177023341774511,0.0,True,0.010630369186401367,-1.2049999237060547,-0.8299995064735413,-0.7177030444145203,0.0,0.0,0.0
1759663729.0543013,0,-1.2049999237060547,-0.8299995064735413,-0.7177023497566299,0.0,True,0.011371850967407227,-1.2049999237060547,-0.8299995064735413,-0.7177030444145203,0.0,0.0,0.0
1759663729.0644493,0,-1.2049999237060547,-0.8299995064735413,-0.7177023837664169,0.0,True,0.010148048400878906,-1.2049999237060547,-0.8299995064735413,-0.7177030444145203,0.0,0.0,0.0
1759663729.075649,0,-1.2049999237060547,-0.8299995064735413,-0.7177023997625671,0.0,True,0.011199712753295898,-1.2049999237060547,-0.8299995064735413,-0.7177030444145203,0.0,0.0,0.0
1759663729.086039,0,-1.2049999237060547,-0.8299995064735413,-0.7177024266899483,0.0,True,0.010390043258666992,-1.2049999237060547,-0.8299995064735413,-0.7177030444145203,0.0,0.0,0.0
1759663729.0961862,0,-1.2049999237060547,-0.8299995064735413,-0.717702454571798,0.0,True,0.0101470947265625,-1.2049999237060547,-0.8299995064735413,-0.7177030444145203,0.0,0.0,0.0
1759663729.107545,0,-1.2049999237060547,-0.8299995064735413,-0.7177024640316141,0.0,True,0.01135873794555664,-1.2049999237060547,-0.8299995064735413,-0.7177030444145203,0.0,0.0,0.0
1759663729.1179025,0,-1.2049999237060547,-0.8299995064735413,-0.717702487200043,0.0,True,0.01035761833190918,-1.2049999237060547,-0.8299995064735413,-0.7177030444145203,0.0,0.0,0.0
1759663729.1286197,0,-1.2049999237060547,-0.8299995064735413,-0.7177025048078054,0.0,True,0.010717153549194336,-1.2049999237060547,-0.8299995064735413,-0.7177030444145203,0.0,0.0,0.0
1759663729.1395721,0,-1.2049999237060547,-0.8299995064735413,-0.7177025190256572,0.0,True,0.010952472686767578,-1.2049999237060547,-0.8299995064735413,-0.7177030444145203,0.0,0.0,0.0
1759663729.1508696,0,-1.2049999237060547,-0.8299995064735413,-0.7177025299249831,0.0,True,0.011297464370727539,-1.2049999237060547,-0.8299995064735413,-0.7177030444145203,0.0,0.0,0.0
1759663729.161848,0,-1.2049999237060547,-0.8299995064735413,-0.7177025457121893,0.0,True,0.010978460311889648,-1.2049999237060547,-0.8299995064735413,-0.7177030444145203,0.0,0.0,0.0
1759663729.1719067,0,-1.2049999237060547,-0.8299995064735413,-0.7177025710363232,0.0,True,0.01005864143371582,-1.2049999237060547,-0.8299995064735413,-0.7177030444145203,0.0,0.0,0.0
1759663729.1822743,0,-1.2049999237060547,-0.8299995064735413,-0.7177025902190017,0.0,True,0.010367631912231445,-1.2049999237060547,-0.8299995064735413,-0.7177030444145203,0.0,0.0,0.0
1759663729.1928852,0,-1.2049999237060547,-0.8299995064735413,-0.7177026049208592,0.0,True,0.010610818862915039,-1.2049999237060547,-0.8299995064735413,-0.7177030444145203,0.0,0.0,0.0
1759663729.2045083,0,-1.2049999237060547,-0.8299995064735413,-0.7177026095779269,0.0,True,0.011623144149780273,-1.2049999237060547,-0.8299995064735413,-0.7177030444145203,0.0,0.0,0.0
1759663729.2145905,0,-1.2049999237060547,-0.8299995064735413,-0.717702630380618,0.0,True,0.010082244873046875,-1.2049999237060547,-0.8299995064735413,-0.7177030444145203,0.0,0.0,0.0
1759663729.2260706,0,-1.2049999237060547,-0.8299995064735413,-0.7177026373138613,0.0,True,0.011480093002319336,-1.2049999237060547,-0.8299995064735413,-0.7177030444145203,0.0,0.0,0.0
1759663729.2363148,0,-1.2049999237060547,-0.8299995064735413,-0.7177026557304416,0.0,True,0.010244131088256836,-1.2049999237060547,-0.8299995064735413,-0.7177030444145203,0.0,0.0,0.0
1759663729.2477148,0,-1.2049999237060547,-0.8299995064735413,-0.717702663329824,0.0,True,0.011399984359741211,-1.2049999237060547,-0.8299995064735413,-0.7177030444145203,0.0,0.0,0.0
1759663729.2580106,0,-1.2049999237060547,-0.8299995064735413,-0.7177026804011781,0.0,True,0.010295867919921875,-1.2049999237060547,-0.8299995064735413,-0.7177030444145203,0.0,0.0,0.0
1759663729.268462,0,-1.2049999237060547,-0.8299995064735413,-0.7177026948801934,0.0,True,0.010451316833496094,-1.2049999237060547,-0.8299995064735413,-0.7177030444145203,0.0,0.0,0.0
1759663729.2799299,0,-1.2049999237060547,-0.8299995064735413,-0.7177027005759644,0.0,True,0.011467933654785156,-1.2049999237060547,-0.8299995064735413,-0.7177030444145203,0.0,0.0,0.0
1759663729.3064995,0,-1.2049999237060547,-0.8299995064735413,-0.7177026068065047,0.0,True,0.026569604873657227,-1.2049999237060547,-0.8299995064735413,-0.7177030444145203,0.0,0.0,0.0
1759663729.3100057,0,-1.2049999237060547,-0.8299995064735413,-0.717702696106187,0.0,True,0.003506183624267578,-1.2049999237060547,-0.8299995064735413,-0.7177030444145203,0.0,0.0,0.0
1759663729.320607,0,-1.2049999237060547,-0.8299995064735413,-0.717702724441029,0.0,True,0.010601282119750977,-1.2049999237060547,-0.8299995064735413,-0.7177030444145203,0.0,0.0,0.0
1759663729.3320613,0,-1.2049999237060547,-0.8299995064735413,-0.7177027384981702,0.0,True,0.011454343795776367,-1.2049999237060547,-0.8299995064735413,-0.7177030444145203,0.0,0.0,0.0
1759663729.3434007,0,-1.2049999237060547,-0.8299995064735413,-0.7177027512240848,0.0,True,0.011339426040649414,-1.2049999237060547,-0.8299995064735413,-0.7177030444145203,0.0,0.0,0.0
1759663729.3541956,0,-1.2049999237060547,-0.8299995064735413,-0.71770276596631,0.0,True,0.010794878005981445,-1.2049999237060547,-0.8299995064735413,-0.7177030444145203,0.0,0.0,0.0
1759663729.3653445,0,-1.2049999237060547,-0.8299995064735413,-0.7177027770156741,0.0,True,0.011148929595947266,-1.2049999237060547,-0.8299995064735413,-0.7177030444145203,0.0,0.0,0.0
1759663729.3757677,0,-1.2049999237060547,-0.8299995064735413,-0.7177027908905025,0.0,True,0.01042318344116211,-1.2049999237060547,-0.8299995064735413,-0.7177030444145203,0.0,0.0,0.0
1759663729.3864553,0,-1.2049999237060547,-0.8299995064735413,-0.7177028016243021,0.0,True,0.010687589645385742,-1.2049999237060547,-0.8299995064735413,-0.7177030444145203,0.0,0.0,0.0
1759663729.3975296,0,-1.2049999237060547,-0.8299995064735413,-0.7177028092438942,0.0,True,0.011074304580688477,-1.2049999237060547,-0.8299995064735413,-0.7177030444145203,0.0,0.0,0.0
1759663729.4078054,0,-1.2049999237060547,-0.8299995064735413,-0.7177028204139013,0.0,True,0.010275840759277344,-1.2049999237060547,-0.8299995064735413,-0.7177030444145203,0.0,0.0,0.0
1759663729.4182298,0,-1.2049999237060547,-0.8299995064735413,-0.7177028296661145,0.0,True,0.010424375534057617,-1.2049999237060547,-0.8299995064735413,-0.7177030444145203,0.0,0.0,0.0
1759663729.4288049,0,-1.2049999237060547,-0.8299995064735413,-0.7177028372312115,0.0,True,0.010575056076049805,-1.2049999237060547,-0.8299995064735413,-0.7177030444145203,0.0,0.0,0.0
1759663729.4391773,0,-1.2049999237060547,-0.8299995064735413,-0.7177028451466008,0.0,True,0.010372400283813477,-1.2049999237060547,-0.8299995064735413,-0.7177030444145203,0.0,0.0,0.0
1759663729.4496324,0,-1.2049999237060547,-0.8299995064735413,-0.7177028520871005,0.0,True,0.010455131530761719,-1.2049999237060547,-0.8299995064735413,-0.7177030444145203,0.0,0.0,0.0
1759663729.4596462,0,-1.2049999237060547,-0.8299995064735413,-0.7177028603700801,0.0,True,0.010013818740844727,-1.2049999237060547,-0.8299995064735413,-0.7177030444145203,0.0,0.0,0.0
1759663729.4696598,0,-1.2049999237060547,-0.8299995064735413,-0.7177028677751114,0.0,True,0.010013580322265625,-1.2049999237060547,-0.8299995064735413,-0.7177030444145203,0.0,0.0,0.0
1759663729.4796813,0,-1.2049999237060547,-0.8299995064735413,-0.7177028743453295,0.0,True,0.010021448135375977,-1.2049999237060547,-0.8299995064735413,-0.7177030444145203,0.0,0.0,0.0
1759663729.4980726,0,-1.2049999237060547,-0.8299995064735413,-0.7177028498047733,0.0,True,0.01839137077331543,-1.2049999237060547,-0.8299995064735413,-0.7177030444145203,0.0,0.0,0.0
1759663729.5012946,0,-1.2049999237060547,-0.8299995064735413,-0.7177028877224867,0.0,True,0.0032219886779785156,-1.2049999237060547,-0.8299995064735413,-0.7177030444145203,0.0,0.0,0.0
1759663729.5114298,0,-1.2049999237060547,-0.8299995064735413,-0.7177028942326302,0.0,True,0.010135173797607422,-1.2049999237060547,-0.8299995064735413,-0.7177030444145203,0.0,0.0,0.0
1759663729.521685,0,-1.2049999237060547,-0.8299995064735413,-0.7177028978527868,0.0,True,0.010255098342895508,-1.2049999237060547,-0.8299995064735413,-0.7177030444145203,0.0,0.0,0.0
1759663729.5324135,0,-1.2049999237060547,-0.8299995064735413,-0.7177028999198001,0.0,True,0.010728597640991211,-1.2049999237060547,-0.8299995064735413,-0.7177030444145203,0.0,0.0,0.0
1759663729.5431626,0,-1.2049999237060547,-0.8299995064735413,-0.7177029025231985,0.0,True,0.010749101638793945,-1.2049999237060547,-0.8299995064735413,-0.7177030444145203,0.0,0.0,0.0
1759663729.5536609,0,-1.2049999237060547,-0.8299995064735413,-0.7177029064427067,0.0,True,0.010498285293579102,-1.2049999237060547,-0.8299995064735413,-0.7177030444145203,0.0,0.0,0.0
1759663729.565165,0,-1.2049999237060547,-0.8299995064735413,-0.7177029075319687,0.0,True,0.011504173278808594,-1.2049999237060547,-0.8299995064735413,-0.7177030444145203,0.0,0.0,0.0
1759663729.5764697,0,-1.2049999237060547,-0.8299995064735413,-0.7177029100997796,0.0,True,0.011304616928100586,-1.2049999237060547,-0.8299995064735413,-0.7177030444145203,0.0,0.0,0.0
1759663729.5875998,0,-1.2049999237060547,-0.8299995064735413,-0.7177029138045299,0.0,True,0.011130094528198242,-1.2049999237060547,-0.8299995064735413,-0.7177030444145203,0.0,0.0,0.0
1759663729.5978663,0,-1.2049999237060547,-0.8299995064735413,-0.7177029200222496,0.0,True,0.010266542434692383,-1.2049999237060547,-0.8299995064735413,-0.7177030444145203,0.0,0.0,0.0
1759663729.608878,0,-1.2049999237060547,-0.8299995064735413,-0.7177029236990631,0.0,True,0.011011600494384766,-1.2049999237060547,-0.8299995064735413,-0.7177030444145203,0.0,0.0,0.0
1759663729.6204574,0,-1.2049999237060547,-0.8299995064735413,-0.717702925895356,0.0,True,0.011579513549804688,-1.2049999237060547,-0.8299995064735413,-0.7177030444145203,0.0,0.0,0.0
1759663729.6308467,0,-1.2049999237060547,-0.8299995064735413,-0.7177029314046024,0.0,True,0.010389328002929688,-1.2049999237060547,-0.8299995064735413,-0.7177030444145203,0.0,0.0,0.0
1759663729.6413262,0,-1.2049999237060547,-0.8299995064735413,-0.717702936244784,0.0,True,0.010479450225830078,-1.2049999237060547,-0.8299995064735413,-0.7177030444145203,0.0,0.0,0.0
1759663729.652328,0,-1.2049999237060547,-0.8299995064735413,-0.7177029394044006,0.0,True,0.011001825332641602,-1.2049999237060547,-0.8299995064735413,-0.7177030444145203,0.0,0.0,0.0
1759663729.6631706,0,-1.2049999237060547,-0.8299995064735413,-0.7177029428723891,0.0,True,0.010842561721801758,-1.2049999237060547,-0.8299995064735413,-0.7177030444145203,0.0,0.0,0.0
1759663729.673716,0,-1.2049999237060547,-0.8299995064735413,-0.7177029468906326,0.0,True,0.010545492172241211,-1.2049999237060547,-0.8299995064735413,-0.7177030444145203,0.0,0.0,0.0
1759663729.6846282,0,-1.2049999237060547,-0.8299995064735413,-0.7177029498822325,0.0,True,0.010912179946899414,-1.2049999237060547,-0.8299995064735413,-0.7177030444145203,0.0,0.0,0.0
1759663729.7194645,0,-1.2049999237060547,-0.8299995064735413,-0.717702909874264,0.0,True,0.0348362922668457,-1.2049999237060547,-0.8299995064735413,-0.7177030444145203,0.0,0,0
1759663729.7232437,0,-1.2049999237060547,-0.8299995064735413,-0.7177029381237645,0.0,True,0.003779172897338867,-1.2049999237060547,-0.8299995064735413,-0.7177030444145203,0.0,0,0
1759663729.7339485,0,-1.2049999237060547,-0.8299995064735413,-0.7177029499445773,0.0,True,0.010704755783081055,-1.2049999237060547,-0.8299995064735413,-0.7177030444145203,0.0,0,0
1759663729.7442188,0,-1.2049999237060547,-0.8299995064735413,-0.7177029587347654,0.0,True,0.010270357131958008,-1.2049999237060547,-0.8299995064735413,-0.7177030444145203,0.0,0,0
1759663729.7545493,0,-1.2049999237060547,-0.8299995064735413,-0.7177029653112221,0.0,True,0.010330438613891602,-1.2049999237060547,-0.8299995064735413,-0.7177030444145203,0.0,0,0
1759663729.7646282,0,-1.2049999237060547,-0.8299995064735413,-0.7177029708259628,0.0,True,0.010078907012939453,-1.2049999237060547,-0.8299995064735413,-0.7177030444145203,0.0,0,0
1759663729.7753313,0,-1.2049999237060547,-0.8299995064735413,-0.7177029743271337,0.0,True,0.010703086853027344,-1.2049999237060547,-0.8299995064735413,-0.7177030444145203,0.0,0,0
1759663729.786003,0,-1.2049999237060547,-0.8299995064735413,-0.7177029773305392,0.0,True,0.010671854019165039,-1.2049999237060547,-0.8299995064735413,-0.7177030444145203,0.0,0,0
1759663729.7961257,0,-1.2049999237060547,-0.8299995064735413,-0.7177029807452833,0.0,True,0.010122537612915039,-1.2049999237060547,-0.8299995064735413,-0.7177030444145203,0.0,0,0
1759663729.8071828,0,-1.2049999237060547,-0.8299995064735413,-0.7177029824568173,0.0,True,0.011057138442993164,-1.2049999237060547,-0.8299995064735413,-0.7177030444145203,0.0,0,0
1759663729.8184702,0,-1.2049999237060547,-0.8299995064735413,-0.7177029838413684,0.0,True,0.011287450790405273,-1.2049999237060547,-0.8299995064735413,-0.7177030444145203,0.0,0,0
1759663729.828969,0,-1.2049999237060547,-0.8299995064735413,-0.7177029863420046,0.0,True,0.010498762130737305,-1.2049999237060547,-0.8299995064735413,-0.7177030444145203,0.0,0,0
1759663729.839984,0,-1.2049999237060547,-0.8299995064735413,-0.7177029880488632,0.0,True,0.011014938354492188,-1.2049999237060547,-0.8299995064735413,-0.7177030444145203,0.0,0,0
1759663729.8500085,0,-1.2049999237060547,-0.8299995064735413,-0.7177029908645984,0.0,True,0.010024547576904297,-1.2049999237060547,-0.8299995064735413,-0.7177030444145203,0.0,0,0
1759663729.8609369,0,-1.2049999237060547,-0.8299995064735413,-0.7177029923300804,0.0,True,0.01092839241027832,-1.2049999237060547,-0.8299995064735413,-0.7177030444145203,0.0,0,0
1759663729.8714855,0,-1.2049999237060547,-0.8299995064735413,-0.7177029941699367,0.0,True,0.010548591613769531,-1.2049999237060547,-0.8299995064735413,-0.7177030444145203,0.0,0,0
1759663729.8827462,0,-1.2049999237060547,-0.8299995064735413,-0.7177029951779712,0.0,True,0.011260747909545898,-1.2049999237060547,-0.8299995064735413,-0.7177030444145203,0.0,0,0
1759663729.8931193,0,-1.2049999237060547,-0.8299995064735413,-0.7177029972086473,0.0,True,0.010373115539550781,-1.2049999237060547,-0.8299995064735413,-0.7177030444145203,0.0,0,0
1759663729.9076562,0,-1.2049999237060547,-0.8299995064735413,-0.7177029950598808,0.0,True,0.014536857604980469,-1.2049999237060547,-0.8299995064735413,-0.7177030444145203,0.0,0,0
1759663729.9184992,0,-1.2049999237060547,-0.8299995064735413,-0.7177029974496278,0.0,True,0.010843038558959961,-1.2049999237060547,-0.8299995064735413,-0.7177030444145203,0.0,0,0
1759663729.929824,0,-1.2049999237060547,-0.8299995064735413,-0.7177029993798687,0.0,True,0.011324882507324219,-1.2049999237060547,-0.8299995064735413,-0.7177030444145203,0.0,0,0
1759663729.940919,0,-1.2049999237060547,-0.8299995064735413,-0.7177030013459706,0.0,True,0.011094808578491211,-1.2049999237060547,-0.8299995064735413,-0.7177030444145203,0.0,0,0
1759663729.9509754,0,-1.2049999237060547,-0.8299995064735413,-0.7177030040020185,0.0,True,0.010056495666503906,-1.2049999237060547,-0.8299995064735413,-0.7177030444145203,0.0,0,0
1759663729.962058,0,-1.2049999237060547,-0.8299995064735413,-0.7177030054043101,0.0,True,0.011082649230957031,-1.2049999237060547,-0.8299995064735413,-0.7177030444145203,0.0,0,0
1759663729.973442,0,-1.2049999237060547,-0.8299995064735413,-0.7177030064501313,0.0,True,0.011384010314941406,-1.2049999237060547,-0.8299995064735413,-0.7177030444145203,0.0,0,0
1759663729.9848452,0,-1.2049999237060547,-0.8299995064735413,-0.7177030075233901,0.0,True,0.011403083801269531,-1.2049999237060547,-0.8299995064735413,-0.7177030444145203,0.0,0,0
1759663729.996018,0,-1.2049999237060547,-0.8299995064735413,-0.7177030088099876,0.0,True,0.011172771453857422,-1.2049999237060547,-0.8299995064735413,-0.7177030444145203,0.0,0,0
1759663730.006403,0,-1.2049999237060547,-0.8299995064735413,-0.7177030106192959,0.0,True,0.01038503646850586,-1.2049999237060547,-0.8299995064735413,-0.7177030444145203,0.0,0,0
1759663730.0171878,0,-1.2049999237060547,-0.8299995064735413,-0.7177030119373935,0.0,True,0.01078486442565918,-1.2049999237060547,-0.8299995064735413,-0.7177030444145203,0.0,0,0
1759663730.0279677,0,-1.2049999237060547,-0.8299995064735413,-0.7177030131331392,0.0,True,0.010779857635498047,-1.2049999237060547,-0.8299995064735413,-0.7177030444145203,0.0,0,0
1759663730.0391312,0,-1.2049999237060547,-0.8299995064735413,-0.7177030140058491,0.0,True,0.011163473129272461,-1.2049999237060547,-0.8299995064735413,-0.7177030444145203,0.0,0,0
1759663730.0502946,0,-1.2049999237060547,-0.8299995064735413,-0.7177030148914714,0.0,True,0.011163473129272461,-1.2049999237060547,-0.8299995064735413,-0.7177030444145203,0.0,0,0
1759663730.0615625,0,-1.2049999237060547,-0.8299995064735413,-0.7177030157353883,0.0,True,0.011267900466918945,-1.2049999237060547,-0.8299995064735413,-0.7177030444145203,0.0,0,0
1759663730.0719302,0,-1.2049999237060547,-0.8299995064735413,-0.717703017119657,0.0,True,0.010367631912231445,-1.2049999237060547,-0.8299995064735413,-0.7177030444145203,0.0,0,0
1759663730.082758,0,-1.2049999237060547,-0.8299995064735413,-0.7177030181020196,0.0,True,0.010827779769897461,-1.2049999237060547,-0.8299995064735413,-0.7177030444145203,0.0,0,0
1759663730.093311,0,-1.2049999237060547,-0.8299995064735413,-0.7177030191574758,0.0,True,0.010553121566772461,-1.2049999237060547,-0.8299995064735413,-0.7177030444145203,0.0,0,0
1759663730.119333,0,-1.2049999237060547,-0.8299995064735413,-0.717703012443291,0.0,True,0.026021957397460938,-1.2049999237060547,-0.8299995064735413,-0.7177030444145203,0.0,0,0
1759663730.1225758,0,-1.2049999237060547,-0.8299995064735413,-0.7177030190457021,0.0,True,0.0032427310943603516,-1.2049999237060547,-0.8299995064735413,-0.7177030444145203,0.0,0,0
1759663730.133031,0,-1.2049999237060547,-0.8299995064735413,-0.7177030210583091,0.0,True,0.010455131530761719,-1.2049999237060547,-0.8299995064735413,-0.7177030444145203,0.0,0,0
1759663730.1436176,0,-1.2049999237060547,-0.8299995064735413,-0.7177030223498555,0.0,True,0.010586738586425781,-1.2049999237060547,-0.8299995064735413,-0.7177030444145203,0.0,0,0
1759663730.1539779,0,-1.2049999237060547,-0.8299995064735413,-0.7177030235067079,0.0,True,0.010360240936279297,-1.2049999237060547,-0.8299995064735413,-0.7177030444145203,0.0,0,0
1759663730.1644893,0,-1.2049999237060547,-0.8299995064735413,-0.7177030244248837,0.0,True,0.010511398315429688,-1.2049999237060547,-0.8299995064735413,-0.7177030444145203,0.0,0,0
1759663730.1753113,0,-1.2049999237060547,-0.8299995064735413,-0.7177030251023258,0.0,True,0.010822057723999023,-1.2049999237060547,-0.8299995064735413,-0.7177030444145203,0.0,0,0
1759663730.1859968,0,-1.2049999237060547,-0.8299995064735413,-0.7177030257931634,0.0,True,0.010685443878173828,-1.2049999237060547,-0.8299995064735413,-0.7177030444145203,0.0,0,0
1759663730.196053,0,-1.2049999237060547,-0.8299995064735413,-0.7177030266863191,0.0,True,0.010056257247924805,-1.2049999237060547,-0.8299995064735413,-0.7177030444145203,0.0,0,0
1759663730.2069156,0,-1.2049999237060547,-0.8299995064735413,-0.7177030271703906,0.0,True,0.010862588882446289,-1.2049999237060547,-0.8299995064735413,-0.7177030444145203,0.0,0,0
1759663730.2184389,0,-1.2049999237060547,-0.8299995064735413,-0.7177030274073832,0.0,True,0.011523246765136719,-1.2049999237060547,-0.8299995064735413,-0.7177030444145203,0.0,0,0
1759663730.2296066,0,-1.2049999237060547,-0.8299995064735413,-0.7177030278529024,0.0,True,0.011167764663696289,-1.2049999237060547,-0.8299995064735413,-0.7177030444145203,0.0,0,0
1759663730.239859,0,-1.2049999237060547,-0.8299995064735413,-0.7177030286424078,0.0,True,0.01025247573852539,-1.2049999237060547,-0.8299995064735413,-0.7177030444145203,0.0,0,0
1759663730.2505317,0,-1.2049999237060547,-0.8299995064735413,-0.7177030292135527,0.0,True,0.010672569274902344,-1.2049999237060547,-0.8299995064735413,-0.7177030444145203,0.0,0,0
1759663730.261309,0,-1.2049999237060547,-0.8299995064735413,-0.717703029705616,0.0,True,0.01077723503112793,-1.2049999237060547,-0.8299995064735413,-0.7177030444145203,0.0,0,0
1759663730.272634,0,-1.2049999237060547,-0.8299995064735413,-0.7177030300145315,0.0,True,0.01132512092590332,-1.2049999237060547,-0.8299995064735413,-0.7177030444145203,0.0,0,0
1759663730.284026,0,-1.2049999237060547,-0.8299995064735413,-0.7177030303430563,0.0,True,0.011391878128051758,-1.2049999237060547,-0.8299995064735413,-0.7177030444145203,0.0,0,0
1759663730.2948327,0,-1.2049999237060547,-0.8299995064735413,-0.7177030308793935,0.0,True,0.010806798934936523,-1.2049999237060547,-0.8299995064735413,-0.7177030444145203,0.0,0,0
1759663730.3147242,0,-1.2049999237060547,-0.8299995064735413,-0.7177030289791269,0.0,True,0.01989150047302246,-1.2049999237060547,-0.8299995064735413,-0.7177030444145203,0.0,0,0
1759663730.3175588,0,-1.2049999237060547,-0.8299995064735413,-0.7177030321981697,0.0,True,0.0028345584869384766,-1.2049999237060547,-0.8299995064735413,-0.7177030444145203,0.0,0,0
1759663730.3277082,0,-1.2049999237060547,-0.8299995064735413,-0.7177030329078882,0.0,True,0.010149478912353516,-1.2049999237060547,-0.8299995064735413,-0.7177030444145203,0.0,0,0
1759663730.3389823,0,-1.2049999237060547,-0.8299995064735413,-0.7177030330832324,0.0,True,0.011274099349975586,-1.2049999237060547,-0.8299995064735413,-0.7177030444145203,0.0,0,0
1759663730.3499296,0,-1.2049999237060547,-0.8299995064735413,-0.7177030333623975,0.0,True,0.010947227478027344,-1.2049999237060547,-0.8299995064735413,-0.7177030444145203,0.0,0,0
1759663730.3606277,0,-1.2049999237060547,-0.8299995064735413,-0.7177030337240353,0.0,True,0.010698080062866211,-1.2049999237060547,-0.8299995064735413,-0.7177030444145203,0.0,0,0
1759663730.3717084,0,-1.2049999237060547,-0.8299995064735413,-0.717703033994475,0.0,True,0.011080741882324219,-1.2049999237060547,-0.8299995064735413,-0.7177030444145203,0.0,0,0
1759663730.3830788,0,-1.2049999237060547,-0.8299995064735413,-0.7177030342165924,0.0,True,0.011370420455932617,-1.2049999237060547,-0.8299995064735413,-0.7177030444145203,0.0,0,0
1759663730.3941977,0,-1.2049999237060547,-0.8299995064735413,-0.7177030345226161,0.0,True,0.011118888854980469,-1.2049999237060547,-0.8299995064735413,-0.7177030444145203,0.0,0,0
1759663730.4050167,0,-1.2049999237060547,-0.8299995064735413,-0.7177030348966493,0.0,True,0.010818958282470703,-1.2049999237060547,-0.8299995064735413,-0.7177030444145203,0.0,0,0
1759663730.4154298,0,-1.2049999237060547,-0.8299995064735413,-0.7177030353286948,0.0,True,0.010413169860839844,-1.2049999237060547,-0.8299995064735413,-0.7177030444145203,0.0,0,0
1759663730.426041,0,-1.2049999237060547,-0.8299995064735413,-0.717703035677614,0.0,True,0.01061105728149414,-1.2049999237060547,-0.8299995064735413,-0.7177030444145203,0.0,0,0
1759663730.436784,0,-1.2049999237060547,-0.8299995064735413,-0.717703035972276,0.0,True,0.010743141174316406,-1.2049999237060547,-0.8299995064735413,-0.7177030444145203,0.0,0,0
1759663730.4471238,0,-1.2049999237060547,-0.8299995064735413,-0.7177030363233392,0.0,True,0.010339736938476562,-1.2049999237060547,-0.8299995064735413,-0.7177030444145203,0.0,0,0
1759663730.457462,0,-1.2049999237060547,-0.8299995064735413,-0.7177030366432042,0.0,True,0.010338306427001953,-1.2049999237060547,-0.8299995064735413,-0.7177030444145203,0.0,0,0
1759663730.4682486,0,-1.2049999237060547,-0.8299995064735413,-0.7177030368598665,0.0,True,0.01078653335571289,-1.2049999237060547,-0.8299995064735413,-0.7177030444145203,0.0,0,0
1759663730.47925,0,-1.2049999237060547,-0.8299995064735413,-0.7177030370416091,0.0,True,0.011001348495483398,-1.2049999237060547,-0.8299995064735413,-0.7177030444145203,0.0,0,0
1759663730.489855,0,-1.2049999237060547,-0.8299995064735413,-0.7177030372975661,0.0,True,0.010605096817016602,-1.2049999237060547,-0.8299995064735413,-0.7177030444145203,0.0,0,0
1759663730.5004632,0,-1.2049999237060547,-0.8299995064735413,-0.7177030375450713,0.0,True,0.010608196258544922,-1.2049999237060547,-0.8299995064735413,-0.7177030444145203,0.0,0,0
1759663730.5282645,0,-1.2049999237060547,-0.8299995064735413,-0.7177030354462737,0.0,True,0.0278012752532959,-1.2049999237060547,-0.8299995064735413,-0.7177030444145203,0.0,0,0
1759663730.5385711,0,-1.2049999237060547,-0.8299995064735413,-0.7177030364117059,0.0,True,0.010306596755981445,-1.2049999237060547,-0.8299995064735413,-0.7177030444145203,0.0,0,0
1759663730.5494835,0,-1.2049999237060547,-0.8299995064735413,-0.7177030372336155,0.0,True,0.010912418365478516,-1.2049999237060547,-0.8299995064735413,-0.7177030444145203,0.0,0,0
1759663730.560753,0,-1.2049999237060547,-0.8299995064735413,-0.7177030378171878,0.0,True,0.011269569396972656,-1.2049999237060547,-0.8299995064735413,-0.7177030444145203,0.0,0,0
1759663730.571446,0,-1.2049999237060547,-0.8299995064735413,-0.7177030383373637,0.0,True,0.010692834854125977,-1.2049999237060547,-0.8299995064735413,-0.7177030444145203,0.0,0,0
1759663730.5823972,0,-1.2049999237060547,-0.8299995064735413,-0.7177030387220587,0.0,True,0.01095128059387207,-1.2049999237060547,-0.8299995064735413,-0.7177030444145203,0.0,0,0
1759663730.5927193,0,-1.2049999237060547,-0.8299995064735413,-0.7177030391019912,0.0,True,0.010322093963623047,-1.2049999237060547,-0.8299995064735413,-0.7177030444145203,0.0,0,0
1759663730.6031332,0,-1.2049999237060547,-0.8299995064735413,-0.7177030394031139,0.0,True,0.010413885116577148,-1.2049999237060547,-0.8299995064735413,-0.7177030444145203,0.0,0,0
1759663730.6139333,0,-1.2049999237060547,-0.8299995064735413,-0.7177030396139692,0.0,True,0.01080012321472168,-1.2049999237060547,-0.8299995064735413,-0.7177030444145203,0.0,0,0
1759663730.6241767,0,-1.2049999237060547,-0.8299995064735413,-0.7177030398533795,0.0,True,0.010243415832519531,-1.2049999237060547,-0.8299995064735413,-0.7177030444145203,0.0,0,0
1759663730.634575,0,-1.2049999237060547,-0.8299995064735413,-0.7177030400465174,0.0,True,0.010398149490356445,-1.2049999237060547,-0.8299995064735413,-0.7177030444145203,0.0,0,0
1759663730.6458552,0,-1.2049999237060547,-0.8299995064735413,-0.7177030401365521,0.0,True,0.011280298233032227,-1.2049999237060547,-0.8299995064735413,-0.7177030444145203,0.0,0,0
1759663730.6566854,0,-1.2049999237060547,-0.8299995064735413,-0.7177030402739941,0.0,True,0.010830163955688477,-1.2049999237060547,-0.8299995064735413,-0.7177030444145203,0.0,0,0
1759663730.667716,0,-1.2049999237060547,-0.8299995064735413,-0.7177030403935483,0.0,True,0.01103067398071289,-1.2049999237060547,-0.8299995064735413,-0.7177030444145203,0.0,0,0
1759663730.6785738,0,-1.2049999237060547,-0.8299995064735413,-0.7177030405279101,0.0,True,0.010857820510864258,-1.2049999237060547,-0.8299995064735413,-0.7177030444145203,0.0,0,0
1759663730.689687,0,-1.2049999237060547,-0.8299995064735413,-0.7177030406382006,0.0,True,0.011113166809082031,-1.2049999237060547,-0.8299995064735413,-0.7177030444145203,0.0,0,0
1759663730.7011857,0,-1.2049999237060547,-0.8299995064735413,-0.7177030407204228,0.0,True,0.011498689651489258,-1.2049999237060547,-0.8299995064735413,-0.7177030444145203,0.0,0.5235987755982988,0.029750768440676253
1759663730.722034,0,-1.2049826775218866,-0.8300145486300179,-0.7177008332455834,0.000185245534923661,True,0.02084827423095703,-1.204973816871643,-0.8300222754478455,-0.7176985144615173,0.000185245534923661,0.5235987755982988,0.029840260910334
1759663730.7330396,0,-1.2049766147052332,-0.8300198362025694,-0.717700188326738,0.000185245534923661,True,0.011005640029907227,-1.204973816871643,-0.8300222754478455,-0.7176985144615173,0.000185245534923661,0.5235987755982988,0.030869640835093196
1759663730.7434993,0,-1.2049743280173015,-0.8300218304686166,-0.7176995185212789,0.000185245534923661,True,0.010459661483764648,-1.204973816871643,-0.8300222754478455,-0.7176985144615173,0.000185245534923661,0.5235987755982988,0.029720960490255327
1759663730.7539155,0,-1.2049734568928487,-0.8300225901908875,-0.7176990060210375,0.000185245534923661,True,0.010416269302368164,-1.204973816871643,-0.8300222754478455,-0.7176985144615173,0.000185245534923661,0.5235987755982988,0.03220602560654049
1759663730.7646482,0,-1.2049731072885719,-0.8300228951011677,-0.7176986172406892,0.000185245534923661,True,0.010732650756835938,-1.204973816871643,-0.8300222754478455,-0.7176985144615173,0.000185245534923661,0.5235987755982988,0.03266339588657
1759663730.7756712,0,-1.2049729582725455,-0.8300230250794755,-0.7176983309474227,0.000185245534923661,True,0.01102304458618164,-1.204973816871643,-0.8300222754478455,-0.7176985144615173,0.000185245534923661,0.5235987755982988,0.03258069621008577
1759663730.7862828,0,-1.2049729232881277,-0.8300230555774225,-0.7176981560453264,0.000185245534923661,True,0.010611534118652344,-1.204973816871643,-0.8300222754478455,-0.7176985144615173,0.000185245534923661,0.5235987755982988,0.0328532427534369
1759663730.7968912,0,-1.2049729100903939,-0.8300230670822754,-0.7176980207011177,0.000185245534923661,True,0.010608434677124023,-1.204973816871643,-0.8300222754478455,-0.7176985144615173,0.000185245534923661,0.5235987755982988,0.03278962217876441
1759663730.8079808,0,-1.2049728794035874,-0.8300230938654483,-0.7176978984926521,0.000185245534923661,True,0.011089563369750977,-1.204973816871643,-0.8300222754478455,-0.7176985144615173,0.000185245534923661,0.5235987755982988,0.032450751232212284
1759663730.8188791,0,-1.2049728778743891,-0.8300230951978195,-0.71769783582927,0.000185245534923661,True,0.010898351669311523,-1.204973816871643,-0.8300222754478455,-0.7176985144615173,0.000185245534923661,0.5235987755982988,0.03290401626616881
1759663730.8297622,0,-1.204972878103597,-0.8300230949966537,-0.7176977894303356,0.000185245534923661,True,0.010883092880249023,-1.204973816871643,-0.8300222754478455,-0.7176985144615173,0.000185245534923661,0.5235987755982988,0.03116196300586683
1759663730.8404546,0,-1.2049728883578874,-0.8300230860441581,-0.7176977674303231,0.000185245534923661,True,0.010692358016967773,-1.204973816871643,-0.8300222754478455,-0.7176985144615173,0.000185245534923661,0.5235987755982988,0.03277246204049719
1759663730.8513849,0,-1.2049728795916292,-0.8300230936969458,-0.7176977361233909,0.000185245534923661,True,0.010930299758911133,-1.204973816871643,-0.8300222754478455,-0.7176985144615173,0.000185245534923661,0.5235987755982988,0.03220376176860456
1759663730.862368,0,-1.2049728734219245,-0.8300230990830209,-0.7176977194968011,0.000185245534923661,True,0.01098322868347168,-1.204973816871643,-0.8300222754478455,-0.7176985144615173,0.000185245534923661,0.5235987755982988,0.03319928797677474
1759663730.8726869,0,-1.2049729064837635,-0.8300230702198329,-0.7176977461574641,0.000185245534923661,True,0.010318756103515625,-1.204973816871643,-0.8300222754478455,-0.7176985144615173,0.000185245534923661,0.5235987755982988,0.03133432114635851
1759663730.8840508,0,-1.204972863398408,-0.8300231078335443,-0.7176976954867591,0.000185245534923661,True,0.011363983154296875,-1.204973816871643,-0.8300222754478455,-0.7176985144615173,0.000185245534923661,0.5235987755982988,0.030597339841319834
1759663730.894514,0,-1.2049728949537863,-0.830023080285513,-0.7176977353496419,0.000185245534923661,True,0.010463237762451172,-1.204973816871643,-0.8300222754478455,-0.7176985144615173,0.000185245534923661,0.5235987755982988,0.02989541110061253
1759663730.9046614,0,-1.2049729238455893,-0.8300230550628592,-0.7176977592799965,0.000185245534923661,True,0.010147333145141602,-1.204973816871643,-0.8300222754478455,-0.7176985144615173,0.000185245534923661,0.5235987755982988,0.03114860827071724
1759663730.915598,0,-1.2004027355084657,-0.8339590362492877,-0.7139345076544199,0.050114766364823315,True,0.010936498641967773,-1.1978334188461304,-0.8361688852310181,-0.7041362524032593,0.050114766364823315,0.5235987755982988,0.03244555787902856
1759663730.9265602,0,-1.1986561981432833,-0.8354621854812045,-0.7109678379997213,0.050114766364823315,True,0.010962247848510742,-1.1978334188461304,-0.8361688852310181,-0.7041362524032593,0.050114766364823315,0.5235987755982988,0.03014946526513384
1759663730.937416,0,-1.1979902249326604,-0.8360345486912062,-0.7087908937440339,0.050114766364823315,True,0.010855913162231445,-1.1978334188461304,-0.8361688852310181,-0.7041362524032593,0.050114766364823315,0.5235987755982988,0.02972291631149119
1759663730.9484746,0,-1.1977326132569353,-0.8362553623538208,-0.7071994390594476,0.050114766364823315,True,0.011058568954467773,-1.1978334188461304,-0.8361688852310181,-0.7041362524032593,0.050114766364823315,0.5235987755982988,0.030776280689518855
1759663730.9592986,0,-1.1976374139252428,-0.8363365376466347,-0.7060533183623647,0.050114766364823315,True,0.010823965072631836,-1.1978334188461304,-0.8361688852310181,-0.7041362524032593,0.050114766364823315,0.5235987755982988,0.029829140105263895
1759663730.9700563,0,-1.1976018657999736,-0.8363665441957117,-0.7052255874428646,0.050114766364823315,True,0.010757684707641602,-1.1978334188461304,-0.8361688852310181,-0.7041362524032593,0.050114766364823315,0.5235987755982988,0.03054570082716613
1759663730.9809833,0,-1.197585712743076,-0.8363799799364807,-0.7046234214215925,0.050114766364823315,True,0.010926961898803711,-1.1978334188461304,-0.8361688852310181,-0.7041362524032593,0.050114766364823315,0.5235987755982988,0.02807253920827427
1759663730.9916952,0,-1.1975825989337985,-0.8363823512526672,-0.704200110784047,0.050114766364823315,True,0.010711908340454102,-1.1978334188461304,-0.8361688852310181,-0.7041362524032593,0.050114766364823315,0.5235987755982988,0.02859860454817215
1759663731.0029328,0,-1.1975736866087159,-0.8363897093558385,-0.7038806680321414,0.050114766364823315,True,0.011237621307373047,-1.1978334188461304,-0.8361688852310181,-0.7041362524032593,0.050114766364823315,0.5235987755982988,0.03061634556938305
1759663731.0137186,0,-1.1975768309234893,-0.8363868703452639,-0.7036736828670254,0.050114766364823315,True,0.010785818099975586,-1.1978334188461304,-0.8361688852310181,-0.7041362524032593,0.050114766364823315,0.5235987755982988,0.03184095708133608
1759663731.0243058,0,-1.1975809030967186,-0.8363832937537629,-0.7035341437616989,0.050114766364823315,True,0.010587215423583984,-1.1978334188461304,-0.8361688852310181,-0.7041362524032593,0.050114766364823315,0.5235987755982988,0.028743900450711398
1759663731.0345595,0,-1.1975873086068616,-0.8363777751053839,-0.7034484314832063,0.050114766364823315,True,0.010253667831420898,-1.1978334188461304,-0.8361688852310181,-0.7041362524032593,0.050114766364823315,0.5235987755982988,0.028512198837949695
1759663731.0457284,0,-1.1975763858140844,-0.8363869909585818,-0.703361776709869,0.050114766364823315,True,0.011168956756591797,-1.1978334188461304,-0.8361688852310181,-0.7041362524032593,0.050114766364823315,0.5235987755982988,0.030213888252588895
1759663731.0561285,0,-1.1975834252498978,-0.8363809752760034,-0.7033351994768768,0.050114766364823315,True,0.010400056838989258,-1.1978334188461304,-0.8361688852310181,-0.7041362524032593,0.050114766364823315,0.5235987755982988,0.027475656641727235
1759663731.0667853,0,-1.1975823626368187,-0.8363818534126106,-0.703310016475486,0.050114766364823315,True,0.01065683364868164,-1.1978334188461304,-0.8361688852310181,-0.7041362524032593,0.050114766364823315,0.5235987755982988,0.02688641130915764
1759663731.077853,0,-1.1975759572919151,-0.8363872722425322,-0.7032874087850338,0.050114766364823315,True,0.011067628860473633,-1.1978334188461304,-0.8361688852310181,-0.7041362524032593,0.050114766364823315,0.5235987755982988,0.028837208085260906
1759663731.0888355,0,-1.1975747502178067,-0.8363882846359335,-0.7032832369516093,0.050114766364823315,True,0.010982513427734375,-1.1978334188461304,-0.8361688852310181,-0.7041362524032593,0.050114766364823315,0.5235987755982988,0.029300771949904113
1759663731.0995576,0,-1.1975780890881156,-0.8363854467531217,-0.703293965483951,0.050114766364823315,True,0.010722160339355469,-1.1978334188461304,-0.8361688852310181,-0.7041362524032593,0.050114766364823315,0.5235987755982988,0.02801609453509589
1759663731.1205275,0,-1.1872205140725116,-0.8447696284153887,-0.6899048830937105,0.09439741439793939,True,0.020969867706298828,-1.1817528009414673,-0.8491607308387756,-0.658221960067749,0.09439741439793939,0.5235987755982988,0.02901621400547891
1759663731.1311152,0,-1.1835466772357692,-0.8477262676329378,-0.6799655838327805,0.09439741439793939,True,0.010587692260742188,-1.1817528009414673,-0.8491607308387756,-0.658221960067749,0.09439741439793939,0.5235987755982988,0.030469759265769322
1759663731.1424384,0,-1.1821204317457394,-0.8488694073579046,-0.672591783874223,0.09439741439793939,True,0.011323213577270508,-1.1817528009414673,-0.8491607308387756,-0.658221960067749,0.09439741439793939,0.5235987755982988,0.029291438423915468
1759663731.1528156,0,-1.181600499613425,-0.8492825057860413,-0.6673968246677671,0.09439741439793939,True,0.010377168655395508,-1.1817528009414673,-0.8491607308387756,-0.658221960067749,0.09439741439793939,0.5235987755982988,0.029076758991915468
1759663731.1641634,0,-1.1813732401380423,-0.849460472065799,-0.6635540361572474,0.09439741439793939,True,0.011347770690917969,-1.1817528009414673,-0.8491607308387756,-0.658221960067749,0.09439741439793939,0.5235987755982988,0.028534811700060288
1759663731.1752746,0,-1.181292205160355,-0.8495219890567343,-0.6608307001038725,0.09439741439793939,True,0.011111259460449219,-1.1817528009414673,-0.8491607308387756,-0.658221960067749,0.09439741439793939,0.5235987755982988,0.029799404175510406
1759663731.1856105,0,-1.1812826650610297,-0.8495274835255361,-0.6589730653031474,0.09439741439793939,True,0.010335922241210938,-1.1817528009414673,-0.8491607308387756,-0.658221960067749,0.09439741439793939,0.5235987755982988,0.029303085331690133
1759663731.196418,0,-1.18126516621087,-0.8495394641564041,-0.6575935735690912,0.09439741439793939,True,0.010807514190673828,-1.1817528009414673,-0.8491607308387756,-0.658221960067749,0.09439741439793939,0.5235987755982988,0.028891718651198946
1759663731.2074916,0,-1.1812505705817204,-0.8495494924536029,-0.6565945112841263,0.09439741439793939,True,0.011073589324951172,-1.1817528009414673,-0.8491607308387756,-0.658221960067749,0.09439741439793939,0.5235987755982988,0.028049482783121492
1759663731.2182732,0,-1.1812530973150939,-0.8495465844651446,-0.6559349700051875,0.09439741439793939,True,0.010781526565551758,-1.1817528009414673,-0.8491607308387756,-0.658221960067749,0.09439741439793939,0.5235987755982988,0.028017788000882487
1759663731.2285655,0,-1.1812678858099352,-0.8495345124190007,-0.6555367068669717,0.09439741439793939,True,0.010292291641235352,-1.1817528009414673,-0.8491607308387756,-0.658221960067749,0.09439741439793939,0.5235987755982988,0.028807531853754113
1759663731.2394552,0,-1.1812563741556048,-0.8495429260388783,-0.6552065354020851,0.09439741439793939,True,0.010889768600463867,-1.1817528009414673,-0.8491607308387756,-0.658221960067749,0.09439741439793939,0.5235987755982988,0.028484139775116733
1759663731.2503393,0,-1.1812520642904834,-0.8495459147073541,-0.6550020313677578,0.09439741439793939,True,0.01088404655456543,-1.1817528009414673,-0.8491607308387756,-0.658221960067749,0.09439741439793939,0.5235987755982988,0.030287202429562003
