timestamp,observer_vehicle_id,vehicle_0_x,vehicle_0_y,vehicle_0_theta,vehicle_0_velocity,vehicle_1_x,vehicle_1_y,vehicle_1_theta,vehicle_1_velocity
1759683212.625436,0,-1.205,-0.83,-0.7801621756414646,0.0,0.0,0.0,0.0,0.0
1759683212.6365983,0,-1.205,-0.83,-0.7801621756414646,0.0,0.0,0.0,0.0,0.0
1759683212.6475606,0,-1.205,-0.83,-0.7801621756414646,0.0,0.0,0.0,0.0,0.0
1759683212.6588323,0,-1.205,-0.83,-0.7801621756414646,0.0,0.0,0.0,0.0,0.0
1759683212.6695595,0,-1.205,-0.83,-0.7801621756414646,0.0,0.0,0.0,0.0,0.0
1759683212.6811497,0,-1.205,-0.83,-0.7801621756414646,0.0,0.0,0.0,0.0,0.0
1759683212.692117,0,-1.205,-0.83,-0.7801621756414646,0.0,0.0,0.0,0.0,0.0
1759683212.7025945,0,-1.205,-0.83,-0.7801621756414646,0.0,0.0,0.0,0.0,0.0
1759683212.713172,0,-1.205,-0.83,-0.7801621756414646,0.0,0.0,0.0,0.0,0.0
1759683212.724302,0,-1.205,-0.83,-0.7801621756414646,0.0,0.0,0.0,0.0,0.0
1759683212.7348754,0,-1.205,-0.83,-0.7801621756414646,0.0,0.0,0.0,0.0,0.0
1759683212.7464716,0,-1.205,-0.83,-0.7801621756414646,0.0,0.0,0.0,0.0,0.0
1759683212.7565095,0,-1.205,-0.83,-0.7801621756414646,0.0,0.0,0.0,0.0,0.0
1759683212.7680094,0,-1.205,-0.83,-0.7801621756414646,0.0,0.0,0.0,0.0,0.0
1759683212.779081,0,-1.205,-0.83,-0.7801621756414646,0.0,0.0,0.0,0.0,0.0
1759683212.7901502,0,-1.205,-0.83,-0.7801621756414646,0.0,0.0,0.0,0.0,0.0
1759683212.800735,0,-1.205,-0.83,-0.7801621756414646,0.0,0.0,0.0,0.0,0.0
1759683212.811592,0,-1.205,-0.83,-0.7801621756414646,0.0,0.0,0.0,0.0,0.0
1759683212.826587,0,-1.2049998061259588,-0.8299996288021405,-0.7229997835949149,0.0,0.0,0.0,0.0,0.0
1759683212.837951,0,-1.2049998050413424,-0.829999626725497,-0.718113276883507,0.0,-0.3458437480926514,-0.06976675033569336,1.7418933192017942,0.0
1759683212.8480136,0,-1.2049998047010528,-0.8299996260739668,-0.7176578890950633,0.0,-0.6199534953811332,-0.12506266477429198,3.141518853361507,0.0
1759683212.8583603,0,-1.2049998045745929,-0.8299996258318424,-0.717597563944139,0.0,-0.8376682246246735,-0.16898206260440096,-2.0102304724622857,0.0
1759683212.8692713,0,-1.2049998045264814,-0.8299996257397265,-0.7175879454734239,0.0,-1.0109156269376893,-0.20393110629866928,0.12427278890266916,0.0
1759683212.8794732,0,-1.2049998045081152,-0.8299996257045619,-0.7175958090389435,0.0,-1.149236827161393,-0.23183451844754327,1.848386516172723,0.0
1759683212.89089,0,-1.2049998045011003,-0.8299996256911313,-0.7176051349290447,0.0,-1.2597971569020432,-0.25413775499464847,-3.0341817499857946,0.0
1759683212.901852,0,-1.204999804498421,-0.8299996256860013,-0.7176172113422687,0.0,-1.348447854833089,-0.2720211810902484,-0.7170791826364408,0.0
1759683212.9120562,0,-1.2049998044973975,-0.8299996256840418,-0.7176292780732414,0.0,-1.4197715651860117,-0.286409249461155,1.1677613351280824,0.0
1759683212.9223647,0,-1.2049998044970067,-0.8299996256832933,-0.7176388583747126,0.0,-1.477285251294799,-0.2980114339787778,2.7087124425278497,0.0
1759683212.9326427,0,-1.2049998044968575,-0.8299996256830074,-0.7176466426603021,0.0,-1.5237757605254636,-0.3073899228725718,-2.3076262188182795,0.0
1759683212.9426658,0,-1.2049998044968004,-0.8299996256828983,-0.7176532507865652,0.0,-1.5614561789801802,-0.31499116002482014,-0.13904324560847556,0.0
1759683212.9540591,0,-1.2049998044967787,-0.8299996256828566,-0.7176574373606837,0.0,-1.5920193173796016,-0.32115663462989075,1.6440034830469126,0.0
1759683212.9642756,0,-1.2049998044967702,-0.8299996256828407,-0.717662282324099,0.0,-1.6169077705873254,-0.3261773600608437,3.1178600618461108,0.0
1759683212.9751832,0,-1.2049998044967671,-0.8299996256828346,-0.7176658432556203,0.0,-1.637206302811011,-0.33027216483219235,-1.9396534836575,0.0
1759683212.9859805,0,-1.2049998044967658,-0.8299996256828323,-0.7176690525791347,0.0,-1.6538045981219018,-0.33362052411681015,0.15270092927977277,0.0
1759683212.996664,0,-1.2049998044967654,-0.8299996256828314,-0.7176719477377809,0.0,-1.667412212814143,-0.33636557607201734,1.89178472355286,0.0
1759683213.0072842,0,-1.2049998044967651,-0.829999625682831,-0.7176745041573049,0.0,-1.6785957563626857,-0.3386216223210029,-2.938228885138194,0.0
1759683213.0773811,0,-1.2049998044967651,-0.8299996256828309,-0.7176578702619381,0.0,-1.6871380400003437,-0.3403448495677927,-0.7169800994948401,0.0
1759683213.0834343,0,-1.2049998044967651,-0.8299996256828308,-0.7176717104284407,0.0,-1.694328672149233,-0.3417954093672805,1.1678669089075682,0.0
1759683213.0946355,0,-1.2049998044967651,-0.8299996256828308,-0.7176794372785835,0.0,-1.7003478929935183,-0.3430096614107962,2.7737644669528128,0.0
1759683213.1049535,0,-1.2049998044967651,-0.8299996256828308,-0.7176843180072368,0.0,-1.7054047808615747,-0.34402978288273844,-2.1339857430953657,0.0
1759683213.1150966,0,-1.2049998044967651,-0.8299996256828308,-0.7176875383934912,0.0,-1.709663664521975,-0.3448889236787846,-0.0452207435912386,0.0
1759683213.1260781,0,-1.2049998044967651,-0.8299996256828308,-0.7176895569639274,0.0,-1.713254029385625,-0.34561320477519814,1.7444386630722566,0.0
1759683213.1373127,0,-1.2049998044967651,-0.8299996256828308,-0.7176909531888782,0.0,-1.716286749221834,-0.3462249926384103,-2.997164338797311,0.0
1759683213.1488407,0,-1.2049998044967651,-0.8299996256828308,-0.717691951349309,0.0,-1.718853376888059,-0.3467427561445652,-0.7995677741445639,0.0
1759683213.160319,0,-1.2049998044967651,-0.8299996256828308,-0.717692756180881,0.0,-1.7210309095668732,-0.3471820278665162,1.0964281170797385,0.0
1759683213.1714146,0,-1.2049998044967651,-0.8299996256828308,-0.7176934930259016,0.0,-1.7228837814367244,-0.3475558060535178,2.7407558564222207,0.0
1759683213.1828918,0,-1.2049998044967651,-0.8299996256828308,-0.717694034934949,0.0,-1.7244630746976648,-0.3478743954721513,-2.108268015160063,0.0
1759683213.1942766,0,-1.2049998044967651,-0.8299996256828308,-0.7176945196819204,0.0,-1.725812522358481,-0.34814661834320937,-0.04522490166172652,0.0
1759683213.2045555,0,-1.2049998044967651,-0.8299996256828308,-0.7176951364446467,0.0,-1.7269702608462614,-0.34838016789405846,1.7549899560865685,0.0
1759683213.2151427,0,-1.2049998044967651,-0.8299996256828308,-0.7176955998738404,0.0,-1.7279651071130424,-0.3485808573426886,-2.949594568189752,0.0
1759683213.2286448,0,-1.2049998044967651,-0.8299996256828308,-0.7176955313270454,0.0,-1.728817699491769,-0.3487528500415672,-0.7941453239123513,0.0
1759683213.2386553,0,-1.2049998044967651,-0.8299996256828308,-0.7176960873650771,0.0,-1.7295545845544635,-0.34890150120695224,1.0999216527974653,0.0
1759683213.249482,0,-1.2049998044967651,-0.8299996256828308,-0.7176964557923641,0.0,-1.7301918472466236,-0.3490300556405292,2.7721654150809423,0.0
1759683213.2603996,0,-1.2049998044967651,-0.8299996256828308,-0.7176967579906091,0.0,-1.7307440339979354,-0.3491414477805633,-2.026854191302905,0.0
1759683213.2706852,0,-1.2049998044967651,-0.8299996256828308,-0.717697117698691,0.0,-1.7312240504530316,-0.3492382810712167,0.00575628950729914,0.0
1759683213.2819111,0,-1.2049998044967651,-0.8299996256828308,-0.7176973056390067,0.0,-1.7316414497098604,-0.34932248265040405,1.8107395983155155,0.0
1759683213.2920256,0,-1.2049998044967651,-0.8299996256828308,-0.7176976319336532,0.0,-1.732010890241776,-0.3493970095588596,-2.865618785996621,0.0
1759683213.3033583,0,-1.2049998044967651,-0.8299996256828308,-0.7176977690391997,0.0,-1.7323396923151806,-0.34946333850738504,-0.7443924408548355,0.0
1759683213.3143082,0,-1.2049998044967651,-0.8299996256828308,-0.7176979586781655,0.0,-1.7326323261605105,-0.3495223712715727,1.1434990063213528,0.0
1759683213.32525,0,-1.2049998044967651,-0.8299996256828308,-0.7176981495622616,0.0,-1.7328927702828545,-0.34957491043169975,2.8237223943081604,0.0
1759683213.3353057,0,-1.2049998044967651,-0.8299996256828308,-0.7176984341129717,0.0,-1.7328927702828545,-0.34957491043169975,2.8237223943081604,0.0
1759683213.3469121,0,-1.2049998044967651,-0.8299996256828308,-0.7176985158018248,0.0,-1.7328927702828545,-0.34957491043169975,2.8237223943081604,0.0
1759683213.3583107,0,-1.2049998044967651,-0.8299996256828308,-0.7176986361951911,0.0,-1.7328927702828545,-0.34957491043169975,2.8237223943081604,0.0
1759683213.3686883,0,-1.2049998044967651,-0.8299996256828308,-0.7176988752589821,0.0,-1.7328927702828545,-0.34957491043169975,2.8237223943081604,0.0
1759683213.3800187,0,-1.2049998044967651,-0.8299996256828308,-0.7176989993601985,0.0,-1.7328927702828545,-0.34957491043169975,2.8237223943081604,0.0
1759683213.390158,0,-1.2049998044967651,-0.8299996256828308,-0.7176992372766708,0.0,-1.7328927702828545,-0.34957491043169975,2.8237223943081604,0.0
1759683213.4006634,0,-1.2049998044967651,-0.8299996256828308,-0.7176994148257005,0.0,-1.7328927702828545,-0.34957491043169975,2.8237223943081604,0.0
1759683213.4110487,0,-1.2049998044967651,-0.8299996256828308,-0.7176995841493756,0.0,-1.7328927702828545,-0.34957491043169975,2.8237223943081604,0.0
1759683213.4363477,0,-1.2049998044967651,-0.8299996256828308,-0.7176985254153186,0.0,-1.7328927702828545,-0.34957491043169975,2.8237223943081604,0.0
1759683213.4451945,0,-1.2049998044967651,-0.8299996256828308,-0.7176991412899251,0.0,-1.7328927702828545,-0.34957491043169975,2.8237223943081604,0.0
1759683213.455302,0,-1.2049998044967651,-0.8299996256828308,-0.7176995957569261,0.0,-1.7328927702828545,-0.34957491043169975,2.8237223943081604,0.0
1759683213.466256,0,-1.2049998044967651,-0.8299996256828308,-0.7176998756204541,0.0,-1.7328927702828545,-0.34957491043169975,2.8237223943081604,0.0
1759683213.476607,0,-1.2049998044967651,-0.8299996256828308,-0.7177001377095477,0.0,-1.7328927702828545,-0.34957491043169975,2.8237223943081604,0.0
1759683213.487617,0,-1.2049998044967651,-0.8299996256828308,-0.7177003059040192,0.0,-1.7328927702828545,-0.34957491043169975,2.8237223943081604,0.0
1759683213.497743,0,-1.2049998044967651,-0.8299996256828308,-0.7177005067546993,0.0,-1.7328927702828545,-0.34957491043169975,2.8237223943081604,0.0
1759683213.508577,0,-1.2049998044967651,-0.8299996256828308,-0.7177006308819429,0.0,-1.7328927702828545,-0.34957491043169975,2.8237223943081604,0.0
1759683213.518837,0,-1.2049998044967651,-0.8299996256828308,-0.7177007758937499,0.0,-1.7328927702828545,-0.34957491043169975,2.8237223943081604,0.0
1759683213.5300999,0,-1.2049998044967651,-0.8299996256828308,-0.7177008438879753,0.0,-1.7328927702828545,-0.34957491043169975,2.8237223943081604,0.0
1759683213.5410008,0,-1.2049998044967651,-0.8299996256828308,-0.7177009346933811,0.0,-1.7328927702828545,-0.34957491043169975,2.8237223943081604,0.0
1759683213.551043,0,-1.2049998044967651,-0.8299996256828308,-0.7177010719091506,0.0,-1.7328927702828545,-0.34957491043169975,2.8237223943081604,0.0
1759683213.5622382,0,-1.2049998044967651,-0.8299996256828308,-0.7177011303745999,0.0,-1.7328927702828545,-0.34957491043169975,2.8237223943081604,0.0
1759683213.5724928,0,-1.2049998044967651,-0.8299996256828308,-0.7177012394438016,0.0,-1.7328927702828545,-0.34957491043169975,2.8237223943081604,0.0
1759683213.5825472,0,-1.2049998044967651,-0.8299996256828308,-0.7177013492670383,0.0,-1.7328927702828545,-0.34957491043169975,2.8237223943081604,0.0
1759683213.5929275,0,-1.2049998044967651,-0.8299996256828308,-0.717701429465512,0.0,-1.7328927702828545,-0.34957491043169975,2.8237223943081604,0.0
1759683213.6041808,0,-1.2049998044967651,-0.8299996256828308,-0.7177014620574411,0.0,-1.7328927702828545,-0.34957491043169975,2.8237223943081604,0.0
1759683213.6145546,0,-1.2049998044967651,-0.8299996256828308,-0.7177015432363714,0.0,-1.7328927702828545,-0.34957491043169975,2.8237223943081604,0.0
1759683213.6315308,0,-1.2049998044967651,-0.8299996256828308,-0.7177013354097781,0.0,-1.7328927702828545,-0.34957491043169975,2.8237223943081604,0.0
1759683213.6419601,0,-1.2049998044967651,-0.8299996256828308,-0.7177014853879378,0.0,-1.7328927702828545,-0.34957491043169975,2.8237223943081604,0.0
1759683213.653295,0,-1.2049998044967651,-0.8299996256828308,-0.7177015930304478,0.0,-1.7328927702828545,-0.34957491043169975,2.8237223943081604,0.0
1759683213.6639357,0,-1.2049998044967651,-0.8299996256828308,-0.7177017127253258,0.0,-1.7328927702828545,-0.34957491043169975,2.8237223943081604,0.0
1759683213.6739802,0,-1.2049998044967651,-0.8299996256828308,-0.7177018366400034,0.0,-1.7328927702828545,-0.34957491043169975,2.8237223943081604,0.0
1759683213.6849868,0,-1.2049998044967651,-0.8299996256828308,-0.7177019039178916,0.0,-1.7328927702828545,-0.34957491043169975,2.8237223943081604,0.0
1759683213.6954978,0,-1.2049998044967651,-0.8299996256828308,-0.7177019814442609,0.0,-1.7328927702828545,-0.34957491043169975,2.8237223943081604,0.0
1759683213.7056663,0,-1.2049998044967651,-0.8299996256828308,-0.7177020625633475,0.0,-1.7328927702828545,-0.34957491043169975,2.8237223943081604,0.0
1759683213.7164214,0,-1.2049998044967651,-0.8299996256828308,-0.7177021137239805,0.0,-1.7328927702828545,-0.34957491043169975,2.8237223943081604,0.0
1759683213.7274234,0,-1.2049998044967651,-0.8299996256828308,-0.7177021539571236,0.0,-1.7328927702828545,-0.34957491043169975,2.8237223943081604,0.0
1759683213.738715,0,-1.2049998044967651,-0.8299996256828308,-0.7177021867016631,0.0,-1.7328927702828545,-0.34957491043169975,2.8237223943081604,0.0
1759683213.7489166,0,-1.2049998044967651,-0.8299996256828308,-0.7177022556307691,0.0,-1.7328927702828545,-0.34957491043169975,2.8237223943081604,0.0
1759683213.7590294,0,-1.2049998044967651,-0.8299996256828308,-0.7177023203422443,0.0,-1.7328927702828545,-0.34957491043169975,2.8237223943081604,0.0
1759683213.7690852,0,-1.2049998044967651,-0.8299996256828308,-0.7177023781613041,0.0,-1.7328927702828545,-0.34957491043169975,2.8237223943081604,0.0
1759683213.780809,0,-1.2049998044967651,-0.8299996256828308,-0.7177023839482075,0.0,-1.7328927702828545,-0.34957491043169975,2.8237223943081604,0.0
1759683213.7913373,0,-1.2049998044967651,-0.8299996256828308,-0.7177024290230937,0.0,-1.7328927702828545,-0.34957491043169975,2.8237223943081604,0.0
1759683213.8020184,0,-1.2049998044967651,-0.8299996256828308,-0.7177024698196384,0.0,-1.7328927702828545,-0.34957491043169975,2.8237223943081604,0.0
1759683213.8130317,0,-1.2049998044967651,-0.8299996256828308,-0.7177025007793745,0.0,-1.7328927702828545,-0.34957491043169975,2.8237223943081604,0.0
1759683213.8255026,0,-1.2049998044967651,-0.8299996256828308,-0.7177024988178005,0.0,-1.7328927702828545,-0.34957491043169975,2.8237223943081604,0.0
1759683213.8349566,0,-1.2049998044967651,-0.8299996256828308,-0.7177025764810345,0.0,-1.7328927702828545,-0.34957491043169975,2.8237223943081604,0.0
1759683213.8462758,0,-1.2049998044967651,-0.8299996256828308,-0.7177026028765567,0.0,-1.7328927702828545,-0.34957491043169975,2.8237223943081604,0.0
1759683213.8565302,0,-1.2049998044967651,-0.8299996256828308,-0.717702651185661,0.0,-1.7328927702828545,-0.34957491043169975,2.8237223943081604,0.0
1759683213.8678155,0,-1.2049998044967651,-0.8299996256828308,-0.7177026737915249,0.0,-1.7328927702828545,-0.34957491043169975,2.8237223943081604,0.0
1759683213.8789806,0,-1.2049998044967651,-0.8299996256828308,-0.7177027001020555,0.0,-1.7328927702828545,-0.34957491043169975,2.8237223943081604,0.0
1759683213.8901975,0,-1.2049998044967651,-0.8299996256828308,-0.7177027269480617,0.0,-1.7328927702828545,-0.34957491043169975,2.8237223943081604,0.0
1759683213.9011104,0,-1.2049998044967651,-0.8299996256828308,-0.717702760326139,0.0,-1.7328927702828545,-0.34957491043169975,2.8237223943081604,0.0
1759683213.9120724,0,-1.2049998044967651,-0.8299996256828308,-0.7177027915222212,0.0,-1.7328927702828545,-0.34957491043169975,2.8237223943081604,0.0
1759683213.923435,0,-1.2049998044967651,-0.8299996256828308,-0.7177028144984074,0.0,-1.7328927702828545,-0.34957491043169975,2.8237223943081604,0.0
1759683213.9344087,0,-1.2049998044967651,-0.8299996256828308,-0.7177028447904981,0.0,-1.7328927702828545,-0.34957491043169975,2.8237223943081604,0.0
1759683213.94565,0,-1.2049998044967651,-0.8299996256828308,-0.7177028697510579,0.0,-1.7328927702828545,-0.34957491043169975,2.8237223943081604,0.0
1759683213.9562855,0,-1.2049998044967651,-0.8299996256828308,-0.7177029038004398,0.0,-1.7328927702828545,-0.34957491043169975,2.8237223943081604,0.0
1759683213.9674683,0,-1.2049998044967651,-0.8299996256828308,-0.7177029267575783,0.0,-1.7328927702828545,-0.34957491043169975,2.8237223943081604,0.0
1759683213.9776514,0,-1.2049998044967651,-0.8299996256828308,-0.7177029634681809,0.0,-1.7328927702828545,-0.34957491043169975,2.8237223943081604,0.0
1759683213.9890816,0,-1.2049998044967651,-0.8299996256828308,-0.7177029784861944,0.0,-1.7328927702828545,-0.34957491043169975,2.8237223943081604,0.0
1759683214.0003042,0,-1.2049998044967651,-0.8299996256828308,-0.7177029972167439,0.0,-1.7328927702828545,-0.34957491043169975,2.8237223943081604,0.0
1759683214.0105593,0,-1.2049998044967651,-0.8299996256828308,-0.7177030293208482,0.0,-1.7328927702828545,-0.34957491043169975,2.8237223943081604,0.0
1759683214.0212216,0,-1.2049998044967651,-0.8299996256828308,-0.7177030527610384,0.0,-1.7328927702828545,-0.34957491043169975,2.8237223943081604,0.0
1759683214.040496,0,-1.2049998044967651,-0.8299996256828308,-0.7177029725492101,0.0,-1.7328927702828545,-0.34957491043169975,2.8237223943081604,0.0
1759683214.0514472,0,-1.2049998044967651,-0.8299996256828308,-0.7177030185685727,0.0,-1.7328927702828545,-0.34957491043169975,2.8237223943081604,0.0
1759683214.0618672,0,-1.2049998044967651,-0.8299996256828308,-0.7177030691179169,0.0,-1.7328927702828545,-0.34957491043169975,2.8237223943081604,0.0
1759683214.0720792,0,-1.2049998044967651,-0.8299996256828308,-0.7177031117496888,0.0,-1.7328927702828545,-0.34957491043169975,2.8237223943081604,0.0
1759683214.0831568,0,-1.2049998044967651,-0.8299996256828308,-0.7177031368370059,0.0,-1.7328927702828545,-0.34957491043169975,2.8237223943081604,0.0
1759683214.0945737,0,-1.2049998044967651,-0.8299996256828308,-0.7177031548840844,0.0,-1.7328927702828545,-0.34957491043169975,2.8237223943081604,0.0
1759683214.1062064,0,-1.2049998044967651,-0.8299996256828308,-0.7177031699209149,0.0,-1.7328927702828545,-0.34957491043169975,2.8237223943081604,0.0
1759683214.1174858,0,-1.2049998044967651,-0.8299996256828308,-0.717703188271603,0.0,-1.7328927702828545,-0.34957491043169975,2.8237223943081604,0.0
1759683214.1303496,0,-1.2049998044967651,-0.8299996256828308,-0.7177031919781136,0.0,-1.7328927702828545,-0.34957491043169975,2.8237223943081604,0.0
1759683214.140766,0,-1.2049998044967651,-0.8299996256828308,-0.7177032194864701,0.0,-1.7328927702828545,-0.34957491043169975,2.8237223943081604,0.0
1759683214.1508868,0,-1.2049998044967651,-0.8299996256828308,-0.7177032461271438,0.0,-1.7328927702828545,-0.34957491043169975,2.8237223943081604,0.0
1759683214.1610491,0,-1.2049998044967651,-0.8299996256828308,-0.7177032677029551,0.0,-1.7328927702828545,-0.34957491043169975,2.8237223943081604,0.0
1759683214.1711583,0,-1.2049998044967651,-0.8299996256828308,-0.7177032860702112,0.0,-1.7328927702828545,-0.34957491043169975,2.8237223943081604,0.0
1759683214.1820998,0,-1.2049998044967651,-0.8299996256828308,-0.7177032955448226,0.0,-1.7328927702828545,-0.34957491043169975,2.8237223943081604,0.0
1759683214.192156,0,-1.2049998044967651,-0.8299996256828308,-0.7177033112135263,0.0,-1.7328927702828545,-0.34957491043169975,2.8237223943081604,0.0
1759683214.203679,0,-1.2049998044967651,-0.8299996256828308,-0.7177033150900431,0.0,-1.7328927702828545,-0.34957491043169975,2.8237223943081604,0.0
1759683214.2140749,0,-1.2049998044967651,-0.8299996256828308,-0.717703327934192,0.0,-1.7328927702828545,-0.34957491043169975,2.8237223943081604,0.0
1759683214.224982,0,-1.2049998044967651,-0.8299996256828308,-0.7177033368434422,0.0,-1.7328927702828545,-0.34957491043169975,2.8237223943081604,0.0
1759683214.2507215,0,-1.2049998044967651,-0.8299996256828308,-0.7177032566936798,0.0,-1.7328927702828545,-0.34957491043169975,2.8237223943081604,0.0
1759683214.2612636,0,-1.2049998044967651,-0.8299996256828308,-0.717703294274326,0.0,-1.7328927702828545,-0.34957491043169975,2.8237223943081604,0.0
1759683214.2722914,0,-1.2049998044967651,-0.8299996256828308,-0.7177033269601232,0.0,-1.7328927702828545,-0.34957491043169975,2.8237223943081604,0.0
1759683214.2835665,0,-1.2049998044967651,-0.8299996256828308,-0.7177033509336468,0.0,-1.7328927702828545,-0.34957491043169975,2.8237223943081604,0.0
1759683214.293724,0,-1.2049998044967651,-0.8299996256828308,-0.7177033754992338,0.0,-1.7328927702828545,-0.34957491043169975,2.8237223943081604,0.0
1759683214.3049314,0,-1.2049998044967651,-0.8299996256828308,-0.7177033897402296,0.0,-1.7328927702828545,-0.34957491043169975,2.8237223943081604,0.0
1759683214.3152866,0,-1.2049998044967651,-0.8299996256828308,-0.7177034055010818,0.0,-1.7328927702828545,-0.34957491043169975,2.8237223943081604,0.0
1759683214.3259678,0,-1.2049998044967651,-0.8299996256828308,-0.7177034171193792,0.0,-1.7328927702828545,-0.34957491043169975,2.8237223943081604,0.0
1759683214.336672,0,-1.2049998044967651,-0.8299996256828308,-0.7177034268916707,0.0,-1.7328927702828545,-0.34957491043169975,2.8237223943081604,0.0
1759683214.3475301,0,-1.2049998044967651,-0.8299996256828308,-0.7177034348646849,0.0,-1.7328927702828545,-0.34957491043169975,2.8237223943081604,0.0
1759683214.3575346,0,-1.2049998044967651,-0.8299996256828308,-0.7177034457573653,0.0,-1.7328927702828545,-0.34957491043169975,2.8237223943081604,0.0
1759683214.368893,0,-1.2049998044967651,-0.8299996256828308,-0.7177034496762573,0.0,-1.7328927702828545,-0.34957491043169975,2.8237223943081604,0.0
1759683214.379758,0,-1.2049998044967651,-0.8299996256828308,-0.7177034557805868,0.0,-1.7328927702828545,-0.34957491043169975,2.8237223943081604,0.0
1759683214.3912942,0,-1.2049998044967651,-0.8299996256828308,-0.7177034593359046,0.0,-1.7328927702828545,-0.34957491043169975,2.8237223943081604,0.0
1759683214.4019258,0,-1.2049998044967651,-0.8299996256828308,-0.7177034667634423,0.0,-1.7328927702828545,-0.34957491043169975,2.8237223943081604,0.0
1759683214.4130833,0,-1.2049998044967651,-0.8299996256828308,-0.7177034718788526,0.0,-1.7328927702828545,-0.34957491043169975,2.8237223943081604,0.0
1759683214.423851,0,-1.2049998044967651,-0.8299996256828308,-0.717703478255169,0.0,-1.7328927702828545,-0.34957491043169975,2.8237223943081604,0.0
1759683214.4583995,0,-1.2049998044967651,-0.8299996256828308,-0.7177034115687917,0.0,-1.7328927702828545,-0.34957491043169975,2.8237223943081604,0.0
1759683214.4689567,0,-1.2049998044967651,-0.8299996256828308,-0.717703440400447,0.0,-1.7328927702828545,-0.34957491043169975,2.8237223943081604,0.0
1759683214.4804838,0,-1.2049998044967651,-0.8299996256828308,-0.7177034640724305,0.0,-1.7328927702828545,-0.34957491043169975,2.8237223943081604,0.0
1759683214.4920611,0,-1.2049998044967651,-0.8299996256828308,-0.7177034815397185,0.0,-1.7328927702828545,-0.34957491043169975,2.8237223943081604,0.0
1759683214.5020978,0,-1.2049998044967651,-0.8299996256828308,-0.7177034986145934,0.0,-1.7328927702828545,-0.34957491043169975,2.8237223943081604,0.0
1759683214.513962,0,-1.2049998044967651,-0.8299996256828308,-0.7177035071575517,0.0,-1.7328927702828545,-0.34957491043169975,2.8237223943081604,0.0
1759683214.5246859,0,-1.2049998044967651,-0.8299996256828308,-0.7177035166214196,0.0,-1.7328927702828545,-0.34957491043169975,2.8237223943081604,0.0
1759683214.5348673,0,-1.2049998044967651,-0.8299996256828308,-0.7177035255900002,0.0,-1.7328927702828545,-0.34957491043169975,2.8237223943081604,0.0
1759683214.5457914,0,-1.2049998044967651,-0.8299996256828308,-0.7177035311327487,0.0,-1.7328927702828545,-0.34957491043169975,2.8237223943081604,0.0
1759683214.556098,0,-1.2049998044967651,-0.8299996256828308,-0.7177035371081715,0.0,-1.7328927702828545,-0.34957491043169975,2.8237223943081604,0.0
1759683214.566262,0,-1.2049998044967651,-0.8299996256828308,-0.7177035424678433,0.0,-1.7328927702828545,-0.34957491043169975,2.8237223943081604,0.0
1759683214.5777147,0,-1.2049998044967651,-0.8299996256828308,-0.7177035443828714,0.0,-1.7328927702828545,-0.34957491043169975,2.8237223943081604,0.0
1759683214.5877564,0,-1.2049998044967651,-0.8299996256828308,-0.7177035491847121,0.0,-1.7328927702828545,-0.34957491043169975,2.8237223943081604,0.0
1759683214.597836,0,-1.2049998044967651,-0.8299996256828308,-0.7177035533747596,0.0,-1.7328927702828545,-0.34957491043169975,2.8237223943081604,0.0
1759683214.6089828,0,-1.2049998044967651,-0.8299996256828308,-0.7177035550100488,0.0,-1.7328927702828545,-0.34957491043169975,2.8237223943081604,0.0
1759683214.6197107,0,-1.2049998044967651,-0.8299996256828308,-0.7177035575368187,0.0,-1.7328927702828545,-0.34957491043169975,2.8237223943081604,0.0
1759683214.630392,0,-1.2049998044967651,-0.8299996256828308,-0.7177035601641837,0.0,-1.7328927702828545,-0.34957491043169975,2.8237223943081604,0.0
1759683214.655218,0,-1.2049998044967651,-0.8299996256828308,-0.7177035399569611,0.0,-1.7328927702828545,-0.34957491043169975,2.8237223943081604,0.0
1759683214.6636207,0,-1.2049998044967651,-0.8299996256828308,-0.7177035524737523,0.0,-1.7328927702828545,-0.34957491043169975,2.8237223943081604,0.0
1759683214.6737669,0,-1.2049998044967651,-0.8299996256828308,-0.7177035609326872,0.0,-1.7328927702828545,-0.34957491043169975,2.8237223943081604,0.0
1759683214.6850352,0,-1.2049998044967651,-0.8299996256828308,-0.7177035656450172,0.0,-1.7328927702828545,-0.34957491043169975,2.8237223943081604,0.0
1759683214.6955163,0,-1.2049998044967651,-0.8299996256828308,-0.7177035705156901,0.0,-1.7328927702828545,-0.34957491043169975,2.8237223943081604,0.0
1759683214.7056527,0,-1.2049998044967651,-0.8299996256828308,-0.717703574990999,0.0,-1.7328927702828545,-0.34957491043169975,2.8237223943081604,0.0
1759683214.7162576,0,-1.2049998044967651,-0.8299996256828308,-0.7177035780281784,0.0,-1.7328927702828545,-0.34957491043169975,2.8237223943081604,0.0
1759683214.7275956,0,-1.2049998044967651,-0.8299996256828308,-0.7177035796913245,0.0,-1.7328927702828545,-0.34957491043169975,2.8237223943081604,0.0
1759683214.7388792,0,-1.2049998044967651,-0.8299996256828308,-0.7177035814211017,0.0,-1.7328927702828545,-0.34957491043169975,2.8237223943081604,0.0
1759683214.751168,0,-1.2049998044967651,-0.8299996256828308,-0.7177035820199649,0.0,-1.7328927702828545,-0.34957491043169975,2.8237223943081604,0.0
1759683214.7618814,0,-1.2049998044967651,-0.8299996256828308,-0.7177035847810984,0.0,-1.7328927702828545,-0.34957491043169975,2.8237223943081604,0.0
1759683214.7725353,0,-1.2049998044967651,-0.8299996256828308,-0.7177035873960573,0.0,-1.7328927702828545,-0.34957491043169975,2.8237223943081604,0.0
1759683214.7829285,0,-1.2049998044967651,-0.8299996256828308,-0.7177035899633566,0.0,-1.7328927702828545,-0.34957491043169975,2.8237223943081604,0.0
1759683214.7934864,0,-1.2049998044967651,-0.8299996256828308,-0.7177035920200971,0.0,-1.7328927702828545,-0.34957491043169975,2.8237223943081604,0.0
1759683214.8052282,0,-1.2049998044967651,-0.8299996256828308,-0.717703592676159,0.0,-1.7328927702828545,-0.34957491043169975,2.8237223943081604,0.0
1759683214.8160768,0,-1.2049998044967651,-0.8299996256828308,-0.717703594395303,0.0,-1.7328927702828545,-0.34957491043169975,2.8237223943081604,0.0
1759683214.863376,0,-1.2049998044967651,-0.8299996256828308,-0.7177035660525046,0.0,-1.7328927702828545,-0.34957491043169975,2.8237223943081604,0.0
1759683214.8765116,0,-1.2049998044967651,-0.8299996256828308,-0.7177035760194919,0.0,-1.7328927702828545,-0.34957491043169975,2.8237223943081604,0.0
1759683214.8870058,0,-1.2049998044967651,-0.8299996256828308,-0.7177035869835304,0.0,-1.7328927702828545,-0.34957491043169975,2.8237223943081604,0.0
1759683214.8972218,0,-1.2049998044967651,-0.8299996256828308,-0.7177035949971682,0.0,-1.7328927702828545,-0.34957491043169975,2.8237223943081604,0.0
1759683214.9084508,0,-1.2049998044967651,-0.8299996256828308,-0.7177036000152022,0.0,-1.7328927702828545,-0.34957491043169975,2.8237223943081604,0.0
1759683214.919109,0,-1.2049998044967651,-0.8299996256828308,-0.7177036040349556,0.0,-1.7328927702828545,-0.34957491043169975,2.8237223943081604,0.0
1759683214.9320276,0,-1.2049998044967651,-0.8299996256828308,-0.7177036057063154,0.0,-1.7328927702828545,-0.34957491043169975,2.8237223943081604,0.0
1759683214.9424622,0,-1.2049998044967651,-0.8299996256828308,-0.7177036085666907,0.0,-1.7328927702828545,-0.34957491043169975,2.8237223943081604,0.0
1759683214.9534416,0,-1.2049998044967651,-0.8299996256828308,-0.7177036105813315,0.0,-1.7328927702828545,-0.34957491043169975,2.8237223943081604,0.0
1759683214.9636898,0,-1.2049998044967651,-0.8299996256828308,-0.7177036126069503,0.0,-1.7328927702828545,-0.34957491043169975,2.8237223943081604,0.0
1759683214.9745302,0,-1.2049998044967651,-0.8299996256828308,-0.717703613929622,0.0,-1.7328927702828545,-0.34957491043169975,2.8237223943081604,0.0
1759683214.9882016,0,-1.2049998044967651,-0.8299996256828308,-0.7177036135720449,0.0,-1.7328927702828545,-0.34957491043169975,2.8237223943081604,0.0
1759683214.9998507,0,-1.2049998044967651,-0.8299996256828308,-0.7177036145497375,0.0,-1.7328927702828545,-0.34957491043169975,2.8237223943081604,0.0
1759683215.0107496,0,-1.2049998044967651,-0.8299996256828308,-0.7177036159172872,0.0,-1.7328927702828545,-0.34957491043169975,2.8237223943081604,0.0
1759683215.0209892,0,-1.2049998044967651,-0.8299996256828308,-0.7177036174194384,0.0,-1.7328927702828545,-0.34957491043169975,2.8237223943081604,0.0
1759683215.0318406,0,-1.2049998044967651,-0.8299996256828308,-0.7177036183860324,0.0,-1.7328927702828545,-0.34957491043169975,2.8237223943081604,0.0
1759683215.04373,0,-1.2049998044967651,-0.8299996256828308,-0.7177036187657819,0.0,-1.7328927702828545,-0.34957491043169975,2.8237223943081604,0.0
1759683215.0542212,0,-1.2049998044967651,-0.8299996256828308,-0.7177036198058069,0.0,-1.7328927702828545,-0.34957491043169975,2.8237223943081604,0.0
1759683215.0708063,0,-1.2049998044967651,-0.8299996256828308,-0.7177036182573779,0.0,-1.7328927702828545,-0.34957491043169975,2.8237223943081604,0.0
1759683215.082246,0,-1.2049998044967651,-0.8299996256828308,-0.7177036193902708,0.0,-1.7328927702828545,-0.34957491043169975,2.8237223943081604,0.0
1759683215.0952194,0,-1.2049998044967651,-0.8299996256828308,-0.7177036199597319,0.0,-1.7328927702828545,-0.34957491043169975,2.8237223943081604,0.0
1759683215.105263,0,-1.2049998044967651,-0.8299996256828308,-0.717703621613456,0.0,-1.7328927702828545,-0.34957491043169975,2.8237223943081604,0.0
1759683215.1154985,0,-1.2049998044967651,-0.8299996256828308,-0.7177036229131257,0.0,-1.7328927702828545,-0.34957491043169975,2.8237223943081604,0.0
1759683215.1294465,0,-1.2049998044967651,-0.8299996256828308,-0.7177036226893012,0.0,-1.7335228449054043,-0.3494694360696936,2.128959173642646,0.0013277805667381687
1759683215.1405878,0,-1.2049998044967651,-0.8299996256828308,-0.7177036235809524,0.0,-1.7340461296265897,-0.3493869155373524,1.5761808940453323,0.002516614219639405
1759683215.1553552,0,-1.2049998044967651,-0.8299996256828308,-0.7177036232951792,0.0,-1.7344659952613437,-0.34929888296046896,1.1373311787532927,0.003478850253689526
1759683215.1659398,0,-1.2049998044967651,-0.8299996256828308,-0.7177036245134545,0.0,-1.734785516760111,-0.34921154443904884,0.7861814449878366,0.004262201098777131
1759683215.176502,0,-1.2049998044967651,-0.8299996256828308,-0.717703625591728,0.0,-1.735019060109221,-0.3491388998806912,0.5044968314625665,0.004904117792219541
1759683215.1879523,0,-1.2049998044967651,-0.8299996256828308,-0.7177036262158474,0.0,-1.7351870268737486,-0.3490890058821784,0.27819084668859256,0.005434667802833627
1759683215.1982505,0,-1.2049998044967651,-0.8299996256828308,-0.7177036270749362,0.0,-1.7353090897439356,-0.34906295781438657,0.09566037014941667,0.005876096273128052
1759683215.2135706,0,-1.2049998044967651,-0.8299996256828308,-0.7177036264914509,0.0,-1.7353994391161227,-0.34905771361240157,-0.05110106491163519,0.006251338387705268
1759683215.2241454,0,-1.2049998044967651,-0.8299996256828308,-0.7177036273882642,0.0,-1.735469589270716,-0.3490686318867157,-0.1701463269707483,0.006569977255851853
1759683215.2345986,0,-1.2049998044967651,-0.8299996256828308,-0.7177036282402938,0.0,-1.735526426089978,-0.3490911400415451,-0.26696042852414353,0.006843376574415675
1759683215.2456083,0,-1.2049998044967651,-0.8299996256828308,-0.7177036288068912,0.0,-1.7355742063010686,-0.3491213137857867,-0.3458359957946506,0.007081319866570018
1759683215.2572353,0,-1.2049998044967651,-0.8299996256828308,-0.717703629153295,0.0,-1.7356155208282864,-0.3491560904736196,-0.4102145847430561,0.0072917860818901385
1759683215.3087502,0,-1.2049998044967651,-0.8299996256828308,-0.7177036218724809,0.0,-1.7356476027261856,-0.34919418941071795,-0.46045134597402787,0.007529010101831712
1759683215.3206136,0,-1.2049998044967651,-0.8299996256828308,-0.7177036248034252,0.0,-1.7356762926314284,-0.3492334536441275,-0.5020299436686275,0.007743217010459356
1759683215.3320339,0,-1.2049998044967651,-0.8299996256828308,-0.7177036274375475,0.0,-1.7357022248411396,-0.3492728703764534,-0.5365539375786345,0.007938531985338596
1759683215.3423297,0,-1.2049998044967651,-0.8299996256828308,-0.7177036294679784,0.0,-1.7357258659304766,-0.3493117200090144,-0.5653352029895766,0.008117316419395535
1759683215.3534098,0,-1.2049998044967651,-0.8299996256828308,-0.7177036307878666,0.0,-1.7357473664105698,-0.3493496211314074,-0.5893617645285238,0.008283961141121957
1759683215.3637667,0,-1.2049998044967651,-0.8299996256828308,-0.7177036318483054,0.0,-1.7357669470404447,-0.34938629853081177,-0.6094884576289501,0.008440045290233032
1759683215.3763607,0,-1.2049998044967651,-0.8299996256828308,-0.7177036323229409,0.0,-1.7357845450373404,-0.34942181680906215,-0.6263404008382204,0.00859104733959656
1759683215.3871765,0,-1.2049998044967651,-0.8299996256828308,-0.7177036329463018,0.0,-1.7358004189016505,-0.34945605291373516,-0.6405234739456459,0.008735861895566127
1759683215.397992,0,-1.2049998044967651,-0.8299996256828308,-0.7177036334533469,0.0,-1.7358146644226897,-0.3494890608558704,-0.6524905497876803,0.008876022420280206
1759683215.4086213,0,-1.2049998044967651,-0.8299996256828308,-0.7177036338843372,0.0,-1.735827386617947,-0.34952091721875206,-0.6626160888233388,0.009012522843321488
1759683215.4200628,0,-1.2049998044967651,-0.8299996256828308,-0.717703634133791,0.0,-1.7358386190724355,-0.34955182463353096,-0.6711964314467995,0.00914773159645852
1759683215.4323416,0,-1.2049998044967651,-0.8299996256828308,-0.7177036342532297,0.0,-1.7358484004738237,-0.34958202026760415,-0.6784798217827933,0.009283777679678702
1759683215.443571,0,-1.2049998044967651,-0.8299996256828308,-0.7177036345135797,0.0,-1.735856894128739,-0.34961154007687334,-0.6846891014140872,0.009419519735649733
1759683215.4536905,0,-1.2049998044967651,-0.8299996256828308,-0.717703634882918,0.0,-1.735864254226267,-0.3496403891612361,-0.6900049446954097,0.0095537863561012
1759683215.4650111,0,-1.2049998044967651,-0.8299996256828308,-0.717703635058534,0.0,-1.7358704827804412,-0.34966885062132347,-0.6945613579832632,0.009689321722732763
1759683215.492374,0,-1.2049998044967651,-0.8299996256828308,-0.7177036335732083,0.0,-1.735874705099747,-0.34969925543379676,-0.698405607464791,0.009853774052992259
1759683215.5024743,0,-1.2049998044967651,-0.8299996256828308,-0.717703634330947,0.0,-1.7358780737128645,-0.3497294972287019,-0.7017369180076168,0.010015376338807799
1759683215.5131574,0,-1.2049998044967651,-0.8299996256828308,-0.7177036349698955,0.0,-1.735880613460315,-0.34975974191384207,-0.7046302754275596,0.010176159437284386
1759683215.5237818,0,-1.2049998044967651,-0.8299996256828308,-0.7177036354579904,0.0,-1.7358823817921638,-0.3497900736782853,-0.7071513908578227,0.010336804759106444
1759683215.5341125,0,-1.2049998044967651,-0.8299996256828308,-0.7177036358573208,0.0,-1.7358834434156707,-0.3498205399933895,-0.7093559969009603,0.010497475365875713
1759683215.5454764,0,-1.2049998044967651,-0.8299996256828308,-0.7177036360805964,0.0,-1.735883780282653,-0.3498514070115012,-0.7112886551543025,0.010660751301219367
1759683215.5570092,0,-1.2049998044967651,-0.8299996256828308,-0.7177036362527396,0.0,-1.737489070992226,-0.3484959170749247,-0.7122135094689155,0.014922556360671848
1759683215.5685153,0,-1.2049998044967651,-0.8299996256828308,-0.7177036364115263,0.0,-1.7395721024167823,-0.3468201162766579,-0.7112256621130443,0.022862968603762326
1759683215.578984,0,-1.2049998044967651,-0.8299996256828308,-0.717703636639504,0.0,-1.7412086981681083,-0.3455801814833447,-0.7104462498959867,0.029189552484045898
1759683215.5893424,0,-1.2049998044967651,-0.8299996256828308,-0.717703636842959,0.0,-1.7424953850908182,-0.34466835797191164,-0.7098310682167185,0.034245179650456585
1759683215.60035,0,-1.2049998044967651,-0.8299996256828308,-0.717703636966295,0.0,-1.743505647968145,-0.3440051327443804,-0.7093465192820628,0.03829469670780244
1759683215.6106422,0,-1.2049998044967651,-0.8299996256828308,-0.7177036371293166,0.0,-1.7442995626933306,-0.3435281449870892,-0.7089646826213029,0.04155054148124871
1759683215.6209483,0,-1.2049998044967651,-0.8299996256828308,-0.7177036372719012,0.0,-1.7449224813549264,-0.34319182820977573,-0.7086645489699149,0.04417639111993765
1759683215.6309595,0,-1.2049998044967651,-0.8299996256828308,-0.7177036374163013,0.0,-1.7454103778155154,-0.3429613531956921,-0.7084293032839808,0.04630149891816422
1759683215.6415813,0,-1.2049998044967651,-0.8299996256828308,-0.7177036375019021,0.0,-1.7457901008495877,-0.34281184109462043,-0.7082465205208472,0.04802652660558175
1759683215.6543164,0,-1.2049998044967651,-0.8299996256828308,-0.7177036374511232,0.0,-1.7460808315496303,-0.3427267546639512,-0.7081075940227434,0.04943072825536607
1759683215.6647873,0,-1.2049998044967651,-0.8299996256828308,-0.7177036375772127,0.0,-1.7463036076277754,-0.3426872826793954,-0.708002024252775,0.05058022069295309
1759683215.6831024,0,-1.2049998044967651,-0.8299996256828308,-0.7177036372493184,0.0,-1.7464620331006993,-0.34269393997922354,-0.70792964974833,0.051524150566926184
1759683215.693585,0,-1.2049998044967651,-0.8299996256828308,-0.7177036374842167,0.0,-1.7465785557997888,-0.3427249730511056,-0.707877966936868,0.052305385288946356
1759683215.7042248,0,-1.2049998044967651,-0.8299996256828308,-0.7177036376964913,0.0,-1.7466609820816204,-0.3427748126393821,-0.7078433043425862,0.05295534912759812
1759683215.7150433,0,-1.2049998044967651,-0.8299996256828308,-0.7177036378583778,0.0,-1.7467154879600122,-0.3428393382747192,-0.7078227449794097,0.05349927822225131
1759683215.7260776,0,-1.2049998044967651,-0.8299996256828308,-0.7177036379812058,0.0,-1.7467469385871666,-0.34291555610092406,-0.7078139859397162,0.05395749784994825
1759683215.7371407,0,-1.2049998044967651,-0.8299996256828308,-0.7177036380862383,0.0,-1.7467594200251555,-0.3430009940920635,-0.7078150464395827,0.05434631069583622
1759683215.7484984,0,-1.2049998044967651,-0.8299996256828308,-0.7177036381669097,0.0,-1.746755874811079,-0.34309423447310033,-0.707824541840781,0.054679014471320966
1759683215.7588458,0,-1.2049998044967651,-0.8299996256828308,-0.7177036382891693,0.0,-1.7467401651492171,-0.34319227321011575,-0.7078403811077695,0.054965531503784144
1759683215.7701125,0,-1.2049998044967651,-0.8299996256828308,-0.7177036383554647,0.0,-1.7467131663919768,-0.3432957073444218,-0.7078623177268912,0.05521509679884568
1759683215.7807329,0,-1.2049998044967651,-0.8299996256828308,-0.7177036384457409,0.0,-1.7466773655875012,-0.34340273082207823,-0.7078889932617293,0.0554341573026616
1759683215.791661,0,-1.2049998044967651,-0.8299996256828308,-0.7177036385154025,0.0,-1.746633665320997,-0.34351341531747853,-0.7079200223051734,0.05562863822108619
1759683215.8023245,0,-1.2049998044967651,-0.8299996256828308,-0.7177036385911197,0.0,-1.7465834460421636,-0.3436269901245563,-0.7079546670169508,0.055802929360087974
1759683215.8136628,0,-1.2049998044967651,-0.8299996256828308,-0.717703638635248,0.0,-1.7465266976687996,-0.3437444114507747,-0.7079930589390863,0.055961430575154576
1759683215.8239386,0,-1.2049998044967651,-0.8299996256828308,-0.7177036387210265,0.0,-1.7464654611868127,-0.3438636821864932,-0.7080339710522854,0.056106225932624286
1759683215.83455,0,-1.2049998044967651,-0.8299996256828308,-0.7173889197811065,0.005235987755982988,-1.7463997533669342,-0.34398545054412977,-0.708077470670139,0.056240242789175415
1759683215.8451617,0,-1.2049998044967651,-0.8299996256828308,-0.7174148790136514,0.005235987755982988,-1.7463299604308955,-0.3441097602681947,-0.708123368517737,0.05636560961847242
1759683215.8561265,0,-1.2049998044967651,-0.8299996256828308,-0.717405364431136,0.005235987755982988,-1.7462559380669693,-0.3442373082885318,-0.7081718069357901,0.056484448109000614
1759683215.8670812,0,-1.2049998044967651,-0.8299996256828308,-0.717380978887683,0.005235987755982988,-1.7461779799540509,-0.3443681143816597,-0.7082226331492351,0.05659818553041965
1759683215.8950374,0,-1.2049156747257705,-0.830080180212912,-0.7173787933865273,0.005981711334035113,-1.7460743268177576,-0.3445330498780456,-0.7082900092815637,0.056725987771122574
1759683215.9106612,0,-1.2048869874920272,-0.8301052257336249,-0.7173645307064704,0.005981711334035113,-1.747754514695917,-0.34294036070793454,-0.7069964964732832,0.05653851565119285
1759683215.9236763,0,-1.1383968434613903,-0.7843044924444258,-0.67775421066859,0.0059594988537897305,-1.7501677073614441,-0.3407992044286895,-0.7050357323108268,0.0568076653412271
1759683215.9349606,0,-1.1383936032085118,-0.7843073213156452,-0.6777305450262006,0.0059594988537897305,-1.7520709258253853,-0.3391163194576222,-0.7034848782838026,0.05703828625144997
1759683215.9466763,0,-1.1383922822214285,-0.7843084745418833,-0.6777174017557828,0.0059594988537897305,-1.7535716234462155,-0.3377956698317864,-0.7022577287080769,0.05723950514060058
1759683215.958876,0,-1.1383916841600576,-0.7843089966163259,-0.6777512201956741,0.0059594988537897305,-1.7547536971390811,-0.3367622988360798,-0.7012868921627022,0.057418588636781044
1759683215.9693809,0,-1.1383917829960923,-0.7843089103206109,-0.6777275756749822,0.0059594988537897305,-1.7556878536708618,-0.33595190317402657,-0.7005159757654456,0.05757831507190585
1759683215.9798613,0,-1.138391825481902,-0.7843088732125525,-0.6777191917364762,0.0059594988537897305,-1.7564249831226095,-0.335318919245917,-0.6999040475945536,0.05772296727385478
1759683215.993131,0,-1.1383913030224382,-0.7843093292657269,-0.6777054767590349,0.0059594988537897305,-1.7569995972576054,-0.3348339243034417,-0.699422686962939,0.057859945854306975
1759683216.0038502,0,-1.1383915960011846,-0.784309073502065,-0.6777141435858153,0.0059594988537897305,-1.757449495730323,-0.33446152122648826,-0.6990421036214786,0.05798767609303484
1759683216.0146508,0,-1.1383916922043658,-0.7843089895133023,-0.6776982639071075,0.0059594988537897305,-1.757799210553165,-0.33417980563663674,-0.6987424695021069,0.05810850479836634
1759683216.024792,0,-1.1383918563100293,-0.7843088462544596,-0.6777075782622572,0.0059594988537897305,-1.7580694150341585,-0.3339699152722869,-0.6985072357343399,0.058223198469051725
1759683216.035521,0,-1.1383918054443862,-0.7843088906524032,-0.6777192626280374,0.0059594988537897305,-1.758274408743428,-0.33381942276441007,-0.6983246639219991,0.05833420862957603
1759683216.0470746,0,-1.1383916267908412,-0.7843090466015529,-0.6777108208182138,0.0059594988537897305,-1.7584252424625433,-0.333718899098809,-0.698185595647086,0.058443936080953704
1759683216.058185,0,-1.1383916441029993,-0.7843090314878531,-0.6776952396462568,0.0059594988537897305,-1.758532713730665,-0.3336583792679268,-0.6980814164079695,0.058552412859692954
1759683216.0689087,0,-1.1383917254468343,-0.7843089604799147,-0.6777015823663731,0.0059594988537897305,-1.7586053287680512,-0.333630020553192,-0.698005326849462,0.0586597173300446
1759683216.18128,0,-1.1327321375359034,-0.7895131807887675,-0.6710087921183268,0.039966611959632525,-1.7584949270011396,-0.3338254685638742,-0.6980505895516304,0.05893083024761858
1759683216.2073624,0,-1.1313390801545253,-0.790695461371273,-0.6678265639942133,0.039966611959632525,-1.7583596945331834,-0.3340473872059036,-0.6981148052774881,0.05920651544089367
1759683216.2176037,0,-1.130965439614465,-0.7910096973099209,-0.6661467147868108,0.039966611959632525,-1.7582266308114969,-0.3342622994745539,-0.6981802472784668,0.059461650031969245
1759683216.2290413,0,-1.130810114854243,-0.7911395924931353,-0.6649733876955886,0.039966611959632525,-1.7580930184262547,-0.3344743148974751,-0.6982482126987356,0.05970225468435689
1759683216.2402747,0,-1.1307524869871104,-0.7911871756327182,-0.6642040571195431,0.039966611959632525,-1.7579586784052348,-0.33468421877100074,-0.6983184601898645,0.0599310422288972
1759683216.2505739,0,-1.1307396858608305,-0.7911971726607065,-0.6636761723716254,0.039966611959632525,-1.757824666625684,-0.33489110680449774,-0.6983900367965499,0.06014888039547767
1759683216.2614954,0,-1.1307283196240592,-0.7912061808466242,-0.6633210382608166,0.039966611959632525,-1.7576893629068193,-0.335097482298941,-0.6984637116372101,0.06035930407242948
1759683216.271602,0,-1.1307321164583553,-0.7912025693635323,-0.6630629345411008,0.039966611959632525,-1.7575537450682028,-0.3353024181530199,-0.6985386707975781,0.06056260214110122
1759683216.2942336,0,-1.1193489537136831,-0.8016747086020891,-0.649314881997977,0.18908822983363252,-1.75945826512703,-0.3335238474336333,-0.6969489486747633,0.06086103148955785
1759683216.3062704,0,-1.1277942446691833,-0.8130892996770674,-0.6468118083096,0.19041385464168112,-1.7622342071359445,-0.33107309689909487,-0.6944534537331691,0.06132885501489924
1759683216.3163788,0,-1.1264923380819682,-0.8140642432169242,-0.6399686269892515,0.19041385464168112,-1.7644301494787882,-0.3291403771597138,-0.692471837686224,0.06172384773180684
1759683216.327182,0,-1.1259445347340642,-0.8144569064982479,-0.6348509912091628,0.19041385464168112,-1.766165934689463,-0.32761917731928575,-0.6908980368626365,0.06206304257323844
1759683216.338314,0,-1.1257081623670702,-0.814613632361601,-0.6311526920197243,0.19041385464168112,-1.767537014685659,-0.3264245139885652,-0.68964760114497,0.06235926192450514
1759683216.34928,0,-1.1256207376395593,-0.8146609629962129,-0.6285355435514591,0.19041385464168112,-1.7686196208226186,-0.32548827690908533,-0.6886532004055772,0.06262166042094533
1759683216.362417,0,-1.1254610245212884,-0.8147674770567419,-0.6263715683020611,0.19041385464168112,-1.769467677626501,-0.3247634989435836,-0.6878661658435529,0.06286216979514839
1759683216.374043,0,-1.1254811365741775,-0.8147407506848086,-0.6250650735503612,0.19041385464168112,-1.7701328464988928,-0.32420315293833124,-0.6872414909969173,0.06308296030344009
1759683216.386382,0,-1.125446349182372,-0.8147586862692606,-0.6240170687216172,0.19041385464168112,-1.7706503490999832,-0.3237761863493845,-0.6867476032993498,0.06329018745360959
1759683216.3968499,0,-1.1255366317991709,-0.8146849008922545,-0.6235131835789693,0.19041385464168112,-1.771053379186258,-0.32345191451446265,-0.6863559031489815,0.06348325499680886
1759683216.4087915,0,-1.1254872117202135,-0.8147181877794142,-0.6229508053477427,0.19041385464168112,-1.7713612599790731,-0.3232139866693596,-0.686048427355463,0.06366875582111436
1759683216.4214988,0,-1.1254244374774358,-0.8147624917204594,-0.6225344168484723,0.19041385464168112,-1.7715908581389004,-0.3230477622412377,-0.6858098087581965,0.06385063087607795
1759683216.433374,0,-1.1254467249258775,-0.8147437446600464,-0.6223717604881879,0.19041385464168112,-1.771758548730636,-0.3229381046259014,-0.6856259029398277,0.06402853181467323
1759683216.4439042,0,-1.1255307397269112,-0.8146796295165496,-0.6223856999298775,0.19041385464168112,-1.7718782266619533,-0.32287185320549516,-0.6854849507394041,0.0642008608355789
1759683216.4545271,0,-1.125557637052729,-0.8146590850985167,-0.6224130170034203,0.19041385464168112,-1.771958383441201,-0.3228415772722035,-0.6853792116631463,0.06436950271270554
1759683216.4660258,0,-1.12551868128557,-0.8146882426268193,-0.6223566239415828,0.19041385464168112,-1.772004428070309,-0.32284304641484846,-0.6853033155603624,0.06453788170800905
1759683216.4787114,0,-1.125437015423197,-0.8147494610445076,-0.6222106596480893,0.19041385464168112,-1.7720201109344946,-0.32287364985127526,-0.6852532696287917,0.06470969236110852
1759683216.5752077,0,-1.1115120227356519,-0.8236166028143813,-0.5923929487204214,0.09339565979359143,-1.7718623855475941,-0.3231119800932546,-0.685313224032453,0.06509128085170911
1759683216.590607,0,-1.1081860766030815,-0.8257948539008667,-0.5806198282366118,0.09339565979359143,-1.7716982849374332,-0.3233553716417349,-0.6853812243012588,0.0654583253822475
1759683216.60199,0,-1.107017661698482,-0.8265428550413431,-0.5734993426502593,0.09339565979359143,-1.771535077817994,-0.3235953119506818,-0.6854522113239648,0.0658046545925492
1759683216.6127641,0,-1.10658351919553,-0.8268124581688469,-0.5688894526328342,0.09339565979359143,-1.7713730748869763,-0.32383173800593296,-0.6855254302501401,0.06613305976877651
1759683216.625483,0,-1.1063603756116822,-0.8269475437601731,-0.565417819906868,0.09339565979359143,-1.77120775853315,-0.3240705863235258,-0.6856030569460109,0.06645271120125054
1759683216.636602,0,-1.1063171788286568,-0.8269674462047044,-0.5632768228670463,0.09339565979359143,-1.7710418331246405,-0.3243087873125999,-0.6856830972492609,0.06676190730582622
1759683216.6516213,0,-1.1061901179347604,-0.8270437311592773,-0.5610774127248714,0.09339565979359143,-1.7708669920001605,-0.3245570344342675,-0.685770051173281,0.06707457561129797
1759683216.6630867,0,-1.1062393304537033,-0.827007163573389,-0.5601616975193225,0.09339565979359143,-1.770690424505844,-0.32480661455168336,-0.6858594308884505,0.06738173166936826
1759683216.6765516,0,-1.1062015065880415,-0.8270283882482343,-0.5592077394312239,0.09339565979359143,-1.77050747078943,-0.3250636057415017,-0.6859536990430043,0.06769145805636538
1759683216.7124379,0,-1.0885816528494519,-0.8381575017552666,-0.5329717311946826,0.2062083907989743,-1.7702714220943452,-0.32538741729921405,-0.6860796058915358,0.06807359646448544
1759683216.7322335,0,-1.0830488584639526,-0.8412196021556546,-0.5163502765809439,0.2062083907989743,-1.7725475544258185,-0.32328287794264,-0.683390200356925,0.07016488839734908
1759683216.7486367,0,-1.089791257339412,-0.8494582874858309,-0.5084110551834999,0.2082819362009355,-1.7757776547222845,-0.320492842764327,-0.6794304920149805,0.0720247828850411
1759683216.7594428,0,-1.089413773820326,-0.8496077521608384,-0.5019199784084349,0.2082819362009355,-1.7783261462375344,-0.3183073975750516,-0.6762888380093128,0.07356566247502197
1759683216.7703645,0,-1.0892520001963106,-0.8496567977840691,-0.4972693575122714,0.2082819362009355,-1.7803372637672865,-0.31659738164390794,-0.6737933514755409,0.07485658527405258
1759683216.7829857,0,-1.0890685011621604,-0.84972806265556,-0.493479431766889,0.2082819362009355,-1.7819182943120646,-0.3152679022670625,-0.6718150005736948,0.07595872078441192
1759683216.7942715,0,-1.0890830657033252,-0.8496999949017187,-0.4911902814969511,0.2082819362009355,-1.7831638316565304,-0.3142340870433849,-0.6702415894987434,0.07690721756091212
1759683216.8051925,0,-1.0891099516827043,-0.849671899257906,-0.4896907100031609,0.2082819362009355,-1.7841440808315585,-0.31343350038658824,-0.6689892050797928,0.07773334740332039
1759683216.8169868,0,-1.0890590261943804,-0.8496895873488308,-0.48849774908889726,0.2077484601339322,-1.7849106948331062,-0.312821012415592,-0.6679951849915146,0.07846773801792888
1759683216.8284452,0,-1.0890606245866017,-0.8496821351073893,-0.4877381550323372,0.20755886290013315,-1.7855076459185948,-0.3123576720668262,-0.6672068470429908,0.07912888391673646
1759683216.8392572,0,-1.0891040326650003,-0.8496550034401691,-0.4873784243749763,0.20761643630513651,-1.7859701903508114,-0.31201211781248916,-0.666582086911146,0.07972960183945386
1759683216.850515,0,-1.0890901722831587,-0.849660069070671,-0.4871352698224871,0.20711829455762537,-1.7863235715915105,-0.3117625499704653,-0.6660899659721218,0.08028566928555131
1759683216.861085,0,-1.0891312068564776,-0.8496372216495143,-0.48713341765598284,0.20708578171967496,-1.7865903473067068,-0.3115888396967013,-0.6657036105177898,0.08080364147656875
1759683216.8723679,0,-1.0890985591547824,-0.8496538059076284,-0.4869530285903211,0.20750678481637877,-1.7867853603632124,-0.3114785795854033,-0.6654043283855899,0.08129634442629995
1759683216.8832624,0,-1.0891128046844984,-0.849646680370647,-0.4871667778207112,0.20640275614667714,-1.7869227750219034,-0.31141922613700074,-0.6651751361939855,0.081768109851739
1759683216.948448,0,-1.068463157647943,-0.8590065169982674,-0.4490011627593028,0.14902916314842363,-1.7868999615028163,-0.3115375362467633,-0.6650974167262488,0.08254107913993655
1759683216.9617429,0,-1.0628979063258952,-0.8614293010848217,-0.4323731563438038,0.14884592440455466,-1.786850811336092,-0.31167920544934075,-0.6650545484543184,0.08327449348418901
1759683216.9726043,0,-1.0608785972735364,-0.8622770965155464,-0.42200957419386614,0.1480200231932736,-1.786784348415744,-0.3118348083522167,-0.665036766379873,0.0839634273851192
1759683216.984296,0,-1.0600569907371171,-0.8626043094032755,-0.41462944742130176,0.1480857426902175,-1.786701274773535,-0.31200463249711446,-0.6650416124386206,0.08462281701500013
1759683216.9947107,0,-1.0598007793251434,-0.8626917198879581,-0.40989671447737147,0.14754224275607664,-1.786606488102987,-0.3121837293123427,-0.6650635481584444,0.08525198072040686
1759683217.0054371,0,-1.0596830955903758,-0.8627247371479765,-0.40638678314517074,0.14812585228306055,-1.7865007260110903,-0.3123720252910823,-0.6651006881064516,0.08586001655057567
1759683217.0186603,0,-1.0595096818625434,-0.8627838965725746,-0.4033567048390751,0.1470462014293395,-1.7863797535010746,-0.3125755365844244,-0.6651552862879248,0.0864691941769306
1759683217.0302858,0,-1.0595210496454484,-0.8627689278463833,-0.4015785699036323,0.14712545823066905,-1.7862486125402446,-0.3127888414932632,-0.6652223727262915,0.0870717556678076
1759683217.0419643,0,-1.059521264533555,-0.8627617764120862,-0.40033827352567153,0.14748008023562068,-1.7861080145941195,-0.31301166703118843,-0.6653006025219071,0.08767179453655144
1759683217.0526638,0,-1.0595698458570524,-0.8627376465673041,-0.39986779617034296,0.1468746241163646,-1.7859608159626483,-0.31324097709134446,-0.6653870821276415,0.08826559771418405
1759683217.0629306,0,-1.0596098736383142,-0.862719051751514,-0.3996629540879699,0.14693306861366787,-1.785808280309498,-0.3134755901050175,-0.6654802949777159,0.0888534656090545
1759683217.0777144,0,-1.0593974119271061,-0.8628034506798978,-0.39844684596464874,0.14692318790545358,-1.7856400344309065,-0.3137289181049044,-0.6655878439167159,0.08947134097676201
1759683217.0885293,0,-1.059515432594582,-0.8627536222169504,-0.3986769461416985,0.1464081575645505,-1.7854663921340277,-0.31398856032922207,-0.665701266032787,0.09008968466088324
1759683217.113429,0,-1.0526388078533815,-0.8651586555942673,-0.3873521155504879,0.07907474905270791,-1.7852536560532684,-0.31429747182989926,-0.6658462321997779,0.0908166736902091
1759683217.127507,0,-1.0500969267947486,-0.8661575959958339,-0.3811230820991263,0.07823485169624944,-1.7850306405408167,-0.3146203292943485,-0.6659999693114118,0.09156316855677026
1759683217.1382926,0,-1.0492106434128161,-0.8665007969157005,-0.37758099972147635,0.07862914427011285,-1.7848054195385894,-0.31494712408626624,-0.6661560221299455,0.09230536502080657
1759683217.1485665,0,-1.0488843220092738,-0.8666241971233504,-0.3753103227953381,0.07850434776661207,-1.784578568182614,-0.3152771319558566,-0.6663138013519351,0.09304291221163093
1759683217.1596577,0,-1.0487370302102654,-0.8666777320981851,-0.3735594579134102,0.07814960061653811,-1.7843472399647287,-0.31561399613070346,-0.6664753598366359,0.09378598930860085
1759683217.1706717,0,-1.0486820952117502,-0.8666960496444822,-0.3723397923682827,0.07815203629187556,-1.78411541621997,-0.31595270984191187,-0.6666375294777719,0.09452301515162104
1759683217.184234,0,-1.0485927947590616,-0.8667271742307753,-0.3709401500617203,0.07821276919791771,-1.7839072274419565,-0.3162622381942518,-0.6667818604583831,0.095178968151909
1759683217.1953318,0,-1.0486237610989533,-0.8667138417866453,-0.37058084413874487,0.07767499073335865,-1.7837202823072238,-0.3165449054687223,-0.6669103150311271,0.0957627663221653
1759683217.2065232,0,-1.0486330231324321,-0.8667094962680667,-0.3703704665727532,0.07777173940847207,-1.7835524289144824,-0.31680287734368506,-0.6670246396008691,0.0962823466936934
1759683217.21725,0,-1.04864891123334,-0.866703237150111,-0.37039687506597796,0.07763619599015883,-1.7834017311891794,-0.3170381677477897,-0.6671263884679395,0.09674477322435342
1759683217.2287755,0,-1.0820917311171832,-0.9040627158067952,-0.3643219048367701,0.083027574905844,-1.7830410365830673,-0.31814379357499883,-0.6671263884679395,0.09674477322435342
1759683217.2396083,0,-1.0821058345041779,-0.9040575760324193,-0.3645179236476203,0.08247404724337777,-1.7826803419769552,-0.31924941940220797,-0.6671263884679395,0.09674477322435342
1759683217.2503555,0,-1.0821139009022034,-0.9040549440548468,-0.364771406421462,0.08195788393975434,-1.7823196473708431,-0.3203550452294171,-0.6671263884679395,0.09674477322435342
1759683217.2674825,0,-1.0819286042689893,-0.9041239381259064,-0.3636728975914102,0.08247705365508733,-1.789361238326088,-0.3140024851728393,-0.6516829888231171,0.09394030128984789
1759683217.2811263,0,-1.0819603917520433,-0.9041114592691436,-0.36375502997520426,0.08174643551319531,-1.7949047873469142,-0.3089547826303649,-0.639485622199486,0.0917983010908225
1759683217.2951827,0,-1.055009099513842,-0.8740907534900945,-0.3687150345382985,0.07863616010806661,-1.7975894475399274,-0.3063188533304355,-0.6332668727391116,0.09125110583867539
1759683217.358142,0,-1.0214221804113868,-0.8856228057608599,-0.3366853445920582,0.20899317787204091,-1.7994734881015524,-0.3044723935799536,-0.6288302703853209,0.09126016952543696
1759683217.3687224,0,-1.0128139743392417,-0.8881715144232829,-0.32207361360004955,0.20834688206354054,-1.8009687359848012,-0.3030004022215559,-0.6252833257347753,0.09134332541279583
1759683217.3789883,0,-1.00953892196153,-0.889111814714126,-0.31330107086276865,0.2080296094181703,-1.802153953349339,-0.3018292902314907,-0.6224479039412196,0.091485282224963
1759683217.3902764,0,-1.0082034703158687,-0.889475763452077,-0.3071664917637906,0.20776369028595715,-1.8030866446635563,-0.3009055730136873,-0.6201925362775054,0.0916834877479979
1759683217.4015443,0,-1.0076891395929537,-0.8896003600423743,-0.30282188200633203,0.20788171163994815,-1.8038162770716373,-0.3001824399675279,-0.6184045316283074,0.09192876283631683
1759683217.4134746,0,-1.0074386862621454,-0.8896523939893494,-0.2996381967099122,0.20776025094518338,-1.804379938584912,-0.2996248387857609,-0.616998538123728,0.09221884107947119
1759683217.4263413,0,-1.0072691773981672,-0.8896845719214613,-0.29712666036166324,0.20799175408162618,-1.8048064158298502,-0.2992055255141784,-0.6159077342378436,0.09255428413558148
1759683217.4389677,0,-1.0072202308105753,-0.8896858056659979,-0.29543331498355496,0.20841444686018093,-1.805122142064799,-0.2988988751385977,-0.6150716710983795,0.09292734256622312
1759683217.449143,0,-1.0073856440514726,-0.8896314204747005,-0.29487006044318165,0.20834028124165216,-1.805354429704914,-0.29867744829744153,-0.6144299040780807,0.09331525652584376
1759683217.4600186,0,-1.0073954478024534,-0.8896243282581737,-0.29436226776444047,0.20866344707825651,-1.805516182861671,-0.2985288381216898,-0.613951678685632,0.09372246272374828
1759683217.471518,0,-1.0073517813831216,-0.8896339969458547,-0.29404481206335636,0.2079454032363241,-1.805617975998236,-0.29844284238761315,-0.6136116856974745,0.09415236969198346
1759683217.4841793,0,-1.007246806869218,-0.8896610119591797,-0.29350672551230367,0.20828061740120674,-1.8056667784508391,-0.2984129465529761,-0.6133923474451073,0.09461230399173463
