timestamp,vehicle_id,x,y,theta,velocity,gps_available,dt,gps_x,gps_y,gps_theta,gps_velocity,control_steering,control_acceleration
1759683212.625436,0,-1.205,-0.83,-0.7801621756414647,0.0,False,0.01,nan,nan,nan,nan,0.0,0.0
1759683212.6365983,0,-1.205,-0.83,-0.7801621756414647,0.0,False,0.011162281036376953,nan,nan,nan,nan,0.0,0.0
1759683212.6475606,0,-1.205,-0.83,-0.7801621756414647,0.0,False,0.010962247848510742,nan,nan,nan,nan,0.0,0.0
1759683212.6588323,0,-1.205,-0.83,-0.7801621756414647,0.0,False,0.01127171516418457,nan,nan,nan,nan,0.0,0.0
1759683212.6695595,0,-1.205,-0.83,-0.7801621756414647,0.0,False,0.010727167129516602,nan,nan,nan,nan,0.0,0.0
1759683212.6811497,0,-1.205,-0.83,-0.7801621756414647,0.0,False,0.011590242385864258,nan,nan,nan,nan,0.0,0.0
1759683212.692117,0,-1.205,-0.83,-0.7801621756414647,0.0,False,0.010967254638671875,nan,nan,nan,nan,0.0,0.0
1759683212.7025945,0,-1.205,-0.83,-0.7801621756414647,0.0,False,0.010477542877197266,nan,nan,nan,nan,0.0,0.0
1759683212.713172,0,-1.205,-0.83,-0.7801621756414647,0.0,False,0.01057744026184082,nan,nan,nan,nan,0.0,0.0
1759683212.724302,0,-1.205,-0.83,-0.7801621756414647,0.0,False,0.011130094528198242,nan,nan,nan,nan,0.0,0.0
1759683212.7348754,0,-1.205,-0.83,-0.7801621756414647,0.0,False,0.010573387145996094,nan,nan,nan,nan,0.0,0.0
1759683212.7464716,0,-1.205,-0.83,-0.7801621756414647,0.0,False,0.011596202850341797,nan,nan,nan,nan,0.0,0.0
1759683212.7565095,0,-1.205,-0.83,-0.7801621756414647,0.0,False,0.010037899017333984,nan,nan,nan,nan,0.0,0.0
1759683212.7680094,0,-1.205,-0.83,-0.7801621756414647,0.0,False,0.011499881744384766,nan,nan,nan,nan,0.0,0.0
1759683212.779081,0,-1.205,-0.83,-0.7801621756414647,0.0,False,0.01107168197631836,nan,nan,nan,nan,0.0,0.0
1759683212.7901502,0,-1.205,-0.83,-0.7801621756414647,0.0,False,0.011069059371948242,nan,nan,nan,nan,0.0,0.0
1759683212.800735,0,-1.205,-0.83,-0.7801621756414647,0.0,False,0.010584831237792969,nan,nan,nan,nan,0.0,0.0
1759683212.811592,0,-1.205,-0.83,-0.7801621756414647,0.0,False,0.010857105255126953,nan,nan,nan,nan,0.0,0.0
1759683212.826587,0,-1.2049998061259588,-0.8299996288021405,-0.7229997835949149,0.0,True,0.01499485969543457,-1.2049998044967651,-0.8299996256828308,-0.717703640460968,0.0,0.0,0.0
1759683212.837951,0,-1.2049998050413424,-0.829999626725497,-0.718113276883507,0.0,True,0.011363983154296875,-1.2049998044967651,-0.8299996256828308,-0.717703640460968,0.0,0.0,0.0
1759683212.8480136,0,-1.2049998047010528,-0.8299996260739668,-0.7176578890950633,0.0,True,0.010062694549560547,-1.2049998044967651,-0.8299996256828308,-0.717703640460968,0.0,0.0,0.0
1759683212.8583603,0,-1.2049998045745929,-0.8299996258318424,-0.717597563944139,0.0,True,0.010346651077270508,-1.2049998044967651,-0.8299996256828308,-0.717703640460968,0.0,0.0,0.0
1759683212.8692713,0,-1.2049998045264814,-0.8299996257397265,-0.717587945473424,0.0,True,0.010910987854003906,-1.2049998044967651,-0.8299996256828308,-0.717703640460968,0.0,0.0,0.0
1759683212.8794732,0,-1.2049998045081152,-0.8299996257045619,-0.7175958090389436,0.0,True,0.01020193099975586,-1.2049998044967651,-0.8299996256828308,-0.717703640460968,0.0,0.0,0.0
1759683212.89089,0,-1.2049998045011003,-0.8299996256911313,-0.7176051349290447,0.0,True,0.01141667366027832,-1.2049998044967651,-0.8299996256828308,-0.717703640460968,0.0,0.0,0.0
1759683212.901852,0,-1.204999804498421,-0.8299996256860013,-0.7176172113422687,0.0,True,0.01096200942993164,-1.2049998044967651,-0.8299996256828308,-0.717703640460968,0.0,0.0,0.0
1759683212.9120562,0,-1.2049998044973975,-0.8299996256840418,-0.7176292780732414,0.0,True,0.010204315185546875,-1.2049998044967651,-0.8299996256828308,-0.717703640460968,0.0,0.0,0.0
1759683212.9223647,0,-1.2049998044970067,-0.8299996256832933,-0.7176388583747126,0.0,True,0.010308504104614258,-1.2049998044967651,-0.8299996256828308,-0.717703640460968,0.0,0.0,0.0
1759683212.9326427,0,-1.2049998044968575,-0.8299996256830074,-0.7176466426603021,0.0,True,0.010277986526489258,-1.2049998044967651,-0.8299996256828308,-0.717703640460968,0.0,0.0,0.0
1759683212.9426658,0,-1.2049998044968004,-0.8299996256828983,-0.7176532507865652,0.0,True,0.010023117065429688,-1.2049998044967651,-0.8299996256828308,-0.717703640460968,0.0,0.0,0.0
1759683212.9540591,0,-1.2049998044967787,-0.8299996256828566,-0.7176574373606837,0.0,True,0.011393308639526367,-1.2049998044967651,-0.8299996256828308,-0.717703640460968,0.0,0.0,0.0
1759683212.9642756,0,-1.2049998044967702,-0.8299996256828407,-0.717662282324099,0.0,True,0.010216474533081055,-1.2049998044967651,-0.8299996256828308,-0.717703640460968,0.0,0.0,0.0
1759683212.9751832,0,-1.2049998044967671,-0.8299996256828346,-0.7176658432556202,0.0,True,0.010907649993896484,-1.2049998044967651,-0.8299996256828308,-0.717703640460968,0.0,0.0,0.0
1759683212.9859805,0,-1.2049998044967658,-0.8299996256828323,-0.7176690525791347,0.0,True,0.010797262191772461,-1.2049998044967651,-0.8299996256828308,-0.717703640460968,0.0,0.0,0.0
1759683212.996664,0,-1.2049998044967654,-0.8299996256828314,-0.7176719477377809,0.0,True,0.010683536529541016,-1.2049998044967651,-0.8299996256828308,-0.717703640460968,0.0,0.0,0.0
1759683213.0072842,0,-1.2049998044967651,-0.829999625682831,-0.7176745041573049,0.0,True,0.0106201171875,-1.2049998044967651,-0.8299996256828308,-0.717703640460968,0.0,0.0,0.0
1759683213.0773811,0,-1.2049998044967651,-0.8299996256828309,-0.7176578702619381,0.0,True,0.07009696960449219,-1.2049998044967651,-0.8299996256828308,-0.717703640460968,0.0,0.0,0.0
1759683213.0834343,0,-1.2049998044967651,-0.8299996256828308,-0.7176717104284407,0.0,True,0.00605320930480957,-1.2049998044967651,-0.8299996256828308,-0.717703640460968,0.0,0.0,0.0
1759683213.0946355,0,-1.2049998044967651,-0.8299996256828308,-0.7176794372785835,0.0,True,0.011201143264770508,-1.2049998044967651,-0.8299996256828308,-0.717703640460968,0.0,0.0,0.0
1759683213.1049535,0,-1.2049998044967651,-0.8299996256828308,-0.7176843180072368,0.0,True,0.01031804084777832,-1.2049998044967651,-0.8299996256828308,-0.717703640460968,0.0,0.0,0.0
1759683213.1150966,0,-1.2049998044967651,-0.8299996256828308,-0.7176875383934913,0.0,True,0.010143041610717773,-1.2049998044967651,-0.8299996256828308,-0.717703640460968,0.0,0.0,0.0
1759683213.1260781,0,-1.2049998044967651,-0.8299996256828308,-0.7176895569639274,0.0,True,0.010981559753417969,-1.2049998044967651,-0.8299996256828308,-0.717703640460968,0.0,0.0,0.0
1759683213.1373127,0,-1.2049998044967651,-0.8299996256828308,-0.7176909531888782,0.0,True,0.011234521865844727,-1.2049998044967651,-0.8299996256828308,-0.717703640460968,0.0,0.0,0.0
1759683213.1488407,0,-1.2049998044967651,-0.8299996256828308,-0.717691951349309,0.0,True,0.01152801513671875,-1.2049998044967651,-0.8299996256828308,-0.717703640460968,0.0,0.0,0.0
1759683213.160319,0,-1.2049998044967651,-0.8299996256828308,-0.717692756180881,0.0,True,0.011478424072265625,-1.2049998044967651,-0.8299996256828308,-0.717703640460968,0.0,0.0,0.0
1759683213.1714146,0,-1.2049998044967651,-0.8299996256828308,-0.7176934930259016,0.0,True,0.011095523834228516,-1.2049998044967651,-0.8299996256828308,-0.717703640460968,0.0,0.0,0.0
1759683213.1828918,0,-1.2049998044967651,-0.8299996256828308,-0.717694034934949,0.0,True,0.011477231979370117,-1.2049998044967651,-0.8299996256828308,-0.717703640460968,0.0,0.0,0.0
1759683213.1942766,0,-1.2049998044967651,-0.8299996256828308,-0.7176945196819204,0.0,True,0.011384725570678711,-1.2049998044967651,-0.8299996256828308,-0.717703640460968,0.0,0.0,0.0
1759683213.2045555,0,-1.2049998044967651,-0.8299996256828308,-0.7176951364446467,0.0,True,0.010278940200805664,-1.2049998044967651,-0.8299996256828308,-0.717703640460968,0.0,0.0,0.0
1759683213.2151427,0,-1.2049998044967651,-0.8299996256828308,-0.7176955998738404,0.0,True,0.010587215423583984,-1.2049998044967651,-0.8299996256828308,-0.717703640460968,0.0,0.0,0.0
1759683213.2286448,0,-1.2049998044967651,-0.8299996256828308,-0.7176955313270454,0.0,True,0.013502120971679688,-1.2049998044967651,-0.8299996256828308,-0.717703640460968,0.0,0.0,0.0
1759683213.2386553,0,-1.2049998044967651,-0.8299996256828308,-0.7176960873650771,0.0,True,0.010010480880737305,-1.2049998044967651,-0.8299996256828308,-0.717703640460968,0.0,0.0,0.0
1759683213.249482,0,-1.2049998044967651,-0.8299996256828308,-0.717696455792364,0.0,True,0.010826587677001953,-1.2049998044967651,-0.8299996256828308,-0.717703640460968,0.0,0.0,0.0
1759683213.2603996,0,-1.2049998044967651,-0.8299996256828308,-0.7176967579906091,0.0,True,0.01091766357421875,-1.2049998044967651,-0.8299996256828308,-0.717703640460968,0.0,0.0,0.0
1759683213.2706852,0,-1.2049998044967651,-0.8299996256828308,-0.717697117698691,0.0,True,0.010285615921020508,-1.2049998044967651,-0.8299996256828308,-0.717703640460968,0.0,0.0,0.0
1759683213.2819111,0,-1.2049998044967651,-0.8299996256828308,-0.7176973056390068,0.0,True,0.01122593879699707,-1.2049998044967651,-0.8299996256828308,-0.717703640460968,0.0,0.0,0.0
1759683213.2920256,0,-1.2049998044967651,-0.8299996256828308,-0.7176976319336532,0.0,True,0.010114431381225586,-1.2049998044967651,-0.8299996256828308,-0.717703640460968,0.0,0.0,0.0
1759683213.3033583,0,-1.2049998044967651,-0.8299996256828308,-0.7176977690391997,0.0,True,0.01133275032043457,-1.2049998044967651,-0.8299996256828308,-0.717703640460968,0.0,0.0,0.0
1759683213.3143082,0,-1.2049998044967651,-0.8299996256828308,-0.7176979586781655,0.0,True,0.010949850082397461,-1.2049998044967651,-0.8299996256828308,-0.717703640460968,0.0,0.0,0.0
1759683213.32525,0,-1.2049998044967651,-0.8299996256828308,-0.7176981495622616,0.0,True,0.010941743850708008,-1.2049998044967651,-0.8299996256828308,-0.717703640460968,0.0,0.0,0.0
1759683213.3353057,0,-1.2049998044967651,-0.8299996256828308,-0.7176984341129717,0.0,True,0.010055780410766602,-1.2049998044967651,-0.8299996256828308,-0.717703640460968,0.0,0.0,0.0
1759683213.3469121,0,-1.2049998044967651,-0.8299996256828308,-0.7176985158018248,0.0,True,0.011606454849243164,-1.2049998044967651,-0.8299996256828308,-0.717703640460968,0.0,0.0,0.0
1759683213.3583107,0,-1.2049998044967651,-0.8299996256828308,-0.7176986361951911,0.0,True,0.011398553848266602,-1.2049998044967651,-0.8299996256828308,-0.717703640460968,0.0,0.0,0.0
1759683213.3686883,0,-1.2049998044967651,-0.8299996256828308,-0.7176988752589821,0.0,True,0.010377645492553711,-1.2049998044967651,-0.8299996256828308,-0.717703640460968,0.0,0.0,0.0
1759683213.3800187,0,-1.2049998044967651,-0.8299996256828308,-0.7176989993601985,0.0,True,0.011330366134643555,-1.2049998044967651,-0.8299996256828308,-0.717703640460968,0.0,0.0,0.0
1759683213.390158,0,-1.2049998044967651,-0.8299996256828308,-0.7176992372766708,0.0,True,0.010139226913452148,-1.2049998044967651,-0.8299996256828308,-0.717703640460968,0.0,0.0,0.0
1759683213.4006634,0,-1.2049998044967651,-0.8299996256828308,-0.7176994148257005,0.0,True,0.010505437850952148,-1.2049998044967651,-0.8299996256828308,-0.717703640460968,0.0,0.0,0.0
1759683213.4110487,0,-1.2049998044967651,-0.8299996256828308,-0.7176995841493756,0.0,True,0.010385274887084961,-1.2049998044967651,-0.8299996256828308,-0.717703640460968,0.0,0.0,0.0
1759683213.4363477,0,-1.2049998044967651,-0.8299996256828308,-0.7176985254153188,0.0,True,0.025299072265625,-1.2049998044967651,-0.8299996256828308,-0.717703640460968,0.0,0.0,0.0
1759683213.4451945,0,-1.2049998044967651,-0.8299996256828308,-0.7176991412899252,0.0,True,0.008846759796142578,-1.2049998044967651,-0.8299996256828308,-0.717703640460968,0.0,0.0,0.0
1759683213.455302,0,-1.2049998044967651,-0.8299996256828308,-0.7176995957569261,0.0,True,0.01010751724243164,-1.2049998044967651,-0.8299996256828308,-0.717703640460968,0.0,0.0,0.0
1759683213.466256,0,-1.2049998044967651,-0.8299996256828308,-0.717699875620454,0.0,True,0.010953903198242188,-1.2049998044967651,-0.8299996256828308,-0.717703640460968,0.0,0.0,0.0
1759683213.476607,0,-1.2049998044967651,-0.8299996256828308,-0.7177001377095475,0.0,True,0.010351181030273438,-1.2049998044967651,-0.8299996256828308,-0.717703640460968,0.0,0.0,0.0
1759683213.487617,0,-1.2049998044967651,-0.8299996256828308,-0.7177003059040192,0.0,True,0.011009931564331055,-1.2049998044967651,-0.8299996256828308,-0.717703640460968,0.0,0.0,0.0
1759683213.497743,0,-1.2049998044967651,-0.8299996256828308,-0.7177005067546993,0.0,True,0.010125875473022461,-1.2049998044967651,-0.8299996256828308,-0.717703640460968,0.0,0.0,0.0
1759683213.508577,0,-1.2049998044967651,-0.8299996256828308,-0.7177006308819429,0.0,True,0.010834217071533203,-1.2049998044967651,-0.8299996256828308,-0.717703640460968,0.0,0.0,0.0
1759683213.518837,0,-1.2049998044967651,-0.8299996256828308,-0.7177007758937499,0.0,True,0.010259866714477539,-1.2049998044967651,-0.8299996256828308,-0.717703640460968,0.0,0.0,0.0
1759683213.5300999,0,-1.2049998044967651,-0.8299996256828308,-0.7177008438879753,0.0,True,0.011262893676757812,-1.2049998044967651,-0.8299996256828308,-0.717703640460968,0.0,0.0,0.0
1759683213.5410008,0,-1.2049998044967651,-0.8299996256828308,-0.7177009346933811,0.0,True,0.01090097427368164,-1.2049998044967651,-0.8299996256828308,-0.717703640460968,0.0,0.0,0.0
1759683213.551043,0,-1.2049998044967651,-0.8299996256828308,-0.7177010719091506,0.0,True,0.010042190551757812,-1.2049998044967651,-0.8299996256828308,-0.717703640460968,0.0,0.0,0.0
1759683213.5622382,0,-1.2049998044967651,-0.8299996256828308,-0.7177011303745999,0.0,True,0.011195182800292969,-1.2049998044967651,-0.8299996256828308,-0.717703640460968,0.0,0.0,0.0
1759683213.5724928,0,-1.2049998044967651,-0.8299996256828308,-0.7177012394438016,0.0,True,0.010254621505737305,-1.2049998044967651,-0.8299996256828308,-0.717703640460968,0.0,0.0,0.0
1759683213.5825472,0,-1.2049998044967651,-0.8299996256828308,-0.7177013492670383,0.0,True,0.010054349899291992,-1.2049998044967651,-0.8299996256828308,-0.717703640460968,0.0,0.0,0.0
1759683213.5929275,0,-1.2049998044967651,-0.8299996256828308,-0.717701429465512,0.0,True,0.010380268096923828,-1.2049998044967651,-0.8299996256828308,-0.717703640460968,0.0,0.0,0.0
1759683213.6041808,0,-1.2049998044967651,-0.8299996256828308,-0.7177014620574411,0.0,True,0.01125335693359375,-1.2049998044967651,-0.8299996256828308,-0.717703640460968,0.0,0.0,0.0
1759683213.6145546,0,-1.2049998044967651,-0.8299996256828308,-0.7177015432363714,0.0,True,0.010373830795288086,-1.2049998044967651,-0.8299996256828308,-0.717703640460968,0.0,0.0,0.0
1759683213.6315308,0,-1.2049998044967651,-0.8299996256828308,-0.7177013354097781,0.0,True,0.016976118087768555,-1.2049998044967651,-0.8299996256828308,-0.717703640460968,0.0,0.0,0.0
1759683213.6419601,0,-1.2049998044967651,-0.8299996256828308,-0.7177014853879378,0.0,True,0.01042938232421875,-1.2049998044967651,-0.8299996256828308,-0.717703640460968,0.0,0.0,0.0
1759683213.653295,0,-1.2049998044967651,-0.8299996256828308,-0.7177015930304478,0.0,True,0.011334896087646484,-1.2049998044967651,-0.8299996256828308,-0.717703640460968,0.0,0.0,0.0
1759683213.6639357,0,-1.2049998044967651,-0.8299996256828308,-0.7177017127253258,0.0,True,0.010640621185302734,-1.2049998044967651,-0.8299996256828308,-0.717703640460968,0.0,0.0,0.0
1759683213.6739802,0,-1.2049998044967651,-0.8299996256828308,-0.7177018366400034,0.0,True,0.010044574737548828,-1.2049998044967651,-0.8299996256828308,-0.717703640460968,0.0,0.0,0.0
1759683213.6849868,0,-1.2049998044967651,-0.8299996256828308,-0.7177019039178916,0.0,True,0.011006593704223633,-1.2049998044967651,-0.8299996256828308,-0.717703640460968,0.0,0.0,0.0
1759683213.6954978,0,-1.2049998044967651,-0.8299996256828308,-0.7177019814442609,0.0,True,0.010510921478271484,-1.2049998044967651,-0.8299996256828308,-0.717703640460968,0.0,0.0,0.0
1759683213.7056663,0,-1.2049998044967651,-0.8299996256828308,-0.7177020625633475,0.0,True,0.01016855239868164,-1.2049998044967651,-0.8299996256828308,-0.717703640460968,0.0,0.0,0.0
1759683213.7164214,0,-1.2049998044967651,-0.8299996256828308,-0.7177021137239805,0.0,True,0.010755062103271484,-1.2049998044967651,-0.8299996256828308,-0.717703640460968,0.0,0.0,0.0
1759683213.7274234,0,-1.2049998044967651,-0.8299996256828308,-0.7177021539571236,0.0,True,0.011002063751220703,-1.2049998044967651,-0.8299996256828308,-0.717703640460968,0.0,0.0,0.0
1759683213.738715,0,-1.2049998044967651,-0.8299996256828308,-0.7177021867016631,0.0,True,0.01129150390625,-1.2049998044967651,-0.8299996256828308,-0.717703640460968,0.0,0.0,0.0
1759683213.7489166,0,-1.2049998044967651,-0.8299996256828308,-0.7177022556307691,0.0,True,0.010201692581176758,-1.2049998044967651,-0.8299996256828308,-0.717703640460968,0.0,0.0,0.0
1759683213.7590294,0,-1.2049998044967651,-0.8299996256828308,-0.7177023203422443,0.0,True,0.010112762451171875,-1.2049998044967651,-0.8299996256828308,-0.717703640460968,0.0,0.0,0.0
1759683213.7690852,0,-1.2049998044967651,-0.8299996256828308,-0.7177023781613041,0.0,True,0.010055780410766602,-1.2049998044967651,-0.8299996256828308,-0.717703640460968,0.0,0.0,0.0
1759683213.780809,0,-1.2049998044967651,-0.8299996256828308,-0.7177023839482075,0.0,True,0.011723756790161133,-1.2049998044967651,-0.8299996256828308,-0.717703640460968,0.0,0.0,0.0
1759683213.7913373,0,-1.2049998044967651,-0.8299996256828308,-0.7177024290230936,0.0,True,0.010528326034545898,-1.2049998044967651,-0.8299996256828308,-0.717703640460968,0.0,0.0,0.0
1759683213.8020184,0,-1.2049998044967651,-0.8299996256828308,-0.7177024698196384,0.0,True,0.01068115234375,-1.2049998044967651,-0.8299996256828308,-0.717703640460968,0.0,0.0,0.0
1759683213.8130317,0,-1.2049998044967651,-0.8299996256828308,-0.7177025007793745,0.0,True,0.011013269424438477,-1.2049998044967651,-0.8299996256828308,-0.717703640460968,0.0,0.0,0.0
1759683213.8255026,0,-1.2049998044967651,-0.8299996256828308,-0.7177024988178005,0.0,True,0.01247096061706543,-1.2049998044967651,-0.8299996256828308,-0.717703640460968,0.0,0.0,0.0
1759683213.8349566,0,-1.2049998044967651,-0.8299996256828308,-0.7177025764810345,0.0,True,0.009454011917114258,-1.2049998044967651,-0.8299996256828308,-0.717703640460968,0.0,0.0,0.0
1759683213.8462758,0,-1.2049998044967651,-0.8299996256828308,-0.7177026028765567,0.0,True,0.011319160461425781,-1.2049998044967651,-0.8299996256828308,-0.717703640460968,0.0,0.0,0.0
1759683213.8565302,0,-1.2049998044967651,-0.8299996256828308,-0.717702651185661,0.0,True,0.010254383087158203,-1.2049998044967651,-0.8299996256828308,-0.717703640460968,0.0,0.0,0.0
1759683213.8678155,0,-1.2049998044967651,-0.8299996256828308,-0.7177026737915249,0.0,True,0.01128530502319336,-1.2049998044967651,-0.8299996256828308,-0.717703640460968,0.0,0.0,0.0
1759683213.8789806,0,-1.2049998044967651,-0.8299996256828308,-0.7177027001020555,0.0,True,0.011165142059326172,-1.2049998044967651,-0.8299996256828308,-0.717703640460968,0.0,0.0,0.0
1759683213.8901975,0,-1.2049998044967651,-0.8299996256828308,-0.7177027269480618,0.0,True,0.011216878890991211,-1.2049998044967651,-0.8299996256828308,-0.717703640460968,0.0,0.0,0.0
1759683213.9011104,0,-1.2049998044967651,-0.8299996256828308,-0.717702760326139,0.0,True,0.010912895202636719,-1.2049998044967651,-0.8299996256828308,-0.717703640460968,0.0,0.0,0.0
1759683213.9120724,0,-1.2049998044967651,-0.8299996256828308,-0.7177027915222212,0.0,True,0.01096200942993164,-1.2049998044967651,-0.8299996256828308,-0.717703640460968,0.0,0.0,0.0
1759683213.923435,0,-1.2049998044967651,-0.8299996256828308,-0.7177028144984074,0.0,True,0.011362552642822266,-1.2049998044967651,-0.8299996256828308,-0.717703640460968,0.0,0.0,0.0
1759683213.9344087,0,-1.2049998044967651,-0.8299996256828308,-0.7177028447904981,0.0,True,0.010973691940307617,-1.2049998044967651,-0.8299996256828308,-0.717703640460968,0.0,0.0,0.0
1759683213.94565,0,-1.2049998044967651,-0.8299996256828308,-0.7177028697510579,0.0,True,0.011241436004638672,-1.2049998044967651,-0.8299996256828308,-0.717703640460968,0.0,0.0,0.0
1759683213.9562855,0,-1.2049998044967651,-0.8299996256828308,-0.7177029038004399,0.0,True,0.0106353759765625,-1.2049998044967651,-0.8299996256828308,-0.717703640460968,0.0,0.0,0.0
1759683213.9674683,0,-1.2049998044967651,-0.8299996256828308,-0.7177029267575783,0.0,True,0.011182785034179688,-1.2049998044967651,-0.8299996256828308,-0.717703640460968,0.0,0.0,0.0
1759683213.9776514,0,-1.2049998044967651,-0.8299996256828308,-0.7177029634681809,0.0,True,0.010183095932006836,-1.2049998044967651,-0.8299996256828308,-0.717703640460968,0.0,0.0,0.0
1759683213.9890816,0,-1.2049998044967651,-0.8299996256828308,-0.7177029784861944,0.0,True,0.01143026351928711,-1.2049998044967651,-0.8299996256828308,-0.717703640460968,0.0,0.0,0.0
1759683214.0003042,0,-1.2049998044967651,-0.8299996256828308,-0.7177029972167439,0.0,True,0.011222600936889648,-1.2049998044967651,-0.8299996256828308,-0.717703640460968,0.0,0.0,0.0
1759683214.0105593,0,-1.2049998044967651,-0.8299996256828308,-0.7177030293208482,0.0,True,0.010255098342895508,-1.2049998044967651,-0.8299996256828308,-0.717703640460968,0.0,0.0,0.0
1759683214.0212216,0,-1.2049998044967651,-0.8299996256828308,-0.7177030527610384,0.0,True,0.010662317276000977,-1.2049998044967651,-0.8299996256828308,-0.717703640460968,0.0,0.0,0.0
1759683214.040496,0,-1.2049998044967651,-0.8299996256828308,-0.7177029725492101,0.0,True,0.019274473190307617,-1.2049998044967651,-0.8299996256828308,-0.717703640460968,0.0,0.0,0.0
1759683214.0514472,0,-1.2049998044967651,-0.8299996256828308,-0.7177030185685727,0.0,True,0.010951042175292969,-1.2049998044967651,-0.8299996256828308,-0.717703640460968,0.0,0.0,0.0
1759683214.0618672,0,-1.2049998044967651,-0.8299996256828308,-0.7177030691179169,0.0,True,0.010420083999633789,-1.2049998044967651,-0.8299996256828308,-0.717703640460968,0.0,0.0,0.0
1759683214.0720792,0,-1.2049998044967651,-0.8299996256828308,-0.7177031117496888,0.0,True,0.010211944580078125,-1.2049998044967651,-0.8299996256828308,-0.717703640460968,0.0,0.0,0.0
1759683214.0831568,0,-1.2049998044967651,-0.8299996256828308,-0.7177031368370059,0.0,True,0.011077642440795898,-1.2049998044967651,-0.8299996256828308,-0.717703640460968,0.0,0.0,0.0
1759683214.0945737,0,-1.2049998044967651,-0.8299996256828308,-0.7177031548840844,0.0,True,0.011416912078857422,-1.2049998044967651,-0.8299996256828308,-0.717703640460968,0.0,0.0,0.0
1759683214.1062064,0,-1.2049998044967651,-0.8299996256828308,-0.7177031699209149,0.0,True,0.011632680892944336,-1.2049998044967651,-0.8299996256828308,-0.717703640460968,0.0,0.0,0.0
1759683214.1174858,0,-1.2049998044967651,-0.8299996256828308,-0.717703188271603,0.0,True,0.01127934455871582,-1.2049998044967651,-0.8299996256828308,-0.717703640460968,0.0,0.0,0.0
1759683214.1303496,0,-1.2049998044967651,-0.8299996256828308,-0.7177031919781136,0.0,True,0.012863874435424805,-1.2049998044967651,-0.8299996256828308,-0.717703640460968,0.0,0.0,0.0
1759683214.140766,0,-1.2049998044967651,-0.8299996256828308,-0.7177032194864701,0.0,True,0.010416269302368164,-1.2049998044967651,-0.8299996256828308,-0.717703640460968,0.0,0.0,0.0
1759683214.1508868,0,-1.2049998044967651,-0.8299996256828308,-0.7177032461271438,0.0,True,0.010120868682861328,-1.2049998044967651,-0.8299996256828308,-0.717703640460968,0.0,0.0,0.0
1759683214.1610491,0,-1.2049998044967651,-0.8299996256828308,-0.7177032677029551,0.0,True,0.010162353515625,-1.2049998044967651,-0.8299996256828308,-0.717703640460968,0.0,0.0,0.0
1759683214.1711583,0,-1.2049998044967651,-0.8299996256828308,-0.7177032860702113,0.0,True,0.010109186172485352,-1.2049998044967651,-0.8299996256828308,-0.717703640460968,0.0,0.0,0.0
1759683214.1820998,0,-1.2049998044967651,-0.8299996256828308,-0.7177032955448226,0.0,True,0.010941505432128906,-1.2049998044967651,-0.8299996256828308,-0.717703640460968,0.0,0.0,0.0
1759683214.192156,0,-1.2049998044967651,-0.8299996256828308,-0.7177033112135263,0.0,True,0.010056257247924805,-1.2049998044967651,-0.8299996256828308,-0.717703640460968,0.0,0.0,0.0
1759683214.203679,0,-1.2049998044967651,-0.8299996256828308,-0.7177033150900431,0.0,True,0.011523008346557617,-1.2049998044967651,-0.8299996256828308,-0.717703640460968,0.0,0.0,0.0
1759683214.2140749,0,-1.2049998044967651,-0.8299996256828308,-0.717703327934192,0.0,True,0.01039576530456543,-1.2049998044967651,-0.8299996256828308,-0.717703640460968,0.0,0.0,0.0
1759683214.224982,0,-1.2049998044967651,-0.8299996256828308,-0.7177033368434422,0.0,True,0.010907173156738281,-1.2049998044967651,-0.8299996256828308,-0.717703640460968,0.0,0.0,0.0
1759683214.2507215,0,-1.2049998044967651,-0.8299996256828308,-0.7177032566936798,0.0,True,0.025739431381225586,-1.2049998044967651,-0.8299996256828308,-0.717703640460968,0.0,0.0,0.0
1759683214.2612636,0,-1.2049998044967651,-0.8299996256828308,-0.717703294274326,0.0,True,0.010542154312133789,-1.2049998044967651,-0.8299996256828308,-0.717703640460968,0.0,0.0,0.0
1759683214.2722914,0,-1.2049998044967651,-0.8299996256828308,-0.7177033269601232,0.0,True,0.011027812957763672,-1.2049998044967651,-0.8299996256828308,-0.717703640460968,0.0,0.0,0.0
1759683214.2835665,0,-1.2049998044967651,-0.8299996256828308,-0.7177033509336468,0.0,True,0.011275053024291992,-1.2049998044967651,-0.8299996256828308,-0.717703640460968,0.0,0.0,0.0
1759683214.293724,0,-1.2049998044967651,-0.8299996256828308,-0.7177033754992337,0.0,True,0.010157585144042969,-1.2049998044967651,-0.8299996256828308,-0.717703640460968,0.0,0.0,0.0
1759683214.3049314,0,-1.2049998044967651,-0.8299996256828308,-0.7177033897402296,0.0,True,0.011207342147827148,-1.2049998044967651,-0.8299996256828308,-0.717703640460968,0.0,0.0,0.0
1759683214.3152866,0,-1.2049998044967651,-0.8299996256828308,-0.7177034055010818,0.0,True,0.010355234146118164,-1.2049998044967651,-0.8299996256828308,-0.717703640460968,0.0,0.0,0.0
1759683214.3259678,0,-1.2049998044967651,-0.8299996256828308,-0.7177034171193792,0.0,True,0.01068115234375,-1.2049998044967651,-0.8299996256828308,-0.717703640460968,0.0,0.0,0.0
1759683214.336672,0,-1.2049998044967651,-0.8299996256828308,-0.7177034268916707,0.0,True,0.010704278945922852,-1.2049998044967651,-0.8299996256828308,-0.717703640460968,0.0,0.0,0.0
1759683214.3475301,0,-1.2049998044967651,-0.8299996256828308,-0.7177034348646849,0.0,True,0.01085805892944336,-1.2049998044967651,-0.8299996256828308,-0.717703640460968,0.0,0.0,0.0
1759683214.3575346,0,-1.2049998044967651,-0.8299996256828308,-0.7177034457573654,0.0,True,0.010004520416259766,-1.2049998044967651,-0.8299996256828308,-0.717703640460968,0.0,0.0,0.0
1759683214.368893,0,-1.2049998044967651,-0.8299996256828308,-0.7177034496762573,0.0,True,0.011358261108398438,-1.2049998044967651,-0.8299996256828308,-0.717703640460968,0.0,0.0,0.0
1759683214.379758,0,-1.2049998044967651,-0.8299996256828308,-0.7177034557805868,0.0,True,0.010864973068237305,-1.2049998044967651,-0.8299996256828308,-0.717703640460968,0.0,0.0,0.0
1759683214.3912942,0,-1.2049998044967651,-0.8299996256828308,-0.7177034593359046,0.0,True,0.011536359786987305,-1.2049998044967651,-0.8299996256828308,-0.717703640460968,0.0,0.0,0.0
1759683214.4019258,0,-1.2049998044967651,-0.8299996256828308,-0.7177034667634423,0.0,True,0.010631561279296875,-1.2049998044967651,-0.8299996256828308,-0.717703640460968,0.0,0.0,0.0
1759683214.4130833,0,-1.2049998044967651,-0.8299996256828308,-0.7177034718788526,0.0,True,0.011157512664794922,-1.2049998044967651,-0.8299996256828308,-0.717703640460968,0.0,0.0,0.0
1759683214.423851,0,-1.2049998044967651,-0.8299996256828308,-0.717703478255169,0.0,True,0.010767698287963867,-1.2049998044967651,-0.8299996256828308,-0.717703640460968,0.0,0.0,0.0
1759683214.4583995,0,-1.2049998044967651,-0.8299996256828308,-0.7177034115687917,0.0,True,0.03454852104187012,-1.2049998044967651,-0.8299996256828308,-0.717703640460968,0.0,0.0,0.0
1759683214.4689567,0,-1.2049998044967651,-0.8299996256828308,-0.717703440400447,0.0,True,0.010557174682617188,-1.2049998044967651,-0.8299996256828308,-0.717703640460968,0.0,0.0,0.0
1759683214.4804838,0,-1.2049998044967651,-0.8299996256828308,-0.7177034640724305,0.0,True,0.011527061462402344,-1.2049998044967651,-0.8299996256828308,-0.717703640460968,0.0,0.0,0.0
1759683214.4920611,0,-1.2049998044967651,-0.8299996256828308,-0.7177034815397185,0.0,True,0.011577367782592773,-1.2049998044967651,-0.8299996256828308,-0.717703640460968,0.0,0.0,0.0
1759683214.5020978,0,-1.2049998044967651,-0.8299996256828308,-0.7177034986145934,0.0,True,0.010036706924438477,-1.2049998044967651,-0.8299996256828308,-0.717703640460968,0.0,0.0,0.0
1759683214.513962,0,-1.2049998044967651,-0.8299996256828308,-0.7177035071575517,0.0,True,0.011864185333251953,-1.2049998044967651,-0.8299996256828308,-0.717703640460968,0.0,0.0,0.0
1759683214.5246859,0,-1.2049998044967651,-0.8299996256828308,-0.7177035166214196,0.0,True,0.01072382926940918,-1.2049998044967651,-0.8299996256828308,-0.717703640460968,0.0,0.0,0.0
1759683214.5348673,0,-1.2049998044967651,-0.8299996256828308,-0.7177035255900002,0.0,True,0.010181427001953125,-1.2049998044967651,-0.8299996256828308,-0.717703640460968,0.0,0.0,0.0
1759683214.5457914,0,-1.2049998044967651,-0.8299996256828308,-0.7177035311327487,0.0,True,0.010924100875854492,-1.2049998044967651,-0.8299996256828308,-0.717703640460968,0.0,0.0,0.0
1759683214.556098,0,-1.2049998044967651,-0.8299996256828308,-0.7177035371081715,0.0,True,0.010306596755981445,-1.2049998044967651,-0.8299996256828308,-0.717703640460968,0.0,0.0,0.0
1759683214.566262,0,-1.2049998044967651,-0.8299996256828308,-0.7177035424678433,0.0,True,0.010164022445678711,-1.2049998044967651,-0.8299996256828308,-0.717703640460968,0.0,0.0,0.0
1759683214.5777147,0,-1.2049998044967651,-0.8299996256828308,-0.7177035443828714,0.0,True,0.011452674865722656,-1.2049998044967651,-0.8299996256828308,-0.717703640460968,0.0,0.0,0.0
1759683214.5877564,0,-1.2049998044967651,-0.8299996256828308,-0.7177035491847121,0.0,True,0.01004171371459961,-1.2049998044967651,-0.8299996256828308,-0.717703640460968,0.0,0.0,0.0
1759683214.597836,0,-1.2049998044967651,-0.8299996256828308,-0.7177035533747596,0.0,True,0.010079622268676758,-1.2049998044967651,-0.8299996256828308,-0.717703640460968,0.0,0.0,0.0
1759683214.6089828,0,-1.2049998044967651,-0.8299996256828308,-0.7177035550100488,0.0,True,0.011146783828735352,-1.2049998044967651,-0.8299996256828308,-0.717703640460968,0.0,0.0,0.0
1759683214.6197107,0,-1.2049998044967651,-0.8299996256828308,-0.7177035575368187,0.0,True,0.010727882385253906,-1.2049998044967651,-0.8299996256828308,-0.717703640460968,0.0,0.0,0.0
1759683214.630392,0,-1.2049998044967651,-0.8299996256828308,-0.7177035601641837,0.0,True,0.010681390762329102,-1.2049998044967651,-0.8299996256828308,-0.717703640460968,0.0,0.0,0.0
1759683214.655218,0,-1.2049998044967651,-0.8299996256828308,-0.7177035399569611,0.0,True,0.0248258113861084,-1.2049998044967651,-0.8299996256828308,-0.717703640460968,0.0,0.0,0.0
1759683214.6636207,0,-1.2049998044967651,-0.8299996256828308,-0.7177035524737523,0.0,True,0.008402824401855469,-1.2049998044967651,-0.8299996256828308,-0.717703640460968,0.0,0.0,0.0
1759683214.6737669,0,-1.2049998044967651,-0.8299996256828308,-0.7177035609326872,0.0,True,0.010146141052246094,-1.2049998044967651,-0.8299996256828308,-0.717703640460968,0.0,0.0,0.0
1759683214.6850352,0,-1.2049998044967651,-0.8299996256828308,-0.7177035656450172,0.0,True,0.011268377304077148,-1.2049998044967651,-0.8299996256828308,-0.717703640460968,0.0,0.0,0.0
1759683214.6955163,0,-1.2049998044967651,-0.8299996256828308,-0.71770357051569,0.0,True,0.010481119155883789,-1.2049998044967651,-0.8299996256828308,-0.717703640460968,0.0,0.0,0.0
1759683214.7056527,0,-1.2049998044967651,-0.8299996256828308,-0.717703574990999,0.0,True,0.01013636589050293,-1.2049998044967651,-0.8299996256828308,-0.717703640460968,0.0,0.0,0.0
1759683214.7162576,0,-1.2049998044967651,-0.8299996256828308,-0.7177035780281784,0.0,True,0.0106048583984375,-1.2049998044967651,-0.8299996256828308,-0.717703640460968,0.0,0.0,0.0
1759683214.7275956,0,-1.2049998044967651,-0.8299996256828308,-0.7177035796913245,0.0,True,0.011337995529174805,-1.2049998044967651,-0.8299996256828308,-0.717703640460968,0.0,0.0,0.0
1759683214.7388792,0,-1.2049998044967651,-0.8299996256828308,-0.7177035814211017,0.0,True,0.011283636093139648,-1.2049998044967651,-0.8299996256828308,-0.717703640460968,0.0,0.0,0.0
1759683214.751168,0,-1.2049998044967651,-0.8299996256828308,-0.7177035820199649,0.0,True,0.012288808822631836,-1.2049998044967651,-0.8299996256828308,-0.717703640460968,0.0,0.0,0.0
1759683214.7618814,0,-1.2049998044967651,-0.8299996256828308,-0.7177035847810984,0.0,True,0.010713338851928711,-1.2049998044967651,-0.8299996256828308,-0.717703640460968,0.0,0.0,0.0
1759683214.7725353,0,-1.2049998044967651,-0.8299996256828308,-0.7177035873960573,0.0,True,0.010653972625732422,-1.2049998044967651,-0.8299996256828308,-0.717703640460968,0.0,0.0,0.0
1759683214.7829285,0,-1.2049998044967651,-0.8299996256828308,-0.7177035899633566,0.0,True,0.010393142700195312,-1.2049998044967651,-0.8299996256828308,-0.717703640460968,0.0,0.0,0.0
1759683214.7934864,0,-1.2049998044967651,-0.8299996256828308,-0.7177035920200971,0.0,True,0.010557889938354492,-1.2049998044967651,-0.8299996256828308,-0.717703640460968,0.0,0.0,0.0
1759683214.8052282,0,-1.2049998044967651,-0.8299996256828308,-0.717703592676159,0.0,True,0.011741876602172852,-1.2049998044967651,-0.8299996256828308,-0.717703640460968,0.0,0.0,0.0
1759683214.8160768,0,-1.2049998044967651,-0.8299996256828308,-0.717703594395303,0.0,True,0.010848522186279297,-1.2049998044967651,-0.8299996256828308,-0.717703640460968,0.0,0.0,0.0
1759683214.863376,0,-1.2049998044967651,-0.8299996256828308,-0.7177035660525046,0.0,True,0.04729914665222168,-1.2049998044967651,-0.8299996256828308,-0.717703640460968,0.0,0,0
1759683214.8765116,0,-1.2049998044967651,-0.8299996256828308,-0.7177035760194919,0.0,True,0.013135671615600586,-1.2049998044967651,-0.8299996256828308,-0.717703640460968,0.0,0,0
1759683214.8870058,0,-1.2049998044967651,-0.8299996256828308,-0.7177035869835304,0.0,True,0.010494232177734375,-1.2049998044967651,-0.8299996256828308,-0.717703640460968,0.0,0,0
1759683214.8972218,0,-1.2049998044967651,-0.8299996256828308,-0.7177035949971682,0.0,True,0.010215997695922852,-1.2049998044967651,-0.8299996256828308,-0.717703640460968,0.0,0,0
1759683214.9084508,0,-1.2049998044967651,-0.8299996256828308,-0.7177036000152022,0.0,True,0.01122903823852539,-1.2049998044967651,-0.8299996256828308,-0.717703640460968,0.0,0,0
1759683214.919109,0,-1.2049998044967651,-0.8299996256828308,-0.7177036040349556,0.0,True,0.01065826416015625,-1.2049998044967651,-0.8299996256828308,-0.717703640460968,0.0,0,0
1759683214.9320276,0,-1.2049998044967651,-0.8299996256828308,-0.7177036057063155,0.0,True,0.012918472290039062,-1.2049998044967651,-0.8299996256828308,-0.717703640460968,0.0,0,0
1759683214.9424622,0,-1.2049998044967651,-0.8299996256828308,-0.7177036085666906,0.0,True,0.010434627532958984,-1.2049998044967651,-0.8299996256828308,-0.717703640460968,0.0,0,0
1759683214.9534416,0,-1.2049998044967651,-0.8299996256828308,-0.7177036105813315,0.0,True,0.010979413986206055,-1.2049998044967651,-0.8299996256828308,-0.717703640460968,0.0,0,0
1759683214.9636898,0,-1.2049998044967651,-0.8299996256828308,-0.7177036126069503,0.0,True,0.010248184204101562,-1.2049998044967651,-0.8299996256828308,-0.717703640460968,0.0,0,0
1759683214.9745302,0,-1.2049998044967651,-0.8299996256828308,-0.717703613929622,0.0,True,0.010840415954589844,-1.2049998044967651,-0.8299996256828308,-0.717703640460968,0.0,0,0
1759683214.9882016,0,-1.2049998044967651,-0.8299996256828308,-0.7177036135720449,0.0,True,0.013671398162841797,-1.2049998044967651,-0.8299996256828308,-0.717703640460968,0.0,0,0
1759683214.9998507,0,-1.2049998044967651,-0.8299996256828308,-0.7177036145497375,0.0,True,0.011649131774902344,-1.2049998044967651,-0.8299996256828308,-0.717703640460968,0.0,0,0
1759683215.0107496,0,-1.2049998044967651,-0.8299996256828308,-0.7177036159172872,0.0,True,0.010898828506469727,-1.2049998044967651,-0.8299996256828308,-0.717703640460968,0.0,0,0
1759683215.0209892,0,-1.2049998044967651,-0.8299996256828308,-0.7177036174194384,0.0,True,0.010239601135253906,-1.2049998044967651,-0.8299996256828308,-0.717703640460968,0.0,0,0
1759683215.0318406,0,-1.2049998044967651,-0.8299996256828308,-0.7177036183860324,0.0,True,0.010851383209228516,-1.2049998044967651,-0.8299996256828308,-0.717703640460968,0.0,0,0
1759683215.04373,0,-1.2049998044967651,-0.8299996256828308,-0.7177036187657819,0.0,True,0.011889457702636719,-1.2049998044967651,-0.8299996256828308,-0.717703640460968,0.0,0,0
1759683215.0542212,0,-1.2049998044967651,-0.8299996256828308,-0.7177036198058069,0.0,True,0.010491132736206055,-1.2049998044967651,-0.8299996256828308,-0.717703640460968,0.0,0,0
1759683215.0708063,0,-1.2049998044967651,-0.8299996256828308,-0.7177036182573779,0.0,True,0.016585111618041992,-1.2049998044967651,-0.8299996256828308,-0.717703640460968,0.0,0,0
1759683215.082246,0,-1.2049998044967651,-0.8299996256828308,-0.7177036193902708,0.0,True,0.011439800262451172,-1.2049998044967651,-0.8299996256828308,-0.717703640460968,0.0,0,0
1759683215.0952194,0,-1.2049998044967651,-0.8299996256828308,-0.7177036199597318,0.0,True,0.012973308563232422,-1.2049998044967651,-0.8299996256828308,-0.717703640460968,0.0,0,0
1759683215.105263,0,-1.2049998044967651,-0.8299996256828308,-0.717703621613456,0.0,True,0.010043621063232422,-1.2049998044967651,-0.8299996256828308,-0.717703640460968,0.0,0,0
1759683215.1154985,0,-1.2049998044967651,-0.8299996256828308,-0.7177036229131257,0.0,True,0.01023554801940918,-1.2049998044967651,-0.8299996256828308,-0.717703640460968,0.0,0,0
1759683215.1294465,0,-1.2049998044967651,-0.8299996256828308,-0.7177036226893012,0.0,True,0.01394796371459961,-1.2049998044967651,-0.8299996256828308,-0.717703640460968,0.0,0,0
1759683215.1405878,0,-1.2049998044967651,-0.8299996256828308,-0.7177036235809524,0.0,True,0.011141300201416016,-1.2049998044967651,-0.8299996256828308,-0.717703640460968,0.0,0,0
1759683215.1553552,0,-1.2049998044967651,-0.8299996256828308,-0.7177036232951792,0.0,True,0.01476740837097168,-1.2049998044967651,-0.8299996256828308,-0.717703640460968,0.0,0,0
1759683215.1659398,0,-1.2049998044967651,-0.8299996256828308,-0.7177036245134545,0.0,True,0.010584592819213867,-1.2049998044967651,-0.8299996256828308,-0.717703640460968,0.0,0,0
1759683215.176502,0,-1.2049998044967651,-0.8299996256828308,-0.717703625591728,0.0,True,0.01056218147277832,-1.2049998044967651,-0.8299996256828308,-0.717703640460968,0.0,0,0
1759683215.1879523,0,-1.2049998044967651,-0.8299996256828308,-0.7177036262158474,0.0,True,0.01145029067993164,-1.2049998044967651,-0.8299996256828308,-0.717703640460968,0.0,0,0
1759683215.1982505,0,-1.2049998044967651,-0.8299996256828308,-0.7177036270749362,0.0,True,0.01029825210571289,-1.2049998044967651,-0.8299996256828308,-0.717703640460968,0.0,0,0
1759683215.2135706,0,-1.2049998044967651,-0.8299996256828308,-0.7177036264914509,0.0,True,0.015320062637329102,-1.2049998044967651,-0.8299996256828308,-0.717703640460968,0.0,0,0
1759683215.2241454,0,-1.2049998044967651,-0.8299996256828308,-0.7177036273882642,0.0,True,0.010574817657470703,-1.2049998044967651,-0.8299996256828308,-0.717703640460968,0.0,0,0
1759683215.2345986,0,-1.2049998044967651,-0.8299996256828308,-0.7177036282402938,0.0,True,0.010453224182128906,-1.2049998044967651,-0.8299996256828308,-0.717703640460968,0.0,0,0
1759683215.2456083,0,-1.2049998044967651,-0.8299996256828308,-0.7177036288068912,0.0,True,0.011009693145751953,-1.2049998044967651,-0.8299996256828308,-0.717703640460968,0.0,0,0
1759683215.2572353,0,-1.2049998044967651,-0.8299996256828308,-0.717703629153295,0.0,True,0.011626958847045898,-1.2049998044967651,-0.8299996256828308,-0.717703640460968,0.0,0,0
1759683215.3087502,0,-1.2049998044967651,-0.8299996256828308,-0.7177036218724808,0.0,True,0.05151486396789551,-1.2049998044967651,-0.8299996256828308,-0.717703640460968,0.0,0,0
1759683215.3206136,0,-1.2049998044967651,-0.8299996256828308,-0.7177036248034252,0.0,True,0.011863470077514648,-1.2049998044967651,-0.8299996256828308,-0.717703640460968,0.0,0,0
1759683215.3320339,0,-1.2049998044967651,-0.8299996256828308,-0.7177036274375475,0.0,True,0.011420249938964844,-1.2049998044967651,-0.8299996256828308,-0.717703640460968,0.0,0,0
1759683215.3423297,0,-1.2049998044967651,-0.8299996256828308,-0.7177036294679784,0.0,True,0.010295867919921875,-1.2049998044967651,-0.8299996256828308,-0.717703640460968,0.0,0,0
1759683215.3534098,0,-1.2049998044967651,-0.8299996256828308,-0.7177036307878666,0.0,True,0.011080026626586914,-1.2049998044967651,-0.8299996256828308,-0.717703640460968,0.0,0,0
1759683215.3637667,0,-1.2049998044967651,-0.8299996256828308,-0.7177036318483054,0.0,True,0.010356903076171875,-1.2049998044967651,-0.8299996256828308,-0.717703640460968,0.0,0,0
1759683215.3763607,0,-1.2049998044967651,-0.8299996256828308,-0.7177036323229409,0.0,True,0.012593984603881836,-1.2049998044967651,-0.8299996256828308,-0.717703640460968,0.0,0,0
1759683215.3871765,0,-1.2049998044967651,-0.8299996256828308,-0.7177036329463018,0.0,True,0.010815858840942383,-1.2049998044967651,-0.8299996256828308,-0.717703640460968,0.0,0,0
1759683215.397992,0,-1.2049998044967651,-0.8299996256828308,-0.7177036334533469,0.0,True,0.01081538200378418,-1.2049998044967651,-0.8299996256828308,-0.717703640460968,0.0,0,0
1759683215.4086213,0,-1.2049998044967651,-0.8299996256828308,-0.7177036338843372,0.0,True,0.010629415512084961,-1.2049998044967651,-0.8299996256828308,-0.717703640460968,0.0,0,0
1759683215.4200628,0,-1.2049998044967651,-0.8299996256828308,-0.717703634133791,0.0,True,0.011441469192504883,-1.2049998044967651,-0.8299996256828308,-0.717703640460968,0.0,0,0
1759683215.4323416,0,-1.2049998044967651,-0.8299996256828308,-0.7177036342532297,0.0,True,0.01227879524230957,-1.2049998044967651,-0.8299996256828308,-0.717703640460968,0.0,0,0
1759683215.443571,0,-1.2049998044967651,-0.8299996256828308,-0.7177036345135797,0.0,True,0.011229515075683594,-1.2049998044967651,-0.8299996256828308,-0.717703640460968,0.0,0,0
1759683215.4536905,0,-1.2049998044967651,-0.8299996256828308,-0.717703634882918,0.0,True,0.010119438171386719,-1.2049998044967651,-0.8299996256828308,-0.717703640460968,0.0,0,0
1759683215.4650111,0,-1.2049998044967651,-0.8299996256828308,-0.717703635058534,0.0,True,0.01132059097290039,-1.2049998044967651,-0.8299996256828308,-0.717703640460968,0.0,0,0
1759683215.492374,0,-1.2049998044967651,-0.8299996256828308,-0.7177036335732083,0.0,True,0.027362823486328125,-1.2049998044967651,-0.8299996256828308,-0.717703640460968,0.0,0,0
1759683215.5024743,0,-1.2049998044967651,-0.8299996256828308,-0.7177036343309471,0.0,True,0.010100364685058594,-1.2049998044967651,-0.8299996256828308,-0.717703640460968,0.0,0,0
1759683215.5131574,0,-1.2049998044967651,-0.8299996256828308,-0.7177036349698955,0.0,True,0.010683059692382812,-1.2049998044967651,-0.8299996256828308,-0.717703640460968,0.0,0,0
1759683215.5237818,0,-1.2049998044967651,-0.8299996256828308,-0.7177036354579904,0.0,True,0.010624408721923828,-1.2049998044967651,-0.8299996256828308,-0.717703640460968,0.0,0,0
1759683215.5341125,0,-1.2049998044967651,-0.8299996256828308,-0.7177036358573208,0.0,True,0.010330677032470703,-1.2049998044967651,-0.8299996256828308,-0.717703640460968,0.0,0,0
1759683215.5454764,0,-1.2049998044967651,-0.8299996256828308,-0.7177036360805964,0.0,True,0.011363983154296875,-1.2049998044967651,-0.8299996256828308,-0.717703640460968,0.0,0,0
1759683215.5570092,0,-1.2049998044967651,-0.8299996256828308,-0.7177036362527396,0.0,True,0.011532783508300781,-1.2049998044967651,-0.8299996256828308,-0.717703640460968,0.0,0,0
1759683215.5685153,0,-1.2049998044967651,-0.8299996256828308,-0.7177036364115263,0.0,True,0.011506080627441406,-1.2049998044967651,-0.8299996256828308,-0.717703640460968,0.0,0,0
1759683215.578984,0,-1.2049998044967651,-0.8299996256828308,-0.717703636639504,0.0,True,0.010468721389770508,-1.2049998044967651,-0.8299996256828308,-0.717703640460968,0.0,0,0
1759683215.5893424,0,-1.2049998044967651,-0.8299996256828308,-0.717703636842959,0.0,True,0.010358333587646484,-1.2049998044967651,-0.8299996256828308,-0.717703640460968,0.0,0,0
1759683215.60035,0,-1.2049998044967651,-0.8299996256828308,-0.717703636966295,0.0,True,0.011007547378540039,-1.2049998044967651,-0.8299996256828308,-0.717703640460968,0.0,0,0
1759683215.6106422,0,-1.2049998044967651,-0.8299996256828308,-0.7177036371293166,0.0,True,0.010292291641235352,-1.2049998044967651,-0.8299996256828308,-0.717703640460968,0.0,0,0
1759683215.6209483,0,-1.2049998044967651,-0.8299996256828308,-0.7177036372719012,0.0,True,0.010306119918823242,-1.2049998044967651,-0.8299996256828308,-0.717703640460968,0.0,0,0
1759683215.6309595,0,-1.2049998044967651,-0.8299996256828308,-0.7177036374163013,0.0,True,0.01001119613647461,-1.2049998044967651,-0.8299996256828308,-0.717703640460968,0.0,0,0
1759683215.6415813,0,-1.2049998044967651,-0.8299996256828308,-0.7177036375019021,0.0,True,0.010621786117553711,-1.2049998044967651,-0.8299996256828308,-0.717703640460968,0.0,0,0
1759683215.6543164,0,-1.2049998044967651,-0.8299996256828308,-0.7177036374511232,0.0,True,0.012735128402709961,-1.2049998044967651,-0.8299996256828308,-0.717703640460968,0.0,0,0
1759683215.6647873,0,-1.2049998044967651,-0.8299996256828308,-0.7177036375772126,0.0,True,0.010470867156982422,-1.2049998044967651,-0.8299996256828308,-0.717703640460968,0.0,0,0
1759683215.6831024,0,-1.2049998044967651,-0.8299996256828308,-0.7177036372493184,0.0,True,0.01831507682800293,-1.2049998044967651,-0.8299996256828308,-0.717703640460968,0.0,0,0
1759683215.693585,0,-1.2049998044967651,-0.8299996256828308,-0.7177036374842167,0.0,True,0.010482549667358398,-1.2049998044967651,-0.8299996256828308,-0.717703640460968,0.0,0,0
1759683215.7042248,0,-1.2049998044967651,-0.8299996256828308,-0.7177036376964914,0.0,True,0.01063990592956543,-1.2049998044967651,-0.8299996256828308,-0.717703640460968,0.0,0,0
1759683215.7150433,0,-1.2049998044967651,-0.8299996256828308,-0.7177036378583779,0.0,True,0.0108184814453125,-1.2049998044967651,-0.8299996256828308,-0.717703640460968,0.0,0,0
1759683215.7260776,0,-1.2049998044967651,-0.8299996256828308,-0.7177036379812058,0.0,True,0.011034250259399414,-1.2049998044967651,-0.8299996256828308,-0.717703640460968,0.0,0,0
1759683215.7371407,0,-1.2049998044967651,-0.8299996256828308,-0.7177036380862383,0.0,True,0.011063098907470703,-1.2049998044967651,-0.8299996256828308,-0.717703640460968,0.0,0,0
1759683215.7484984,0,-1.2049998044967651,-0.8299996256828308,-0.7177036381669097,0.0,True,0.011357784271240234,-1.2049998044967651,-0.8299996256828308,-0.717703640460968,0.0,0,0
1759683215.7588458,0,-1.2049998044967651,-0.8299996256828308,-0.7177036382891693,0.0,True,0.010347366333007812,-1.2049998044967651,-0.8299996256828308,-0.717703640460968,0.0,0,0
1759683215.7701125,0,-1.2049998044967651,-0.8299996256828308,-0.7177036383554647,0.0,True,0.011266708374023438,-1.2049998044967651,-0.8299996256828308,-0.717703640460968,0.0,0,0
1759683215.7807329,0,-1.2049998044967651,-0.8299996256828308,-0.7177036384457409,0.0,True,0.010620355606079102,-1.2049998044967651,-0.8299996256828308,-0.717703640460968,0.0,0,0
1759683215.791661,0,-1.2049998044967651,-0.8299996256828308,-0.7177036385154025,0.0,True,0.010928153991699219,-1.2049998044967651,-0.8299996256828308,-0.717703640460968,0.0,0,0
1759683215.8023245,0,-1.2049998044967651,-0.8299996256828308,-0.7177036385911197,0.0,True,0.010663509368896484,-1.2049998044967651,-0.8299996256828308,-0.717703640460968,0.0,0,0
1759683215.8136628,0,-1.2049998044967651,-0.8299996256828308,-0.717703638635248,0.0,True,0.011338233947753906,-1.2049998044967651,-0.8299996256828308,-0.717703640460968,0.0,0,0
1759683215.8239386,0,-1.2049998044967651,-0.8299996256828308,-0.7177036387210265,0.0,True,0.010275840759277344,-1.2049998044967651,-0.8299996256828308,-0.717703640460968,0.0,0,0
1759683215.83455,0,-1.2049998044967651,-0.8299996256828308,-0.717703638786146,0.0,True,0.010611295700073242,-1.2049998044967651,-0.8299996256828308,-0.717703640460968,0.0,0.5235987755982988,0.03147190050394508
1759683215.8451617,0,-1.2049998044967651,-0.8299996256828308,-0.7177036388452898,0.0,True,0.010611772537231445,-1.2049998044967651,-0.8299996256828308,-0.717703640460968,0.0,0.5235987755982988,0.028875983163838284
1759683215.8561265,0,-1.2049998044967651,-0.8299996256828308,-0.7177036388887608,0.0,True,0.01096487045288086,-1.2049998044967651,-0.8299996256828308,-0.717703640460968,0.0,0.5235987755982988,0.029827445762478928
1759683215.8670812,0,-1.2049998044967651,-0.8299996256828308,-0.7177036389331519,0.0,True,0.010954618453979492,-1.2049998044967651,-0.8299996256828308,-0.717703640460968,0.0,0.5235987755982988,0.03226600454688298
1759683215.8950374,0,-1.2049177727748273,-0.8300712442103613,-0.7176882217011169,0.0007457235780521249,True,0.027956247329711914,-1.2048767805099487,-0.8301070332527161,-0.717667818069458,0.0007457235780521249,0.5235987755982988,0.030942831458962417
1759683215.9106612,0,-1.2048890856314671,-0.8300962897814627,-0.7176816911880781,0.0007457235780521249,True,0.015623807907104492,-1.2048767805099487,-0.8301070332527161,-0.717667818069458,0.0007457235780521249,0.5235987755982988,0.031716048160763066
1759683215.9236763,0,-1.204878687887583,-0.8301053676305212,-0.7176764207875639,0.0007457235780521249,True,0.013015031814575195,-1.2048767805099487,-0.8301070332527161,-0.717667818069458,0.0007457235780521249,0.5235987755982988,0.031915685048039086
1759683215.9349606,0,-1.2048750876600307,-0.8301085108503189,-0.7176727168403971,0.0007457235780521249,True,0.011284351348876953,-1.2048767805099487,-0.8301070332527161,-0.717667818069458,0.0007457235780521249,0.5235987755982988,0.0339488940419824
1759683215.9466763,0,-1.2048736199391787,-0.8301097922363583,-0.7176697650885551,0.0007457235780521249,True,0.01171565055847168,-1.2048767805099487,-0.8301070332527161,-0.717667818069458,0.0007457235780521249,0.5235987755982988,0.03499756341796279
1759683215.958876,0,-1.2048729554581619,-0.8301103723365634,-0.7176675729673132,0.0007457235780521249,True,0.012199640274047852,-1.2048767805099487,-0.8301070332527161,-0.717667818069458,0.0007457235780521249,0.5235987755982988,0.03141842851706485
1759683215.9693809,0,-1.2048730652916577,-0.8301102764611096,-0.7176664858958937,0.0007457235780521249,True,0.010504961013793945,-1.2048767805099487,-0.8301070332527161,-0.717667818069458,0.0007457235780521249,0.5235987755982988,0.033685044158493764
1759683215.9798613,0,-1.2048731125117051,-0.8301102352374531,-0.7176655435186508,0.0007457235780521249,True,0.010480403900146484,-1.2048767805099487,-0.8301070332527161,-0.717667818069458,0.0007457235780521249,0.5235987755982988,0.0344386240572272
1759683215.993131,0,-1.204872532020855,-0.8301107419740816,-0.7176641800770351,0.0007457235780521249,True,0.013269662857055664,-1.2048767805099487,-0.8301070332527161,-0.717667818069458,0.0007457235780521249,0.5235987755982988,0.03568741205595395
1759683216.0038502,0,-1.204872857553258,-0.830110457792491,-0.7176641480110959,0.0007457235780521249,True,0.01071929931640625,-1.2048767805099487,-0.8301070332527161,-0.717667818069458,0.0007457235780521249,0.5235987755982988,0.034817843443395134
1759683216.0146508,0,-1.204872964449717,-0.8301103644738761,-0.7176638682204661,0.0007457235780521249,True,0.010800600051879883,-1.2048767805099487,-0.8301070332527161,-0.717667818069458,0.0007457235780521249,0.5235987755982988,0.03638063015748534
1759683216.024792,0,-1.2048731467898965,-0.8301102052976904,-0.7176638298406424,0.0007457235780521249,True,0.010141134262084961,-1.2048767805099487,-0.8301070332527161,-0.717667818069458,0.0007457235780521249,0.5235987755982988,0.03544574045837568
1759683216.035521,0,-1.2048730902757836,-0.8301102546305469,-0.7176636032521468,0.0007457235780521249,True,0.010729074478149414,-1.2048767805099487,-0.8301070332527161,-0.717667818069458,0.0007457235780521249,0.5235987755982988,0.03425691091575295
1759683216.0470746,0,-1.2048728917759064,-0.830110427909627,-0.7176633216312069,0.0007457235780521249,True,0.011553525924682617,-1.2048767805099487,-0.8301070332527161,-0.717667818069458,0.0007457235780521249,0.5235987755982988,0.03507574601353789
1759683216.058185,0,-1.2048729110113492,-0.8301104111164674,-0.7176633416581168,0.0007457235780521249,True,0.011110544204711914,-1.2048767805099487,-0.8301070332527161,-0.717667818069458,0.0007457235780521249,0.5235987755982988,0.0366356656311209
1759683216.0689087,0,-1.2048730013921685,-0.8301103322180836,-0.7176634261955996,0.0007457235780521249,True,0.010723590850830078,-1.2048767805099487,-0.8301070332527161,-0.717667818069458,0.0007457235780521249,0.5235987755982988,0.036009001992941624
1759683216.18128,0,-1.19868740973095,-0.8354327866489797,-0.7102049876692735,0.03853140480676634,True,0.1,-1.1966580152511597,-0.8371556401252747,-0.7020958662033081,0.03853140480676634,0.5235987755982988,0.0340285594282236
1759683216.2073624,0,-1.1971420961759407,-0.8367478337795509,-0.7066916530721485,0.03853140480676634,True,0.026082515716552734,-1.1966580152511597,-0.8371556401252747,-0.7020958662033081,0.03853140480676634,0.5235987755982988,0.036051258098326815
1759683216.2176037,0,-1.1967282805345085,-0.8370977350850349,-0.704823792693162,0.03853140480676634,True,0.010241270065307617,-1.1966580152511597,-0.8371556401252747,-0.7020958662033081,0.03853140480676634,0.5235987755982988,0.03592874472978574
1759683216.2290413,0,-1.1965566282250077,-0.8372425867846308,-0.7035248896052799,0.03853140480676634,True,0.011437654495239258,-1.1966580152511597,-0.8371556401252747,-0.7020958662033081,0.03853140480676634,0.5235987755982988,0.03636017594261505
1759683216.2402747,0,-1.1964932182967039,-0.8372958076598246,-0.7026572994777371,0.03853140480676634,True,0.011233329772949219,-1.1966580152511597,-0.8371556401252747,-0.7020958662033081,0.03853140480676634,0.5235987755982988,0.03521012206833179
1759683216.2505739,0,-1.1964793981168045,-0.8373071437710854,-0.7020935017344261,0.03853140480676634,True,0.010299205780029297,-1.1966580152511597,-0.8371556401252747,-0.7020958662033081,0.03853140480676634,0.5235987755982988,0.03725679996209733
1759683216.2614954,0,-1.1964670738225627,-0.837317325731923,-0.7016671094690192,0.03853140480676634,True,0.010921478271484375,-1.1966580152511597,-0.8371556401252747,-0.7020958662033081,0.03853140480676634,0.5235987755982988,0.034394907156349595
1759683216.271602,0,-1.196471482551649,-0.8373134208487949,-0.701401240011112,0.03853140480676634,True,0.010106563568115234,-1.1966580152511597,-0.8371556401252747,-0.7020958662033081,0.03853140480676634,0.5235987755982988,0.036277027916287764
1759683216.2942336,0,-1.184358499150883,-0.846980282490928,-0.6861418096498983,0.204222091333433,True,0.02263164520263672,-1.1790547370910645,-0.8511118292808533,-0.6522843241691589,0.204222091333433,0.5235987755982988,0.03773354971943385
1759683216.3062704,0,-1.1803539561157044,-0.8501283691740081,-0.6756030849166734,0.204222091333433,True,0.012036800384521484,-1.1790547370910645,-0.8511118292808533,-0.6522843241691589,0.204222091333433,0.5235987755982988,0.03632755650385982
1759683216.3163788,0,-1.1789356162281317,-0.8512292061921347,-0.6679647890268328,0.204222091333433,True,0.010108470916748047,-1.1790547370910645,-0.8511118292808533,-0.6522843241691589,0.204222091333433,0.5235987755982988,0.03319905845305075
1759683216.327182,0,-1.1783476675229436,-0.8516786733812584,-0.6623168698965269,0.204222091333433,True,0.01080322265625,-1.1790547370910645,-0.8511118292808533,-0.6522843241691589,0.204222091333433,0.5235987755982988,0.03664991473438701
1759683216.338314,0,-1.1781000105641106,-0.8518624854423468,-0.6582126129126049,0.204222091333433,True,0.011132001876831055,-1.1790547370910645,-0.8511118292808533,-0.6522843241691589,0.204222091333433,0.5235987755982988,0.03709670512524804
1759683216.34928,0,-1.1780135150187276,-0.8519220242486472,-0.655285189229259,0.204222091333433,True,0.010966062545776367,-1.1790547370910645,-0.8511118292808533,-0.6522843241691589,0.204222091333433,0.5235987755982988,0.035343420450638846
1759683216.362417,0,-1.1778448126123433,-0.8520461390169113,-0.6528695382813527,0.204222091333433,True,0.013136863708496094,-1.1790547370910645,-0.8511118292808533,-0.6522843241691589,0.204222091333433,0.5235987755982988,0.0343323600788782
1759683216.374043,0,-1.1778724574361468,-0.8520199529202122,-0.6514048277109747,0.204222091333433,True,0.011626005172729492,-1.1790547370910645,-0.8511118292808533,-0.6522843241691589,0.204222091333433,0.5235987755982988,0.03315788391484401
1759683216.386382,0,-1.1778380243885125,-0.8520426883081264,-0.6502365650258533,0.204222091333433,True,0.012339115142822266,-1.1790547370910645,-0.8511118292808533,-0.6522843241691589,0.204222091333433,0.5235987755982988,0.032814725128306216
1759683216.3968499,0,-1.1779403131869044,-0.8519620217487565,-0.649689293716186,0.204222091333433,True,0.010467767715454102,-1.1790547370910645,-0.8511118292808533,-0.6522843241691589,0.204222091333433,0.5235987755982988,0.033948821523041406
1759683216.4087915,0,-1.1778876338311284,-0.8520004985537318,-0.6490703788687515,0.204222091333433,True,0.011941671371459961,-1.1790547370910645,-0.8511118292808533,-0.6522843241691589,0.204222091333433,0.5235987755982988,0.03448430837660699
1759683216.4214988,0,-1.177819639677929,-0.8520508999242759,-0.6485833948666588,0.204222091333433,True,0.012707233428955078,-1.1790547370910645,-0.8511118292808533,-0.6522843241691589,0.204222091333433,0.5235987755982988,0.032294598115302574
1759683216.433374,0,-1.177845071957761,-0.852030517775053,-0.6483978419574647,0.204222091333433,True,0.011875152587890625,-1.1790547370910645,-0.8511118292808533,-0.6522843241691589,0.204222091333433,0.5235987755982988,0.031860472316281085
1759683216.4439042,0,-1.177938241387786,-0.8519591578518345,-0.6484479083730594,0.204222091333433,True,0.010530233383178711,-1.1790547370910645,-0.8511118292808533,-0.6522843241691589,0.204222091333433,0.5235987755982988,0.03497250555084454
1759683216.4545271,0,-1.1779680894870321,-0.8519363053761815,-0.6484584067117218,0.204222091333433,True,0.010622978210449219,-1.1790547370910645,-0.8511118292808533,-0.6522843241691589,0.204222091333433,0.5235987755982988,0.03318564867617353
1759683216.4660258,0,-1.177925092747489,-0.8519688952869727,-0.6483786087713206,0.204222091333433,True,0.011498689651489258,-1.1790547370910645,-0.8511118292808533,-0.6522843241691589,0.204222091333433,0.5235987755982988,0.03164314022381495
1759683216.4787114,0,-1.1778348977435953,-0.8520372810570903,-0.6482273352329777,0.204222091333433,True,0.012685537338256836,-1.1790547370910645,-0.8511118292808533,-0.6522843241691589,0.204222091333433,0.5235987755982988,0.032624951122302154
1759683216.5752077,0,-1.162009000509698,-0.8631741492880682,-0.6150949490614774,0.0964240970577778,True,0.0964963436126709,-1.1568139791488647,-0.8665875196456909,-0.5844412446022034,0.0964240970577778,0.5235987755982988,0.032481288454065366
1759683216.590607,0,-1.158334794061341,-0.8656105927664746,-0.6020104284365644,0.0964240970577778,True,0.01539921760559082,-1.1568139791488647,-0.8665875196456909,-0.5844412446022034,0.0964240970577778,0.5235987755982988,0.032186480592845124
1759683216.60199,0,-1.157049237214498,-0.8664516419784791,-0.5941121494093267,0.0964240970577778,True,0.011383056640625,-1.1568139791488647,-0.8665875196456909,-0.5844412446022034,0.0964240970577778,0.5235987755982988,0.03338992677671429
1759683216.6127641,0,-1.156574976545545,-0.8667576877837662,-0.589012517919068,0.0964240970577778,True,0.01077413558959961,-1.1568139791488647,-0.8665875196456909,-0.5844412446022034,0.0964240970577778,0.5235987755982988,0.03541209439594009
1759683216.625483,0,-1.1563331719934633,-0.8669127479748431,-0.585138196879349,0.0964240970577778,True,0.012718915939331055,-1.1568139791488647,-0.8665875196456909,-0.5844412446022034,0.0964240970577778,0.5235987755982988,0.03388647341784996
