timestamp,observer_vehicle_id,vehicle_0_x,vehicle_0_y,vehicle_0_theta,vehicle_0_velocity,vehicle_1_x,vehicle_1_y,vehicle_1_theta,vehicle_1_velocity
1759828504.911513,1,0.0,0.0,0.0,0.0,8.0,6.0,-0.05483113549895436,0.0
1759828504.9231465,1,0.0,0.0,0.0,0.0,8.0,6.0,-0.05483113549895436,0.0
1759828504.933965,1,0.0,0.0,0.0,0.0,8.0,6.0,-0.05483113549895436,0.0
1759828504.9444761,1,0.0,0.0,0.0,0.0,8.0,6.0,-0.05483113549895436,0.0
1759828504.9559085,1,0.0,0.0,0.0,0.0,8.0,6.0,-0.05483113549895436,0.0
1759828504.967027,1,0.0,0.0,0.0,0.0,8.0,6.0,-0.05483113549895436,0.0
1759828504.9779756,1,0.0,0.0,0.0,0.0,8.0,6.0,-0.05483113549895436,0.0
1759828504.9881656,1,0.0,0.0,0.0,0.0,8.0,6.0,-0.05483113549895436,0.0
1759828504.998838,1,0.0,0.0,0.0,0.0,8.0,6.0,-0.05483113549895436,0.0
1759828505.0091996,1,0.0,0.0,0.0,0.0,8.0,6.0,-0.05483113549895436,0.0
1759828505.019845,1,0.0,0.0,0.0,0.0,8.0,6.0,-0.05483113549895436,0.0
1759828505.0313106,1,0.0,0.0,0.0,0.0,8.0,6.0,-0.05483113549895436,0.0
1759828505.0417385,1,0.0,0.0,0.0,0.0,8.0,6.0,-0.05483113549895436,0.0
1759828505.052403,1,0.0,0.0,0.0,0.0,8.0,6.0,-0.05483113549895436,0.0
1759828505.0629146,1,0.0,0.0,0.0,0.0,8.0,6.0,-0.05483113549895436,0.0
1759828505.073269,1,0.0,0.0,0.0,0.0,8.0,6.0,-0.05483113549895436,0.0
1759828505.08437,1,0.0,0.0,0.0,0.0,8.0,6.0,-0.05483113549895436,0.0
1759828505.0958476,1,0.0,0.0,0.0,0.0,8.0,6.0,-0.05483113549895436,0.0
1759828505.1096933,1,0.0,0.0,0.0,0.0,8.000000945727031,5.99999905427297,-2.879849667105134,0.0
1759828505.1202774,1,0.0,0.0,0.0,0.0,8.000000951017842,5.999999048982158,-3.121122055838569,0.0
1759828505.1314538,1,0.0,0.0,0.0,0.0,8.00000095267779,5.999999047322208,3.139213048657105,0.0
1759828505.1417227,1,0.0,0.0,0.0,0.0,8.000000953294668,5.999999046705331,3.13636729846872,0.0
1759828505.1527536,1,0.0,0.0,0.0,0.0,8.000000953529359,5.9999990464706405,3.1359460397274344,0.0
1759828505.1636639,1,0.0,0.0,0.0,0.0,8.000000953618951,5.999999046381049,3.1362919025098037,0.0
1759828505.1747303,1,0.0,0.0,0.0,0.0,8.000000953653169,5.999999046346831,3.1368499843402606,0.0
1759828505.1858895,1,0.0,0.0,0.0,0.0,8.00000095366624,5.999999046333762,3.1374297273657543,0.0
1759828505.1967828,1,0.0,0.0,0.0,0.0,8.00000095367123,5.999999046328769,3.1379763640480967,0.0
1759828505.2074175,1,0.0,0.0,0.0,0.0,8.000000953673139,5.999999046326862,3.1384498161272703,0.0
1759828505.2186017,1,0.0,1.187786865234375,-0.621923747597809,0.0,8.000000953673867,5.999999046326134,3.1388072963096647,0.0
1759828505.2296612,1,0.0,2.1297899682531716,-1.1151554183846497,0.0,8.000000953674144,5.999999046325856,3.1391174225028298,0.0
1759828505.2399716,1,0.0,2.879412848501962,-1.5076570401948879,0.0,8.00000095367425,5.999999046325749,3.1394089888111605,0.0
1759828505.2506664,1,0.0,3.4771661301971304,-1.8206399262427082,0.0,8.000000953674292,5.9999990463257085,3.1396287752384566,0.0
1759828505.2613218,1,0.0,3.9809536131092456,-2.0844224351558247,0.0,8.000000953674308,5.999999046325693,3.1398132178523053,0.0
1759828505.271897,1,0.0,4.3798688149014975,-2.2932939461431254,0.0,8.000000953674313,5.999999046325687,3.1399720384235685,0.0
1759828505.2822986,1,0.0,4.696597573632758,-2.459132736222084,0.0,8.000000953674315,5.999999046325685,3.140112266893798,0.0
1759828505.2925458,1,0.0,4.94873595357086,-2.5911520830881583,0.0,8.000000953674316,5.9999990463256845,3.1402353661968476,0.0
1759828505.306533,1,0.0,5.149158226509436,-2.6960929396815123,0.0,8.000000953674316,5.999999046325684,3.1402472061017903,0.0
1759828505.3130372,1,0.0,5.3102634402384385,-2.7804474322361314,0.0,8.000000953674316,5.999999046325684,3.1404596975475503,0.0
1759828505.3231995,1,0.0,5.4470180581655585,-2.852051982658365,0.0,8.000000953674316,5.999999046325684,3.1405372956197617,0.0
1759828505.3337073,1,0.0,5.555496101736211,-2.9088509533863554,0.0,8.000000953674316,5.999999046325684,3.140591121058751,0.0
1759828505.344161,1,0.0,5.641764748496451,-2.9540211111509245,0.0,8.000000953674316,5.999999046325684,3.140642972193465,0.0
1759828505.354912,1,0.0,5.710520228208404,-2.9900213961026405,0.0,8.000000953674316,5.999999046325684,3.14068659054006,0.0
1759828505.3656573,1,0.0,5.765457477537966,-3.0187864725534688,0.0,8.000000953674316,5.999999046325684,3.1407296291311226,0.0
1759828505.376503,1,0.0,5.8119290957628325,-3.0431189549282767,0.0,8.000000953674316,5.999999046325684,3.140769851987045,0.0
1759828505.386902,1,0.0,5.848801800053812,-3.06242545772597,0.0,8.000000953674316,5.999999046325684,3.1408162059978064,0.0
1759828505.39706,1,0.0,5.878138166571291,-3.0777859432974735,0.0,8.000000953674316,5.999999046325684,3.1408620896349326,0.0
1759828505.4080675,1,0.0,5.9015142382507335,-3.0900256257931416,0.0,8.000000953674316,5.999999046325684,3.1408900026285522,0.0
1759828505.4185917,1,0.0,5.9201989110675886,-3.099808897591323,0.0,8.000000953674316,5.999999046325684,3.14092454798911,0.0
1759828505.429189,1,-2.117750927858192e-07,5.936020213448797,-1.8623271540337427,0.0,8.000000953674316,5.999999046325684,3.140955991074321,0.0
1759828505.4395666,1,-3.797842019604707e-07,5.9485718449182166,-0.8805865601798961,0.0,8.000000953674316,5.999999046325684,3.1409881072353016,0.0
1759828505.4498918,1,-5.134094408261431e-07,5.958554724784044,-0.09976388930033431,0.0,8.000000953674316,5.999999046325684,3.141017990701716,0.0
1759828505.460459,1,-6.199217662871101e-07,5.966512051995077,0.5226278022245716,0.0,8.000000953674316,5.999999046325684,3.1410422089168097,0.0
1759828505.4708533,1,-7.050502985707653e-07,5.972871837901962,1.020065924768175,0.0,8.000000953674316,5.999999046325684,3.141066978510704,0.0
1759828505.4819674,1,-7.770031691972779e-07,5.978247295933419,1.440513686710235,0.0,8.000000953674316,5.999999046325684,3.1410822680641086,0.0
1759828505.4928873,1,-8.340605113151865e-07,5.982509938205655,1.7739212573457503,0.0,8.000000953674316,5.999999046325684,3.1411005729388197,0.0
1759828505.5049653,1,-8.793693518014024e-07,5.985894872932608,2.038677901698449,0.0,8.000000953674316,5.999999046325684,3.14110783922966,0.0
1759828505.5140593,1,-9.155639140465507e-07,5.9885988977841755,2.2501763806046933,0.0,8.000000953674316,5.999999046325684,3.1411468829693323,0.0
1759828505.5241318,1,-9.445103684909857e-07,5.990761430698717,2.4193214318215377,0.0,8.000000953674316,5.999999046325684,3.1411706518438844,0.0
1759828505.5349474,1,-9.690180880577275e-07,5.992592354424631,2.562529280965272,0.0,8.000000953674316,5.999999046325684,3.1411839821709435,0.0
1759828505.546101,1,-9.88445486750634e-07,5.994043737328813,2.676050899069817,0.0,8.000000953674316,5.999999046325684,3.1411943075317037,0.0
1759828505.5567749,1,-1.0038941859273838e-06,5.995197879385163,2.766323475232847,0.0,8.000000953674316,5.999999046325684,3.1412097416052926,0.0
1759828505.566893,1,-1.0162172790761512e-06,5.996118513537242,2.838331956471866,0.0,8.000000953674316,5.999999046325684,3.141229131495068,0.0
1759828505.577854,1,-1.0260619797008216e-06,5.996853991838238,2.895858255403254,0.0,8.000000953674316,5.999999046325684,3.1412400411330665,0.0
1759828505.5879066,1,-1.0344001876738494e-06,5.997476923023975,2.9445815495587366,0.0,8.000000953674316,5.999999046325684,3.14125752575616,0.0
1759828505.598714,1,-1.0410122428507154e-06,5.9979708967153025,2.9832182818634294,0.0,8.000000953674316,5.999999046325684,3.1412679775644214,0.0
1759828505.6096866,1,-1.0462680918306429e-06,5.998363550898038,3.0139301898314446,0.0,8.000000953674316,5.999999046325684,3.1412771475841694,0.0
1759828505.620893,1,-1.0504557540752955e-06,5.998676402942022,3.038400279811214,0.0,8.000000953674316,5.999999046325684,3.141285313390229,0.0
1759828505.6321797,1,-1.0538008614249147e-06,5.998926309360098,3.0579470037481062,0.0,8.000000953674316,5.999999046325684,3.141293807024713,0.0
1759828505.6428545,1,-1.0564817691190905e-06,5.999126594722876,3.0736125585782994,0.0,8.000000953674316,5.999999046325684,3.1413066528183187,0.0
1759828505.653533,1,-1.058772943350869e-06,5.9992977638620415,3.087000753789731,0.0,8.000000953674316,5.999999046325684,3.1413186887878872,0.0
1759828505.6637425,1,-1.0605938020857843e-06,5.999433796651637,3.0976407181614327,0.0,8.000000953674316,5.999999046325684,3.1413323518859517,0.0
1759828505.6744523,1,-1.0620436560580695e-06,5.999542112402098,3.1061127617711217,0.0,8.000000953674316,5.999999046325684,3.1413417146502027,0.0
1759828505.684651,1,-1.0632016476542827e-06,5.999628623686109,3.1128793434340376,0.0,8.000000953674316,5.999999046325684,3.141353118973324,0.0
1759828505.6950924,1,-1.0641811853086384e-06,5.99970180302566,3.1186031514061976,0.0,8.000000953674316,5.999999046325684,3.141362181231486,0.0
1759828505.7134523,1,-1.064951003727345e-06,5.9997593146518895,3.1231014907834695,0.0,8.000000953674316,5.999999046325684,3.1413333004024313,0.0
1759828505.7249346,1,-1.0655629170276887e-06,5.999805029496013,3.12667713099618,0.0,8.000000953674316,5.999999046325684,3.141347470433942,0.0
1759828505.7352102,1,-1.066051250594684e-06,5.9998415119403115,3.129530648215668,0.0,8.000000953674316,5.999999046325684,3.141367442610118,0.0
1759828505.745842,1,-1.0664417629355248e-06,5.999870686352405,3.131812559114949,0.0,8.000000953674316,5.999999046325684,3.1413821972654645,0.0
1759828505.7563355,1,-1.0667734509621148e-06,5.999895466115198,3.133750737358965,0.0,8.000000953674316,5.999999046325684,3.1413947157971354,0.0
1759828505.7672791,1,-1.0670364606018944e-06,5.999915115050233,3.135287601885031,0.0,8.000000953674316,5.999999046325684,3.141403415272176,0.0
1759828505.7780108,1,-1.0672456011644598e-06,5.999930739532022,3.1365096890748294,0.0,8.000000953674316,5.999999046325684,3.1414119064138113,0.0
1759828505.7884822,1,-1.0674123748155948e-06,5.999943198864842,3.137484210421373,0.0,8.000000953674316,5.999999046325684,3.141420469065322,0.0
1759828505.7991354,1,-1.0675456681080249e-06,5.99995315694564,3.138263093404026,0.0,8.000000953674316,5.999999046325684,3.1414273934562402,0.0
1759828505.8093956,1,-1.0676590659191993e-06,5.999961628674002,3.138925719585613,0.0,8.000000953674316,5.999999046325684,3.1414349986958197,0.0
1759828505.8198369,1,-1.067748934362244e-06,5.999968342569358,3.1394508547945126,0.0,8.000000953674316,5.999999046325684,3.141441155599857,0.0
1759828505.8303764,1,-1.0678203261210954e-06,5.999973676107827,3.1398680237687158,0.0,8.000000953674316,5.999999046325684,3.141446434272293,0.0
1759828505.841881,1,-1.067877125247313e-06,5.999977919459296,3.1401999224864525,0.0,8.000000953674316,5.999999046325684,3.1414484780255947,0.0
1759828505.853194,1,-1.0679224463155239e-06,5.999981305307531,3.1404647505820127,0.0,8.000000953674316,5.999999046325684,3.1414517750679813,0.0
1759828505.863954,1,-1.06796090776731e-06,5.99998417868726,3.1406894953515225,0.0,8.000000953674316,5.999999046325684,3.1414571318671047,0.0
1759828505.87489,1,-1.0679913587400103e-06,5.999986453619787,3.140867431870376,0.0,8.000000953674316,5.999999046325684,3.14146178760339,0.0
1759828505.8855078,1,-1.0680155383871625e-06,5.999988260033865,3.1410087226686603,0.0,8.000000953674316,5.999999046325684,3.1414670947330734,0.0
1759828505.8957746,1,-1.0680347937908796e-06,5.9999896985673615,3.1411212392552486,0.0,8.000000953674316,5.999999046325684,3.1414728886739027,0.0
1759828505.9089901,1,-1.0680501177270535e-06,5.999990843388618,3.141210782794128,0.0,8.000000953674316,5.999999046325684,3.1414708003271787,0.0
1759828505.9168732,1,-1.0680631020423167e-06,5.999991813421379,3.141286655045578,0.0,8.000000953674316,5.999999046325684,3.141482996483738,0.0
1759828505.927986,1,-1.068073381578618e-06,5.999992581385402,3.141346722253379,0.0,8.000000953674316,5.999999046325684,3.1414855770119665,0.0
1759828505.9383004,1,-1.0680815480091719e-06,5.9999931914834335,3.141394441787283,0.0,8.000000953674316,5.999999046325684,3.1414896469953604,0.0
1759828505.949218,1,-1.068088047591667e-06,5.999993677054511,3.1414324212992875,0.0,8.000000953674316,5.999999046325684,3.1414921830013505,0.0
1759828505.9597087,1,-1.068093236236943e-06,5.999994064688036,3.141462740510666,0.0,8.000000953674316,5.999999046325684,3.1414957084367288,0.0
1759828505.9705427,1,-1.0680976294046803e-06,5.999994392892993,3.1414884114467516,0.0,8.000000953674316,5.999999046325684,3.1414984104452373,0.0
1759828505.9808137,1,-1.0681011092365495e-06,5.999994652864416,3.1415087454168704,0.0,8.000000953674316,5.999999046325684,3.141502231475128,0.0
1759828505.9919722,1,-1.0681038698827423e-06,5.999994859106886,3.1415248769138238,0.0,8.000000953674316,5.999999046325684,3.1415040881103167,0.0
1759828506.0032156,1,-1.0681060655909923e-06,5.999995023143949,3.141537707265297,0.0,8.000000953674316,5.999999046325684,3.1415059887693264,0.0
1759828506.0144396,1,-1.068107816648673e-06,5.999995153962039,3.1415479393557817,0.0,8.000000953674316,5.999999046325684,3.141508214466551,0.0
1759828506.025813,1,-1.0681092165710298e-06,5.999995258547496,3.141556119630129,0.0,8.000000953674316,5.999999046325684,3.1415103753248292,0.0
1759828506.0366633,1,-1.0681104079725858e-06,5.999995347554773,3.141563081438788,0.0,8.000000953674316,5.999999046325684,3.141513561012726,0.0
1759828506.0480788,1,-1.0681113526496936e-06,5.999995418129749,3.1415686015434376,0.0,8.000000953674316,5.999999046325684,3.141515707739515,0.0
1759828506.0587676,1,-1.0681121042902499e-06,5.999995474283343,3.1415729936627077,0.0,8.000000953674316,5.999999046325684,3.1415190233681773,0.0
1759828506.0687716,1,-1.0681127042848761e-06,5.999995519107767,3.1415764996576128,0.0,8.000000953674316,5.999999046325684,3.141523083827453,0.0
1759828506.0793796,1,-1.068113184058085e-06,5.999995554950683,3.141579303153431,0.0,8.000000953674316,5.999999046325684,3.1415256936038745,0.0
1759828506.0899937,1,-1.068113591493266e-06,5.9999955853893665,3.141581683950868,0.0,8.000000953674316,5.999999046325684,3.141528033661084,0.0
1759828506.1004848,1,-1.0681139146861798e-06,5.9999956095344755,3.141583572488964,0.0,8.000000953674316,5.999999046325684,3.1415304023209476,0.0
1759828506.1114664,1,-1.0681141715666223e-06,5.999995628725511,3.141585073538279,0.0,8.000000953674316,5.999999046325684,3.141531986718567,0.0
1759828506.1225028,1,-1.0681143762604576e-06,5.999995644017786,3.1415862696415644,0.0,8.000000953674316,5.999999046325684,3.1415335577950536,0.0
1759828506.1332834,1,-1.0681145398388147e-06,5.999995656238404,3.1415872254916035,0.0,8.000000953674316,5.999999046325684,3.1415355256829827,0.0
1759828506.1443255,1,-1.0681146781116735e-06,5.999995666568499,3.141588033472071,0.0,8.000000953674316,5.999999046325684,3.1415371518174897,0.0
1759828506.154866,1,-1.0681147878530822e-06,5.9999956747670655,3.1415886747325126,0.0,8.000000953674316,5.999999046325684,3.1415393582585587,0.0
1759828506.165557,1,-1.0681148751554401e-06,5.999995681289254,3.141589184873118,0.0,8.000000953674316,5.999999046325684,3.1415412495362034,0.0
1759828506.1760786,1,-1.0681149447953516e-06,5.999995686491915,3.141589591805387,0.0,8.000000953674316,5.999999046325684,3.141543199193787,0.0
1759828506.187567,1,-1.0681150004275191e-06,5.999995690648085,3.1415899168851245,0.0,8.000000953674316,5.999999046325684,3.1415440353973114,0.0
1759828506.1984017,1,-1.0681150474607968e-06,5.999995694161849,3.141590191718306,0.0,8.000000953674316,5.999999046325684,3.141545680597641,0.0
1759828506.2087893,1,-1.0681150848209357e-06,5.999995696952952,3.1415904100276886,0.0,8.000000953674316,5.999999046325684,3.1415477317320786,0.0
1759828506.218799,1,-1.0681151145824433e-06,5.9999956991763765,3.141590583935403,0.0,8.000000953674316,5.999999046325684,3.1415499255736847,0.0
1759828506.2294493,1,-1.0681151383312863e-06,5.999995700950606,3.141590722708851,0.0,8.000000953674316,5.999999046325684,3.1415512596653645,0.0
1759828506.2399058,1,-1.0681151573337524e-06,5.999995702370243,3.1415908337474274,0.0,8.000000953674316,5.999999046325684,3.1415526813317634,0.0
1759828506.2502503,1,-1.0681151735358528e-06,5.99999570358067,3.1415909284224117,0.0,8.000000953674316,5.999999046325684,3.141554124129634,0.0
1759828506.2609193,1,-1.0681151863809762e-06,5.9999957045403045,3.1415910034813126,0.0,8.000000953674316,5.999999046325684,3.141555209053129,0.0
1759828506.2717037,1,-1.068115196589365e-06,5.999995705302953,3.141591063132778,0.0,8.000000953674316,5.999999046325684,3.141556196237195,0.0
1759828506.2824,1,-1.0681152047237855e-06,5.99999570591066,3.1415911106652668,0.0,8.000000953674316,5.999999046325684,3.1415572808217433,0.0
1759828506.2930155,1,-1.0681152112225475e-06,5.999995706396169,3.141591148639985,0.0,8.000000953674316,5.999999046325684,3.1415584235895953,0.0
1759828506.3036351,1,-1.0681152167205617e-06,5.999995706806915,3.141591180766956,0.0,8.000000953674316,5.999999046325684,3.141559530353277,0.0
1759828506.3167405,1,-1.0681152210691107e-06,5.999995707131787,3.1415912061771682,0.0,8.000000953674316,5.999999046325684,3.1415589372673374,0.0
1759828506.3271573,1,-1.068115224528742e-06,5.999995707390249,3.1415912263930985,0.0,8.000000953674316,5.999999046325684,3.141560564963413,0.0
1759828506.3379495,1,-1.0681152272868967e-06,5.999995707596305,3.141591242510035,0.0,8.000000953674316,5.999999046325684,3.141561875464376,0.0
1759828506.3491118,1,-1.0681152294905524e-06,5.999995707760936,3.1415912553868264,0.0,8.000000953674316,5.999999046325684,3.141562834191614,0.0
1759828506.3603213,1,-1.0681152313586516e-06,5.9999957079004975,3.141591266302835,0.0,8.000000953674316,5.999999046325684,3.1415637439016812,0.0
1759828506.3709025,1,-1.0681152328407456e-06,5.999995708011221,3.141591274963269,0.0,8.000000953674316,5.999999046325684,3.1415650064332823,0.0
1759828506.3816555,1,-1.0681152340193513e-06,5.999995708099273,3.1415912818503062,0.0,8.000000953674316,5.999999046325684,3.141566061550744,0.0
1759828506.3926103,1,-1.068115234958807e-06,5.9999957081694575,3.1415912873399003,0.0,8.000000953674316,5.999999046325684,3.141566922809819,0.0
1759828506.403236,1,-1.0681152357098364e-06,5.9999957082255655,3.141591291728448,0.0,8.000000953674316,5.999999046325684,3.141567918288935,0.0
1759828506.413849,1,-1.0681152363481365e-06,5.999995708273252,3.1415912954582765,0.0,8.000000953674316,5.999999046325684,3.1415688472990606,0.0
1759828506.4250038,1,-1.0681152368538732e-06,5.999995708311035,3.1415912984134873,0.0,8.000000953674316,5.999999046325684,3.141569448568678,0.0
1759828506.4352267,1,-1.068115237256027e-06,5.999995708341079,3.1415913007634235,0.0,8.000000953674316,5.999999046325684,3.14157049346859,0.0
1759828506.4464288,1,-1.068115237576265e-06,5.999995708365003,3.1415913026346955,0.0,8.000000953674316,5.999999046325684,3.141571003796585,0.0
1759828506.4576843,1,-1.068115237831933e-06,5.9999957083841045,3.1415913041286605,0.0,8.000000953674316,5.999999046325684,3.1415715131885893,0.0
1759828506.4680154,1,-1.0681152380488073e-06,5.999995708400307,3.141591305395939,0.0,8.000000953674316,5.999999046325684,3.1415724497483204,0.0
1759828506.4782813,1,-1.0681152382207584e-06,5.999995708413153,3.1415913064007133,0.0,8.000000953674316,5.999999046325684,3.1415733258633036,0.0
1759828506.4893875,1,-1.0681152383573081e-06,5.999995708423354,3.141591307198625,0.0,8.000000953674316,5.999999046325684,3.141573773932681,0.0
1759828506.4998748,1,-1.0681152384661006e-06,5.999995708431482,3.1415913078343403,0.0,8.000000953674316,5.999999046325684,3.1415744679710667,0.0
1759828506.515052,1,-1.0681152385525655e-06,5.999995708437941,3.141591308339588,0.0,8.000000953674316,5.999999046325684,3.1415734602186554,0.0
1759828506.5255919,1,-1.068115238625879e-06,5.999995708443418,3.1415913087679863,0.0,8.000000953674316,5.999999046325684,3.141574516717945,0.0
1759828506.5363503,1,-1.068115238684024e-06,5.999995708447762,3.141591309107749,0.0,8.000000953674316,5.999999046325684,3.1415754552133546,0.0
1759828506.5473216,1,-1.068115238730247e-06,5.999995708451215,3.141591309377847,0.0,8.000000953674316,5.999999046325684,3.141576189031646,0.0
1759828506.5584424,1,-1.0681152387670821e-06,5.999995708453967,3.1415913095930885,0.0,8.000000953674316,5.999999046325684,3.1415767939631287,0.0
1759828506.569393,1,-1.0681152387965187e-06,5.999995708456166,3.1415913097650963,0.0,8.000000953674316,5.999999046325684,3.141577405744947,0.0
1759828506.5799067,1,-1.068115238821493e-06,5.999995708458032,3.14159130991103,0.0,8.000000953674316,5.999999046325684,3.1415780951012184,0.0
1759828506.5903192,1,-1.068115238841305e-06,5.999995708459512,3.1415913100268,0.0,8.000000953674316,5.999999046325684,3.1415787325410687,0.0
1759828506.600979,1,-1.0681152388570572e-06,5.9999957084606885,3.141591310118845,0.0,8.000000953674316,5.999999046325684,3.1415792249610224,0.0
1759828506.611247,1,-1.0681152388696178e-06,5.999995708461626,3.1415913101922417,0.0,8.000000953674316,5.999999046325684,3.1415797772852585,0.0
1759828506.621849,1,-1.0681152388796545e-06,5.999995708462377,3.141591310250891,0.0,8.000000953674316,5.999999046325684,3.141580187686751,0.0
1759828506.6324828,1,-1.0681152388881403e-06,5.999995708463011,3.141591310300476,0.0,8.000000953674316,5.999999046325684,3.1415805640839096,0.0
1759828506.643902,1,-1.0681152388948657e-06,5.999995708463514,3.141591310339776,0.0,8.000000953674316,5.999999046325684,3.141580743758194,0.0
1759828506.6539974,1,-1.0681152389002181e-06,5.9999957084639135,3.1415913103710524,0.0,8.000000953674316,5.999999046325684,3.141581268655127,0.0
1759828506.6647766,1,-1.0681152389044849e-06,5.999995708464232,3.1415913103959845,0.0,8.000000953674316,5.999999046325684,3.1415815952211936,0.0
1759828506.6758156,1,-1.068115238907894e-06,5.999995708464486,3.1415913104159046,0.0,8.000000953674316,5.999999046325684,3.141581852205693,0.0
1759828506.6869195,1,-1.068115238910782e-06,5.999995708464702,3.14159131043278,0.0,8.000000953674316,5.999999046325684,3.141582110476893,0.0
1759828506.6978464,1,-1.0681152389130723e-06,5.999995708464873,3.1415913104461635,0.0,8.000000953674316,5.999999046325684,3.141582420222388,0.0
1759828506.711688,1,-1.0681152389148881e-06,5.999995708465009,3.1415913104567728,0.0,8.000000953674316,5.999999046325684,3.141582179075762,0.0
1759828506.71948,1,-1.0681152389163412e-06,5.999995708465118,3.141591310465264,0.0,8.000000953674316,5.999999046325684,3.1415832083895676,0.0
1759828506.730105,1,-1.068115238917503e-06,5.999995708465205,3.141591310472053,0.0,8.000000953674316,5.999999046325684,3.1415835484832346,0.0
1759828506.740957,1,-1.0681152389184872e-06,5.999995708465279,3.1415913104778053,0.0,8.000000953674316,5.999999046325684,3.141583783246583,0.0
1759828506.751575,1,-1.0681152389192681e-06,5.999995708465337,3.1415913104823687,0.0,8.000000953674316,5.999999046325684,3.1415840554327197,0.0
1759828506.7630296,1,-1.0681152389198888e-06,5.999995708465383,3.141591310485995,0.0,8.000000953674316,5.999999046325684,3.141584184233343,0.0
1759828506.7738688,1,-1.0681152389203837e-06,5.999995708465421,3.1415913104888866,0.0,8.000000953674316,5.999999046325684,3.14158443863489,0.0
1759828506.784592,1,-1.068115238920801e-06,5.999995708465452,3.141591310491325,0.0,8.000000953674316,5.999999046325684,3.141584710250001,0.0
1759828506.794871,1,-1.0681152389211316e-06,5.999995708465477,3.141591310493257,0.0,8.000000953674316,5.999999046325684,3.141585031079982,0.0
1759828506.8059046,1,-1.068115238921394e-06,5.999995708465496,3.1415913104947895,0.0,8.000000953674316,5.999999046325684,3.1415852117488097,0.0
1759828506.8171048,1,-1.0681152389216025e-06,5.999995708465511,3.1415913104960085,0.0,8.000000953674316,5.999999046325684,3.141585371079895,0.0
1759828506.8273602,1,-1.068115238921769e-06,5.999995708465524,3.1415913104969815,0.0,8.000000953674316,5.999999046325684,3.141585667823133,0.0
1759828506.8381643,1,-1.0681152389219022e-06,5.9999957084655335,3.1415913104977595,0.0,8.000000953674316,5.999999046325684,3.1415858672476134,0.0
1759828506.84927,1,-1.0681152389220153e-06,5.999995708465542,3.14159131049842,0.0,8.000000953674316,5.999999046325684,3.141586019901734,0.0
1759828506.8599677,1,-1.0681152389221048e-06,5.9999957084655495,3.141591310498944,0.0,8.000000953674316,5.999999046325684,3.1415862282942406,0.0
1759828506.870178,1,-1.0681152389221762e-06,5.999995708465555,3.141591310499361,0.0,8.000000953674316,5.999999046325684,3.141586484227334,0.0
1759828506.8812656,1,-1.068115238922233e-06,5.999995708465558,3.1415913104996935,0.0,8.000000953674316,5.999999046325684,3.1415866151581433,0.0
1759828506.8915608,1,-1.068115238922281e-06,5.999995708465562,3.1415913104999738,0.0,8.000000953674316,5.999999046325684,3.1415868343353672,0.0
1759828506.9024427,1,-1.0681152389223191e-06,5.9999957084655655,3.141591310500196,0.0,8.000000953674316,5.999999046325684,3.1415869755934036,0.0
1759828506.9134135,1,-1.0681152389223492e-06,5.999995708465567,3.141591310500372,0.0,8.000000953674316,5.999999046325684,3.1415871066928247,0.0
1759828506.9238884,1,-1.0681152389223733e-06,5.999995708465569,3.141591310500513,0.0,8.000000953674316,5.999999046325684,3.1415872904342557,0.0
1759828506.935058,1,-1.0681152389223924e-06,5.999995708465571,3.141591310500625,0.0,8.000000953674316,5.999999046325684,3.141587397771735,0.0
1759828506.9462795,1,-1.0681152389224085e-06,5.999995708465573,3.1415913105007194,0.0,8.000000953674316,5.999999046325684,3.1415875071472463,0.0
1759828506.9573746,1,-1.0681152389224214e-06,5.999995708465573,3.141591310500794,0.0,8.000000953674316,5.999999046325684,3.1415876372287546,0.0
1759828506.9678564,1,-1.0681152389224316e-06,5.999995708465573,3.1415913105008535,0.0,8.000000953674316,5.999999046325684,3.1415878211598613,0.0
1759828506.978071,1,-1.0681152389224396e-06,5.999995708465573,3.1415913105009006,0.0,8.000000953674316,5.999999046325684,3.1415880102638916,0.0
1759828506.9887383,1,-1.0681152389224462e-06,5.999995708465573,3.1415913105009388,0.0,8.000000953674316,5.999999046325684,3.1415881401960064,0.0
1759828506.9994085,1,-1.0681152389224517e-06,5.999995708465573,3.1415913105009707,0.0,8.000000953674316,5.999999046325684,3.1415882611076356,0.0
1759828507.0100307,1,-1.068115238922456e-06,5.999995708465573,3.141591310500996,0.0,8.000000953674316,5.999999046325684,3.1415883811946603,0.0
1759828507.0213735,1,-1.0681152389224593e-06,5.999995708465573,3.141591310501016,0.0,8.000000953674316,5.999999046325684,3.141588445408157,0.0
1759828507.031994,1,-1.068115238922462e-06,5.999995708465573,3.141591310501032,0.0,8.000000953674316,5.999999046325684,3.14158857007493,0.0
1759828507.0430017,1,-1.0681152389224642e-06,5.999995708465573,3.141591310501045,0.0,8.000000953674316,5.999999046325684,3.141588664735277,0.0
1759828507.0540812,1,-1.0681152389224659e-06,5.999995708465573,3.141591310501055,0.0,8.000000953674316,5.999999046325684,3.1415887548395,0.0
1759828507.065402,1,-1.0681152389224676e-06,5.999995708465573,3.141591310501064,0.0,8.000000953674316,5.999999046325684,3.1415888324134205,0.0
1759828507.0766406,1,-1.0681152389224689e-06,5.999995708465573,3.1415913105010707,0.0,8.000000953674316,5.999999046325684,3.1415889206106726,0.0
1759828507.0878515,1,-1.0681152389224697e-06,5.999995708465573,3.141591310501076,0.0,8.000000953674316,5.999999046325684,3.1415890130610595,0.0
1759828507.0985203,1,-1.0681152389224705e-06,5.999995708465573,3.1415913105010804,0.0,8.000000953674316,5.999999046325684,3.1415891352951615,0.0
1759828507.1087794,1,-1.068115238922471e-06,5.999995708465573,3.141591310501084,0.0,8.000000953674316,5.999999046325684,3.141589268761738,0.0
1759828507.118812,1,-1.0681152389224714e-06,5.999995708465573,3.1415913105010866,0.0,8.000000953674316,5.999999046325684,3.1415893964864754,0.0
1759828507.1296408,1,-1.0681152389224718e-06,5.999995708465573,3.1415913105010893,0.0,8.000000953674316,5.999999046325684,3.141589465923957,0.0
1759828507.1401365,1,-1.0681152389224722e-06,5.999995708465573,3.141591310501091,0.0,8.000000953674316,5.999999046325684,3.1415895490580734,0.0
1759828507.1507437,1,-1.0681152389224727e-06,5.999995708465573,3.141591310501093,0.0,8.000000953674316,5.999999046325684,3.141589622903574,0.0
1759828507.1615663,1,-1.0681152389224727e-06,5.999995708465573,3.1415913105010937,0.0,8.000000953674316,5.999999046325684,3.1415896840500253,0.0
1759828507.172283,1,-1.0681152389224727e-06,5.999995708465573,3.1415913105010946,0.0,8.000000953674316,5.999999046325684,3.1415897504898034,0.0
1759828507.1828732,1,-1.0681152389224727e-06,5.999995708465573,3.1415913105010955,0.0,8.000000953674316,5.999999046325684,3.141589821509333,0.0
1759828507.193053,1,-1.0681152389224727e-06,5.999995708465573,3.1415913105010964,0.0,8.000000953674316,5.999999046325684,3.141589906218517,0.0
1759828507.203746,1,-1.0681152389224727e-06,5.999995708465573,3.141591310501097,0.0,8.000000953674316,5.999999046325684,-3.1315953247780963,-2.7211413497596484e-07
1759828507.2142828,1,-1.0681152389224727e-06,5.999995708465573,3.141591310501097,0.0,8.000000953674316,5.999999046325684,-3.131595264392581,-2.7211413497596484e-07
1759828507.2264965,1,-1.0681152389224727e-06,5.999995708465573,3.141591310501097,0.0,8.000000953728739,5.999999046325684,3.0888583450385267,-2.748352763257245e-07
1759828507.2371671,1,-1.0681152389224727e-06,5.999995708465573,3.141591310501097,0.0,8.000000954198699,5.9999990462735004,2.9368174801792417,-3.086851981915796e-07
1759828507.2502854,1,-1.0681152389224727e-06,5.999995708465573,3.141591310501097,0.0,8.000000954480216,5.999999045831888,2.9172536836192404,-3.344190070867087e-07
1759828507.2604718,1,-1.0681152389224727e-06,5.999995708465573,3.141591310501097,0.0,8.00000095455533,5.99999904524452,2.902136580178981,-3.5541254979842454e-07
1759828507.2715108,1,-1.0681152389224727e-06,5.999995708465573,3.141591310501097,0.0,8.000000954404014,5.999999044653832,2.890571095446544,-3.726358746182632e-07
1759828507.283527,1,-1.0681152389224727e-06,5.999995708465573,3.141591310501097,0.0,8.000000954404014,5.999999044653832,2.890571121017571,-3.726358746182632e-07
1759828507.2946835,1,-1.0681152389224727e-06,5.999995708465573,3.141591310501097,0.0,8.000000953618692,5.999999043792038,2.8718039443667203,-3.9746166762759326e-07
1759828507.3058736,1,-1.0681152389224727e-06,5.999995708465573,3.141591310501097,0.0,8.000000953075336,5.999999043610752,2.8642954458559235,-4.062702575485608e-07
1759828507.3236752,1,-1.0681152389224727e-06,5.999995708465573,3.141591310501097,0.0,7.921814895683234,5.982601817723207,2.858776569330071,0.5495971619804882
1759828507.3267388,1,-1.0681152389224727e-06,5.999995708465573,3.141591310501097,0.0,7.897143658847479,5.98262445948151,2.855018149482921,0.5495971555758031
1759828507.3378267,1,-1.0681152389224727e-06,5.999995708465573,3.141591310501097,0.0,7.885252869159927,5.982474350470766,2.848373409243767,0.5550931224285632
1759828507.3479593,1,-1.0681152389224727e-06,5.999995708465573,3.141591310501097,0.0,7.879083042539093,5.982203169581508,2.843194259556786,0.5655786660084069
1759828507.359419,1,-1.0681152389224727e-06,5.999995708465573,3.141591310501097,0.0,7.875546232976757,5.981988438926385,2.83971060767318,0.5739240452856773
1759828507.370841,1,-1.0681152389224727e-06,5.999995708465573,3.141591310501097,0.0,7.873472536057939,5.981805914856526,2.837549686534305,0.5807273065248025
1759828507.3815002,1,-1.0681152389224727e-06,5.999995708465573,3.141591310501097,0.0,7.872324929625357,5.981652036613215,2.8364591535623407,0.5861416769683087
1759828507.3927176,1,-1.0681152389224727e-06,5.999995708465573,3.141591310501097,0.0,7.8713624235946344,5.981522035528839,2.8362502370146303,0.5905247755825028
1759828507.4035842,1,-1.0681152389224727e-06,5.999995708465573,3.141591310501097,0.0,7.870699922920678,5.981415301074907,2.8333015353729114,0.5943011291226232
1759828507.4143283,1,-1.0681152389224727e-06,5.999995708465573,3.141591310501097,0.0,7.870220600261268,5.981304935437453,2.8315893516321444,0.5973333153068173
1759828507.4257011,1,-1.0681152389224727e-06,5.999995708465573,3.141591310501097,0.0,7.869717915902346,5.981199744562729,2.8308557032771007,0.5997754291335285
1759828507.436913,1,-1.0681152389224727e-06,5.999995708465573,3.141591310501097,0.0,7.869421594509046,5.981106316841336,2.8309262315473562,0.6017467802836293
1759828507.447778,1,-1.0681152389224727e-06,5.999995708465573,3.141591310501097,0.0,7.869280016281051,5.981029669195951,2.8316726145318003,0.6033415383970365
1759828507.4585958,1,-1.0681152389224727e-06,5.999995708465573,3.141591310501097,0.0,7.869164726256669,5.980973422125891,2.83298917179254,0.6046346096520129
1759828507.4700215,1,-1.0681152389224727e-06,5.999995708465573,3.141591310501097,0.0,7.868906962929722,5.980940293261857,2.8313336032071925,0.6057520553160894
1759828507.4814646,1,-1.0681152389224727e-06,5.999995708465573,3.141591310501097,0.0,7.868758959897058,5.980895876661253,2.8306860397840117,0.6066512232956277
1759828507.4915853,1,-1.0681152389224727e-06,5.999995708465573,3.141591310501097,0.0,7.868949043069434,5.980852571988317,2.8308293732249385,0.6073771316070279
1759828507.5016475,1,-1.0681152389224727e-06,5.999995708465573,3.141591310501097,0.0,7.869015671986551,5.980818175993902,2.8315998102031568,0.6079648319065498
1759828507.5126162,1,-1.0681152389224727e-06,5.999995708465573,3.141591310501097,0.0,7.868810687277012,5.980798624680556,2.829490428878577,0.6084711645333536
1759828507.5298324,1,-1.0681152389224727e-06,5.999995708465573,3.141591310501097,0.0,7.800015098684568,5.981061735182528,2.8283011877414133,0.5980591972949822
1759828507.5396388,1,-1.0681152389224727e-06,5.999995708465573,3.141591310501097,0.0,7.775241162608589,5.981060009951388,2.827148765607295,0.5980593705925193
1759828507.5509994,1,-1.0681152389224727e-06,5.999995708465573,3.141591310501097,0.0,7.764763219915151,5.981025087220546,2.8276689521136307,0.5982145892741261
1759828507.561631,1,-1.0681152389224727e-06,5.999995708465573,3.141591310501097,0.0,7.759626733306011,5.980994942780287,2.830320180803988,0.5984348937071814
1759828507.5722952,1,-1.0681152389224727e-06,5.999995708465573,3.141591310501097,0.0,7.75643783762347,5.981012023052935,2.8283937801665515,0.5984025873290841
1759828507.5828836,1,-1.0681152389224727e-06,5.999995708465573,3.141591310501097,0.0,7.755927584729311,5.981011985882435,2.8283938060377034,0.5984025873290841
1759828507.5936763,1,-1.0681152389224727e-06,5.999995708465573,3.141591310501097,0.0,7.752980761506524,5.980988849056993,2.827574055602711,0.5983600439053274
1759828507.6041539,1,-1.0681152389224727e-06,5.999995708465573,3.141591310501097,0.0,7.7529550901447175,5.980988843262664,2.827574077713546,0.5983600439053274
1759828507.614441,1,-1.0681152389224727e-06,5.999995708465573,3.141591310501097,0.0,7.752008459392985,5.9809757273003346,2.8282819565809962,0.5983446423966401
1759828507.6253452,1,-1.0681152389224727e-06,5.999995708465573,3.141591310501097,0.0,7.751119722502313,5.980972300624672,2.829492606371968,0.5983323409404835
1759828507.6365492,1,-1.0681152389224727e-06,5.999995708465573,3.141591310501097,0.0,7.749773711227097,5.980976927987329,2.8273753570868685,0.598313249399109
1759828507.647129,1,-1.0681152389224727e-06,5.999995708465573,3.141591310501097,0.0,7.749861657368319,5.980976927487625,2.8273753746238004,0.598313249399109
1759828507.6584775,1,-1.0681152389224727e-06,5.999995708465573,3.141591310501097,0.0,7.749293017031268,5.980964297399376,2.8275838614454027,0.598306300548059
1759828507.6698613,1,-1.0681152389224727e-06,5.999995708465573,3.141591310501097,0.0,7.748892075483453,5.980955813214796,2.828421202900518,0.5983007647988845
1759828507.6805012,1,-1.0681152389224727e-06,5.999995708465573,3.141591310501097,0.0,7.748484035331841,5.980975687018666,2.82810878386642,0.5982923961323826
1759828507.6916144,1,-1.0681152389224727e-06,5.999995708465573,3.141591310501097,0.0,7.748437140695229,5.980975686881465,2.828108794511003,0.5982923961323826
1759828507.7031226,1,-1.0681152389224727e-06,5.999995708465573,3.141591310501097,0.0,7.747967700129175,5.98096066193819,2.8274916453447845,0.5982867268690611
1759828507.7146063,1,-1.0681152389224727e-06,5.999995708465573,3.141591310501097,0.0,7.747934873782821,5.980960661820203,2.8274916548009004,0.5982867268690611
1759828507.7297404,1,-1.0681152389224727e-06,5.999995708465573,3.141591310501097,0.0,7.698292159061673,5.985149058621432,2.829556281446793,0.4645140017853916
1759828507.7410958,1,-1.0681152389224727e-06,5.999995708465573,3.141591310501097,0.0,7.678485552586015,5.985209032040418,2.827431622493381,0.4630358759800823
1759828507.7524612,1,-1.0681152389224727e-06,5.999995708465573,3.141591310501097,0.0,7.669816520829004,5.9852806193077255,2.826532810174583,0.4605287227069262
1759828507.7626739,1,-1.0681152389224727e-06,5.999995708465573,3.141591310501097,0.0,7.666059585576684,5.985331101241215,2.8264766243625314,0.45853947507971593
1759828507.7727866,1,-1.0681152389224727e-06,5.999995708465573,3.141591310501097,0.0,7.665094892498107,5.985331055688656,2.8264766433106097,0.45853947507971593
1759828507.7839987,1,-1.0681152389224727e-06,5.999995708465573,3.141591310501097,0.0,7.663476566002595,5.985373855580631,2.8270825484152255,0.4569123212173203
1759828507.7954576,1,-1.0681152389224727e-06,5.999995708465573,3.141591310501097,0.0,7.661650595426148,5.985459293577321,2.8298387415752417,0.45457752749430413
1759828507.8058946,1,-1.0681152389224727e-06,5.999995708465573,3.141591310501097,0.0,7.66106792288964,5.985512679179572,2.8284919286722827,0.4536779469414574
1759828507.8172917,1,-1.0681152389224727e-06,5.999995708465573,3.141591310501097,0.0,7.6604041677424775,5.985545130222599,2.8280913250831885,0.4529319495863633
1759828507.8284798,1,-1.0681152389224727e-06,5.999995708465573,3.141591310501097,0.0,7.6603892599925,5.985545129762919,2.8280913327874178,0.4529319495863633
1759828507.8387122,1,-1.0681152389224727e-06,5.999995708465573,3.141591310501097,0.0,7.659752924294046,5.985589525022161,2.829474720426915,0.4518585323483225
1759828507.849874,1,-1.0681152389224727e-06,5.999995708465573,3.141591310501097,0.0,7.659340992297008,5.985617847149397,2.8274799335281786,0.4514497289168219
1759828507.8600678,1,-1.0681152389224727e-06,5.999995708465573,3.141591310501097,0.0,7.659191523508869,5.985624376145524,2.826537209700371,0.4511114713315774
1759828507.87051,1,-1.0681152389224727e-06,5.999995708465573,3.141591310501097,0.0,7.658987376654164,5.985621680943481,2.826439581003269,0.4508397371366362
1759828507.881737,1,-1.0681152389224727e-06,5.999995708465573,3.141591310501097,0.0,7.6588682720870205,5.985621681004945,2.826439585180729,0.4508397371366362
1759828507.8929813,1,-1.0681152389224727e-06,5.999995708465573,3.141591310501097,0.0,7.658524829518565,5.98562066103893,2.828211207581843,0.45044652384354994
1759828507.9033246,1,-1.0681152389224727e-06,5.999995708465573,3.141591310501097,0.0,7.65854598643624,5.9856316292923575,2.829763400934313,0.4503069178944253
1759828507.9138145,1,-1.0681152389224727e-06,5.999995708465573,3.141591310501097,0.0,7.658569487593639,5.985631629178512,2.8297634080428953,0.4503069178944253
1759828507.926594,1,-1.0681152389224727e-06,5.999995708465573,3.141591310501097,0.0,7.609373242081236,5.985207354205112,2.8280458394515744,0.4645722404840867
1759828507.9362779,1,-1.0681152389224727e-06,5.999995708465573,3.141591310501097,0.0,7.591206157366201,5.9852069484028245,2.827094445945371,0.46457230947552336
1759828507.9477239,1,-1.0681152389224727e-06,5.999995708465573,3.141591310501097,0.0,7.58320587126955,5.985210039664481,2.8284924791614476,0.46457387637559766
1759828507.9586074,1,-1.0681152389224727e-06,5.999995708465573,3.141591310501097,0.0,7.579072033233527,5.985216193281355,2.8263572528818144,0.46479482952606643
1759828507.9696062,1,-1.0681152389224727e-06,5.999995708465573,3.141591310501097,0.0,7.576760670571554,5.985203126557989,2.825319441108412,0.4649718547384531
1759828507.9809406,1,-1.0681152389224727e-06,5.999995708465573,3.141591310501097,0.0,7.575282537243816,5.985183366236035,2.8251282256302823,0.4651140980814034
1759828507.9911985,1,-1.0681152389224727e-06,5.999995708465573,3.141591310501097,0.0,7.575282969825032,5.985183362710515,2.8251282315640767,0.4651140980814034
1759828508.002467,1,-1.0681152389224727e-06,5.999995708465573,3.141591310501097,0.0,7.573643714732291,5.9851540852578,2.826757046375778,0.4653199078749615
1759828508.01371,1,-1.0681152389224727e-06,5.999995708465573,3.141591310501097,0.0,7.573012626368134,5.985156288175321,2.8249487994177764,0.4653974490393175
1759828508.0237987,1,-1.0681152389224727e-06,5.999995708465573,3.141591310501097,0.0,7.5727036069405695,5.9851421763297115,2.8241698334896603,0.4654616091337517
1759828508.0345495,1,-1.0681152389224727e-06,5.999995708465573,3.141591310501097,0.0,7.572286993333438,5.9851236317417795,2.8241752278374395,0.4655131724203676
1759828508.0454104,1,-1.0681152389224727e-06,5.999995708465573,3.141591310501097,0.0,7.572252619307449,5.98512363169483,2.8241752317474718,0.4655131724203676
1759828508.0565197,1,-1.0681152389224727e-06,5.999995708465573,3.141591310501097,0.0,7.5716797701142164,5.985100503503301,2.8261372371314386,0.4655873240299335
1759828508.0668168,1,-1.0681152389224727e-06,5.999995708465573,3.141591310501097,0.0,7.5715757340573075,5.985107252443454,2.824575905753206,0.46561544264977267
1759828508.076923,1,-1.0681152389224727e-06,5.999995708465573,3.141591310501097,0.0,7.571476570445715,5.985098820772261,2.82401714210927,0.4656387081623499
1759828508.0882773,1,-1.0681152389224727e-06,5.999995708465573,3.141591310501097,0.0,7.571172321768277,5.98508661436105,2.8242586583618814,0.4656573975662993
1759828508.0996575,1,-1.0681152389224727e-06,5.999995708465573,3.141591310501097,0.0,7.571102437629302,5.9850866143986465,2.824258660445084,0.4656573975662993
1759828508.1100464,1,-1.0681152389224727e-06,5.999995708465573,3.141591310501097,0.0,7.57105473355528,5.98507754047907,2.8264080697679286,0.46568449370998816
1759828508.1200852,1,-1.0681152389224727e-06,5.999995708465573,3.141591310501097,0.0,7.571075695169625,5.985090641633571,2.8248037383747873,0.4656947098259874
1759828508.134777,1,-1.0681152389224727e-06,5.999995708465573,3.141591310501097,0.0,7.532363292952722,5.988987656839813,2.8241673603830404,0.34123442118522623
1759828508.145986,1,-1.0681152389224727e-06,5.999995708465573,3.141591310501097,0.0,7.517084632796037,5.989018699752698,2.8243305570554638,0.33999657899852714
1759828508.1564817,1,-1.0681152389224727e-06,5.999995708465573,3.141591310501097,0.0,7.511494379886324,5.989018622097153,2.8243305615315455,0.33999657899852714
1759828508.1679194,1,-1.0681152389224727e-06,5.999995708465573,3.141591310501097,0.0,7.508401999269994,5.989078378720394,2.8264973415668693,0.338172191280808
1759828508.1790595,1,-1.0681152389224727e-06,5.999995708465573,3.141591310501097,0.0,7.50717322715452,5.989115085012911,2.828190591201631,0.3374983271780041
1759828508.1903162,1,-1.0681152389224727e-06,5.999995708465573,3.141591310501097,0.0,7.505782668353623,5.989200370277166,2.8265692755672034,0.33561445167346476
1759828508.2008693,1,-1.0681152389224727e-06,5.999995708465573,3.141591310501097,0.0,7.504871431375701,5.98925814644662,2.8259818961291163,0.33411520646491455
1759828508.2123249,1,-1.0681152389224727e-06,5.999995708465573,3.141591310501097,0.0,7.504043341844251,5.9893021047241675,2.826176420089556,0.33290534662893617
1759828508.223287,1,-5.898145894945592e-07,5.9999957084649305,2.513473968936562,-4.7830064942834484e-05,7.503474924854053,5.98933997706132,2.827036038786141,0.33192716556539037
1759828508.2339141,1,-1.6461777690890483e-05,5.999992853075467,2.0070838313566886,1.50082812426654e-05,7.503044724734439,5.989376945858936,2.828522069842455,0.33113536815347394
1759828508.2451594,1,-3.322969440270501e-05,5.99998893670261,2.218317537847073,-7.20868510063247e-05,7.502560515177148,5.989419323722693,2.827039327438584,0.3304512152975376
1759828508.2565663,1,-4.487840887432315e-05,5.999983722391252,2.384035540121544,-0.000478715729058462,7.502169523843627,5.9894446399799275,2.826546975180109,0.32989409710970885
1759828508.2669039,1,-6.745199951485974e-05,5.999976995055689,1.9072712345525829,-0.006442816653832779,7.502275103064329,5.98944463985914,2.8265469766483426,0.32989409710970885
1759828508.2782347,1,1.0468315208010662e-05,5.999953728627369,1.5336037373357359,-0.010752767708254025,7.501693363970275,5.989477961812171,2.82771837099863,0.3290876604366816
1759828508.2882738,1,3.153242523881737e-05,5.999873581542145,0.6772666656483032,-0.013719659647113525,7.501601780123335,5.989498070335244,2.8257699129206615,0.32878399618308923
1759828508.299491,1,-6.0437495492055505e-05,5.9997589055190215,0.5492383442991579,-0.01664215778950291,7.501342141223874,5.989502684087687,2.8248734980764367,0.3285326860879417
1759828508.3098972,1,-0.00021631844457085274,5.999748853081913,-0.11198090908972784,-0.018590645575776454,7.501264679892819,5.9895008258892695,2.8248183257717456,0.32833328384824034
1759828508.3212519,1,-0.00034683934247140024,5.999936864134707,-0.6737308468741308,-0.014152954585751177,7.501180019311486,5.989500825952305,2.8248183275260224,0.32833328384824034
1759828508.3332791,1,-0.0003646293049558635,6.000071748013304,-0.5602488458906725,-0.01119483096002763,7.462924221175048,5.988587901630589,2.825467709744369,0.3572123819995532
1759828508.3445992,1,-0.00038978335829949716,6.000141632290657,-0.4688426941848676,-0.008805911591495037,7.44770303983404,5.988590604553569,2.824046926848868,0.35729297476948274
1759828508.355742,1,-0.0004104790570640275,6.000170384525937,-0.387192798720179,-0.006855907233313569,7.441107818417422,5.988570706941069,2.8232900100485785,0.35774559099169045
1759828508.3660533,1,-0.00042296507475830683,6.000172725460975,-0.31472771273638106,-0.005278480923083228,7.438169537524965,5.988548944202477,2.82333675757213,0.35810922751569746
1759828508.3762233,1,-0.00042381066134349147,6.000159029671003,-0.2815409455363069,-0.0040648883349693994,7.437428531813441,5.988548938482755,2.8233367594667844,0.35810922751569746
1759828508.3875117,1,-0.0004179725796341956,6.000140035958933,-0.24777914844740978,-0.0030859650501063284,7.435611484269051,5.98851921191059,2.825235119324347,0.35863582620715295
1759828508.3984919,1,-0.00040758723260171014,6.000118796172418,-0.21397823400536936,-0.0022955131637379398,7.434945383480146,5.988519643569958,2.8234848078273074,0.35883404799295004
1759828508.4091341,1,-0.0003941598312062342,6.000097101403365,-0.1798481341056389,-0.0016477113375520187,7.434489910064652,5.988507980241679,2.8227406192975666,0.3589981295931507
1759828508.4196365,1,-0.00037909598209308717,6.0000767125274805,-0.1460668106538046,-0.0011309653947901217,7.43415257018184,5.988493214245185,2.822799458801637,0.3591283242994294
1759828508.4299314,1,-0.0003633860273026835,6.000058344643234,-0.1125473290058647,-0.0007172413730203364,7.434184080767528,5.988493214152369,2.8227994599969017,0.3591283242994294
1759828508.440835,1,-0.014492897086247136,5.9973413480992495,-0.11608309716996688,0.08290290231960887,7.433843607274775,5.98848035873391,2.8240236388596758,0.35923381519408404
1759828508.4522133,1,-0.026887215463023233,5.995015700359288,-0.11204085722827785,0.1490984663696125,7.433545105873662,5.988477191859517,2.826599009167303,0.35925143845596746
1759828508.463047,1,-0.03705359520963646,5.993024847120836,-0.10227262229641378,0.20250069082955324,7.433380552347613,5.988487129975389,2.8254621908942226,0.35932400231685224
1759828508.473419,1,-0.04519689118502359,5.991339501278127,-0.08796474842714871,0.24623365806695677,7.433291712937145,5.988487323844182,2.825230906378517,0.35938247493134395
1759828508.4836905,1,-0.051514828139646515,5.989979829086236,-0.06999685773032076,0.28160222775349286,7.433207969549393,5.988485415500958,2.825750182995969,0.3594295335300412
1759828508.494567,1,-0.0567107525036409,5.9888123072062935,-0.08276776041675646,0.31168757911036477,7.43314822888788,5.9884854193079375,2.8257496475529362,0.3594295335300412
1759828508.5064292,1,-0.060670166938889464,5.987775568739272,-0.0855703825300112,0.33583227904707036,7.432813594962877,5.988496253807257,2.8251534667365514,0.3594924929240971
1759828508.5179381,1,-0.06368362033869551,5.986893343839703,-0.0809485541931289,0.35552837056656866,7.4327258689362985,5.988492685631974,2.8244893344209823,0.3595127867218693
1759828508.5312686,1,-0.06588838772288173,5.986204976402322,-0.06902472796114625,0.3713644843469031,7.400483760489706,6.006880806067206,-2.830258922432616,0.2979011094782128
1759828508.5427454,1,-0.0674774519128418,5.985734518807419,-0.052336940232995455,0.3840022861434724,7.388098780337252,6.006873275827008,-2.8297278596691693,0.2979078359268967
1759828508.5539012,1,-0.06891013635122441,5.985347064020891,-0.06626341787274562,0.3948711833028434,7.3830536661343436,6.007019225098036,-2.885001600374409,0.29730188784962147
1759828508.5645854,1,-0.06993515219219225,5.984943994781383,-0.07069606203871333,0.4036115333100791,7.380631193598779,6.006870475265745,-2.9292301712458126,0.29680999693329296
1759828508.5756638,1,-0.07064300354139533,5.984601398183666,-0.0674582946788034,0.41055180208757647,7.3784583312178915,6.006925567201653,-2.967221316251853,0.2957485005544274
1759828508.5856721,1,-0.07113956964174033,5.984354739896317,-0.058885164840140836,0.4162795146314935,7.376785019763184,6.007098576871728,-2.9982931527676633,0.2948967551719781
1759828508.5958264,1,-0.07144952188709953,5.984232463299118,-0.04566551460300158,0.4209241644164852,7.375316047766272,6.007434677123593,-3.0233441895847646,0.29420969194089447
1759828508.605899,1,-0.07185484762589103,5.984132760793303,-0.06119799374923357,0.4249060138987507,7.37408710637562,6.007908980114685,-3.043603728104958,0.29365386474629884
1759828508.6171234,1,-0.072114701764466,5.9839534839792,-0.06660645575632171,0.4281057616296857,7.372961877735123,6.008474385456274,-3.060019749831171,0.29320331776302017
1759828508.627268,1,-0.07224800632263847,5.983785133406335,-0.06487554353836317,0.43068920719461246,7.372217146090291,6.009103515903072,-3.074162474959483,0.29281587444920576
1759828508.638604,1,-0.08189605718325796,5.982376215956429,-0.0565367428350442,0.4735838481974484,7.371496712527367,6.009746024525232,-3.0856476565488458,0.2925010400478718
1759828508.6487558,1,-0.0930284103069664,5.9812711296104215,-0.04344640064762905,0.508746686543569,7.371115958963195,6.010367926969694,-3.0948859674618077,0.29224756119455303
1759828508.6599457,1,-0.1184261892186417,5.984503564394169,-0.061158470591111486,0.5814330969163161,7.371043308607913,6.010367918565067,-3.0948862352785556,0.29224756119455303
1759828508.671137,1,-0.14009519019966624,5.988540225492439,-0.6338018196506048,0.6393129974578864,7.370458075260824,6.011483851544962,-3.106597285349042,0.2919832237003891
1759828508.6818302,1,-0.1619926165260371,5.9861030134483295,-1.088491670508049,0.6852645235997572,7.370497298494553,6.01148383949088,-3.1065962713334985,0.2919832237003891
1759828508.6928792,1,-0.18725622430375466,5.9828045824849365,-1.4606673415461606,0.723577926880647,7.370281713648237,6.012367544491804,-3.1158533429716035,0.29173056993096824
1759828508.7043514,1,-0.21381267237799656,5.982200109254378,-1.7574301999902542,0.7541289390694632,7.370200530302082,6.012738179240982,-3.1191571330029064,0.2916403860520585
1759828508.7151208,1,-0.24060554577246995,5.986145656645001,-2.0132539533935367,0.7804170526111195,7.370245780203675,6.013072480048826,-3.121879694804955,0.2915659022106153
1759828508.7266545,1,-0.26499620006504804,5.9942567839655325,-2.218671530295931,0.8015287258983105,7.370200477101598,6.01336894929495,-3.124085119404592,0.2915053787084558
1759828508.7451403,1,-0.2862365766998811,6.005655135513877,-2.385003599385519,0.8186240871371101,7.321855714728945,6.016581874631421,-3.1271890091875583,0.371806808961119
1759828508.7545445,1,-0.303663017089405,6.0192233546512774,-2.5195650697216787,0.8324597676085479,7.304393785853748,6.016787765796425,-3.12958689007011,0.3725910296157418
1759828508.7660487,1,-0.31689311692863226,6.033893985571888,-2.633539790557579,0.8442076792654598,7.297621998226881,6.016785705278617,-3.1295724559299547,0.3725910296157418
1759828508.7761462,1,-0.3267673549999859,6.048858793596675,-2.7251840491182886,0.8536548776147243,7.294371109671154,6.017196959850825,-3.1311981459099023,0.3737387563182042
1759828508.7875473,1,-0.33386388971699027,6.063505092948404,-2.798989947625199,0.8612669281560659,7.292019354399345,6.017373928925348,-3.131975794486103,0.375014849663392
1759828508.7978709,1,-0.33871348966154524,6.07744215529266,-2.858655174792374,0.8674240377366927,7.290700253403374,6.017572957240644,-3.1326066750177266,0.3760387435376224
1759828508.8092482,1,-0.34190455558154487,6.090614548524729,-2.907537752264157,0.8724699040195169,7.289581862827974,6.017782039567344,-3.133117100116883,0.37687557913402375
1759828508.8207417,1,-0.3429501547350391,6.101988158692316,-2.948999847942199,0.876769107035401,7.288768252175819,6.01798946919306,-3.1335205989352715,0.3775429437393074
1759828508.8307946,1,-0.34311617640178516,6.112377826781978,-2.982347645086187,0.880227564974165,7.288333279383701,6.018192738964769,-3.1338454783097522,0.3780847558052945
1759828508.8415217,1,-0.35376199621689286,6.122003527502051,-3.0092258696415697,0.8892571853413948,7.287816322764893,6.018333666522588,-3.134143448592251,0.3785527790754442
1759828508.8516457,1,-0.3661336293317408,6.130848587013569,-3.0309574384110163,0.8965553006339367,7.287488267133075,6.018475925114873,-3.134379836937875,0.37892940739576164
1759828508.8623965,1,-0.37759182155576443,6.1389487151749575,-3.048546850034319,0.9025447198989384,7.287107088048067,6.018616392780612,-3.1345658798700797,0.37923339971311426
1759828508.8734968,1,-0.4056961546354941,6.145393801297913,-3.0637423441242144,0.914184719604756,7.286772121161673,6.018753696452308,-3.1347121594212393,0.3794793161409553
1759828508.8847644,1,-0.42814148279258407,6.151536754930983,-3.0759278394425302,0.9234620497367372,7.286501422461146,6.018886030763092,-3.1328679173766334,0.3796816584407833
1759828508.8950548,1,-0.44624750679479414,6.157298134481962,-3.0857451659925643,0.9309513648249801,7.28643804310925,6.018952506704855,-3.132985251559726,0.3798535656410694
1759828508.9051695,1,-0.46087027589638174,6.162670788868411,-3.0936695642142924,0.9370117699139274,7.286358038708026,6.019025182448119,-3.133055647281395,0.3799919234976031
1759828508.9161768,1,-0.4727051056512081,6.167693002269505,-3.100068137222336,0.9419229058823174,7.286145055254648,6.019101000468955,-3.133107838578249,0.380103668800686
1759828508.928698,1,-0.4822559623641328,6.171025933765579,-3.1056051585199587,0.9461504488596251,7.285809329935308,6.019179215840994,-3.133144988776959,0.38019410040316515
1759828508.9446862,1,-0.4899843293939787,6.17443182152096,-3.1100040625026852,0.9495338408176006,7.236730032967278,6.020598892226848,-3.1330362517154957,0.4186469358492804
1759828508.9547586,1,-0.49627111945814134,6.177684294091556,-3.113542447747463,0.9522717992367633,7.218991574634296,6.020619733358572,-3.13400196301642,0.41869934331972186
1759828508.9647756,1,-0.5014856717578032,6.180822933497676,-3.116427376865562,0.9545204447557267,7.211518978869645,6.02066584884342,-3.133915297116963,0.41912452726082344
1759828508.975622,1,-0.5053266277211372,6.1822135904601625,-3.1189571384990464,0.9564751455098129,7.20882147470081,6.0206656949664215,-3.133932586602162,0.41912452726082344
1759828508.9861941,1,-0.5084705125866205,6.18378665629293,-3.1209688875082957,0.9580472545909944,7.20716063853442,6.020728958776911,-3.1338498064006233,0.4194716600692248
1759828508.9975743,1,-0.5110934920000444,6.185498664550147,-3.122567626922363,0.9593155495926826,7.205603383024958,6.020884717700459,-3.1337035859600624,0.4199827533012316
1759828509.0088203,1,-0.5133194917019697,6.187310829042865,-3.1238327540378052,0.9603421383404713,7.204213561160519,6.020910650704129,-3.1337960665021996,0.4205791370727317
1759828509.0189779,1,-0.5152362919925719,6.189165612627097,-3.1248395057459253,0.961175060774804,7.203314935451374,6.020966423197012,-3.1338625077095275,0.42105680009069746
1759828509.0290906,1,-0.5163202548349848,6.189331591294417,-3.125750475773969,0.9619038450284507,7.2033571893663915,6.02096647156656,-3.133866041653321,0.42105680009069746
1759828509.040167,1,-0.529909529988278,6.190260000184377,-3.1264818658062166,0.9730934552135011,7.201751093461304,6.021131866373934,-3.133941197320415,0.42175736821295134
1759828509.05152,1,-0.5410511944769093,6.1917307347530235,-3.1270397855990915,0.9821023240919293,7.201663506295484,6.021131887381468,-3.1339428322298044,0.42175736821295134
1759828509.0620604,1,-0.5568714429908641,6.193570021732684,-3.1274803666783,0.9895972879347796,7.200754159129099,6.021205552340782,-3.1340220712109677,0.42223548665972
1759828509.072087,1,-0.5705537557474077,6.195624728640902,-3.1278131241549874,0.9957023012563267,7.200494976821165,6.021263208573097,-3.134043478614198,0.42240636743394827
1759828509.0833461,1,-0.581916785079412,6.197857279687033,-3.1280561313061814,1.0007156918475977,7.200356617466469,6.021263209489254,-3.1340433327977895,0.42240636743394827
1759828509.0941033,1,-0.6122486831989625,6.198662764701181,-3.128355723043406,1.0160217876093016,7.200066725088166,6.021331119083457,-3.1340556638673664,0.42254876699376226
1759828509.1052873,1,-0.6368190933360341,6.200182997850275,-3.1285705546722804,1.0282119136826753,7.199545873078201,6.021482780844101,-3.131864211173344,0.4227295534661667
1759828509.1164968,1,-0.6565855990274224,6.202163638379373,-3.128718703548469,1.0379031366387548,7.199521399194325,6.021482789976698,-3.1318647083126065,0.4227295534661667
1759828509.1268835,1,-0.6733450834014689,6.204460118549497,-3.1288223498508225,1.0460048748191881,7.199332153666207,6.021517461202795,-3.1318730193208406,0.42287243620839465
1759828509.137727,1,-0.6870774966968723,6.205090426757861,-3.1289799437603008,1.0528934622370747,7.199307847930277,6.0215174612898235,-3.1318729029030514,0.42287243620839465
1759828509.151655,1,-0.6983869775846294,6.206318944468573,-3.1290817922933654,1.0584719889952985,7.138931474668671,5.995309785281486,2.522981252318303,0.5076540612962848
1759828509.1630366,1,-0.7075478287804016,6.207874202218277,-3.1291401555350653,1.0628982539027452,7.1166423178097835,5.9953641949073795,2.521441662142048,0.5076864599571537
1759828509.174405,1,-0.7151489892107514,6.209674066581884,-3.12916258060923,1.0664738418248196,7.106446492186881,5.9942586029956475,2.5781934570910967,0.5094807891502129
1759828509.184654,1,-0.7214623613331493,6.21161587091454,-3.1291584609166216,1.069373039526838,7.101398706276797,5.992834089574668,2.623827695017196,0.5109044250024016
1759828509.1959157,1,-0.7264017515998837,6.211813503516238,-3.129193458277674,1.0717958909661833,7.0983360516370535,5.991166343507217,2.661334332654147,0.5120530793128037
1759828509.207046,1,-0.7305294283827981,6.212463391011255,-3.1291980742437953,1.0737439083649782,7.096606886739494,5.98945913748795,2.692347199818376,0.5129825528748545
1759828509.2176147,1,-0.7340017937812727,6.213425798477813,-3.129178274746877,1.075316866360217,7.095748652217674,5.987879376336683,2.718169961767448,0.5137366380683105
1759828509.2293715,1,-0.7369060203428853,6.2146719534613535,-3.1291356724356705,1.076569653837845,7.095109311631594,5.986506853720473,2.7371148019949225,0.5143799142489349
1759828509.2402184,1,-0.7522045367202407,6.2161929071348885,-3.1290753439519348,1.0792920615368617,7.095018690899838,5.985369683198158,2.753793617101917,0.5149092478921746
1759828509.250599,1,-0.7861370388171013,6.2158513347151345,-3.1290782014271477,1.083389169093241,7.0951277091378975,5.985369706430112,2.753791154161718,0.5149092478921746
1759828509.2621486,1,-0.8199212169823955,6.216134249094955,-3.129046192344886,1.0866992350607945,7.095126207031554,5.983842658579148,2.7819686028664856,0.5156964971125063
1759828509.273491,1,-0.8475857798003922,6.216875854737582,-3.128997603556648,1.0893262614113544,7.0952870488255275,5.9833923052868325,2.789531991749066,0.5159877485440345
1759828509.2837126,1,-0.8706746344286764,6.217937133298256,-3.1289330206316137,1.0914783149889622,7.095679572406945,5.98306095075174,2.796554674112931,0.516228733484955
