timestamp,vehicle_id,x,y,theta,velocity,gps_available,dt,gps_x,gps_y,gps_theta,gps_velocity,control_steering,control_acceleration
1759828504.911513,1,8.0,6.0,-0.05483113549895435,0.0,False,0.01,nan,nan,nan,nan,0.0,0.0
1759828504.9231465,1,8.0,6.0,-0.05483113549895435,0.0,False,0.01163339614868164,nan,nan,nan,nan,0.0,0.0
1759828504.933965,1,8.0,6.0,-0.05483113549895435,0.0,False,0.0108184814453125,nan,nan,nan,nan,0.0,0.0
1759828504.9444761,1,8.0,6.0,-0.05483113549895435,0.0,False,0.010511159896850586,nan,nan,nan,nan,0.0,0.0
1759828504.9559085,1,8.0,6.0,-0.05483113549895435,0.0,False,0.011432409286499023,nan,nan,nan,nan,0.0,0.0
1759828504.967027,1,8.0,6.0,-0.05483113549895435,0.0,False,0.011118412017822266,nan,nan,nan,nan,0.0,0.0
1759828504.9779756,1,8.0,6.0,-0.05483113549895435,0.0,False,0.010948657989501953,nan,nan,nan,nan,0.0,0.0
1759828504.9881656,1,8.0,6.0,-0.05483113549895435,0.0,False,0.010190010070800781,nan,nan,nan,nan,0.0,0.0
1759828504.998838,1,8.0,6.0,-0.05483113549895435,0.0,False,0.010672330856323242,nan,nan,nan,nan,0.0,0.0
1759828505.0091996,1,8.0,6.0,-0.05483113549895435,0.0,False,0.010361671447753906,nan,nan,nan,nan,0.0,0.0
1759828505.019845,1,8.0,6.0,-0.05483113549895435,0.0,False,0.010645389556884766,nan,nan,nan,nan,0.0,0.0
1759828505.0313106,1,8.0,6.0,-0.05483113549895435,0.0,False,0.01146554946899414,nan,nan,nan,nan,0.0,0.0
1759828505.0417385,1,8.0,6.0,-0.05483113549895435,0.0,False,0.01042795181274414,nan,nan,nan,nan,0.0,0.0
1759828505.052403,1,8.0,6.0,-0.05483113549895435,0.0,False,0.01066446304321289,nan,nan,nan,nan,0.0,0.0
1759828505.0629146,1,8.0,6.0,-0.05483113549895435,0.0,False,0.010511636734008789,nan,nan,nan,nan,0.0,0.0
1759828505.073269,1,8.0,6.0,-0.05483113549895435,0.0,False,0.010354280471801758,nan,nan,nan,nan,0.0,0.0
1759828505.08437,1,8.0,6.0,-0.05483113549895435,0.0,False,0.011101007461547852,nan,nan,nan,nan,0.0,0.0
1759828505.0958476,1,8.0,6.0,-0.05483113549895435,0.0,False,0.01147770881652832,nan,nan,nan,nan,0.0,0.0
1759828505.1096933,1,8.000000945727031,5.99999905427297,-2.879849667105134,0.0,True,0.013845682144165039,8.000000953674316,5.999999046325684,3.141591787338257,0.0,0.0,0.0
1759828505.1202774,1,8.000000951017842,5.999999048982158,-3.121122055838569,0.0,True,0.010584115982055664,8.000000953674316,5.999999046325684,3.141591787338257,0.0,0.0,0.0
1759828505.1314538,1,8.00000095267779,5.999999047322208,3.139213048657105,0.0,True,0.011176347732543945,8.000000953674316,5.999999046325684,3.141591787338257,0.0,0.0,0.0
1759828505.1417227,1,8.000000953294668,5.999999046705331,3.13636729846872,0.0,True,0.010268926620483398,8.000000953674316,5.999999046325684,3.141591787338257,0.0,0.0,0.0
1759828505.1527536,1,8.000000953529359,5.9999990464706405,3.1359460397274344,0.0,True,0.011030912399291992,8.000000953674316,5.999999046325684,3.141591787338257,0.0,0.0,0.0
1759828505.1636639,1,8.000000953618951,5.999999046381049,3.1362919025098037,0.0,True,0.010910272598266602,8.000000953674316,5.999999046325684,3.141591787338257,0.0,0.0,0.0
1759828505.1747303,1,8.000000953653169,5.999999046346831,3.1368499843402606,0.0,True,0.011066436767578125,8.000000953674316,5.999999046325684,3.141591787338257,0.0,0.0,0.0
1759828505.1858895,1,8.00000095366624,5.999999046333762,3.1374297273657543,0.0,True,0.011159181594848633,8.000000953674316,5.999999046325684,3.141591787338257,0.0,0.0,0.0
1759828505.1967828,1,8.00000095367123,5.999999046328769,3.1379763640480967,0.0,True,0.01089334487915039,8.000000953674316,5.999999046325684,3.141591787338257,0.0,0.0,0.0
1759828505.2074175,1,8.000000953673139,5.999999046326862,3.1384498161272703,0.0,True,0.010634660720825195,8.000000953674316,5.999999046325684,3.141591787338257,0.0,0.0,0.0
1759828505.2186017,1,8.000000953673867,5.999999046326134,3.1388072963096647,0.0,True,0.011184215545654297,8.000000953674316,5.999999046325684,3.141591787338257,0.0,0.0,0.0
1759828505.2296612,1,8.000000953674144,5.999999046325856,3.1391174225028298,0.0,True,0.01105952262878418,8.000000953674316,5.999999046325684,3.141591787338257,0.0,0.0,0.0
1759828505.2399716,1,8.00000095367425,5.999999046325749,3.1394089888111605,0.0,True,0.01031041145324707,8.000000953674316,5.999999046325684,3.141591787338257,0.0,0.0,0.0
1759828505.2506664,1,8.000000953674292,5.9999990463257085,3.1396287752384566,0.0,True,0.010694742202758789,8.000000953674316,5.999999046325684,3.141591787338257,0.0,0.0,0.0
1759828505.2613218,1,8.000000953674308,5.999999046325693,3.1398132178523053,0.0,True,0.010655403137207031,8.000000953674316,5.999999046325684,3.141591787338257,0.0,0.0,0.0
1759828505.271897,1,8.000000953674313,5.999999046325687,3.1399720384235685,0.0,True,0.010575294494628906,8.000000953674316,5.999999046325684,3.141591787338257,0.0,0.0,0.0
1759828505.2822986,1,8.000000953674315,5.999999046325685,3.140112266893798,0.0,True,0.010401487350463867,8.000000953674316,5.999999046325684,3.141591787338257,0.0,0.0,0.0
1759828505.2925458,1,8.000000953674316,5.9999990463256845,3.1402353661968476,0.0,True,0.010247230529785156,8.000000953674316,5.999999046325684,3.141591787338257,0.0,0.0,0.0
1759828505.306533,1,8.000000953674316,5.999999046325684,3.1402472061017903,0.0,True,0.013987302780151367,8.000000953674316,5.999999046325684,3.141591787338257,0.0,0.0,0.0
1759828505.3130372,1,8.000000953674316,5.999999046325684,3.1404596975475503,0.0,True,0.006504058837890625,8.000000953674316,5.999999046325684,3.141591787338257,0.0,0.0,0.0
1759828505.3231995,1,8.000000953674316,5.999999046325684,3.1405372956197617,0.0,True,0.010162353515625,8.000000953674316,5.999999046325684,3.141591787338257,0.0,0.0,0.0
1759828505.3337073,1,8.000000953674316,5.999999046325684,3.140591121058751,0.0,True,0.010507822036743164,8.000000953674316,5.999999046325684,3.141591787338257,0.0,0.0,0.0
1759828505.344161,1,8.000000953674316,5.999999046325684,3.140642972193465,0.0,True,0.01045370101928711,8.000000953674316,5.999999046325684,3.141591787338257,0.0,0.0,0.0
1759828505.354912,1,8.000000953674316,5.999999046325684,3.14068659054006,0.0,True,0.010751008987426758,8.000000953674316,5.999999046325684,3.141591787338257,0.0,0.0,0.0
1759828505.3656573,1,8.000000953674316,5.999999046325684,3.1407296291311226,0.0,True,0.01074528694152832,8.000000953674316,5.999999046325684,3.141591787338257,0.0,0.0,0.0
1759828505.376503,1,8.000000953674316,5.999999046325684,3.140769851987045,0.0,True,0.010845661163330078,8.000000953674316,5.999999046325684,3.141591787338257,0.0,0.0,0.0
1759828505.386902,1,8.000000953674316,5.999999046325684,3.1408162059978064,0.0,True,0.010399103164672852,8.000000953674316,5.999999046325684,3.141591787338257,0.0,0.0,0.0
1759828505.39706,1,8.000000953674316,5.999999046325684,3.1408620896349326,0.0,True,0.01015782356262207,8.000000953674316,5.999999046325684,3.141591787338257,0.0,0.0,0.0
1759828505.4080675,1,8.000000953674316,5.999999046325684,3.1408900026285522,0.0,True,0.011007547378540039,8.000000953674316,5.999999046325684,3.141591787338257,0.0,0.0,0.0
1759828505.4185917,1,8.000000953674316,5.999999046325684,3.14092454798911,0.0,True,0.010524272918701172,8.000000953674316,5.999999046325684,3.141591787338257,0.0,0.0,0.0
1759828505.429189,1,8.000000953674316,5.999999046325684,3.140955991074321,0.0,True,0.01059722900390625,8.000000953674316,5.999999046325684,3.141591787338257,0.0,0.0,0.0
1759828505.4395666,1,8.000000953674316,5.999999046325684,3.1409881072353016,0.0,True,0.010377645492553711,8.000000953674316,5.999999046325684,3.141591787338257,0.0,0.0,0.0
1759828505.4498918,1,8.000000953674316,5.999999046325684,3.141017990701716,0.0,True,0.010325193405151367,8.000000953674316,5.999999046325684,3.141591787338257,0.0,0.0,0.0
1759828505.460459,1,8.000000953674316,5.999999046325684,3.1410422089168097,0.0,True,0.010567188262939453,8.000000953674316,5.999999046325684,3.141591787338257,0.0,0.0,0.0
1759828505.4708533,1,8.000000953674316,5.999999046325684,3.141066978510704,0.0,True,0.01039433479309082,8.000000953674316,5.999999046325684,3.141591787338257,0.0,0.0,0.0
1759828505.4819674,1,8.000000953674316,5.999999046325684,3.1410822680641086,0.0,True,0.011114120483398438,8.000000953674316,5.999999046325684,3.141591787338257,0.0,0.0,0.0
1759828505.4928873,1,8.000000953674316,5.999999046325684,3.1411005729388197,0.0,True,0.010919809341430664,8.000000953674316,5.999999046325684,3.141591787338257,0.0,0.0,0.0
1759828505.5049653,1,8.000000953674316,5.999999046325684,3.14110783922966,0.0,True,0.012078046798706055,8.000000953674316,5.999999046325684,3.141591787338257,0.0,0.0,0.0
1759828505.5140593,1,8.000000953674316,5.999999046325684,3.1411468829693323,0.0,True,0.009093999862670898,8.000000953674316,5.999999046325684,3.141591787338257,0.0,0.0,0.0
1759828505.5241318,1,8.000000953674316,5.999999046325684,3.1411706518438844,0.0,True,0.010072469711303711,8.000000953674316,5.999999046325684,3.141591787338257,0.0,0.0,0.0
1759828505.5349474,1,8.000000953674316,5.999999046325684,3.1411839821709435,0.0,True,0.010815620422363281,8.000000953674316,5.999999046325684,3.141591787338257,0.0,0.0,0.0
1759828505.546101,1,8.000000953674316,5.999999046325684,3.1411943075317037,0.0,True,0.011153697967529297,8.000000953674316,5.999999046325684,3.141591787338257,0.0,0.0,0.0
1759828505.5567749,1,8.000000953674316,5.999999046325684,3.1412097416052926,0.0,True,0.010673761367797852,8.000000953674316,5.999999046325684,3.141591787338257,0.0,0.0,0.0
1759828505.566893,1,8.000000953674316,5.999999046325684,3.141229131495068,0.0,True,0.010118246078491211,8.000000953674316,5.999999046325684,3.141591787338257,0.0,0.0,0.0
1759828505.577854,1,8.000000953674316,5.999999046325684,3.1412400411330665,0.0,True,0.010960817337036133,8.000000953674316,5.999999046325684,3.141591787338257,0.0,0.0,0.0
1759828505.5879066,1,8.000000953674316,5.999999046325684,3.14125752575616,0.0,True,0.010052680969238281,8.000000953674316,5.999999046325684,3.141591787338257,0.0,0.0,0.0
1759828505.598714,1,8.000000953674316,5.999999046325684,3.1412679775644214,0.0,True,0.010807514190673828,8.000000953674316,5.999999046325684,3.141591787338257,0.0,0.0,0.0
1759828505.6096866,1,8.000000953674316,5.999999046325684,3.1412771475841694,0.0,True,0.01097249984741211,8.000000953674316,5.999999046325684,3.141591787338257,0.0,0.0,0.0
1759828505.620893,1,8.000000953674316,5.999999046325684,3.141285313390229,0.0,True,0.011206388473510742,8.000000953674316,5.999999046325684,3.141591787338257,0.0,0.0,0.0
1759828505.6321797,1,8.000000953674316,5.999999046325684,3.141293807024713,0.0,True,0.011286735534667969,8.000000953674316,5.999999046325684,3.141591787338257,0.0,0.0,0.0
1759828505.6428545,1,8.000000953674316,5.999999046325684,3.1413066528183187,0.0,True,0.010674715042114258,8.000000953674316,5.999999046325684,3.141591787338257,0.0,0.0,0.0
1759828505.653533,1,8.000000953674316,5.999999046325684,3.1413186887878872,0.0,True,0.010678529739379883,8.000000953674316,5.999999046325684,3.141591787338257,0.0,0.0,0.0
1759828505.6637425,1,8.000000953674316,5.999999046325684,3.1413323518859517,0.0,True,0.01020956039428711,8.000000953674316,5.999999046325684,3.141591787338257,0.0,0.0,0.0
1759828505.6744523,1,8.000000953674316,5.999999046325684,3.1413417146502027,0.0,True,0.010709762573242188,8.000000953674316,5.999999046325684,3.141591787338257,0.0,0.0,0.0
1759828505.684651,1,8.000000953674316,5.999999046325684,3.141353118973324,0.0,True,0.010198593139648438,8.000000953674316,5.999999046325684,3.141591787338257,0.0,0.0,0.0
1759828505.6950924,1,8.000000953674316,5.999999046325684,3.141362181231486,0.0,True,0.01044154167175293,8.000000953674316,5.999999046325684,3.141591787338257,0.0,0.0,0.0
1759828505.7134523,1,8.000000953674316,5.999999046325684,3.1413333004024313,0.0,True,0.018359899520874023,8.000000953674316,5.999999046325684,3.141591787338257,0.0,0.0,0.0
1759828505.7249346,1,8.000000953674316,5.999999046325684,3.141347470433942,0.0,True,0.01148223876953125,8.000000953674316,5.999999046325684,3.141591787338257,0.0,0.0,0.0
1759828505.7352102,1,8.000000953674316,5.999999046325684,3.141367442610118,0.0,True,0.010275602340698242,8.000000953674316,5.999999046325684,3.141591787338257,0.0,0.0,0.0
1759828505.745842,1,8.000000953674316,5.999999046325684,3.1413821972654645,0.0,True,0.010631799697875977,8.000000953674316,5.999999046325684,3.141591787338257,0.0,0.0,0.0
1759828505.7563355,1,8.000000953674316,5.999999046325684,3.1413947157971354,0.0,True,0.01049351692199707,8.000000953674316,5.999999046325684,3.141591787338257,0.0,0.0,0.0
1759828505.7672791,1,8.000000953674316,5.999999046325684,3.141403415272176,0.0,True,0.01094365119934082,8.000000953674316,5.999999046325684,3.141591787338257,0.0,0.0,0.0
1759828505.7780108,1,8.000000953674316,5.999999046325684,3.1414119064138113,0.0,True,0.010731697082519531,8.000000953674316,5.999999046325684,3.141591787338257,0.0,0.0,0.0
1759828505.7884822,1,8.000000953674316,5.999999046325684,3.141420469065322,0.0,True,0.010471343994140625,8.000000953674316,5.999999046325684,3.141591787338257,0.0,0.0,0.0
1759828505.7991354,1,8.000000953674316,5.999999046325684,3.1414273934562402,0.0,True,0.010653257369995117,8.000000953674316,5.999999046325684,3.141591787338257,0.0,0.0,0.0
1759828505.8093956,1,8.000000953674316,5.999999046325684,3.1414349986958197,0.0,True,0.01026010513305664,8.000000953674316,5.999999046325684,3.141591787338257,0.0,0.0,0.0
1759828505.8198369,1,8.000000953674316,5.999999046325684,3.141441155599857,0.0,True,0.010441303253173828,8.000000953674316,5.999999046325684,3.141591787338257,0.0,0.0,0.0
1759828505.8303764,1,8.000000953674316,5.999999046325684,3.141446434272293,0.0,True,0.010539531707763672,8.000000953674316,5.999999046325684,3.141591787338257,0.0,0.0,0.0
1759828505.841881,1,8.000000953674316,5.999999046325684,3.1414484780255947,0.0,True,0.011504650115966797,8.000000953674316,5.999999046325684,3.141591787338257,0.0,0.0,0.0
1759828505.853194,1,8.000000953674316,5.999999046325684,3.1414517750679813,0.0,True,0.01131296157836914,8.000000953674316,5.999999046325684,3.141591787338257,0.0,0.0,0.0
1759828505.863954,1,8.000000953674316,5.999999046325684,3.1414571318671047,0.0,True,0.010760068893432617,8.000000953674316,5.999999046325684,3.141591787338257,0.0,0.0,0.0
1759828505.87489,1,8.000000953674316,5.999999046325684,3.14146178760339,0.0,True,0.01093602180480957,8.000000953674316,5.999999046325684,3.141591787338257,0.0,0.0,0.0
1759828505.8855078,1,8.000000953674316,5.999999046325684,3.1414670947330734,0.0,True,0.010617733001708984,8.000000953674316,5.999999046325684,3.141591787338257,0.0,0.0,0.0
1759828505.8957746,1,8.000000953674316,5.999999046325684,3.1414728886739027,0.0,True,0.010266780853271484,8.000000953674316,5.999999046325684,3.141591787338257,0.0,0.0,0.0
1759828505.9089901,1,8.000000953674316,5.999999046325684,3.1414708003271787,0.0,True,0.01321554183959961,8.000000953674316,5.999999046325684,3.141591787338257,0.0,0.0,0.0
1759828505.9168732,1,8.000000953674316,5.999999046325684,3.141482996483738,0.0,True,0.007883071899414062,8.000000953674316,5.999999046325684,3.141591787338257,0.0,0.0,0.0
1759828505.927986,1,8.000000953674316,5.999999046325684,3.1414855770119665,0.0,True,0.011112689971923828,8.000000953674316,5.999999046325684,3.141591787338257,0.0,0.0,0.0
1759828505.9383004,1,8.000000953674316,5.999999046325684,3.1414896469953604,0.0,True,0.010314464569091797,8.000000953674316,5.999999046325684,3.141591787338257,0.0,0.0,0.0
1759828505.949218,1,8.000000953674316,5.999999046325684,3.1414921830013505,0.0,True,0.01091766357421875,8.000000953674316,5.999999046325684,3.141591787338257,0.0,0.0,0.0
1759828505.9597087,1,8.000000953674316,5.999999046325684,3.1414957084367288,0.0,True,0.010490655899047852,8.000000953674316,5.999999046325684,3.141591787338257,0.0,0.0,0.0
1759828505.9705427,1,8.000000953674316,5.999999046325684,3.1414984104452373,0.0,True,0.010833978652954102,8.000000953674316,5.999999046325684,3.141591787338257,0.0,0.0,0.0
1759828505.9808137,1,8.000000953674316,5.999999046325684,3.141502231475128,0.0,True,0.010271072387695312,8.000000953674316,5.999999046325684,3.141591787338257,0.0,0.0,0.0
1759828505.9919722,1,8.000000953674316,5.999999046325684,3.1415040881103167,0.0,True,0.011158466339111328,8.000000953674316,5.999999046325684,3.141591787338257,0.0,0.0,0.0
1759828506.0032156,1,8.000000953674316,5.999999046325684,3.1415059887693264,0.0,True,0.011243343353271484,8.000000953674316,5.999999046325684,3.141591787338257,0.0,0.0,0.0
1759828506.0144396,1,8.000000953674316,5.999999046325684,3.141508214466551,0.0,True,0.011224031448364258,8.000000953674316,5.999999046325684,3.141591787338257,0.0,0.0,0.0
1759828506.025813,1,8.000000953674316,5.999999046325684,3.1415103753248292,0.0,True,0.011373519897460938,8.000000953674316,5.999999046325684,3.141591787338257,0.0,0.0,0.0
1759828506.0366633,1,8.000000953674316,5.999999046325684,3.141513561012726,0.0,True,0.010850191116333008,8.000000953674316,5.999999046325684,3.141591787338257,0.0,0.0,0.0
1759828506.0480788,1,8.000000953674316,5.999999046325684,3.141515707739515,0.0,True,0.011415481567382812,8.000000953674316,5.999999046325684,3.141591787338257,0.0,0.0,0.0
1759828506.0587676,1,8.000000953674316,5.999999046325684,3.1415190233681773,0.0,True,0.01068878173828125,8.000000953674316,5.999999046325684,3.141591787338257,0.0,0.0,0.0
1759828506.0687716,1,8.000000953674316,5.999999046325684,3.141523083827453,0.0,True,0.010004043579101562,8.000000953674316,5.999999046325684,3.141591787338257,0.0,0.0,0.0
1759828506.0793796,1,8.000000953674316,5.999999046325684,3.1415256936038745,0.0,True,0.01060795783996582,8.000000953674316,5.999999046325684,3.141591787338257,0.0,0.0,0.0
1759828506.0899937,1,8.000000953674316,5.999999046325684,3.141528033661084,0.0,True,0.010614156723022461,8.000000953674316,5.999999046325684,3.141591787338257,0.0,0.0,0.0
1759828506.1004848,1,8.000000953674316,5.999999046325684,3.1415304023209476,0.0,True,0.010491132736206055,8.000000953674316,5.999999046325684,3.141591787338257,0.0,0.0,0.0
1759828506.1114664,1,8.000000953674316,5.999999046325684,3.141531986718567,0.0,True,0.010981559753417969,8.000000953674316,5.999999046325684,3.141591787338257,0.0,0.0,0.0
1759828506.1225028,1,8.000000953674316,5.999999046325684,3.1415335577950536,0.0,True,0.011036396026611328,8.000000953674316,5.999999046325684,3.141591787338257,0.0,0.0,0.0
1759828506.1332834,1,8.000000953674316,5.999999046325684,3.1415355256829827,0.0,True,0.010780572891235352,8.000000953674316,5.999999046325684,3.141591787338257,0.0,0.0,0.0
1759828506.1443255,1,8.000000953674316,5.999999046325684,3.1415371518174897,0.0,True,0.011042118072509766,8.000000953674316,5.999999046325684,3.141591787338257,0.0,0.0,0.0
1759828506.154866,1,8.000000953674316,5.999999046325684,3.1415393582585587,0.0,True,0.010540485382080078,8.000000953674316,5.999999046325684,3.141591787338257,0.0,0.0,0.0
1759828506.165557,1,8.000000953674316,5.999999046325684,3.1415412495362034,0.0,True,0.010690927505493164,8.000000953674316,5.999999046325684,3.141591787338257,0.0,0.0,0.0
1759828506.1760786,1,8.000000953674316,5.999999046325684,3.141543199193787,0.0,True,0.010521650314331055,8.000000953674316,5.999999046325684,3.141591787338257,0.0,0.0,0.0
1759828506.187567,1,8.000000953674316,5.999999046325684,3.1415440353973114,0.0,True,0.01148843765258789,8.000000953674316,5.999999046325684,3.141591787338257,0.0,0.0,0.0
1759828506.1984017,1,8.000000953674316,5.999999046325684,3.141545680597641,0.0,True,0.010834693908691406,8.000000953674316,5.999999046325684,3.141591787338257,0.0,0.0,0.0
1759828506.2087893,1,8.000000953674316,5.999999046325684,3.1415477317320786,0.0,True,0.010387659072875977,8.000000953674316,5.999999046325684,3.141591787338257,0.0,0.0,0.0
1759828506.218799,1,8.000000953674316,5.999999046325684,3.1415499255736847,0.0,True,0.010009765625,8.000000953674316,5.999999046325684,3.141591787338257,0.0,0.0,0.0
1759828506.2294493,1,8.000000953674316,5.999999046325684,3.1415512596653645,0.0,True,0.010650157928466797,8.000000953674316,5.999999046325684,3.141591787338257,0.0,0.0,0.0
1759828506.2399058,1,8.000000953674316,5.999999046325684,3.1415526813317634,0.0,True,0.010456562042236328,8.000000953674316,5.999999046325684,3.141591787338257,0.0,0.0,0.0
1759828506.2502503,1,8.000000953674316,5.999999046325684,3.141554124129634,0.0,True,0.010344505310058594,8.000000953674316,5.999999046325684,3.141591787338257,0.0,0.0,0.0
1759828506.2609193,1,8.000000953674316,5.999999046325684,3.141555209053129,0.0,True,0.01066899299621582,8.000000953674316,5.999999046325684,3.141591787338257,0.0,0.0,0.0
1759828506.2717037,1,8.000000953674316,5.999999046325684,3.141556196237195,0.0,True,0.010784387588500977,8.000000953674316,5.999999046325684,3.141591787338257,0.0,0.0,0.0
1759828506.2824,1,8.000000953674316,5.999999046325684,3.1415572808217433,0.0,True,0.010696172714233398,8.000000953674316,5.999999046325684,3.141591787338257,0.0,0.0,0.0
1759828506.2930155,1,8.000000953674316,5.999999046325684,3.1415584235895953,0.0,True,0.01061558723449707,8.000000953674316,5.999999046325684,3.141591787338257,0.0,0.0,0.0
1759828506.3036351,1,8.000000953674316,5.999999046325684,3.141559530353277,0.0,True,0.010619640350341797,8.000000953674316,5.999999046325684,3.141591787338257,0.0,0.0,0.0
1759828506.3167405,1,8.000000953674316,5.999999046325684,3.1415589372673374,0.0,True,0.013105392456054688,8.000000953674316,5.999999046325684,3.141591787338257,0.0,0.0,0.0
1759828506.3271573,1,8.000000953674316,5.999999046325684,3.141560564963413,0.0,True,0.010416746139526367,8.000000953674316,5.999999046325684,3.141591787338257,0.0,0.0,0.0
1759828506.3379495,1,8.000000953674316,5.999999046325684,3.141561875464376,0.0,True,0.010792255401611328,8.000000953674316,5.999999046325684,3.141591787338257,0.0,0.0,0.0
1759828506.3491118,1,8.000000953674316,5.999999046325684,3.141562834191614,0.0,True,0.011162281036376953,8.000000953674316,5.999999046325684,3.141591787338257,0.0,0.0,0.0
1759828506.3603213,1,8.000000953674316,5.999999046325684,3.1415637439016812,0.0,True,0.011209487915039062,8.000000953674316,5.999999046325684,3.141591787338257,0.0,0.0,0.0
1759828506.3709025,1,8.000000953674316,5.999999046325684,3.1415650064332823,0.0,True,0.010581254959106445,8.000000953674316,5.999999046325684,3.141591787338257,0.0,0.0,0.0
1759828506.3816555,1,8.000000953674316,5.999999046325684,3.141566061550744,0.0,True,0.01075291633605957,8.000000953674316,5.999999046325684,3.141591787338257,0.0,0.0,0.0
1759828506.3926103,1,8.000000953674316,5.999999046325684,3.141566922809819,0.0,True,0.010954856872558594,8.000000953674316,5.999999046325684,3.141591787338257,0.0,0.0,0.0
1759828506.403236,1,8.000000953674316,5.999999046325684,3.141567918288935,0.0,True,0.010625600814819336,8.000000953674316,5.999999046325684,3.141591787338257,0.0,0.0,0.0
1759828506.413849,1,8.000000953674316,5.999999046325684,3.1415688472990606,0.0,True,0.010613203048706055,8.000000953674316,5.999999046325684,3.141591787338257,0.0,0.0,0.0
1759828506.4250038,1,8.000000953674316,5.999999046325684,3.141569448568678,0.0,True,0.011154651641845703,8.000000953674316,5.999999046325684,3.141591787338257,0.0,0.0,0.0
1759828506.4352267,1,8.000000953674316,5.999999046325684,3.14157049346859,0.0,True,0.010222911834716797,8.000000953674316,5.999999046325684,3.141591787338257,0.0,0.0,0.0
1759828506.4464288,1,8.000000953674316,5.999999046325684,3.141571003796585,0.0,True,0.011202096939086914,8.000000953674316,5.999999046325684,3.141591787338257,0.0,0.0,0.0
1759828506.4576843,1,8.000000953674316,5.999999046325684,3.1415715131885893,0.0,True,0.011255502700805664,8.000000953674316,5.999999046325684,3.141591787338257,0.0,0.0,0.0
1759828506.4680154,1,8.000000953674316,5.999999046325684,3.1415724497483204,0.0,True,0.010331153869628906,8.000000953674316,5.999999046325684,3.141591787338257,0.0,0.0,0.0
1759828506.4782813,1,8.000000953674316,5.999999046325684,3.1415733258633036,0.0,True,0.010265827178955078,8.000000953674316,5.999999046325684,3.141591787338257,0.0,0.0,0.0
1759828506.4893875,1,8.000000953674316,5.999999046325684,3.141573773932681,0.0,True,0.011106252670288086,8.000000953674316,5.999999046325684,3.141591787338257,0.0,0.0,0.0
1759828506.4998748,1,8.000000953674316,5.999999046325684,3.1415744679710667,0.0,True,0.01048731803894043,8.000000953674316,5.999999046325684,3.141591787338257,0.0,0.0,0.0
1759828506.515052,1,8.000000953674316,5.999999046325684,3.1415734602186554,0.0,True,0.015177249908447266,8.000000953674316,5.999999046325684,3.141591787338257,0.0,0.0,0.0
1759828506.5255919,1,8.000000953674316,5.999999046325684,3.141574516717945,0.0,True,0.010539770126342773,8.000000953674316,5.999999046325684,3.141591787338257,0.0,0.0,0.0
1759828506.5363503,1,8.000000953674316,5.999999046325684,3.1415754552133546,0.0,True,0.010758399963378906,8.000000953674316,5.999999046325684,3.141591787338257,0.0,0.0,0.0
1759828506.5473216,1,8.000000953674316,5.999999046325684,3.141576189031646,0.0,True,0.010971307754516602,8.000000953674316,5.999999046325684,3.141591787338257,0.0,0.0,0.0
1759828506.5584424,1,8.000000953674316,5.999999046325684,3.1415767939631287,0.0,True,0.011120796203613281,8.000000953674316,5.999999046325684,3.141591787338257,0.0,0.0,0.0
1759828506.569393,1,8.000000953674316,5.999999046325684,3.141577405744947,0.0,True,0.010950565338134766,8.000000953674316,5.999999046325684,3.141591787338257,0.0,0.0,0.0
1759828506.5799067,1,8.000000953674316,5.999999046325684,3.1415780951012184,0.0,True,0.010513782501220703,8.000000953674316,5.999999046325684,3.141591787338257,0.0,0.0,0.0
1759828506.5903192,1,8.000000953674316,5.999999046325684,3.1415787325410687,0.0,True,0.010412454605102539,8.000000953674316,5.999999046325684,3.141591787338257,0.0,0.0,0.0
1759828506.600979,1,8.000000953674316,5.999999046325684,3.1415792249610224,0.0,True,0.010659933090209961,8.000000953674316,5.999999046325684,3.141591787338257,0.0,0.0,0.0
1759828506.611247,1,8.000000953674316,5.999999046325684,3.1415797772852585,0.0,True,0.010267972946166992,8.000000953674316,5.999999046325684,3.141591787338257,0.0,0.0,0.0
1759828506.621849,1,8.000000953674316,5.999999046325684,3.141580187686751,0.0,True,0.010601997375488281,8.000000953674316,5.999999046325684,3.141591787338257,0.0,0.0,0.0
1759828506.6324828,1,8.000000953674316,5.999999046325684,3.1415805640839096,0.0,True,0.010633707046508789,8.000000953674316,5.999999046325684,3.141591787338257,0.0,0.0,0.0
1759828506.643902,1,8.000000953674316,5.999999046325684,3.141580743758194,0.0,True,0.011419296264648438,8.000000953674316,5.999999046325684,3.141591787338257,0.0,0.0,0.0
1759828506.6539974,1,8.000000953674316,5.999999046325684,3.141581268655127,0.0,True,0.010095357894897461,8.000000953674316,5.999999046325684,3.141591787338257,0.0,0.0,0.0
1759828506.6647766,1,8.000000953674316,5.999999046325684,3.1415815952211936,0.0,True,0.010779142379760742,8.000000953674316,5.999999046325684,3.141591787338257,0.0,0.0,0.0
1759828506.6758156,1,8.000000953674316,5.999999046325684,3.141581852205693,0.0,True,0.011039018630981445,8.000000953674316,5.999999046325684,3.141591787338257,0.0,0.0,0.0
1759828506.6869195,1,8.000000953674316,5.999999046325684,3.141582110476893,0.0,True,0.01110386848449707,8.000000953674316,5.999999046325684,3.141591787338257,0.0,0.0,0.0
1759828506.6978464,1,8.000000953674316,5.999999046325684,3.141582420222388,0.0,True,0.010926961898803711,8.000000953674316,5.999999046325684,3.141591787338257,0.0,0.0,0.0
1759828506.711688,1,8.000000953674316,5.999999046325684,3.141582179075762,0.0,True,0.013841629028320312,8.000000953674316,5.999999046325684,3.141591787338257,0.0,0.0,0.0
1759828506.71948,1,8.000000953674316,5.999999046325684,3.1415832083895676,0.0,True,0.007791996002197266,8.000000953674316,5.999999046325684,3.141591787338257,0.0,0.0,0.0
1759828506.730105,1,8.000000953674316,5.999999046325684,3.1415835484832346,0.0,True,0.010624885559082031,8.000000953674316,5.999999046325684,3.141591787338257,0.0,0.0,0.0
1759828506.740957,1,8.000000953674316,5.999999046325684,3.141583783246583,0.0,True,0.01085209846496582,8.000000953674316,5.999999046325684,3.141591787338257,0.0,0.0,0.0
1759828506.751575,1,8.000000953674316,5.999999046325684,3.1415840554327197,0.0,True,0.010617971420288086,8.000000953674316,5.999999046325684,3.141591787338257,0.0,0.0,0.0
1759828506.7630296,1,8.000000953674316,5.999999046325684,3.141584184233343,0.0,True,0.011454582214355469,8.000000953674316,5.999999046325684,3.141591787338257,0.0,0.0,0.0
1759828506.7738688,1,8.000000953674316,5.999999046325684,3.14158443863489,0.0,True,0.010839223861694336,8.000000953674316,5.999999046325684,3.141591787338257,0.0,0.0,0.0
1759828506.784592,1,8.000000953674316,5.999999046325684,3.141584710250001,0.0,True,0.010723114013671875,8.000000953674316,5.999999046325684,3.141591787338257,0.0,0.0,0.0
1759828506.794871,1,8.000000953674316,5.999999046325684,3.141585031079982,0.0,True,0.010279178619384766,8.000000953674316,5.999999046325684,3.141591787338257,0.0,0.0,0.0
1759828506.8059046,1,8.000000953674316,5.999999046325684,3.1415852117488097,0.0,True,0.01103353500366211,8.000000953674316,5.999999046325684,3.141591787338257,0.0,0.0,0.0
1759828506.8171048,1,8.000000953674316,5.999999046325684,3.141585371079895,0.0,True,0.011200189590454102,8.000000953674316,5.999999046325684,3.141591787338257,0.0,0.0,0.0
1759828506.8273602,1,8.000000953674316,5.999999046325684,3.141585667823133,0.0,True,0.01025533676147461,8.000000953674316,5.999999046325684,3.141591787338257,0.0,0.0,0.0
1759828506.8381643,1,8.000000953674316,5.999999046325684,3.1415858672476134,0.0,True,0.010804176330566406,8.000000953674316,5.999999046325684,3.141591787338257,0.0,0.0,0.0
1759828506.84927,1,8.000000953674316,5.999999046325684,3.141586019901734,0.0,True,0.011105775833129883,8.000000953674316,5.999999046325684,3.141591787338257,0.0,0.0,0.0
1759828506.8599677,1,8.000000953674316,5.999999046325684,3.1415862282942406,0.0,True,0.010697603225708008,8.000000953674316,5.999999046325684,3.141591787338257,0.0,0.0,0.0
1759828506.870178,1,8.000000953674316,5.999999046325684,3.141586484227334,0.0,True,0.010210275650024414,8.000000953674316,5.999999046325684,3.141591787338257,0.0,0.0,0.0
1759828506.8812656,1,8.000000953674316,5.999999046325684,3.1415866151581433,0.0,True,0.011087656021118164,8.000000953674316,5.999999046325684,3.141591787338257,0.0,0.0,0.0
1759828506.8915608,1,8.000000953674316,5.999999046325684,3.1415868343353672,0.0,True,0.01029515266418457,8.000000953674316,5.999999046325684,3.141591787338257,0.0,0.0,0.0
1759828506.9024427,1,8.000000953674316,5.999999046325684,3.1415869755934036,0.0,True,0.010881900787353516,8.000000953674316,5.999999046325684,3.141591787338257,0.0,0.0,0.0
1759828506.9134135,1,8.000000953674316,5.999999046325684,3.1415871066928247,0.0,True,0.010970830917358398,8.000000953674316,5.999999046325684,3.141591787338257,0.0,0.0,0.0
1759828506.9238884,1,8.000000953674316,5.999999046325684,3.1415872904342557,0.0,True,0.010474920272827148,8.000000953674316,5.999999046325684,3.141591787338257,0.0,0.0,0.0
1759828506.935058,1,8.000000953674316,5.999999046325684,3.141587397771735,0.0,True,0.011169672012329102,8.000000953674316,5.999999046325684,3.141591787338257,0.0,0.0,0.0
1759828506.9462795,1,8.000000953674316,5.999999046325684,3.1415875071472463,0.0,True,0.01122140884399414,8.000000953674316,5.999999046325684,3.141591787338257,0.0,0.0,0.0
1759828506.9573746,1,8.000000953674316,5.999999046325684,3.1415876372287546,0.0,True,0.011095046997070312,8.000000953674316,5.999999046325684,3.141591787338257,0.0,0.0,0.0
1759828506.9678564,1,8.000000953674316,5.999999046325684,3.1415878211598613,0.0,True,0.010481834411621094,8.000000953674316,5.999999046325684,3.141591787338257,0.0,0.0,0.0
1759828506.978071,1,8.000000953674316,5.999999046325684,3.1415880102638916,0.0,True,0.010214567184448242,8.000000953674316,5.999999046325684,3.141591787338257,0.0,0.0,0.0
1759828506.9887383,1,8.000000953674316,5.999999046325684,3.1415881401960064,0.0,True,0.01066732406616211,8.000000953674316,5.999999046325684,3.141591787338257,0.0,0.0,0.0
1759828506.9994085,1,8.000000953674316,5.999999046325684,3.1415882611076356,0.0,True,0.010670185089111328,8.000000953674316,5.999999046325684,3.141591787338257,0.0,0.0,0.0
1759828507.0100307,1,8.000000953674316,5.999999046325684,3.1415883811946603,0.0,True,0.010622262954711914,8.000000953674316,5.999999046325684,3.141591787338257,0.0,0.0,0.0
1759828507.0213735,1,8.000000953674316,5.999999046325684,3.141588445408157,0.0,True,0.011342763900756836,8.000000953674316,5.999999046325684,3.141591787338257,0.0,0.0,0.0
1759828507.031994,1,8.000000953674316,5.999999046325684,3.14158857007493,0.0,True,0.010620594024658203,8.000000953674316,5.999999046325684,3.141591787338257,0.0,0.0,0.0
1759828507.0430017,1,8.000000953674316,5.999999046325684,3.141588664735277,0.0,True,0.011007547378540039,8.000000953674316,5.999999046325684,3.141591787338257,0.0,0.0,0.0
1759828507.0540812,1,8.000000953674316,5.999999046325684,3.1415887548395,0.0,True,0.011079549789428711,8.000000953674316,5.999999046325684,3.141591787338257,0.0,0.0,0.0
1759828507.065402,1,8.000000953674316,5.999999046325684,3.1415888324134205,0.0,True,0.011320829391479492,8.000000953674316,5.999999046325684,3.141591787338257,0.0,0.0,0.0
1759828507.0766406,1,8.000000953674316,5.999999046325684,3.1415889206106726,0.0,True,0.011238574981689453,8.000000953674316,5.999999046325684,3.141591787338257,0.0,0.0,0.0
1759828507.0878515,1,8.000000953674316,5.999999046325684,3.1415890130610595,0.0,True,0.011210918426513672,8.000000953674316,5.999999046325684,3.141591787338257,0.0,0.0,0.0
1759828507.0985203,1,8.000000953674316,5.999999046325684,3.1415891352951615,0.0,True,0.010668754577636719,8.000000953674316,5.999999046325684,3.141591787338257,0.0,0.0,0.0
1759828507.1087794,1,8.000000953674316,5.999999046325684,3.141589268761738,0.0,True,0.010259151458740234,8.000000953674316,5.999999046325684,3.141591787338257,0.0,0.0,0.0
1759828507.118812,1,8.000000953674316,5.999999046325684,3.1415893964864754,0.0,True,0.01003265380859375,8.000000953674316,5.999999046325684,3.141591787338257,0.0,0.0,0.0
1759828507.1296408,1,8.000000953674316,5.999999046325684,3.141589465923957,0.0,True,0.010828733444213867,8.000000953674316,5.999999046325684,3.141591787338257,0.0,0.0,0.0
1759828507.1401365,1,8.000000953674316,5.999999046325684,3.1415895490580734,0.0,True,0.010495662689208984,8.000000953674316,5.999999046325684,3.141591787338257,0.0,0.0,0.0
1759828507.1507437,1,8.000000953674316,5.999999046325684,3.141589622903574,0.0,True,0.010607242584228516,8.000000953674316,5.999999046325684,3.141591787338257,0.0,0.0,0.0
1759828507.1615663,1,8.000000953674316,5.999999046325684,3.1415896840500253,0.0,True,0.010822534561157227,8.000000953674316,5.999999046325684,3.141591787338257,0.0,0.0,0.0
1759828507.172283,1,8.000000953674316,5.999999046325684,3.1415897504898034,0.0,True,0.010716676712036133,8.000000953674316,5.999999046325684,3.141591787338257,0.0,0.0,0.0
1759828507.1828732,1,8.000000953674316,5.999999046325684,3.141589821509333,0.0,True,0.010590314865112305,8.000000953674316,5.999999046325684,3.141591787338257,0.0,0.0,0.0
1759828507.193053,1,8.000000953674316,5.999999046325684,3.141589906218517,0.0,True,0.010179758071899414,8.000000953674316,5.999999046325684,3.141591787338257,0.0,0.0,0.0
1759828507.203746,1,8.000000953674316,5.999999046325684,3.1415899621835877,0.0,True,0.010693073272705078,8.000000953674316,5.999999046325684,3.141591787338257,0.0,-2.721141349759648e-05,1.0000020217902517
1759828507.2142828,1,8.000000953674316,5.999999046325684,3.141590022569103,0.0,True,0.010536670684814453,8.000000953674316,5.999999046325684,3.141591787338257,0.0,-2.721141349759648e-05,1.0000020217902517
1759828507.2264965,1,8.000000953674316,5.999999046325684,3.141590019119958,0.0,True,0.012213706970214844,8.000000953674316,5.999999046325684,3.141591787338257,0.0,-2.721141349759648e-05,1.0000020217902517
1759828507.2371671,1,8.000000953674316,5.999999046325684,3.1415900878014504,0.0,True,0.010670661926269531,8.000000953674316,5.999999046325684,3.141591787338257,0.0,-2.721141349759648e-05,1.0000020217902517
1759828507.2502854,1,8.000000953674316,5.999999046325684,3.141590072130697,0.0,True,0.013118267059326172,8.000000953674316,5.999999046325684,3.141591787338257,0.0,-2.721141349759648e-05,1.0000020217902517
1759828507.2604718,1,8.000000953674316,5.999999046325684,3.141590174102813,0.0,True,0.010186433792114258,8.000000953674316,5.999999046325684,3.141591787338257,0.0,-2.721141349759648e-05,1.0000020217902517
1759828507.2715108,1,8.000000953674316,5.999999046325684,3.141590238904003,0.0,True,0.011039018630981445,8.000000953674316,5.999999046325684,3.141591787338257,0.0,-2.721141349759648e-05,1.0000020217902517
1759828507.283527,1,8.000000953674316,5.999999046325684,3.1415902673162552,0.0,True,0.012016057968139648,8.000000953674316,5.999999046325684,3.141591787338257,0.0,-2.721141349759648e-05,1.0000020217902517
1759828507.2946835,1,8.000000953674316,5.999999046325684,3.1415903270987613,0.0,True,0.011156558990478516,8.000000953674316,5.999999046325684,3.141591787338257,0.0,-2.721141349759648e-05,1.0000020217902517
1759828507.3058736,1,8.000000953674316,5.999999046325684,3.1415903840722734,0.0,True,0.011190176010131836,8.000000953674316,5.999999046325684,3.141591787338257,0.0,-2.721141349759648e-05,1.0000020217902517
1759828507.3236752,1,7.919234245598254,5.999998171213013,3.141590136458575,0.610663973092662,True,0.017801523208618164,7.876036167144775,5.999997615814209,3.141591787338257,0.610663973092662,-2.721141349759648e-05,1.0000020217902517
1759828507.3267388,1,7.891821752969305,5.999997829709315,3.1415905419318655,0.610663973092662,True,0.003063678741455078,7.876036167144775,5.999997615814209,3.141591787338257,0.610663973092662,-2.721141349759648e-05,1.0000020217902517
1759828507.3378267,1,7.87947944106387,5.999997702773407,3.1415905332107705,0.610663973092662,True,0.011087894439697266,7.876036167144775,5.999997615814209,3.141591787338257,0.610663973092662,-2.755097068884993e-05,0.5707052487139146
1759828507.3479593,1,7.874987933981298,5.999997653855647,3.1415905834371305,0.610663973092662,True,0.010132551193237305,7.876036167144775,5.999997615814209,3.141591787338257,0.610663973092662,-2.755097068884993e-05,0.5707052487139146
1759828507.359419,1,7.87296273993062,5.999997635655196,3.1415905857020405,0.610663973092662,True,0.011459827423095703,7.876036167144775,5.999997615814209,3.141591787338257,0.610663973092662,-2.755097068884993e-05,0.5707052487139146
1759828507.370841,1,7.872198026916567,5.999997628676064,3.1415906031942846,0.610663973092662,True,0.011421918869018555,7.876036167144775,5.999997615814209,3.141591787338257,0.610663973092662,-2.755097068884993e-05,0.5707052487139146
1759828507.3815002,1,7.872083834751262,5.999997625621146,3.1415906495086148,0.610663973092662,True,0.010659217834472656,7.876036167144775,5.999997615814209,3.141591787338257,0.610663973092662,-2.755097068884993e-05,0.5707052487139146
1759828507.3927176,1,7.871910029953102,5.999997624584569,3.1415906736248704,0.610663973092662,True,0.011217355728149414,7.876036167144775,5.999997615814209,3.141591787338257,0.610663973092662,-2.755097068884993e-05,0.5707052487139146
1759828507.4035842,1,7.871925447415864,5.99999762397329,3.141590711751853,0.610663973092662,True,0.010866641998291016,7.876036167144775,5.999997615814209,3.141591787338257,0.610663973092662,-2.755097068884993e-05,0.5707052487139146
1759828507.4143283,1,7.87195992083846,5.99999762359231,3.141590750204582,0.610663973092662,True,0.010744094848632812,7.876036167144775,5.999997615814209,3.141591787338257,0.610663973092662,-2.755097068884993e-05,0.5707052487139146
1759828507.4257011,1,7.871826440142993,5.999997623610461,3.1415907687519873,0.610663973092662,True,0.011372804641723633,7.876036167144775,5.999997615814209,3.141591787338257,0.610663973092662,-2.755097068884993e-05,0.5707052487139146
1759828507.436913,1,7.8718129930331395,5.999997623500982,3.1415907970820545,0.610663973092662,True,0.011211872100830078,7.876036167144775,5.999997615814209,3.141591787338257,0.610663973092662,-2.755097068884993e-05,0.5707052487139146
1759828507.447778,1,7.871888771893347,5.999997623246005,3.1415908342886176,0.610663973092662,True,0.010864973068237305,7.876036167144775,5.999997615814209,3.141591787338257,0.610663973092662,-2.755097068884993e-05,0.5707052487139146
1759828507.4585958,1,7.871928727982816,5.999997623036899,3.1415908685044105,0.610663973092662,True,0.010817766189575195,7.876036167144775,5.999997615814209,3.141591787338257,0.610663973092662,-2.755097068884993e-05,0.5707052487139146
1759828507.4700215,1,7.871802179708146,5.999997623104845,3.14159088534252,0.610663973092662,True,0.01142573356628418,7.876036167144775,5.999997615814209,3.141591787338257,0.610663973092662,-2.755097068884993e-05,0.5707052487139146
1759828507.4814646,1,7.871749782905528,5.999997623090974,3.1415909068618877,0.610663973092662,True,0.011443138122558594,7.876036167144775,5.999997615814209,3.141591787338257,0.610663973092662,-2.755097068884993e-05,0.5707052487139146
1759828507.4915853,1,7.872038247877263,5.999997622531167,3.1415909603065835,0.610663973092662,True,0.010120630264282227,7.876036167144775,5.999997615814209,3.141591787338257,0.610663973092662,-2.755097068884993e-05,0.5707052487139146
1759828507.5016475,1,7.872162056587973,5.999997622173502,3.1415910009122037,0.610663973092662,True,0.010062217712402344,7.876036167144775,5.999997615814209,3.141591787338257,0.610663973092662,-2.755097068884993e-05,0.5707052487139146
1759828507.5126162,1,7.871997911165053,5.999997622264426,3.1415910145731196,0.610663973092662,True,0.010968685150146484,7.876036167144775,5.999997615814209,3.141591787338257,0.610663973092662,-2.755097068884993e-05,0.5707052487139146
1759828507.5298324,1,7.7954992316256115,5.999992614345984,3.1415909049165514,0.5982756040774385,True,0.017216205596923828,7.754586219787598,5.9999895095825195,3.141591787338257,0.5982756040774385,-2.755097068884993e-05,0.5707052487139146
1759828507.5396388,1,7.767972633160849,5.999990699323615,3.1415910554658346,0.5982756040774385,True,0.009806394577026367,7.754586219787598,5.9999895095825195,3.141591787338257,0.5982756040774385,-1.022121698746048e-05,0.4554494858665956
1759828507.5509994,1,7.757103229297591,5.9999899680847895,3.141591093879377,0.5982756040774385,True,0.011360645294189453,7.754586219787598,5.9999895095825195,3.141591787338257,0.5982756040774385,-1.022121698746048e-05,0.4554494858665956
1759828507.561631,1,7.753118097428158,5.999989688426675,3.1415911345845764,0.5982756040774385,True,0.010631561279296875,7.754586219787598,5.9999895095825195,3.141591787338257,0.5982756040774385,-1.022121698746048e-05,0.4554494858665956
1759828507.5722952,1,7.751588448245105,5.999989581520858,3.1415911670681034,0.5982756040774385,True,0.010664224624633789,7.754586219787598,5.9999895095825195,3.141591787338257,0.5982756040774385,-1.022121698746048e-05,0.4554494858665956
1759828507.5828836,1,7.751021500045329,5.99998954058341,3.1415911958138274,0.5982756040774385,True,0.010588407516479492,7.754586219787598,5.9999895095825195,3.141591787338257,0.5982756040774385,-1.022121698746048e-05,0.4554494858665956
1759828507.5936763,1,7.750758252624022,5.999989524943977,3.141591217804905,0.5982756040774385,True,0.010792732238769531,7.754586219787598,5.9999895095825195,3.141591787338257,0.5982756040774385,-1.022121698746048e-05,0.4554494858665956
1759828507.6041539,1,7.750729728427647,5.999989518816153,3.141591242372499,0.5982756040774385,True,0.010477542877197266,7.754586219787598,5.9999895095825195,3.141591787338257,0.5982756040774385,-1.022121698746048e-05,0.4554494858665956
1759828507.614441,1,7.750762365581909,5.999989516357937,3.1415912662307797,0.5982756040774385,True,0.010287046432495117,7.754586219787598,5.9999895095825195,3.141591787338257,0.5982756040774385,-1.022121698746048e-05,0.4554494858665956
1759828507.6253452,1,7.750633773723475,5.999989515552971,3.141591278915527,0.5982756040774385,True,0.010904312133789062,7.754586219787598,5.9999895095825195,3.141591787338257,0.5982756040774385,-1.022121698746048e-05,0.4554494858665956
1759828507.6365492,1,7.75051617006967,5.999989515304474,3.1415912889615036,0.5982756040774385,True,0.011204004287719727,7.754586219787598,5.9999895095825195,3.141591787338257,0.5982756040774385,-1.022121698746048e-05,0.4554494858665956
1759828507.647129,1,7.750613887638721,5.999989514995364,3.1415913084469835,0.5982756040774385,True,0.010579824447631836,7.754586219787598,5.9999895095825195,3.141591787338257,0.5982756040774385,-1.022121698746048e-05,0.4554494858665956
1759828507.6584775,1,7.7504755571757995,5.999989515058825,3.1415913165284373,0.5982756040774385,True,0.011348485946655273,7.754586219787598,5.9999895095825195,3.141591787338257,0.5982756040774385,-1.022121698746048e-05,0.4554494858665956
1759828507.6698613,1,7.7504146560620315,5.999989515071741,3.1415913268279105,0.5982756040774385,True,0.011383771896362305,7.754586219787598,5.9999895095825195,3.141591787338257,0.5982756040774385,-1.022121698746048e-05,0.4554494858665956
1759828507.6805012,1,7.750561382861042,5.99998951483221,3.1415913467868783,0.5982756040774385,True,0.01063990592956543,7.754586219787598,5.9999895095825195,3.141591787338257,0.5982756040774385,-1.022121698746048e-05,0.4554494858665956
1759828507.6916144,1,7.7505092774872555,5.999989514829149,3.1415913586141926,0.5982756040774385,True,0.011113166809082031,7.754586219787598,5.9999895095825195,3.141591787338257,0.5982756040774385,-1.022121698746048e-05,0.4554494858665956
1759828507.7031226,1,7.750399095615198,5.999989514910142,3.1415913669255744,0.5982756040774385,True,0.01150822639465332,7.754586219787598,5.9999895095825195,3.141591787338257,0.5982756040774385,-1.022121698746048e-05,0.4554494858665956
1759828507.7146063,1,7.750362621699861,5.999989514911751,3.14159137743237,0.5982756040774385,True,0.01148366928100586,7.754586219787598,5.9999895095825195,3.141591787338257,0.5982756040774385,-1.022121698746048e-05,0.4554494858665956
1759828507.7297404,1,7.693961032128614,5.999987157244806,3.1415913623678406,0.44964334686916585,True,0.015134096145629883,7.663308620452881,5.999985694885254,3.141591787338257,0.44964334686916585,-1.022121698746048e-05,0.4554494858665956
1759828507.7410958,1,7.673066527220346,5.999986255966451,3.1415914120784567,0.44964334686916585,True,0.011355400085449219,7.663308620452881,5.999985694885254,3.141591787338257,0.44964334686916585,1.1266659782904753e-07,0.43848801514007896
1759828507.7524612,1,7.665083816706333,5.999985911619106,3.1415914343461715,0.44964334686916585,True,0.011365413665771484,7.663308620452881,5.999985694885254,3.141591787338257,0.44964334686916585,1.1266659782904753e-07,0.43848801514007896
1759828507.7626739,1,7.662232676325471,5.999985779805291,3.141591459326719,0.44964334686916585,True,0.01021265983581543,7.663308620452881,5.999985694885254,3.141591787338257,0.44964334686916585,1.1266659782904753e-07,0.43848801514007896
1759828507.7727866,1,7.661160794830216,5.999985729393267,3.1415914803801392,0.44964334686916585,True,0.010112762451171875,7.663308620452881,5.999985694885254,3.141591787338257,0.44964334686916585,1.1266659782904753e-07,0.43848801514007896
1759828507.7839987,1,7.660562561175969,5.999985710324081,3.1415914907608524,0.44964334686916585,True,0.01121211051940918,7.663308620452881,5.999985694885254,3.141591787338257,0.44964334686916585,1.1266659782904753e-07,0.43848801514007896
1759828507.7954576,1,7.660291675044761,5.999985703069974,3.141591498827978,0.44964334686916585,True,0.011458873748779297,7.663308620452881,5.999985694885254,3.141591787338257,0.44964334686916585,1.1266659782904753e-07,0.43848801514007896
1759828507.8058946,1,7.660363708995742,5.999985700079694,3.1415915130230765,0.44964334686916585,True,0.01043701171875,7.663308620452881,5.999985694885254,3.141591787338257,0.44964334686916585,1.1266659782904753e-07,0.43848801514007896
1759828507.8172917,1,7.660226325809783,5.999985699101173,3.1415915204533587,0.44964334686916585,True,0.011397123336791992,7.663308620452881,5.999985694885254,3.141591787338257,0.44964334686916585,1.1266659782904753e-07,0.43848801514007896
1759828507.8284798,1,7.660209761522379,5.999985698671989,3.1415915290136134,0.44964334686916585,True,0.011188030242919922,7.663308620452881,5.999985694885254,3.141591787338257,0.44964334686916585,1.1266659782904753e-07,0.43848801514007896
1759828507.8387122,1,7.660367554221957,5.999985698306338,3.1415915424620415,0.44964334686916585,True,0.01023244857788086,7.663308620452881,5.999985694885254,3.141591787338257,0.44964334686916585,1.1266659782904753e-07,0.43848801514007896
1759828507.849874,1,7.660268210258682,5.999985698321326,3.1415915496517623,0.44964334686916585,True,0.01116180419921875,7.663308620452881,5.999985694885254,3.141591787338257,0.44964334686916585,1.1266659782904753e-07,0.43848801514007896
1759828507.8600678,1,7.660396513233086,5.999985698129091,3.141591561242844,0.44964334686916585,True,0.010193824768066406,7.663308620452881,5.999985694885254,3.141591787338257,0.44964334686916585,1.1266659782904753e-07,0.43848801514007896
1759828507.87051,1,7.660402852763757,5.999985698082339,3.141591570392343,0.44964334686916585,True,0.010442256927490234,7.663308620452881,5.999985694885254,3.141591787338257,0.44964334686916585,1.1266659782904753e-07,0.43848801514007896
1759828507.881737,1,7.660270514290378,5.999985698194755,3.1415915750339654,0.44964334686916585,True,0.011226892471313477,7.663308620452881,5.999985694885254,3.141591787338257,0.44964334686916585,1.1266659782904753e-07,0.43848801514007896
1759828507.8929813,1,7.6602169762855565,5.999985698231913,3.141591580005219,0.44964334686916585,True,0.01124429702758789,7.663308620452881,5.999985694885254,3.141591787338257,0.44964334686916585,1.1266659782904753e-07,0.43848801514007896
1759828507.9033246,1,7.660351269183465,5.9999856980697,3.1415915893023776,0.44964334686916585,True,0.010343313217163086,7.663308620452881,5.999985694885254,3.141591787338257,0.44964334686916585,1.1266659782904753e-07,0.43848801514007896
1759828507.9138145,1,7.660377381469083,5.999985698018239,3.1415915972008026,0.44964334686916585,True,0.010489940643310547,7.663308620452881,5.999985694885254,3.141591787338257,0.44964334686916585,1.1266659782904753e-07,0.43848801514007896
1759828507.926594,1,7.606088906755151,5.999984519677278,3.14159159543534,0.4657398571787023,True,0.012779474258422852,7.5762152671813965,5.999983787536621,3.141591787338257,0.4657398571787023,1.1266659782904753e-07,0.43848801514007896
1759828507.9362779,1,7.585903256705209,5.999984069032181,3.141591620522041,0.4657398571787023,True,0.009683847427368164,7.5762152671813965,5.999983787536621,3.141591787338257,0.4657398571787023,7.011810264856422e-06,0.3433464067166625
1759828507.9477239,1,7.577879543327254,5.999983897193255,3.1415916282602723,0.4657398571787023,True,0.011445999145507812,7.5762152671813965,5.999983787536621,3.141591787338257,0.4657398571787023,7.011810264856422e-06,0.3433464067166625
1759828507.9586074,1,7.57491481192583,5.999983831435779,3.1415916340596723,0.4657398571787023,True,0.010883569717407227,7.5762152671813965,5.999983787536621,3.141591787338257,0.4657398571787023,7.011810264856422e-06,0.3433464067166625
1759828507.9696062,1,7.5737618993837135,5.9999838063289115,3.141591639882769,0.4657398571787023,True,0.010998725891113281,7.5762152671813965,5.999983787536621,3.141591787338257,0.4657398571787023,7.011810264856422e-06,0.3433464067166625
1759828507.9809406,1,7.5732618072057685,5.9999837967900955,3.14159164476742,0.4657398571787023,True,0.011334419250488281,7.5762152671813965,5.999983787536621,3.141591787338257,0.4657398571787023,7.011810264856422e-06,0.3433464067166625
1759828507.9911985,1,7.573262287755292,5.999983792937631,3.1415916513605247,0.4657398571787023,True,0.010257959365844727,7.5762152671813965,5.999983787536621,3.141591787338257,0.4657398571787023,7.011810264856422e-06,0.3433464067166625
1759828508.002467,1,7.573082721195523,5.999983791639673,3.1415916566413653,0.4657398571787023,True,0.011268377304077148,7.5762152671813965,5.999983787536621,3.141591787338257,0.4657398571787023,7.011810264856422e-06,0.3433464067166625
1759828508.01371,1,7.573018628746463,5.999983791128964,3.1415916608246715,0.4657398571787023,True,0.011243104934692383,7.5762152671813965,5.999983787536621,3.141591787338257,0.4657398571787023,7.011810264856422e-06,0.3433464067166625
1759828508.0237987,1,7.5731995157190335,5.999983790715318,3.1415916668556267,0.4657398571787023,True,0.010088682174682617,7.5762152671813965,5.999983787536621,3.141591787338257,0.4657398571787023,7.011810264856422e-06,0.3433464067166625
1759828508.0345495,1,7.573150824990756,5.999983790666058,3.14159167245605,0.4657398571787023,True,0.010750770568847656,7.5762152671813965,5.999983787536621,3.141591787338257,0.4657398571787023,7.011810264856422e-06,0.3433464067166625
1759828508.0454104,1,7.573112631565129,5.999983790656598,3.1415916768005303,0.4657398571787023,True,0.010860919952392578,7.5762152671813965,5.999983787536621,3.141591787338257,0.4657398571787023,7.011810264856422e-06,0.3433464067166625
1759828508.0565197,1,7.573053847689619,5.9999837906892095,3.1415916805485544,0.4657398571787023,True,0.011109352111816406,7.5762152671813965,5.999983787536621,3.141591787338257,0.4657398571787023,7.011810264856422e-06,0.3433464067166625
1759828508.0668168,1,7.573175898408608,5.999983790549289,3.1415916850285956,0.4657398571787023,True,0.010297060012817383,7.5762152671813965,5.999983787536621,3.141591787338257,0.4657398571787023,7.011810264856422e-06,0.3433464067166625
1759828508.076923,1,7.573256491169785,5.999983790453611,3.1415916901852796,0.4657398571787023,True,0.010106086730957031,7.5762152671813965,5.999983787536621,3.141591787338257,0.4657398571787023,7.011810264856422e-06,0.3433464067166625
1759828508.0882773,1,7.573065195678539,5.999983790628549,3.141591693727051,0.4657398571787023,True,0.011354446411132812,7.5762152671813965,5.999983787536621,3.141591787338257,0.4657398571787023,7.011810264856422e-06,0.3433464067166625
1759828508.0996575,1,7.572987546601446,5.999983790693078,3.1415916960417203,0.4657398571787023,True,0.011380195617675781,7.5762152671813965,5.999983787536621,3.141591787338257,0.4657398571787023,7.011810264856422e-06,0.3433464067166625
1759828508.1100464,1,7.573134244294449,5.999983790538679,3.141591699470892,0.4657398571787023,True,0.010388851165771484,7.5762152671813965,5.999983787536621,3.141591787338257,0.4657398571787023,7.011810264856422e-06,0.3433464067166625
1759828508.1200852,1,7.5732525414340905,5.999983790411951,3.1415917040286345,0.4657398571787023,True,0.01003885269165039,7.5762152671813965,5.999983787536621,3.141591787338257,0.4657398571787023,7.011810264856422e-06,0.3433464067166625
1759828508.134777,1,7.528927088110098,5.999983201003835,3.141591699346524,0.32744124602675795,True,0.014691829681396484,7.504505634307861,5.999982833862305,3.141591787338257,0.32744124602675795,7.011810264856422e-06,0.3433464067166625
1759828508.145986,1,7.512431872598632,5.999982975461634,3.1415917079624815,0.32744124602675795,True,0.01120901107788086,7.504505634307861,5.999982833862305,3.141591787338257,0.32744124602675795,1.2035331497628476e-05,0.34078607942076466
1759828508.1564817,1,7.506220480425686,5.9999828892127685,3.141591712935906,0.32744124602675795,True,0.010495662689208984,7.504505634307861,5.999982833862305,3.141591787338257,0.32744124602675795,1.2035331497628476e-05,0.34078607942076466
1759828508.1679194,1,7.50373012347399,5.999982856377209,3.1415917176824326,0.32744124602675795,True,0.011437654495239258,7.504505634307861,5.999982833862305,3.141591787338257,0.32744124602675795,1.2035331497628476e-05,0.34078607942076466
1759828508.1790595,1,7.502816106313648,5.999982843792387,3.141591720883845,0.32744124602675795,True,0.011140108108520508,7.504505634307861,5.999982833862305,3.141591787338257,0.32744124602675795,1.2035331497628476e-05,0.34078607942076466
1759828508.1903162,1,7.502452401161651,5.999982838995066,3.1415917242048508,0.32744124602675795,True,0.011256694793701172,7.504505634307861,5.999982833862305,3.141591787338257,0.32744124602675795,1.2035331497628476e-05,0.34078607942076466
1759828508.2008693,1,7.502401475062727,5.999982837073035,3.141591727211143,0.32744124602675795,True,0.010553121566772461,7.504505634307861,5.999982833862305,3.141591787338257,0.32744124602675795,1.2035331497628476e-05,0.34078607942076466
1759828508.2123249,1,7.502269156777171,5.999982836443491,3.141591730860755,0.32744124602675795,True,0.011455535888671875,7.504505634307861,5.999982833862305,3.141591787338257,0.32744124602675795,1.2035331497628476e-05,0.34078607942076466
1759828508.223287,1,7.50228031192836,5.999982836138789,3.1415917331583465,0.32744124602675795,True,0.010962247848510742,7.504505634307861,5.999982833862305,3.141591787338257,0.32744124602675795,1.2035331497628476e-05,0.34078607942076466
1759828508.2339141,1,7.5023264988256395,5.999982835979067,3.141591735877233,0.32744124602675795,True,0.010627031326293945,7.504505634307861,5.999982833862305,3.141591787338257,0.32744124602675795,1.2035331497628476e-05,0.34078607942076466
1759828508.2451594,1,7.502266819071267,5.999982835988159,3.1415917389613117,0.32744124602675795,True,0.011245250701904297,7.504505634307861,5.999982833862305,3.141591787338257,0.32744124602675795,1.2035331497628476e-05,0.34078607942076466
1759828508.2565663,1,7.502223805912996,5.999982836006702,3.141591741172249,0.32744124602675795,True,0.011406898498535156,7.504505634307861,5.999982833862305,3.141591787338257,0.32744124602675795,1.2035331497628476e-05,0.34078607942076466
1759828508.2669039,1,7.502341116141463,5.999982835883816,3.1415917428036195,0.32744124602675795,True,0.010337591171264648,7.504505634307861,5.999982833862305,3.141591787338257,0.32744124602675795,1.2035331497628476e-05,0.34078607942076466
1759828508.2782347,1,7.50226169724178,5.999982835940333,3.1415917371916358,0.32744124602675795,True,0.011330842971801758,7.504505634307861,5.999982833862305,3.141591787338257,0.32744124602675795,6.360635332214315e-06,0.34102075959131284
1759828508.2882738,1,7.502392923169672,5.999982835817928,3.1415917387680636,0.32744124602675795,True,0.010039091110229492,7.504505634307861,5.999982833862305,3.141591787338257,0.32744124602675795,6.360635332214315e-06,0.34102075959131284
1759828508.299491,1,7.502295709596523,5.999982835906601,3.1415917411438326,0.32744124602675795,True,0.011217117309570312,7.504505634307861,5.999982833862305,3.141591787338257,0.32744124602675795,6.360635332214315e-06,0.34102075959131284
1759828508.3098972,1,7.502359992931327,5.999982835842782,3.1415917429418485,0.32744124602675795,True,0.010406255722045898,7.504505634307861,5.999982833862305,3.141591787338257,0.32744124602675795,6.360635332214315e-06,0.34102075959131284
1759828508.3212519,1,7.502265925598726,5.999982835926315,3.141591744891045,0.32744124602675795,True,0.011354684829711914,7.504505634307861,5.999982833862305,3.141591787338257,0.32744124602675795,6.360635332214315e-06,0.34102075959131284
1759828508.3332791,1,7.460202759313138,5.999982541469905,3.1415917471444406,0.35971022667643554,True,0.012027263641357422,7.436880111694336,5.9999823570251465,3.141591787338257,0.35971022667643554,6.360635332214315e-06,0.34102075959131284
1759828508.3445992,1,7.4442332197440235,5.999982428912559,3.1415917541306104,0.35971022667643554,True,0.011320114135742188,7.436880111694336,5.9999823570251465,3.141591787338257,0.35971022667643554,9.794454989275891e-06,0.2572607466537775
1759828508.355742,1,7.438157770377735,5.999982385886519,3.141591756222386,0.35971022667643554,True,0.011142730712890625,7.436880111694336,5.9999823570251465,3.141591787338257,0.35971022667643554,9.794454989275891e-06,0.2572607466537775
1759828508.3660533,1,7.435951382420986,5.999982369342745,3.141591757635883,0.35971022667643554,True,0.010311365127563477,7.436880111694336,5.9999823570251465,3.141591787338257,0.35971022667643554,9.794454989275891e-06,0.2572607466537775
