timestamp,observer_vehicle_id,vehicle_0_x,vehicle_0_y,vehicle_0_theta,vehicle_0_velocity,vehicle_1_x,vehicle_1_y,vehicle_1_theta,vehicle_1_velocity
1759839279.4582074,1,0.0,0.0,0.0,0.0,-1.735,-0.35,-0.7801621756414646,0.0
1759839279.4688394,1,0.0,0.0,0.0,0.0,-1.735,-0.35,-0.7801621756414646,0.0
1759839279.4804246,1,0.0,0.0,0.0,0.0,-1.735,-0.35,-0.7801621756414646,0.0
1759839279.4917865,1,-0.24231335570960938,-0.16690444303009713,-0.1443220694020056,0.0,-1.735,-0.35,-0.7801621756414646,0.0
1759839279.5030663,1,-0.43372814353431505,-0.29875016179391745,-0.2583289024637121,0.0,-1.735,-0.35,-0.7801621756414646,0.0
1759839279.514067,1,-0.5853862699981635,-0.4032116556901569,-0.3486566295045774,0.0,-1.735,-0.35,-0.7801621756414646,0.0
1759839279.5244086,1,-0.7059417085781211,-0.48624974606496224,-0.4204595655110299,0.0,-1.735,-0.35,-0.7801621756414646,0.0
1759839279.5354114,1,-0.8019430086146302,-0.5523750467766612,-0.47763803281415257,0.0,-1.735,-0.35,-0.7801621756414646,0.0
1759839279.5455935,1,-0.8786562242790564,-0.6052147942846894,-0.5233284983799071,0.0,-1.735,-0.35,-0.7801621756414646,0.0
1759839279.5565126,1,-0.9437350305281256,-0.6500408084276389,-0.5620894984270266,0.0,-1.735,-0.35,-0.7801621756414646,0.0
1759839279.567744,1,-0.9952490719634689,-0.6855234683446563,-0.5927713114102082,0.0,-1.735,-0.35,-0.7801621756414646,0.0
1759839279.5785763,1,-1.0361515809965482,-0.7136969483771846,-0.6171328854146664,0.0,-1.735,-0.35,-0.7801621756414646,0.0
1759839279.5891578,1,-1.0687205498336052,-0.7361303201898717,-0.6365309948052461,0.0,-1.735,-0.35,-0.7801621756414646,0.0
1759839279.6005921,1,-1.0946956700674706,-0.7540218761983182,-0.6520018015799661,0.0,-1.735,-0.35,-0.7801621756414646,0.0
1759839279.6121914,1,-1.1166888623295814,-0.7691706965933464,-0.6651009681972114,0.0,-1.735,-0.35,-0.7801621756414646,0.0
1759839279.6230292,1,-1.134105482444488,-0.7811671929120592,-0.675474324010022,0.0,-1.735,-0.35,-0.7801621756414646,0.0
1759839279.6336648,1,-1.147936408408077,-0.7906938778435731,-0.6837120369126622,0.0,-1.735,-0.35,-0.7801621756414646,0.0
1759839279.6450338,1,-1.158939278604584,-0.7982726095915718,-0.690265357060746,0.0,-1.735,-0.35,-0.7801621756414646,0.0
1759839279.6554468,1,-1.1677246684436953,-0.8043239499875852,-0.6954979437597778,0.0,-1.734999777754148,-0.34999987587332726,-0.7229998697934477,0.0
1759839279.6668196,1,-1.1751658513533374,-0.8094494061779046,-0.6999299195094157,0.0,-1.7349997765108072,-0.34999987517890824,-0.718114298658687,0.0
1759839279.6779613,1,-1.1810550807485343,-0.813505883169044,-0.7034375502423932,0.0,-1.734999776120719,-0.34999987496103985,-0.7176545584965622,0.0
1759839279.6892903,1,-1.1857275212237253,-0.8167242409554701,-0.7062204603158494,0.0,-1.7349997759757527,-0.34999987488007467,-0.7175947880663642,0.0
1759839279.7005672,1,-1.1894447410463274,-0.8192846466842215,-0.7084344400432526,0.0,-1.7349997759206006,-0.3499998748492716,-0.717589345797089,0.0
1759839279.7113733,1,-1.1924113691516864,-0.8213280479245385,-0.7102013666167292,0.0,-1.7349997758995466,-0.3499998748375127,-0.7175986575405365,0.0
1759839279.7229285,1,-1.194921402262425,-0.8230569484100612,-0.7116963447690828,0.0,-1.7349997758915052,-0.3499998748330216,-0.7176095246721149,0.0
1759839279.7335877,1,-1.1969094693119817,-0.8244263208189447,-0.7128804394297411,0.0,-1.734999775888434,-0.3499998748313062,-0.7176223212764938,0.0
1759839279.7440338,1,-1.1984884675301226,-0.8255139282988238,-0.7138208922981224,0.0,-1.7349997758872606,-0.3499998748306509,-0.7176333567572044,0.0
1759839279.7545097,1,-1.1997456488131646,-0.8263798695971045,-0.714569670688198,0.0,-1.7349997758868125,-0.3499998748304006,-0.7176422180400444,0.0
1759839279.7647538,1,-1.2007493340223419,-0.8270712038420729,-0.7151674665711052,0.0,-1.7349997758866413,-0.34999987483030504,-0.7176496550990539,0.0
1759839279.7762918,1,-1.2015514799212184,-0.8276237186388278,-0.715645225445556,0.0,-1.734999775886576,-0.3499998748302685,-0.7176545234345006,0.0
1759839279.787306,1,-1.2022361861531126,-0.828095341475872,-0.716053037140582,0.0,-1.7349997758865512,-0.3499998748302546,-0.7176594408073331,0.0
1759839279.7987108,1,-1.2027786320679246,-0.828468975991479,-0.7163761184529391,0.0,-1.7349997758865416,-0.34999987483024925,-0.7176634440952956,0.0
1759839279.8088214,1,-1.2032101146435183,-0.8287661794153091,-0.7166331098929621,0.0,-1.7349997758865379,-0.34999987483024725,-0.7176678624963202,0.0
1759839279.8190577,1,-1.2035541139290937,-0.8290031247087024,-0.7168379962007007,0.0,-1.7349997758865365,-0.34999987483024647,-0.7176713482851617,0.0
1759839279.829801,1,-1.2038448206100556,-0.8292033622751748,-0.7170111413815041,0.0,-1.734999775886536,-0.34999987483024614,-0.7176738949279606,0.0
1759839279.840946,1,-1.2040744961089005,-0.8293615618143628,-0.7171479363311146,0.0,-1.7349997758865359,-0.349999874830246,-0.7176758962498688,0.0
1759839279.8561022,1,-1.204255694407579,-0.8294863704574126,-0.7172558582133437,0.0,-1.7349997758865356,-0.34999987483024597,-0.7176758110882204,0.0
1759839279.8661804,1,-1.2043999097349571,-0.829585705381903,-0.7173417530020387,0.0,-1.7349997758865356,-0.34999987483024597,-0.7176787907211271,0.0
1759839279.8776028,1,-1.2045148043684493,-0.8296648443330104,-0.7174101843570508,0.0,-1.7349997758865356,-0.34999987483024597,-0.7176807111422416,0.0
1759839279.8889346,1,-1.204611735939352,-0.8297316104004694,-0.7174679168945831,0.0,-1.7349997758865356,-0.34999987483024597,-0.7176823729917796,0.0
1759839279.9000447,1,-1.204688432583801,-0.8297844387337924,-0.7175135974903168,0.0,-1.7349997758865356,-0.34999987483024597,-0.717683908084771,0.0
1759839279.9100866,1,-1.2047493457892242,-0.8298263954992153,-0.7175498774544767,0.0,-1.7349997758865356,-0.34999987483024597,-0.7176856156154141,0.0
1759839279.9209776,1,-1.204797797091358,-0.8298597685568952,-0.7175787350969648,0.0,-1.7349997758865356,-0.34999987483024597,-0.7176867234671622,0.0
1759839279.9316907,1,-1.2048364426513642,-0.8298863874597185,-0.7176017524299425,0.0,-1.7349997758865356,-0.34999987483024597,-0.717687740516995,0.0
1759839279.9428074,1,-1.204869062946301,-0.8299088561847378,-0.7176211811092079,0.0,-1.7349997758865356,-0.34999987483024597,-0.7176885203748159,0.0
1759839279.953513,1,-1.2048948896505034,-0.8299266455123939,-0.7176365635192505,0.0,-1.7349997758865356,-0.34999987483024597,-0.7176893694561777,0.0
1759839279.9641454,1,-1.2049153914422037,-0.8299407670622145,-0.7176487744062483,0.0,-1.7349997758865356,-0.34999987483024597,-0.7176901571072385,0.0
1759839279.9750502,1,-1.2049317028029103,-0.8299520022603976,-0.7176584894684868,0.0,-1.7349997758865356,-0.34999987483024597,-0.7176907894897102,0.0
1759839279.986185,1,-1.2049447106150786,-0.8299609619879315,-0.7176662369340154,0.0,-1.7349997758865356,-0.34999987483024597,-0.7176913203636452,0.0
1759839279.9971266,1,-1.204955754043944,-0.8299685686563238,-0.717672814410946,0.0,-1.7349997758865356,-0.34999987483024597,-0.7176918842963147,0.0
1759839280.007467,1,-1.2049644927451792,-0.8299745878378015,-0.7176780191898674,0.0,-1.7349997758865356,-0.34999987483024597,-0.7176925561803175,0.0
1759839280.0188477,1,-1.204971417494042,-0.829979357576344,-0.7176821435769984,0.0,-1.7349997758865356,-0.34999987483024597,-0.7176929191550876,0.0
1759839280.0300148,1,-1.2049769208774108,-0.8299831482841787,-0.7176854213974645,0.0,-1.7349997758865356,-0.34999987483024597,-0.717693332777813,0.0
1759839280.0407584,1,-1.204981308150213,-0.8299861702196446,-0.7176880344613956,0.0,-1.7349997758865356,-0.34999987483024597,-0.71769383070159,0.0
1759839280.0546668,1,-1.204985008022794,-0.8299887186766647,-0.717690238109089,0.0,-1.7349997758865356,-0.34999987483024597,-0.7176936855887277,0.0
1759839280.061097,1,-1.2049879487714783,-0.8299907442522663,-0.7176919896218542,0.0,-1.7349997758865356,-0.34999987483024597,-0.7176950817490049,0.0
1759839280.0716147,1,-1.2049902801170878,-0.8299923500735358,-0.7176933781735577,0.0,-1.7349997758865356,-0.34999987483024597,-0.717695446053451,0.0
1759839280.0822177,1,-1.2049921328225528,-0.8299936262094417,-0.7176944816467274,0.0,-1.7349997758865356,-0.34999987483024597,-0.7176957116409746,0.0
1759839280.0933313,1,-1.2049936080832007,-0.8299946423629098,-0.7176953603133985,0.0,-1.7349997758865356,-0.34999987483024597,-0.7176958887242169,0.0
1759839280.104633,1,-1.2049948483323896,-0.8299954966414512,-0.7176960990070167,0.0,-1.7349997758865356,-0.34999987483024597,-0.7176960633689458,0.0
1759839280.1154795,1,-1.2049958295870098,-0.8299961725255987,-0.717696683443219,0.0,-1.7349997758865356,-0.34999987483024597,-0.717696340359387,0.0
1759839280.126676,1,-1.2049966076651621,-0.8299967084626305,-0.7176971468673204,0.0,-1.7349997758865356,-0.34999987483024597,-0.7176965646782794,0.0
1759839280.1372726,1,-1.2049972266615043,-0.8299971348247657,-0.7176975155421416,0.0,-1.7349997758865356,-0.34999987483024597,-0.7176968805383463,0.0
1759839280.1483297,1,-1.2049977201020814,-0.8299974747046062,-0.7176978094358274,0.0,-1.7349997758865356,-0.34999987483024597,-0.7176971109644725,0.0
1759839280.1594722,1,-1.2049981379365697,-0.8299977625072837,-0.7176980582984535,0.0,-1.7349997758865356,-0.34999987483024597,-0.7176973251020673,0.0
1759839280.1696315,1,-1.2049984686264106,-0.8299979902850863,-0.717698255257643,0.0,-1.7349997758865356,-0.34999987483024597,-0.71769766478692,0.0
1759839280.1803803,1,-1.2049987308267793,-0.8299981708876221,-0.7176984114244366,0.0,-1.7349997758865356,-0.34999987483024597,-0.7176978923242512,0.0
1759839280.1918375,1,-1.2049989391030453,-0.8299983143474577,-0.7176985354739823,0.0,-1.7349997758865356,-0.34999987483024597,-0.7176980194012472,0.0
1759839280.2033627,1,-1.2049991049820041,-0.8299984286042026,-0.717698634271651,0.0,-1.7349997758865356,-0.34999987483024597,-0.7176981566116681,0.0
1759839280.2138138,1,-1.2049992450850224,-0.8299985251065854,-0.7176987177171444,0.0,-1.7349997758865356,-0.34999987483024597,-0.7176984294609063,0.0
1759839280.2241404,1,-1.2049993559719998,-0.8299986014850793,-0.7176987837615355,0.0,-1.7349997758865356,-0.34999987483024597,-0.7176986898815141,0.0
1759839280.234468,1,-1.20499944395245,-0.8299986620856515,-0.7176988361627769,0.0,-1.7349997758865356,-0.34999987483024597,-0.7176989168169462,0.0
1759839280.2448962,1,-1.2049995139231153,-0.8299987102811581,-0.7176988778373729,0.0,-1.7349997758865356,-0.34999987483024597,-0.7176991072339334,0.0
1759839280.2551117,1,-1.2049995697209344,-0.8299987487144664,-0.7176989110706079,0.0,-1.7349997758865356,-0.34999987483024597,-0.7176993006273733,0.0
1759839280.2660139,1,-1.204999616861702,-0.8299987811848335,-0.7176989391476949,0.0,-1.7349997758865356,-0.34999987483024597,-0.7176994124209752,0.0
1759839280.2761052,1,-1.2049996541583528,-0.8299988068746131,-0.7176989613616162,0.0,-1.7349997758865356,-0.34999987483024597,-0.717699599258733,0.0
1759839280.2871995,1,-1.204999683707882,-0.8299988272282074,-0.7176989789613444,0.0,-1.7349997758865356,-0.34999987483024597,-0.7176996843026834,0.0
1759839280.2975202,1,-1.204999707200026,-0.8299988434094996,-0.7176989929532881,0.0,-1.7349997758865356,-0.34999987483024597,-0.7176998415907789,0.0
1759839280.3087595,1,-1.2049997259044904,-0.8299988562930577,-0.7176990040936853,0.0,-1.7349997758865356,-0.34999987483024597,-0.7176999172331158,0.0
1759839280.3195908,1,-1.2049997416923393,-0.829998867167663,-0.7176990134969433,0.0,-1.7349997758865356,-0.34999987483024597,-0.7177000349975984,0.0
1759839280.3298564,1,-1.2049997541797333,-0.8299988757689287,-0.7176990209344474,0.0,-1.7349997758865356,-0.34999987483024597,-0.7177001966427898,0.0
1759839280.339948,1,-1.2049997640827055,-0.8299988825900553,-0.7176990268326672,0.0,-1.7349997758865356,-0.34999987483024597,-0.7177003556390318,0.0
1759839280.3504133,1,-1.2049997719520686,-0.8299988880104404,-0.7176990315196676,0.0,-1.7349997758865356,-0.34999987483024597,-0.7177004695638125,0.0
1759839280.361429,1,-1.2049997782174213,-0.8299988923259897,-0.7176990352513178,0.0,-1.7349997758865356,-0.34999987483024597,-0.7177005389983488,0.0
1759839280.3722546,1,-1.2049997832196995,-0.8299988957715384,-0.7176990382306797,0.0,-1.7349997758865356,-0.34999987483024597,-0.7177006279943718,0.0
1759839280.3834484,1,-1.204999787444074,-0.8299988986812701,-0.7176990407467212,0.0,-1.7349997758865356,-0.34999987483024597,-0.7177006975291427,0.0
1759839280.3936186,1,-1.20499979079505,-0.8299989009894085,-0.7176990427425657,0.0,-1.7349997758865356,-0.34999987483024597,-0.7177008363827948,0.0
1759839280.4036248,1,-1.2049997934601149,-0.8299989028250943,-0.717699044329881,0.0,-1.7349997758865356,-0.34999987483024597,-0.7177009717652858,0.0
1759839280.4137642,1,-1.2049997955844276,-0.8299989042883121,-0.7176990455951237,0.0,-1.7349997758865356,-0.34999987483024597,-0.717701081764412,0.0
1759839280.4254174,1,-1.2049997972790853,-0.8299989054555855,-0.7176990466044635,0.0,-1.7349997758865356,-0.34999987483024597,-0.7177010970670636,0.0
1759839280.4361427,1,-1.2049997987172454,-0.8299989064461842,-0.717699047461033,0.0,-1.7349997758865356,-0.34999987483024597,-0.7177011782479337,0.0
1759839280.4468746,1,-1.2049997998564395,-0.8299989072308565,-0.7176990481395381,0.0,-1.7349997758865356,-0.34999987483024597,-0.717701261783894,0.0
1759839280.4571896,1,-1.2049998007615155,-0.829998907854269,-0.7176990486786022,0.0,-1.7349997758865356,-0.34999987483024597,-0.7177013633567721,0.0
1759839280.468978,1,-1.2049998014812537,-0.8299989083500217,-0.717699049107279,0.0,-1.7349997758865356,-0.34999987483024597,-0.7177013861093258,0.0
1759839280.4790401,1,-1.2049998020562385,-0.8299989087460687,-0.7176990494497404,0.0,-1.7349997758865356,-0.34999987483024597,-0.7177015006779968,0.0
1759839280.4894972,1,-1.204999802543149,-0.8299989090814506,-0.7176990497397445,0.0,-1.7349997758865356,-0.34999987483024597,-0.7177015870732895,0.0
1759839280.5008357,1,-1.2049998029284854,-0.8299989093468687,-0.7176990499692513,0.0,-1.7349997758865356,-0.34999987483024597,-0.7177016270068535,0.0
1759839280.511817,1,-1.2049998032343725,-0.8299989095575626,-0.7176990501514381,0.0,-1.7349997758865356,-0.34999987483024597,-0.7177016875670699,0.0
1759839280.5230906,1,-1.2049998034777512,-0.829998909725201,-0.7176990502963947,0.0,-1.7349997758865356,-0.34999987483024597,-0.7177017385971532,0.0
1759839280.5339086,1,-1.2049998036720038,-0.8299989098590014,-0.7176990504120917,0.0,-1.7349997758865356,-0.34999987483024597,-0.7177018104338622,0.0
1759839280.5449152,1,-1.2049998038367138,-0.8299989099724528,-0.717699050510193,0.0,-1.7349997758865356,-0.34999987483024597,-0.7177018723556365,0.0
1759839280.5550532,1,-1.2049998039671919,-0.8299989100623256,-0.7176990505879058,0.0,-1.7349997758865356,-0.34999987483024597,-0.7177019633064372,0.0
1759839280.5652363,1,-1.2049998040707988,-0.8299989101336895,-0.7176990506496141,0.0,-1.7349997758865356,-0.34999987483024597,-0.7177020415905737,0.0
1759839280.5754032,1,-1.2049998041532695,-0.8299989101904951,-0.7176990506987339,0.0,-1.7349997758865356,-0.34999987483024597,-0.7177021101440282,0.0
1759839280.585558,1,-1.2049998042190757,-0.8299989102358221,-0.7176990507379281,0.0,-1.7349997758865356,-0.34999987483024597,-0.7177021712637686,0.0
1759839280.5955653,1,-1.204999804271719,-0.8299989102720826,-0.7176990507692824,0.0,-1.7349997758865356,-0.34999987483024597,-0.7177022309954566,0.0
1759839280.6070154,1,-1.2049998043163879,-0.8299989103028503,-0.7176990507958873,0.0,-1.7349997758865356,-0.34999987483024597,-0.7177022407518532,0.0
1759839280.6171348,1,-1.2049998043518255,-0.8299989103272596,-0.717699050816994,0.0,-1.7349997758865356,-0.34999987483024597,-0.7177022981183292,0.0
1759839280.627173,1,-1.2049998043800099,-0.829998910346673,-0.7176990508337807,0.0,-1.7349997758865356,-0.34999987483024597,-0.7177023549107258,0.0
1759839280.6377602,1,-1.2049998044024666,-0.8299989103621409,-0.7176990508471559,0.0,-1.7349997758865356,-0.34999987483024597,-0.7177023904624704,0.0
1759839280.6492677,1,-1.2049998044214276,-0.8299989103752012,-0.7176990508584491,0.0,-1.7349997758865356,-0.34999987483024597,-0.7177024011183128,0.0
1759839280.659867,1,-1.2049998044364163,-0.8299989103855254,-0.7176990508673764,0.0,-1.7349997758865356,-0.34999987483024597,-0.7177024433098413,0.0
1759839280.6704507,1,-1.2049998044482952,-0.8299989103937075,-0.7176990508744515,0.0,-1.7349997758865356,-0.34999987483024597,-0.7177024860818566,0.0
1759839280.680805,1,-1.2049998044577357,-0.82999891040021,-0.7176990508800742,0.0,-1.7349997758865356,-0.34999987483024597,-0.7177025321959363,0.0
1759839280.6921155,1,-1.204999804465249,-0.8299989104053853,-0.7176990508845492,0.0,-1.7349997758865356,-0.34999987483024597,-0.7177025523839154,0.0
1759839280.7021458,1,-1.2049998044712529,-0.8299989104095207,-0.7176990508881251,0.0,-1.7349997758865356,-0.34999987483024597,-0.7177026047090465,0.0
1759839280.7133553,1,-1.2049998044763313,-0.8299989104130187,-0.7176990508911498,0.0,-1.7349997758865356,-0.34999987483024597,-0.7177026264529971,0.0
1759839280.7234519,1,-1.2049998044803576,-0.829998910415792,-0.7176990508935478,0.0,-1.7349997758865356,-0.34999987483024597,-0.7177026733363121,0.0
1759839280.734916,1,-1.2049998044835528,-0.829998910417993,-0.7176990508954508,0.0,-1.7349997758865356,-0.34999987483024597,-0.7177026882434916,0.0
1759839280.745391,1,-1.2049998044860981,-0.8299989104197462,-0.7176990508969668,0.0,-1.7349997758865356,-0.34999987483024597,-0.7177027259720941,0.0
1759839280.7563314,1,-1.2049998044881298,-0.8299989104211456,-0.717699050898177,0.0,-1.7349997758865356,-0.34999987483024597,-0.717702753190844,0.0
1759839280.7667606,1,-1.20499980448985,-0.8299989104223304,-0.7176990508992016,0.0,-1.7349997758865356,-0.34999987483024597,-0.7177027895148509,0.0
1759839280.7776687,1,-1.2049998044912125,-0.8299989104232689,-0.7176990509000131,0.0,-1.7349997758865356,-0.34999987483024597,-0.7177028146843334,0.0
1759839280.7891018,1,-1.2049998044922938,-0.8299989104240137,-0.7176990509006571,0.0,-1.7349997758865356,-0.34999987483024597,-0.7177028306881219,0.0
1759839280.8004806,1,-1.2049998044931545,-0.8299989104246065,-0.7176990509011697,0.0,-1.7349997758865356,-0.34999987483024597,-0.7177028506031835,0.0
1759839280.810838,1,-1.2049998044938781,-0.829998910425105,-0.7176990509016008,0.0,-1.7349997758865356,-0.34999987483024597,-0.717702888928013,0.0
1759839280.8213398,1,-1.2049998044944508,-0.8299989104254994,-0.7176990509019419,0.0,-1.7349997758865356,-0.34999987483024597,-0.7177029212780539,0.0
1759839280.832349,1,-1.2049998044949046,-0.8299989104258121,-0.7176990509022123,0.0,-1.7349997758865356,-0.34999987483024597,-0.7177029426172226,0.0
1759839280.8440888,1,-1.2049998044952652,-0.8299989104260604,-0.717699050902427,0.0,-1.7349997758865356,-0.34999987483024597,-0.7177029533266507,0.0
1759839280.8588014,1,-1.2049998044955517,-0.8299989104262576,-0.7176990509025976,0.0,-1.7349997758865356,-0.34999987483024597,-0.7177029274634315,0.0
1759839280.8648455,1,-1.2049998044957957,-0.8299989104264256,-0.7176990509027428,0.0,-1.7349997758865356,-0.34999987483024597,-0.7177030310117409,0.0
1759839280.8749454,1,-1.2049998044959886,-0.8299989104265585,-0.7176990509028577,0.0,-1.7349997758865356,-0.34999987483024597,-0.7177030614100204,0.0
1759839280.885682,1,-1.2049998044961416,-0.8299989104266638,-0.7176990509029487,0.0,-1.7349997758865356,-0.34999987483024597,-0.7177030755400189,0.0
1759839280.8965156,1,-1.204999804496263,-0.8299989104267474,-0.7176990509030211,0.0,-1.7349997758865356,-0.34999987483024597,-0.7177030885553748,0.0
1759839280.9079978,1,-1.2049998044963597,-0.8299989104268141,-0.7176990509030787,0.0,-1.7349997758865356,-0.34999987483024597,-0.7177030952648416,0.0
1759839280.919317,1,-1.2049998044964414,-0.8299989104268702,-0.7176990509031272,0.0,-1.7349997758865356,-0.34999987483024597,-0.7177031070225546,0.0
1759839280.9293787,1,-1.2049998044965058,-0.8299989104269146,-0.7176990509031657,0.0,-1.7349997758865356,-0.34999987483024597,-0.7177031344681275,0.0
1759839280.9407172,1,-1.2049998044965569,-0.8299989104269498,-0.7176990509031962,0.0,-1.7349997758865356,-0.34999987483024597,-0.7177031455480076,0.0
1759839280.9509802,1,-1.2049998044965975,-0.8299989104269778,-0.7176990509032205,0.0,-1.7349997758865356,-0.34999987483024597,-0.7177031681915835,0.0
1759839280.9622326,1,-1.20499980449663,-0.829998910427,-0.7176990509032397,0.0,-1.7349997758865356,-0.34999987483024597,-0.7177031791857136,0.0
1759839280.9724348,1,-1.2049998044966557,-0.8299989104270178,-0.717699050903255,0.0,-1.7349997758865356,-0.34999987483024597,-0.7177032006926005,0.0
1759839280.983727,1,-1.2049998044966774,-0.8299989104270329,-0.717699050903268,0.0,-1.7349997758865356,-0.34999987483024597,-0.7177032102341734,0.0
1759839280.994096,1,-1.2049998044966947,-0.8299989104270449,-0.7176990509032783,0.0,-1.7349997758865356,-0.34999987483024597,-0.7177032286459095,0.0
1759839281.004435,1,-1.2049998044967085,-0.8299989104270544,-0.7176990509032866,0.0,-1.7349997758865356,-0.34999987483024597,-0.7177032459482895,0.0
1759839281.015144,1,-1.2049998044967196,-0.829998910427062,-0.717699050903293,0.0,-1.7349997758865356,-0.34999987483024597,-0.7177032584330476,0.0
1759839281.025864,1,-1.2049998044967285,-0.829998910427068,-0.7176990509032982,0.0,-1.7349997758865356,-0.34999987483024597,-0.7177032703532671,0.0
1759839281.0367334,1,-1.2049998044967358,-0.8299989104270731,-0.7176990509033027,0.0,-1.7349997758865356,-0.34999987483024597,-0.7177032809508219,0.0
1759839281.0478349,1,-1.2049998044967416,-0.8299989104270771,-0.7176990509033061,0.0,-1.7349997758865356,-0.34999987483024597,-0.7177032899808093,0.0
1759839281.060666,1,-1.2049998044967463,-0.8299989104270803,-0.7176990509033089,0.0,-1.7349997758865356,-0.34999987483024597,-0.7177032873317675,0.0
1759839281.070768,1,-1.20499980449675,-0.8299989104270828,-0.7176990509033111,0.0,-1.7349997758865356,-0.34999987483024597,-0.7177033078068327,0.0
1759839281.081761,1,-1.204999804496753,-0.829998910427085,-0.7176990509033129,0.0,-1.7349997758865356,-0.34999987483024597,-0.7177033203678231,0.0
1759839281.092639,1,-1.2049998044967554,-0.8299989104270867,-0.7176990509033144,0.0,-1.7349997758865356,-0.34999987483024597,-0.7177033325288064,0.0
1759839281.1037033,1,-1.2049998044967571,-0.8299989104270881,-0.7176990509033155,0.0,-1.7349997758865356,-0.34999987483024597,-0.7177033427853559,0.0
1759839281.1141586,1,-1.2049998044967587,-0.8299989104270892,-0.7176990509033164,0.0,-1.7349997758865356,-0.34999987483024597,-0.7177033563824367,0.0
1759839281.1256773,1,-1.20499980449676,-0.8299989104270901,-0.7176990509033172,0.0,-1.7349997758865356,-0.34999987483024597,-0.717703362493177,0.0
1759839281.1370687,1,-1.204999804496761,-0.8299989104270907,-0.7176990509033179,0.0,-1.7349997758865356,-0.34999987483024597,-0.717703369916812,0.0
1759839281.148422,1,-1.2049998044967618,-0.8299989104270913,-0.7176990509033183,0.0,-1.7349997758865356,-0.34999987483024597,-0.7177033781345514,0.0
1759839281.1594024,1,-1.2049998044967625,-0.8299989104270917,-0.7176990509033188,0.0,-1.7349997758865356,-0.34999987483024597,-0.7177033884968225,0.0
1759839281.1705482,1,-1.204999804496763,-0.8299989104270922,-0.7176990509033191,0.0,-1.7349997758865356,-0.34999987483024597,-0.7177033974598075,0.0
1759839281.1809397,1,-1.2049998044967634,-0.8299989104270924,-0.7176990509033193,0.0,-1.7349997758865356,-0.34999987483024597,-0.7177034096567549,0.0
1759839281.192214,1,-1.2049998044967638,-0.8299989104270926,-0.7176990509033195,0.0,-1.7349997758865356,-0.34999987483024597,-0.7177034163077174,0.0
1759839281.202216,1,-1.2049998044967642,-0.8299989104270928,-0.7176990509033198,0.0,-1.7349997758865356,-0.34999987483024597,-0.7177034285898305,0.0
1759839281.2128654,1,-1.2049998044967642,-0.8299989104270931,-0.7176990509033199,0.0,-1.7349997758865356,-0.34999987483024597,-0.7177034364597787,0.0
1759839281.2239099,1,-1.2049998044967642,-0.8299989104270931,-0.7176990509033199,0.0,-1.7349997758865356,-0.34999987483024597,-0.7177034419154857,0.0
1759839281.2351847,1,-1.2049998044967642,-0.8299989104270931,-0.7176990509033199,0.0,-1.7349997758865356,-0.34999987483024597,-0.7177034465709724,0.0
1759839281.246201,1,-1.2049998044967642,-0.8299989104270931,-0.7176990509033199,0.0,-1.7349997758865356,-0.34999987483024597,-0.7177034527212083,0.0
1759839281.259896,1,-1.2049998044967642,-0.8299989104270931,-0.7176990509033199,0.0,-1.7349997758865356,-0.34999987483024597,-0.7177034488617231,0.0
1759839281.2710798,1,-1.2049998044967642,-0.8299989104270931,-0.7176990509033199,0.0,-1.7349997758865356,-0.34999987483024597,-0.7177034571963112,0.0
1759839281.2825181,1,-1.2049998044967642,-0.8299989104270931,-0.7176990509033199,0.0,-1.7349997758865356,-0.34999987483024597,-0.717703464627597,0.0
1759839281.293647,1,-1.2049998044967642,-0.8299989104270931,-0.7176990509033199,0.0,-1.7349997758865356,-0.34999987483024597,-0.7177034725865745,0.0
1759839281.3037667,1,-1.2049998044967642,-0.8299989104270931,-0.7176990509033199,0.0,-1.7349997758865356,-0.34999987483024597,-0.7177034830696432,0.0
1759839281.3141754,1,-1.2049998044967642,-0.8299989104270931,-0.7176990509033199,0.0,-1.7349997758865356,-0.34999987483024597,-0.7177034909744044,0.0
1759839281.3252382,1,-1.2049998044967642,-0.8299989104270931,-0.7176990509033199,0.0,-1.7349997758865356,-0.34999987483024597,-0.7177034956916728,0.0
1759839281.3358202,1,-1.2049998044967642,-0.8299989104270931,-0.7176990509033199,0.0,-1.7349997758865356,-0.34999987483024597,-0.7177035016066924,0.0
1759839281.3459103,1,-1.2049998044967642,-0.8299989104270931,-0.7176990509033199,0.0,-1.7349997758865356,-0.34999987483024597,-0.717703508462396,0.0
1759839281.3573973,1,-1.2049998044967642,-0.8299989104270931,-0.7176990509033199,0.0,-1.7349997758865356,-0.34999987483024597,-0.7177035105893275,0.0
1759839281.367883,1,-1.2049998044967642,-0.8299989104270931,-0.7176990509033199,0.0,-1.7349997758865356,-0.34999987483024597,-0.7177035157735148,0.0
1759839281.3787134,1,-1.2049998044967642,-0.8299989104270931,-0.7176990509033199,0.0,-1.7349997758865356,-0.34999987483024597,-0.7177035198014412,0.0
1759839281.3887506,1,-1.2049998044967642,-0.8299989104270931,-0.7176990509033199,0.0,-1.7349997758865356,-0.34999987483024597,-0.7177035256492097,0.0
1759839281.4000232,1,-1.2049998044967642,-0.8299989104270931,-0.7176990509033199,0.0,-1.7349997758865356,-0.34999987483024597,-0.7177035278379371,0.0
1759839281.4103687,1,-1.2049998044967642,-0.8299989104270931,-0.7176990509033199,0.0,-1.7349997758865356,-0.34999987483024597,-0.7177035324236094,0.0
1759839281.4218552,1,-1.2049998044967642,-0.8299989104270931,-0.7176990509033199,0.0,-1.7349997758865356,-0.34999987483024597,-0.7177035341534292,0.0
1759839281.4331105,1,-1.2049998044967642,-0.8299989104270931,-0.7176990509033199,0.0,-1.7349997758865356,-0.34999987483024597,-0.7177035367835298,0.0
1759839281.444198,1,-1.2049998044967642,-0.8299989104270931,-0.7176990509033199,0.0,-1.7349997758865356,-0.34999987483024597,-0.7177035400520637,0.0
1759839281.4543982,1,-1.2049998044967642,-0.8299989104270931,-0.7176990509033199,0.0,-1.7349997758865356,-0.34999987483024597,-0.7177035451370521,0.0012115672836558388
1759839281.4663637,1,-1.2049998044967642,-0.8299989104270931,-0.7176990509033199,0.0,-1.7349997758865356,-0.34999987483024597,-0.7177035461798695,0.0012115672836558388
1759839281.4779477,1,-1.2049998044967642,-0.8299989104270931,-0.7176990509033199,0.0,-1.7349997758865356,-0.34999987483024597,-0.7177035484185392,0.0012115672836558388
1759839281.48882,1,-1.2049998044967642,-0.8299989104270931,-0.7176990509033199,0.0,-1.734999593347457,-0.3500000341892623,-0.7177035601525216,0.0012236829564923972
1759839281.5000913,1,-1.2049998044967642,-0.8299989104270931,-0.7176990509033199,0.0,-1.7349971422626167,-0.3500037437529448,-0.7177035614501895,0.0014810754936150402
1759839281.51065,1,-1.2049998044967642,-0.8299989104270931,-0.7176990509033199,0.0,-1.734996021802454,-0.3500069831950046,-0.7177035647353431,0.0015733961223912615
1759839281.521901,1,-1.2049998044967642,-0.8299989104270931,-0.7176990509033199,0.0,-1.7349949220917238,-0.3500106672069399,-0.7177035667062436,0.0016508238344321025
1759839281.532804,1,-1.2049998044967642,-0.8299989104270931,-0.7176990509033199,0.0,-1.7349949220917324,-0.3500106672069498,-0.7177035693912813,0.0016508238344321025
1759839281.543001,1,-1.2049998044967642,-0.8299989104270931,-0.7176990509033199,0.0,-1.7349938898687365,-0.3500145418610858,-0.7177035727033814,0.0017149531850836068
1759839281.553112,1,-1.2049998044967642,-0.8299989104270931,-0.7176990509033199,0.0,-1.7349922231925445,-0.3500218293279928,-0.717703575691634,0.0018048051275730327
1759839281.563777,1,-1.2049998044967642,-0.8299989104270931,-0.7176990509033199,0.0,-1.7349922231925532,-0.3500218293280028,-0.7177035777043487,0.0018048051275730327
1759839281.57396,1,-1.2049998044967642,-0.8299989104270931,-0.7176990509033199,0.0,-1.7349914635600012,-0.3500253048064392,-0.7177035801860128,0.0018399047870444802
1759839281.585115,1,-1.2049998044967642,-0.8299989104270931,-0.7176990509033199,0.0,-1.7349907753455969,-0.35002855192889676,-0.7177035812793688,0.0018694932441165122
1759839281.5968513,1,-1.2049998044967642,-0.8299989104270931,-0.7176990509033199,0.0,-1.734989982792216,-0.3500334354408431,-0.7177035819240183,0.0018959901792895391
1759839281.6069248,1,-1.2049998044967642,-0.8299989104270931,-0.7176990509033199,0.0,-1.7349895258529713,-0.3500356839441279,-0.7177035847637636,0.0019131630540830218
1759839281.61852,1,-1.2049998044967642,-0.8299989104270931,-0.7176990509033199,0.0,-1.734989525852976,-0.35003568394413304,-0.7177035856445789,0.0019131630540830218
1759839281.6309395,1,-1.2049998044967642,-0.8299989104270931,-0.7176990509033199,0.0,-1.7349887021751793,-0.350039729944591,-0.717703585933661,0.001942013043679206
1759839281.6416292,1,-1.2049998044967642,-0.8299989104270931,-0.7176990509033199,0.0,-1.7349887021751922,-0.35003972994460575,-0.717703588346088,0.001942013043679206
1759839281.6520102,1,-1.2049998044967642,-0.8299989104270931,-0.7176990509033199,0.0,-1.734988681026978,-0.3500408987521857,-0.7177035909782604,0.001935247623537993
1759839281.6679406,1,-1.2049998044967642,-0.8299989104270931,-0.7176990509033199,0.0,-1.7349882113737856,-0.35004318905167114,-0.7177035882052488,0.0019517128442507808
1759839281.678872,1,-1.2049998044967642,-0.8299989104270931,-0.7176990509033199,0.0,-1.7349879821980427,-0.35004427808149335,-0.7177035911517945,0.001959433287834121
1759839281.6891503,1,-1.2049998044967642,-0.8299989104270931,-0.7176990509033199,0.0,-1.7349877460282532,-0.350045366847429,-0.7177035944984375,0.0019671835908770426
1759839281.7003844,1,-1.2049998044967642,-0.8299989104270931,-0.7176990509033199,0.0,-1.7349875070077745,-0.35004644635561144,-0.7177035964728024,0.001974888978117795
1759839281.7105079,1,-1.2049998044967642,-0.8299989104270931,-0.7176990509033199,0.0,-1.7349876414195924,-0.35004676278331304,-0.7177035990906104,0.001962815658398437
1759839281.7208734,1,-1.2049998044967642,-0.8299989104270931,-0.7176990509033199,0.0,-1.7349875407510054,-0.35004717720537937,-0.7177036011509994,0.001966793705820596
1759839281.7318707,1,-1.2049998044967642,-0.8299989104270931,-0.7176990509033199,0.0,-1.7349874229126294,-0.35004766383139313,-0.717703602437979,0.001971242278361267
1759839281.7424102,1,-1.2049998044967642,-0.8299989104270931,-0.7176990509033199,0.0,-1.7349872865078357,-0.35004821477754977,-0.7177036039858282,0.0019761988671852986
1759839281.7526217,1,-1.2049998044967642,-0.8299989104270931,-0.7176990509033199,0.0,-1.7349872865078446,-0.3500482147775598,-0.7177036055537022,0.0019761988671852986
1759839281.763256,1,-1.2049998044967642,-0.8299989104270931,-0.7176990509033199,0.0,-1.7349871348534398,-0.3500489609032073,-0.7177036068307954,0.001980738467358338
1759839281.77471,1,-1.2049998044967642,-0.8299989104270931,-0.7176990509033199,0.0,-1.7349871064573448,-0.3500491554971076,-0.7177036074096713,0.0019812571431751524
1759839281.7847626,1,-1.2049998044967642,-0.8299989104270931,-0.7176990509033199,0.0,-1.7349870461083188,-0.35004943511402425,-0.7177036089933508,0.0019830703055980794
1759839281.7955375,1,-1.2049998044967642,-0.8299989104270931,-0.7176990509033199,0.0,-1.7349869594253986,-0.35004979358691884,-0.7177036099740279,0.0019859094767033236
1759839281.8060153,1,-1.2049998044967642,-0.8299989104270931,-0.7176990509033199,0.0,-1.7349869594254046,-0.3500497935869256,-0.7177036110187602,0.0019859094767033236
1759839281.817368,1,-1.2049998044967642,-0.8299989104270931,-0.7176990509033199,0.0,-1.7349868468352068,-0.3500502366392388,-0.7177036115656872,0.0019896913313227687
1759839281.8287685,1,-1.2049998044967642,-0.8299989104270931,-0.7176990509033199,0.0,-1.7349870666855485,-0.35004994811468293,-0.7177036122444701,0.0019766536205034677
1759839281.8400266,1,-1.2049998044967642,-0.8299989104270931,-0.7176990509033199,0.0,-1.734987016112642,-0.3500500369898158,-0.7177036130346771,0.001979455843146257
1759839281.8500435,1,-1.2049998044967642,-0.8299989104270931,-0.7176990509033199,0.0,-1.7349869400009759,-0.35005024882964997,-0.7177036144996048,0.001982965927086787
1759839281.8603425,1,-1.2049998044967642,-0.8299989104270931,-0.7176990509033199,0.0,-1.7349868358530496,-0.3500505772571526,-0.7177036156368183,0.001987258202567742
1759839281.8738072,1,-1.2049998044967642,-0.8299989104270931,-0.7176990509033199,0.0,-1.7349870719844203,-0.3500502689342071,-0.7177036151304157,0.001973048816377756
1759839281.8845336,1,-1.2049998044967642,-0.8299989104270931,-0.7176990509033199,0.0,-1.7349870569877464,-0.3500501573677869,-0.7177036162625587,0.0019753174638287565
1759839281.8952498,1,-1.2049998044967642,-0.8299989104270931,-0.7176990509033199,0.0,-1.7349870064577515,-0.3500502066352356,-0.7177036173646107,0.0019785076584642918
1759839281.9061959,1,-1.2049998044967642,-0.8299989104270931,-0.7176990509033199,0.0,-1.7349869299120224,-0.35005038924705884,-0.7177036182432476,0.001982330685741473
1759839281.9174504,1,-1.2049998044967642,-0.8299989104270931,-0.7176990509033199,0.0,-1.734986929912026,-0.350050389247063,-0.7177036188872764,0.001982330685741473
1759839281.9287262,1,-1.2049998044967642,-0.8299989104270931,-0.7176990509033199,0.0,-1.7349870678612394,-0.35005035237553983,-0.7177036196020972,0.0019725781317782545
1759839281.9394083,1,-1.2049998044967642,-0.8299989104270931,-0.7176990509033199,0.0,-1.7349870637209996,-0.3500501916624535,-0.7177036205066468,0.00197459272199795
1759839281.9507601,1,-1.2049998044967642,-0.8299989104270931,-0.7176990509033199,0.0,-1.734987024704596,-0.3500501986125616,-0.717703621088844,0.001977495136539019
1759839281.9618735,1,-1.2049998044967642,-0.8299989104270931,-0.7176990509033199,0.0,-1.734986954601082,-0.3500503450495519,-0.7177036217557426,0.0019811815138416618
1759839281.9725604,1,-1.2049998044967642,-0.8299989104270931,-0.7176990509033199,0.0,-1.7349868577463696,-0.35005061394313053,-0.7177036225527592,0.0019855155055686995
1759839281.9830253,1,-1.2049998044967642,-0.8299989104270931,-0.7176990509033199,0.0,-1.734987105042498,-0.35005024393270845,-0.717703623360252,0.001971121315232726
1759839281.994002,1,-1.2049998044967642,-0.8299989104270931,-0.7176990509033199,0.0,-1.734987096803153,-0.35005008354707384,-0.7177036239172027,0.0019733582700635134
1759839282.0043895,1,-1.2049998044967642,-0.8299989104270931,-0.7176990509033199,0.0,-1.7349870557206857,-0.3500500901736766,-0.7177036246348688,0.001976403991066
1759839282.0154653,1,-1.2049998044967642,-0.8299989104270931,-0.7176990509033199,0.0,-1.734986981782308,-0.350050244107218,-0.7177036250744993,0.0019802823344420633
1759839282.0266628,1,-1.2049998044967642,-0.8299989104270931,-0.7176990509033199,0.0,-1.7349868823884864,-0.35005051837904005,-0.7177036254782572,0.0019847403557511777
1759839282.0375738,1,-1.2049998044967642,-0.8299989104270931,-0.7176990509033199,0.0,-1.734987125992305,-0.35004997087406586,-0.7177036260252382,0.0019724197226046324
1759839282.0479107,1,-1.2049998044967642,-0.8299989104270931,-0.7176990509033199,0.0,-1.7349871259923086,-0.3500499708740698,-0.717703626648661,0.0019724197226046324
1759839282.059075,1,-1.2049998044967642,-0.8299989104270931,-0.7176990509033199,0.0,-1.7349870879055618,-0.35004996291645596,-0.7177036270190011,0.001975374489876585
1759839282.0697742,1,-1.2049998044967642,-0.8299989104270931,-0.7176990509033199,0.0,-1.734987014536186,-0.3500501131997498,-0.7177036275111861,0.001979250241768143
1759839282.0804656,1,-1.2049998044967642,-0.8299989104270931,-0.7176990509033199,0.0,-1.7349869151162332,-0.35005038608319333,-0.7177036279809824,0.0019837269360275835
1759839282.0905366,1,-1.2049998044967642,-0.8299989104270931,-0.7176990509033199,0.0,-1.7349871597983533,-0.3500500233661097,-0.7177036285745124,0.0019694381248387084
1759839282.1013377,1,-1.2049998044967642,-0.8299989104270931,-0.7176990509033199,0.0,-1.7349871496862965,-0.3500498670173509,-0.7177036289317463,0.0019717623728509348
1759839282.112194,1,-1.2049998044967642,-0.8299989104270931,-0.7176990509033199,0.0,-1.7349871074035264,-0.3500498764641549,-0.7177036292633368,0.0019748629541851866
1759839282.1233633,1,-1.2049998044967642,-0.8299989104270931,-0.7176990509033199,0.0,-1.7349870346631429,-0.3500500260253638,-0.7177036295295409,0.001978700275783743
1759839282.1335657,1,-1.2049998044967642,-0.8299989104270931,-0.7176990509033199,0.0,-1.7349869348618445,-0.3500503009261851,-0.717703630019436,0.0019831821792891486
1759839282.1437683,1,-1.2049998044967642,-0.8299989104270931,-0.7176990509033199,0.0,-1.734986813099255,-0.3500506832564259,-0.7177036304605094,0.001988156588717159
1759839282.153985,1,-1.2049998044967642,-0.8299989104270931,-0.7176990509033199,0.0,-1.7349868554350225,-0.350050571448222,-0.717703630854917,0.0019864702575169346
1759839282.1653268,1,-1.2049998044967642,-0.8299989104270931,-0.7176990509033199,0.0,-1.734986851194745,-0.3500505910758964,-0.7177036309966717,0.0019866581962963018
1759839282.1763153,1,-1.2049998044967642,-0.8299989104270931,-0.7176990509033199,0.0,-1.7349868113319973,-0.3500507237592053,-0.717703631244129,0.001988190082283958
1759839282.187659,1,-1.2049998044967642,-0.8299989104270931,-0.7176990509033199,0.0,-1.7349868113319982,-0.35005072375920654,-0.7177036314263704,0.001988190082283958
1759839282.1980443,1,-1.2049998044967642,-0.8299989104270931,-0.7176990509033199,0.0,-1.734987005474583,-0.35005057295561703,-0.7177036318400289,0.001975298648663765
1759839282.20959,1,-1.2049998044967642,-0.8299989104270931,-0.7176990509033199,0.0,-1.734986991972937,-0.3500503402473322,-0.7177036320303822,0.0019787188405387623
1759839282.220842,1,-1.2049998044967642,-0.8299989104270931,-0.7176990509033199,0.0,-1.7349869322043,-0.35005045185950573,-0.7177036322687809,0.0019819397683501997
1759839282.2316365,1,-1.2049998044967642,-0.8299989104270931,-0.7176990509033199,0.0,-1.7349869322043017,-0.3500504518595077,-0.717703632575398,0.0019819397683501997
1759839282.2423131,1,-1.2049998044967642,-0.8299989104270931,-0.7176990509033199,0.0,-1.734986843187909,-0.3500506936103121,-0.7177036328929547,0.001985944108353725
1759839282.2534957,1,-1.2049998044967642,-0.8299989104270931,-0.7176990509033199,0.0,-1.7349871082265824,-0.3500500717543756,-0.7177036331308335,0.001972795494947859
1759839282.26428,1,-1.2049998044967642,-0.8299989104270931,-0.7176990509033199,0.0,-1.734987078013432,-0.3500500324922671,-0.7177036334092066,0.0019754826451137677
1759839282.2759938,1,-1.2049998044967642,-0.8299989104270931,-0.7176990509033199,0.0,-1.7349870780134327,-0.35005003249226796,-0.7177036335334656,0.0019754826451137677
1759839282.2864904,1,-1.2049998044967642,-0.8299989104270931,-0.7176990509033199,0.0,-1.7349870163498093,-0.3500501387145447,-0.717703633849739,0.0019789482453080338
1759839282.297659,1,-1.2049998044967642,-0.8299989104270931,-0.7176990509033199,0.0,-1.7349869251353247,-0.35005037762850344,-0.7177036340564282,0.0019831648539864397
1759839282.3086925,1,-1.2049998044967642,-0.8299989104270931,-0.7176990509033199,0.0,-1.734987170058655,-0.35004981303324706,-0.7177036342896284,0.001970924970624308
1759839282.319652,1,-1.2049998044967642,-0.8299989104270931,-0.7176990509033199,0.0,-1.7349871263884042,-0.35004981036323746,-0.7177036345102971,0.001974098605330249
1759839282.3303654,1,-1.2049998044967642,-0.8299989104270931,-0.7176990509033199,0.0,-1.7349870553834508,-0.35004995084943946,-0.717703634748409,0.0019779187458258242
1759839282.3414881,1,-1.2049998044967642,-0.8299989104270931,-0.7176990509033199,0.0,-1.7349870553834517,-0.3500499508494405,-0.717703634913309,0.0019779187458258242
1759839282.3523371,1,-1.2049998044967642,-0.8299989104270931,-0.7176990509033199,0.0,-1.7349868330453115,-0.35005060289968754,-0.7177036351248898,0.0019874683929297756
1759839282.3629844,1,-1.2049998044967642,-0.8299989104270931,-0.7176990509033199,0.0,-1.7349868786443343,-0.3500504796872762,-0.7177036353401204,0.0019856794403529257
1759839282.3738256,1,-1.2049998044967642,-0.8299989104270931,-0.7176990509033199,0.0,-1.7349868793794145,-0.3500504800027443,-0.717703635519052,0.001985673602269422
1759839282.3851917,1,-1.2049998044967642,-0.8299989104270931,-0.7176990509033199,0.0,-1.7349868424540953,-0.35005060115359743,-0.71770363563891,0.0019871285728855492
1759839282.3955455,1,-1.2049998044967642,-0.8299989104270931,-0.7176990509033199,0.0,-1.7349868424540966,-0.35005060115359876,-0.7177036358490779,0.0019871285728855492
1759839282.4069424,1,-1.2049998044967642,-0.8299989104270931,-0.7176990509033199,0.0,-1.7349866740246074,-0.35005117777194145,-0.7177036359665226,0.0019933876194868604
1759839282.4178274,1,-1.2049998044967642,-0.8299989104270931,-0.7176990509033199,0.0,-1.7349867389167237,-0.35005101445379316,-0.7177036361267664,0.00199055444134284
1759839282.428481,1,-1.2049998044967642,-0.8299989104270931,-0.7176990509033199,0.0,-1.734986756842746,-0.35005097244625183,-0.717703636300697,0.001989701188752082
1759839282.4393604,1,-1.2049998044967642,-0.8299989104270931,-0.7176990509033199,0.0,-1.7349867390396578,-0.35005103777107555,-0.7177036364431396,0.0019903130436151927
1759839282.4500866,1,-1.2049998044967642,-0.8299989104270931,-0.7176990509033199,0.0,-1.7349867390396585,-0.35005103777107643,-0.7177036365819566,0.0019903130436151927
1759839282.4604316,1,-1.2049998044967642,-0.8299989104270931,-0.7176990509033199,0.0,-1.734986684982714,-0.350051221943498,-0.7177036367494005,0.0019923069643112065
1759839282.4743526,1,-1.204995860117503,-0.8300023538904696,-0.7176697696436467,0.0005235987755982988,-1.734986675864063,-0.3500513099613424,-0.7177036366553174,0.0019921821550741856
1759839282.4859276,1,-1.2049919649328305,-0.8300107420623939,-0.7176454033510237,0.000946134832241078,-1.7349867049928294,-0.35005122525673066,-0.7177036367795132,0.0019909720429589946
1759839282.4962702,1,-1.204988097219831,-0.8300221782994922,-0.7176233499580119,0.0012943079349733455,-1.7349866921043635,-0.3500512664050916,-0.7177036369950841,0.0019914531814649657
1759839282.5066562,1,-1.2049846833336306,-0.8300348766775912,-0.7173092656895199,0.006800232207173363,-1.7349866921043646,-0.35005126640509276,-0.7177036371728571,0.0019914531814649657
1759839282.5178385,1,-1.204970514328888,-0.8301075930627996,-0.7170258438275897,0.011739768219118946,-1.734986560587869,-0.35005170594936313,-0.7177036372848455,0.001996352491767032
1759839282.5286396,1,-1.2049523548711232,-0.830218976412832,-0.7168006810069709,0.015716353770006637,-1.7349866503339613,-0.3500514496714295,-0.7177036374092611,0.001992653930860212
1759839282.5394297,1,-1.2049302948310125,-0.8303539054274545,-0.7166102768534462,0.019042064802201848,-1.7349866877524645,-0.350051329425094,-0.7177036375275555,0.001991171123850951
1759839282.54954,1,-1.204906753002293,-0.8305008350050177,-0.7164554582031126,0.021792021252455333,-1.7349866859909768,-0.3500513270173623,-0.7177036376747374,0.0019912970542100387
1759839282.560375,1,-1.2048856506324062,-0.8306440128802751,-0.7162850575592303,0.023878238367542604,-1.7349866859909773,-0.3500513270173628,-0.7177036377575177,0.0019912970542100387
1759839282.5711823,1,-1.2048640010297815,-0.8307860737743933,-0.716140334941647,0.02564880150120814,-1.7349865841608458,-0.3500516532523715,-0.7177036378500634,0.0019952229779535953
1759839282.5817945,1,-1.2048435666483674,-0.8309208887334931,-0.716022054512766,0.02711286109401413,-1.73498686017847,-0.3500512153826757,-0.7177036379446996,0.0019793504483421763
1759839282.5930202,1,-1.2048233426869515,-0.8310507228413503,-0.7159218943212617,0.02837844292953121,-1.7349868794507646,-0.3500509813553626,-0.7177036380049926,0.0019802825294864216
1759839282.6044352,1,-1.2046150274971894,-0.8313561337705575,-0.7157347055439882,0.031220556894457862,-1.734986860968996,-0.350050919678655,-0.7177036380602546,0.001982325150800068
1759839282.6157906,1,-1.204064094296384,-0.8319730006706901,-0.7151386630248964,0.0352482561740312,-1.7349868065863816,-0.3500510085798063,-0.7177036381249815,0.002147846049773215
1759839282.6271377,1,-1.203594705145402,-0.8325325556653956,-0.7146066330027965,0.03852448276125912,-1.7349867231690919,-0.35005122515779225,-0.7177036381939871,0.0021516833211103425
1759839282.6371849,1,-1.2032064169469552,-0.8330244784756626,-0.7141386876647351,0.041182064366072586,-1.7349868637731256,-0.35005089909176107,-0.7177036383201094,0.0021530065977021715
1759839282.6473143,1,-1.2028827760220102,-0.8334586746952252,-0.7137301366370847,0.043394284969961665,-1.7349867075631213,-0.3500509654388758,-0.7177036384259782,0.002170808501291941
1759839282.6575422,1,-1.2026084680199112,-0.8338468830262787,-0.7133675763552406,0.045276509506311395,-1.7349865204547226,-0.350051330908967,-0.7177036385133588,0.00218661171383162
1759839282.6690946,1,-1.2023793373264309,-0.8341708263876003,-0.7130788596909299,0.04662041302969588,-1.7349865204547228,-0.3500513309089672,-0.7177036385349704,0.00218661171383162
1759839282.6843772,1,-1.2021869323070968,-0.8344584652934421,-0.7128104309177671,0.04780356180345032,-1.734986068391645,-0.3500526837537591,-0.7177036384389134,0.0022143651175623317
1759839282.6947472,1,-1.2020306014561444,-0.8347056849701262,-0.7125861036797326,0.048801697980234045,-1.7349862185954554,-0.3500527816629073,-0.7177036385634195,0.002205408887607098
1759839282.7059612,1,-1.2018984511398745,-0.8349261388872804,-0.7123927366016246,0.04968471463830779,-1.7349860957545473,-0.3500530855829623,-0.7177036386497705,0.002213796510898357
1759839282.7173274,1,-1.2018006129261676,-0.8350696439031638,-0.7123132433436361,0.049665247879662144,-1.734985950858386,-0.35005353978205034,-0.7177036387211282,0.0022219275241076183
1759839282.7286055,1,-1.2017120043984653,-0.8352163689584594,-0.7122190380249924,0.050235132567220786,-1.734985784961995,-0.3500541138768987,-0.7177036387893035,0.0022299738720471763
1759839282.7396264,1,-1.2016367194958395,-0.8353493271752086,-0.712132138906111,0.05075659419629232,-1.734985823597019,-0.3500546780033489,-0.7177036388652436,0.002223761266287914
1759839282.7505958,1,-1.2015734655666273,-0.8354689677864308,-0.7120603287185057,0.051238353655994245,-1.7349857717033033,-0.35005474775768775,-0.7177036389328637,0.00222780717014007
1759839282.7620041,1,-1.2015194536496454,-0.8355783820955475,-0.7119997508449145,0.05169217409024451,-1.7349856867057045,-0.35005497768435784,-0.7177036389820015,0.0022325239105836095
1759839282.772779,1,-1.2014737151600725,-0.8356778983712861,-0.711947876481114,0.052116926230454254,-1.734985686705705,-0.3500549776843583,-0.7177036390440863,0.0022325239105836095
1759839282.78416,1,-1.2014410155699586,-0.8357386354524947,-0.7119045806858463,0.05223245945227654,-1.7349855704264112,-0.35005534350510803,-0.7177036390878359,0.002237936726682486
1759839282.7942111,1,-1.201412233030809,-0.835796152184192,-0.7118647720035453,0.05238490497498973,-1.7349854252556374,-0.35005583483033603,-0.7177036391642185,0.0022440062555507513
1759839282.8054895,1,-1.2005530521572578,-0.8366074468607722,-0.7109528769763103,0.058110045386507714,-1.734985280810775,-0.3500564472959021,-0.7177036392036392,0.0022493073911738575
1759839282.8156507,1,-1.199543091887791,-0.8375839835462225,-0.709510095479791,0.06284985110872948,-1.734985253713726,-0.3500565962999834,-0.7177036392663688,0.002250081285925513
1759839282.826003,1,-1.197328731170516,-0.8395403885720985,-0.7048307299551152,0.07202713006638203,-1.7349852537137262,-0.3500565962999838,-0.717703639314273,0.002250081285925513
1759839282.8370178,1,-1.1954041534473585,-0.84138602657066,-0.7005980721843511,0.079904365189948,-1.734985190200649,-0.35005685428100347,-0.7177036393451293,0.003589894300339982
1759839282.8481915,1,-1.1937769307707702,-0.8430047276651965,-0.6965775973794812,0.08629253025961435,-1.7349843708586055,-0.35005774538779816,-0.7177036393757348,0.003709824926156251
1759839282.8585062,1,-1.1924195348398565,-0.8444069167131718,-0.6931050651085079,0.09156721224712751,-1.7349829598445046,-0.3500601027120796,-0.7177036394232895,0.003846477788462285
1759839282.868956,1,-1.1913039913002492,-0.8456035639329599,-0.6901686491321533,0.095879387701302,-1.7349815700613158,-0.3500636266156831,-0.7177036394640778,0.003959151109637293
1759839282.8817403,1,-1.1903986757382834,-0.8466143086507574,-0.6878284998948208,0.09938614481597852,-1.7349815700613158,-0.35006362661568297,-0.7177036394534463,0.003959151109637293
1759839282.8934731,1,-1.1896216801877775,-0.8474663718872845,-0.685727548210663,0.10215691557635029,-1.734980219619994,-0.3500678662747757,-0.7177036394764342,0.0040529956279243586
1759839282.9040647,1,-1.1889921320327104,-0.848182229690463,-0.6839892184211451,0.10441136479276406,-1.7349789475547186,-0.35007245121938935,-0.717703639524512,0.004131006284594518
1759839282.9152713,1,-1.1884739048924144,-0.8487945969753513,-0.6825075043936564,0.1062988552373741,-1.7349774044823407,-0.35008046445633295,-0.7177036395584258,0.004209980215187274
1759839282.9256392,1,-1.1880342588962038,-0.8493316892900582,-0.6812593927099443,0.10791173935886808,-1.7349765791524958,-0.3500839161224951,-0.7177036396034767,0.004252394516632356
1759839282.936313,1,-1.1877086414918443,-0.8496458856190497,-0.6802556861951853,0.10850854484612035,-1.7349765791524963,-0.3500839161224955,-0.717703639636476,0.004252394516632356
1759839282.9464798,1,-1.187400582451815,-0.8500216839928127,-0.6793779488034585,0.10959184944114506,-1.73497498172767,-0.35009088821922235,-0.7177036396773682,0.004323363747593603
1759839282.9575844,1,-1.1871445579986464,-0.8503480624262799,-0.6786587035248302,0.11051812267605912,-1.734974232509588,-0.3500942497628373,-0.7177036396974583,0.004353183559509698
1759839282.968918,1,-1.186934461875169,-0.8506307038926522,-0.6780854284722516,0.11131777677391969,-1.734973859705549,-0.3500964648402532,-0.7177036397145379,0.004366199765051323
1759839282.9807532,1,-1.1867508825690962,-0.8508891914003698,-0.6776002455461012,0.11204188758458802,-1.7349734278654625,-0.3500987288187961,-0.7177036397268832,0.004380762289244067
1759839282.9908614,1,-1.18664634786539,-0.8509555501630514,-0.6772289698026627,0.11188169693965795,-1.734973427865463,-0.3500987288187966,-0.7177036397647073,0.004380762289244067
1759839283.001262,1,-1.1865228743489018,-0.8511213230912007,-0.6768982944335513,0.11234632911834443,-1.734972518972821,-0.35010316312926826,-0.7177036397972353,0.004410718178155757
1759839283.0127654,1,-1.1853666392814128,-0.8520956464841336,-0.6752636668153749,0.11551827262833511,-1.7349720332863925,-0.35010539136002333,-0.7177036398102583,0.004426583203973347
1759839283.0233722,1,-1.184420797646091,-0.8529257518930832,-0.67394306260248,0.11813154549550924,-1.7349720332863927,-0.35010539136002367,-0.717703639834642,0.004426583203973347
1759839283.0337632,1,-1.1832543468782704,-0.853927587968185,-0.6717809878771647,0.1203098495349435,-1.7349719314684642,-0.35010640193716236,-0.7177036398620478,0.004426825054076497
1759839283.044677,1,-1.1803864787474097,-0.8560846688776523,-0.663772164331373,0.12433157650242546,-1.734971767486632,-0.350107471229745,-0.7177036398804192,0.004430126165777305
1759839283.055347,1,-1.1779696121928107,-0.8580085328492717,-0.6568437910937359,0.1281155693464442,-1.734971555439801,-0.3501086026500121,-0.7177036399009166,0.006116704506543486
1759839283.0658898,1,-1.175987858726704,-0.8596060228502239,-0.6509124883557387,0.1311950867024498,-1.7349712911195896,-0.3501098504918351,-0.7177036399218635,0.00612457106355529
1759839283.0774329,1,-1.17432337882758,-0.8609619502381349,-0.6455533873011619,0.13378199629310913,-1.7349692739073868,-0.3501129396443191,-0.717703639932326,0.006330840931924665
1759839283.0913897,1,-1.172952044962723,-0.8620973363046234,-0.6410829183013833,0.13594588863310678,-1.7349675598522198,-0.35011669895671094,-0.7177036399196093,0.006491657096500517
1759839283.1013958,1,-1.1718333323883037,-0.8630377227088085,-0.6375032771506478,0.13773483851724672,-1.7349675598522205,-0.35011669895671155,-0.7177036399532208,0.006491657096500517
1759839283.1128452,1,-1.1708781437440736,-0.8637871427657187,-0.6343066348543964,0.13901428291133242,-1.7349658257995064,-0.3501217750725422,-0.7177036399710861,0.00662655634639645
1759839283.1246655,1,-1.1700931941494577,-0.8644165031224315,-0.6316656218859694,0.14011427480981406,-1.7349641189881533,-0.35012762497996724,-0.7177036399839201,0.006740341786466028
1759839283.1370156,1,-1.1694420073843985,-0.8649523633171433,-0.6294522948196241,0.14107436244208016,-1.7349621720224813,-0.35013796179954604,-0.7177036399941652,0.0068504218521673816
1759839283.1508012,1,-1.1688828031494245,-0.8654270389236087,-0.6275780610290131,0.14194923417528577,-1.7349599379648195,-0.3501471346519593,-0.7177036399951232,0.006968206809476317
1759839283.1617062,1,-1.1684907186532913,-0.8656243652398983,-0.6260151019869854,0.14187602751053355,-1.73495993796482,-0.3501471346519599,-0.7177036400223223,0.006968206809476317
1759839283.173635,1,-1.1681155237460656,-0.8659209745988732,-0.6247374664782751,0.1424058064736346,-1.7349588566697356,-0.3501518251815231,-0.7177036400396468,0.007017145323785874
1759839283.1852539,1,-1.1678002436686319,-0.866183326723676,-0.6236992795943789,0.14289898140717117,-1.7349577676324899,-0.35015657316775467,-0.717703640057631,0.007062266761005106
1759839283.1963022,1,-1.167532990409144,-0.8664165862899629,-0.6228546121815487,0.14335263617873756,-1.7349570114473412,-0.35016321068471845,-0.7177036400790546,0.007070647170475323
1759839283.208709,1,-1.1672991828718515,-0.8666336563210659,-0.6221509924312159,0.1437947386964104,-1.7349564860887423,-0.3501654620057731,-0.7177036400884196,0.007093785454820884
1759839283.2187748,1,-1.1650193542345058,-0.8681394061112852,-0.6151788804972937,0.14510544451791896,-1.7349564860887428,-0.35016546200577364,-0.7177036401127249,0.008528057277368854
1759839283.2301257,1,-1.1615831014702618,-0.8704228755758618,-0.606914594911118,0.14726668161587778,-1.7349552693032602,-0.3501706405691967,-0.7177036401268568,0.00857559996505831
1759839283.241102,1,-1.1586325596980667,-0.8723824596329208,-0.5994001512312892,0.1490548674741754,-1.734954383561905,-0.3501736393370023,-0.7177036401410644,0.008614306157252102
1759839283.2519083,1,-1.156191212632014,-0.8740025490291788,-0.5927818564028908,0.15053780741732153,-1.7349537220280968,-0.3501752058494771,-0.7177036401551177,0.008724399927399115
1759839283.26283,1,-1.1541237224163714,-0.875373683105489,-0.5868651508938291,0.15182159697156042,-1.7349520020297704,-0.3501789171938932,-0.7177036401672137,0.008876919808723764
1759839283.2734997,1,-1.1523897270822283,-0.8764606225304915,-0.5817858203906398,0.1526550263839681,-1.7349520020297706,-0.3501789171938935,-0.717703640178854,0.008876919808723764
1759839283.284146,1,-1.150933942071052,-0.8773733370973301,-0.5770507328844605,0.1534008570570805,-1.734948505174968,-0.35018991387904,-0.7177036401910653,0.009116707317415748
1759839283.2998862,1,-1.149738817529714,-0.8781298162415497,-0.573084575441979,0.1540858003308403,-1.734946787264088,-0.35019635120263315,-0.7177036401756149,0.009212252715294154
1759839283.3065915,1,-1.1487669782143195,-0.8787439765982407,-0.5697980716860395,0.15467167807574544,-1.734946758609052,-0.3501999571503554,-0.7177036402116652,0.009206569685638037
1759839283.318146,1,-1.1479433963015682,-0.8792702913918067,-0.5669983014217663,0.15521902293500475,-1.7349456045622746,-0.35020425227759017,-0.7177036402178122,0.009269989110881515
1759839283.3294294,1,-1.1472796932984166,-0.8796371357839595,-0.5646814707198059,0.15542363083709326,-1.7349456045622749,-0.35020425227759033,-0.7177036402236028,0.009269989110881515
1759839283.3395169,1,-1.1467211199016243,-0.8799527704358477,-0.5626880702357729,0.15565294142836666,-1.7349432300502226,-0.35021382276374097,-0.717703640236437,0.009380573128817515
1759839283.3506546,1,-1.1462552076745043,-0.8802242701326206,-0.5610574367776692,0.15589935406555858,-1.7349420246501177,-0.3502188567156414,-0.7177036402425616,0.009430023241453752
1759839283.36179,1,-1.1458690094604167,-0.8804587839907874,-0.559742793395663,0.1561585221397928,-1.7349416535518642,-0.35022138464410685,-0.7177036402486568,0.009443361186889149
1759839283.372987,1,-1.1455424682182362,-0.8806671693816227,-0.5586724170831441,0.1564317380428516,-1.734941136355694,-0.35022416379412574,-0.7177036402547232,0.009461573290081383
1759839283.3837202,1,-1.1453068049779618,-0.8807665444159594,-0.5578138120965279,0.15612237799871,-1.7349411363556941,-0.35022416379412596,-0.7177036402622564,0.009461573290081383
1759839283.393877,1,-1.1451075483345188,-0.8808592569248127,-0.5571271988579404,0.15590783711338424,-1.734940520815166,-0.35022713367748837,-0.7177036402719541,0.0094828826390632
1759839283.4054224,1,-1.1449276640403614,-0.8809549826991839,-0.5565558771528553,0.15582795319874934,-1.7349390397470972,-0.350233717273423,-0.717703640275848,0.009533202709978471
1759839283.4157572,1,-1.1447712979296853,-0.8810485022760687,-0.5560971850453897,0.1558206863799604,-1.7349399642141283,-0.3502337457037664,-0.7177036402840375,0.009468354909774362
1759839283.4262094,1,-1.1432637945410047,-0.8819291085519458,-0.5539710401983866,0.15708331495471212,-1.7349397056872067,-0.35023449433030207,-0.7177036402912294,0.00948227171450817
1759839283.4371617,1,-1.1396374586728735,-0.883951233041851,-0.5450414080362513,0.15924161470425355,-1.7349397056872067,-0.3502344943303022,-0.7177036402956306,0.009655416949432036
1759839283.4482226,1,-1.1360070948527914,-0.8859717515442471,-0.5355623470074936,0.16103547819130892,-1.734938826982761,-0.3502375463756658,-0.7177036403005133,0.009693148616110642
1759839283.459656,1,-1.1329768794522006,-0.8876482238231302,-0.5272396749785673,0.16240798736719805,-1.734938194319626,-0.3502397688837907,-0.7177036403039659,0.009718254532997274
1759839283.4708421,1,-1.1304629131018131,-0.8890297438162722,-0.5199824834746581,0.16364294539892602,-1.7349390665411686,-0.3502390425803552,-0.7177036403087058,0.009671382457093184
1759839283.4819372,1,-1.1283849352237538,-0.8901652115861737,-0.5137368142441516,0.16473451499606515,-1.734938741611846,-0.35023932214806563,-0.717703640313798,0.009700722568912816
1759839283.4925544,1,-1.1266526798690326,-0.8910471262219255,-0.5084000369939462,0.16568371811662536,-1.7349387416118462,-0.35023932214806586,-0.7177036403197883,0.009700722568912816
1759839283.5055497,1,-1.1252007588545665,-0.8917873405414122,-0.5035820191336836,0.16649973874057572,-1.7349376830756795,-0.350242191596249,-0.7177036403195249,0.009762011134393997
1759839283.5159843,1,-1.12400178287858,-0.8923979033671514,-0.4995560821938345,0.1672149090379847,-1.7349369718118532,-0.3502445554425854,-0.717703640326941,0.009794544905580252
1759839283.526339,1,-1.1230266066493266,-0.8928960591661952,-0.49627130562066857,0.16781880056890894,-1.7349380421694915,-0.3502435412653313,-0.7177036403339945,0.009730194154310538
1759839283.5364554,1,-1.122196918023051,-0.8933227012292403,-0.4934893492566432,0.16834926781881393,-1.7349378566346159,-0.35024349370461816,-0.7177036403405996,0.009747179916833163
