timestamp,observer_vehicle_id,vehicle_0_x,vehicle_0_y,vehicle_0_theta,vehicle_0_velocity,vehicle_1_x,vehicle_1_y,vehicle_1_theta,vehicle_1_velocity
1759839279.1578715,0,-1.205,-0.83,-0.7801621756414646,0.0,0.0,0.0,0.0,0.0
1759839279.1679442,0,-1.205,-0.83,-0.7801621756414646,0.0,0.0,0.0,0.0,0.0
1759839279.1790483,0,-1.205,-0.83,-0.7801621756414646,0.0,0.0,0.0,0.0,0.0
1759839279.1896808,0,-1.205,-0.83,-0.7801621756414646,0.0,0.0,0.0,0.0,0.0
1759839279.1997175,0,-1.205,-0.83,-0.7801621756414646,0.0,0.0,0.0,0.0,0.0
1759839279.2105234,0,-1.205,-0.83,-0.7801621756414646,0.0,0.0,0.0,0.0,0.0
1759839279.2215858,0,-1.205,-0.83,-0.7801621756414646,0.0,0.0,0.0,0.0,0.0
1759839279.2330341,0,-1.205,-0.83,-0.7801621756414646,0.0,0.0,0.0,0.0,0.0
1759839279.243381,0,-1.205,-0.83,-0.7801621756414646,0.0,0.0,0.0,0.0,0.0
1759839279.253768,0,-1.205,-0.83,-0.7801621756414646,0.0,0.0,0.0,0.0,0.0
1759839279.2643173,0,-1.205,-0.83,-0.7801621756414646,0.0,0.0,0.0,0.0,0.0
1759839279.2755365,0,-1.205,-0.83,-0.7801621756414646,0.0,0.0,0.0,0.0,0.0
1759839279.28699,0,-1.205,-0.83,-0.7801621756414646,0.0,0.0,0.0,0.0,0.0
1759839279.2979305,0,-1.205,-0.83,-0.7801621756414646,0.0,0.0,0.0,0.0,0.0
1759839279.3094416,0,-1.205,-0.83,-0.7801621756414646,0.0,0.0,0.0,0.0,0.0
1759839279.3208964,0,-1.205,-0.83,-0.7801621756414646,0.0,0.0,0.0,0.0,0.0
1759839279.3318021,0,-1.205,-0.83,-0.7801621756414646,0.0,0.0,0.0,0.0,0.0
1759839279.3420835,0,-1.205,-0.83,-0.7801621756414646,0.0,0.0,0.0,0.0,0.0
1759839279.3536162,0,-1.2049998061259588,-0.8299989195068678,-0.7229957016367123,0.0,0.0,0.0,0.0,0.0
1759839279.3649907,0,-1.2049998050413424,-0.8299989134621155,-0.7181101292370737,0.0,0.0,0.0,0.0,0.0
1759839279.3759172,0,-1.2049998047010528,-0.8299989115656232,-0.7176516001604973,0.0,0.0,0.0,0.0,0.0
1759839279.3876948,0,-1.2049998045745929,-0.8299989108608407,-0.7175897269798259,0.0,0.0,0.0,0.0,0.0
1759839279.3984923,0,-1.2049998045264814,-0.8299989105927073,-0.7175863321678743,0.0,0.0,0.0,0.0,0.0
1759839279.4089155,0,-1.2049998045081152,-0.8299989104903488,-0.7175957796122034,0.0,0.0,0.0,0.0,0.0
1759839279.419729,0,-1.2049998045011003,-0.8299989104512547,-0.7176067668080535,0.0,0.0,0.0,0.0,0.0
1759839279.4307053,0,-1.204999804498421,-0.8299989104363222,-0.7176176429114474,0.0,0.0,0.0,0.0,0.0
1759839279.4421864,0,-1.2049998044973975,-0.8299989104306186,-0.7176270397604263,0.0,0.0,0.0,0.0,0.0
1759839279.4537475,0,-1.2049998044970067,-0.82999891042844,-0.7176355273692909,0.0,0.0,0.0,0.0,0.0
1759839279.4646418,0,-1.2049998044968575,-0.8299989104276078,-0.717643594554918,0.0,0.0,0.0,0.0,0.0
1759839279.475694,0,-1.2049998044968004,-0.8299989104272899,-0.7176500177484506,0.0,-0.34425870013237003,-0.06944700002670288,1.7425489926531335,0.0
1759839279.4870927,0,-1.2049998044967787,-0.8299989104271686,-0.7176550454140376,0.0,-0.6170390347233876,-0.1244747332295018,-3.1382351131933808,0.0
1759839279.4983377,0,-1.2049998044967702,-0.8299989104271221,-0.7176594632253206,0.0,-0.8338018716203779,-0.168202106666935,-0.7839595210371797,0.0
1759839279.5093198,0,-1.2049998044967671,-0.8299989104271045,-0.7176633944034769,0.0,-1.0065568953019721,-0.2030518232597638,1.1136971325792706,0.0
1759839279.5207613,0,-1.2049998044967658,-0.8299989104270977,-0.7176664186910813,0.0,-1.1527487203611533,-0.23254296952530465,-1.7975048134457496,0.0
1759839279.5312161,0,-1.2049998044967654,-0.8299989104270952,-0.7176696085935035,0.0,-1.26838371699559,-0.2558699140913293,0.30189924933421985,0.0
1759839279.5423944,0,-1.2049998044967651,-0.8299989104270942,-0.7176718657278514,0.0,-1.360010433480982,-0.27435368975120666,1.9866415273308464,0.0
1759839279.5538728,0,-1.2049998044967651,-0.8299989104270937,-0.7176736943640023,0.0,-1.432784088497928,-0.28903425416384704,-2.9364161891006084,0.0
1759839279.5639746,0,-1.2049998044967651,-0.8299989104270936,-0.7176759887743636,0.0,-1.4908240862866895,-0.30074261106647904,-0.6253608701977844,0.0
1759839279.57539,0,-1.2049998044967651,-0.8299989104270935,-0.7176773327224844,0.0,-1.5397520770951576,-0.3106128109413861,3.109329725298203,0.0
1759839279.5864775,0,-1.2049998044967651,-0.8299989104270935,-0.7176786979680969,0.0,-1.578442913802186,-0.3184178788649942,-2.047274728011196,0.0
1759839279.5977361,0,-1.2049998044967651,-0.8299989104270935,-0.7176798837362277,0.0,-1.6091141507912523,-0.32460516010198165,0.09815846475948423,0.0
1759839279.60895,0,-1.2049998044967651,-0.8299989104270935,-0.7176809973698396,0.0,-1.6334942274308601,-0.3295233311820178,1.825107724193025,0.0
1759839279.6203387,0,-1.2049998044967651,-0.8299989104270935,-0.7176819671260333,0.0,-1.6529214549342583,-0.333442368430542,-3.059791450781397,0.0
1759839279.6315367,0,-1.2049998044967651,-0.8299989104270935,-0.7176829380979104,0.0,-1.6693537585018825,-0.3367572423490829,1.1701186798803378,0.0
1759839279.6429102,0,-1.2049998044967651,-0.8299989104270935,-0.7176837787652222,0.0,-1.6823469533232425,-0.33937834793264254,2.681422523471338,0.0
1759839279.654329,0,-1.2049998044967651,-0.8299989104270935,-0.7176845517623622,0.0,-1.692648190775283,-0.3414564073610081,-2.381824694030487,0.0
1759839279.6657019,0,-1.2049998044967651,-0.8299989104270935,-0.7176852927627166,0.0,-1.700837724132879,-0.34310847460893806,-0.17507927508112764,0.0
1759839279.6763365,0,-1.2049998044967651,-0.8299989104270935,-0.7176861735052534,0.0,-1.7073709935422356,-0.3444264252102492,1.6061037811058034,0.0
1759839279.687666,0,-1.2049998044967651,-0.8299989104270935,-0.7176867703907065,0.0,-1.7128984402904721,-0.3455414561079053,1.1412001304200607,0.0
1759839279.6979053,0,-1.2049998044967651,-0.8299989104270935,-0.7176875780195502,0.0,-1.7172747988114394,-0.34642428233715056,0.7731124498365172,0.0
1759839279.7092478,0,-1.2049998044967651,-0.8299989104270935,-0.7176880245541923,0.0,-1.7207443709140697,-0.3471241859766226,0.4812929515582265,0.0
1759839279.7201986,0,-1.2049998044967651,-0.8299989104270935,-0.7176885348086195,0.0,-1.7235035706889505,-0.3476807888969094,0.24922159804899902,0.0
1759839279.7314572,0,-1.2049998044967651,-0.8299989104270935,-0.7176889512208149,0.0,-1.72570282830513,-0.3481244368062679,0.0642459770922807,0.0
1759839279.7415845,0,-1.2049998044967651,-0.8299989104270935,-0.7176895769145961,0.0,-1.727565229689977,-0.3485001319839021,-0.0923972692915636,0.0
1759839279.757946,0,-1.2049998044967651,-0.8299989104270935,-0.7176889624445941,0.0,-1.7290302194200744,-0.34879565881359587,-0.21561493284601946,0.0
1759839279.7688246,0,-1.2049998044967651,-0.8299989104270935,-0.7176896392380563,0.0,-1.7301935424408748,-0.34903033156056734,-0.3134599495292458,0.0
1759839279.7798564,0,-1.2049998044967651,-0.8299989104270935,-0.717690253282095,0.0,-1.7311195574316083,-0.349217133057423,-0.3913454126355324,0.0
1759839279.7914057,0,-1.2049998044967651,-0.8299989104270935,-0.7176906875010012,0.0,-1.731900690556695,-0.3493747080842529,-0.45704512139168985,0.0
1759839279.8022063,0,-1.2049998044967651,-0.8299989104270935,-0.7176911906454428,0.0,-1.7325178780982242,-0.3494992109894457,-0.5089556606124059,0.0
1759839279.8132176,0,-1.2049998044967651,-0.8299989104270935,-0.7176915937195307,0.0,-1.7330066859901894,-0.34959781635416187,-0.5500684173352381,0.0
1759839279.8235123,0,-1.2049998044967651,-0.8299989104270935,-0.7176920494391048,0.0,-1.7333951198947175,-0.3496761736545527,-0.582738897665583,0.0
1759839279.834032,0,-1.2049998044967651,-0.8299989104270935,-0.7176924049266943,0.0,-1.7337044756820905,-0.3497385788258734,-0.6087582591286922,0.0
1759839279.845058,0,-1.2049998044967651,-0.8299989104270935,-0.717692644273134,0.0,-1.7339648347587147,-0.3497911000763067,-0.6306565949652777,0.0
1759839279.8559995,0,-1.2049998044967651,-0.8299989104270935,-0.7176928818453607,0.0,-1.7341705961472906,-0.3498326075419155,-0.6479628170016267,0.0
1759839279.866693,0,-1.2049998044967651,-0.8299989104270935,-0.7176931409607281,0.0,-1.7343336757962171,-0.34986550498183927,-0.6616791543254741,0.0
1759839279.8774905,0,-1.2049998044967651,-0.8299989104270935,-0.7176933685496554,0.0,-1.734463243169628,-0.349891642117349,-0.6725768341498485,0.0
1759839279.887817,0,-1.2049998044967651,-0.8299989104270935,-0.7176936360674944,0.0,-1.7345664994788121,-0.3499124716215238,-0.6812615374644975,0.0
1759839279.898421,0,-1.2049998044967651,-0.8299989104270935,-0.71769384429928,0.0,-1.7346489650931582,-0.3499291070975724,-0.6881975726561267,0.0
1759839279.9094813,0,-1.2049998044967651,-0.8299989104270935,-0.71769398726817,0.0,-1.7347191983791288,-0.34994327499234695,-0.6941047686065596,0.0
1759839279.91986,0,-1.2049998044967651,-0.8299989104270935,-0.7176942052819442,0.0,-1.7347747883677282,-0.3499544889502035,-0.6987803430297231,0.0
1759839279.9310875,0,-1.2049998044967651,-0.8299989104270935,-0.717694321733255,0.0,-1.734818859262594,-0.34996337920490894,-0.7024870671005881,0.0
1759839279.942197,0,-1.2049998044967651,-0.8299989104270935,-0.7176944575066209,0.0,-1.7348538955021138,-0.3499704469328096,-0.705433902484249,0.0
1759839279.9543853,0,-1.2049998044967651,-0.8299989104270935,-0.7176945006063136,0.0,-1.7348817910340453,-0.34997607419281357,-0.7077801457360642,0.0
1759839279.9655485,0,-1.2049998044967651,-0.8299989104270935,-0.7176946694282761,0.0,-1.734905340138908,-0.3499808246645468,-0.7097608187881617,0.0
1759839279.9771018,0,-1.2049998044967651,-0.8299989104270935,-0.7176948057634362,0.0,-1.734923970767838,-0.34998458295075846,-0.7113278076346604,0.0
1759839279.9881873,0,-1.2049998044967651,-0.8299989104270935,-0.7176949828400474,0.0,-1.7349387578106172,-0.34998756588489327,-0.7125715193308483,0.0
1759839279.999553,0,-1.2049998044967651,-0.8299989104270935,-0.7176951273166488,0.0,-1.734950521693971,-0.3499899389685272,-0.7135609584998635,0.0
1759839280.0110211,0,-1.2049998044967651,-0.8299989104270935,-0.717695259197507,0.0,-1.7349604370280178,-0.34999193915131077,-0.7143949194959917,0.0
1759839280.0213332,0,-1.2049998044967651,-0.8299989104270935,-0.7176954749687976,0.0,-1.734968275178601,-0.3499935203117414,-0.7150541723095942,0.0
1759839280.0325513,0,-1.2049998044967651,-0.8299989104270935,-0.7176955980432247,0.0,-1.7349744809255525,-0.34999477217357,-0.7155761265760537,0.0
1759839280.0426943,0,-1.2049998044967651,-0.8299989104270935,-0.7176957871073153,0.0,-1.7349794128056104,-0.3499957670630549,-0.7159909381786117,0.0
1759839280.053033,0,-1.2049998044967651,-0.8299989104270935,-0.717695938399121,0.0,-1.7349833409874251,-0.34999655948029457,-0.7163213305187566,0.0
1759839280.063763,0,-1.2049998044967651,-0.8299989104270935,-0.7176960446334366,0.0,-1.7349864761266824,-0.3499971919200628,-0.7165850214691174,0.0
1759839280.0738575,0,-1.2049998044967651,-0.8299989104270935,-0.717696184003259,0.0,-1.734989132174629,-0.34999772771455545,-0.7168084169070009,0.0
1759839280.0846438,0,-1.2049998044967651,-0.8299989104270935,-0.7176962663626156,0.0,-1.7349912348314018,-0.34999815187554256,-0.7169852676039602,0.0
1759839280.0947645,0,-1.2049998044967651,-0.8299989104270935,-0.7176963856965983,0.0,-1.734992904821839,-0.34999848875638845,-0.7171257275099899,0.0
1759839280.1061165,0,-1.2049998044967651,-0.8299989104270935,-0.7176964248364506,0.0,-1.7349942326871217,-0.34999875662162266,-0.7172374118817424,0.0
1759839280.117493,0,-1.2049998044967651,-0.8299989104270935,-0.7176964729497008,0.0,-1.7349952913239388,-0.3499989701764183,-0.7173264519292476,0.0
1759839280.1286716,0,-1.2049998044967651,-0.8299989104270935,-0.7176965437402103,0.0,-1.7349961854920277,-0.3499991505535603,-0.7174016588064663,0.0
1759839280.1393182,0,-1.2049998044967651,-0.8299989104270935,-0.7176966463035122,0.0,-1.73499689372862,-0.34999929342344566,-0.7174612273183371,0.0
1759839280.1502764,0,-1.2049998044967651,-0.8299989104270935,-0.7176967269255563,0.0,-1.7349974559427255,-0.3499994068367678,-0.7175085141402637,0.0
1759839280.1604009,0,-1.2049998044967651,-0.8299989104270935,-0.7176968437572349,0.0,-1.734997903789743,-0.34999949717925044,-0.7175461817511581,0.0
1759839280.1705632,0,-1.2049998044967651,-0.8299989104270935,-0.7176969448669368,0.0,-1.7349982613784125,-0.3499995693142584,-0.7175762578940053,0.0
1759839280.1810894,0,-1.2049998044967651,-0.8299989104270935,-0.7176970168406953,0.0,-1.734998564189621,-0.3499996303992166,-0.7176017268026569,0.0
1759839280.1917295,0,-1.2049998044967651,-0.8299989104270935,-0.7176970791013488,0.0,-1.7349988038781397,-0.34999967875067367,-0.7176218865748654,0.0
1759839280.2032576,0,-1.2049998044967651,-0.8299989104270935,-0.7176971035872377,0.0,-1.7349989939122625,-0.34999971708553756,-0.7176378700047408,0.0
1759839280.2137084,0,-1.2049998044967651,-0.8299989104270935,-0.7176971816123991,0.0,-1.7349991451589897,-0.34999974759596697,-0.7176505910961937,0.0
1759839280.225046,0,-1.2049998044967651,-0.8299989104270935,-0.7176972219435811,0.0,-1.734999265721927,-0.3499997719166717,-0.7176607314290274,0.0
1759839280.236454,0,-1.2049998044967651,-0.8299989104270935,-0.7176972639469703,0.0,-1.7349993675223114,-0.34999979245247764,-0.7176692936771081,0.0
1759839280.2478945,0,-1.2049998044967651,-0.8299989104270935,-0.7176973105779609,0.0,-1.734999448074641,-0.349999808701994,-0.7176760687893365,0.0
1759839280.2584515,0,-1.2049998044967651,-0.8299989104270935,-0.7176973917206269,0.0,-1.7349995120453952,-0.34999982160657195,-0.7176814492549533,0.0
1759839280.2695973,0,-1.2049998044967651,-0.8299989104270935,-0.7176974459797574,0.0,-1.73499956294445,-0.3499998318742455,-0.7176857302833333,0.0
1759839280.2796915,0,-1.2049998044967651,-0.8299989104270935,-0.7176975320073691,0.0,-1.7349996035943918,-0.3499998400744043,-0.7176891492771725,0.0
1759839280.2897396,0,-1.2049998044967651,-0.8299989104270935,-0.71769760845444,0.0,-1.7349996379300232,-0.34999984700080117,-0.7176920371856519,0.0
1759839280.3008027,0,-1.2049998044967651,-0.8299989104270935,-0.7176976430076358,0.0,-1.7349996651177548,-0.3499998524852793,-0.7176943238970936,0.0
1759839280.3112774,0,-1.2049998044967651,-0.8299989104270935,-0.7176976955971774,0.0,-1.7349996867154203,-0.34999985684209456,-0.717696140438066,0.0
1759839280.3212986,0,-1.2049998044967651,-0.8299989104270935,-0.7176977584321415,0.0,-1.7349997039232585,-0.3499998603133666,-0.717697587758536,0.0
1759839280.3317907,0,-1.2049998044967651,-0.8299989104270935,-0.7176978010376125,0.0,-1.734999717659397,-0.3499998630843058,-0.7176987430805578,0.0
1759839280.342512,0,-1.2049998044967651,-0.8299989104270935,-0.7176978348730501,0.0,-1.7349997292921973,-0.3499998654309466,-0.7176997214945668,0.0
1759839280.353349,0,-1.2049998044967651,-0.8299989104270935,-0.7176978663651568,0.0,-1.7349997384999711,-0.34999986728839594,-0.7177004959439294,0.0
1759839280.3659294,0,-1.2049998044967651,-0.8299989104270935,-0.7176978565669926,0.0,-1.7349997457940765,-0.34999986875980815,-0.7177011094380713,0.0
1759839280.3767166,0,-1.2049998044967651,-0.8299989104270935,-0.7176979038762195,0.0,-1.7349997516001814,-0.34999986993105175,-0.7177015977791724,0.0
1759839280.3872225,0,-1.2049998044967651,-0.8299989104270935,-0.717697957437764,0.0,-1.7349997562350137,-0.3499998708660189,-0.7177019876066237,0.0
1759839280.3987389,0,-1.2049998044967651,-0.8299989104270935,-0.7176979828581462,0.0,-1.7349997601447384,-0.3499998716547129,-0.7177023164465742,0.0
1759839280.410116,0,-1.2049998044967651,-0.8299989104270935,-0.7176980130640924,0.0,-1.7349997632407934,-0.3499998722792684,-0.7177025768502179,0.0
1759839280.421572,0,-1.2049998044967651,-0.8299989104270935,-0.7176980434061163,0.0,-1.7349997656989506,-0.3499998727751431,-0.717702783601415,0.0
1759839280.431811,0,-1.2049998044967651,-0.8299989104270935,-0.7176980989795503,0.0,-1.7349997676584137,-0.34999987317041814,-0.717702948408345,0.0
1759839280.442608,0,-1.2049998044967651,-0.8299989104270935,-0.7176981368938886,0.0,-1.7349997693118526,-0.34999987350396006,-0.7177030874761234,0.0
1759839280.452983,0,-1.2049998044967651,-0.8299989104270935,-0.7176981787907923,0.0,-1.7349997706193911,-0.34999987376772485,-0.7177031974508516,0.0
1759839280.4644516,0,-1.2049998044967651,-0.8299989104270935,-0.7176981964955154,0.0,-1.7349997716548118,-0.3499998739765963,-0.7177032845382366,0.0
1759839280.4753633,0,-1.2049998044967651,-0.8299989104270935,-0.7176982258220156,0.0,-1.7349997724774533,-0.34999987414254474,-0.7177033537291491,0.0
1759839280.4868631,0,-1.2049998044967651,-0.8299989104270935,-0.71769824507723,0.0,-1.7349997731323337,-0.34999987427465123,-0.7177034088099625,0.0
1759839280.498197,0,-1.2049998044967651,-0.8299989104270935,-0.7176982689144111,0.0,-1.7349997736841938,-0.3499998743859759,-0.7177034552259356,0.0
1759839280.509686,0,-1.2049998044967651,-0.8299989104270935,-0.7176982913318053,0.0,-1.7349997741204173,-0.34999987447397357,-0.7177034919158981,0.0
1759839280.5209587,0,-1.2049998044967651,-0.8299989104270935,-0.7176983179326193,0.0,-1.7349997744662549,-0.3499998745437381,-0.7177035210036886,0.0
1759839280.531739,0,-1.2049998044967651,-0.8299989104270935,-0.7176983511181466,0.0,-1.7349997747413093,-0.34999987459922377,-0.71770354413801,0.0
1759839280.5427904,0,-1.2049998044967651,-0.8299989104270935,-0.7176983774685528,0.0,-1.7349997749605648,-0.34999987464345333,-0.7177035625791943,0.0
1759839280.5529273,0,-1.2049998044967651,-0.8299989104270935,-0.7176984142446763,0.0,-1.7349997751462227,-0.34999987468090543,-0.7177035781945538,0.0
1759839280.56735,0,-1.2049998044967651,-0.8299989104270935,-0.7176983908952685,0.0,-1.7349997752925206,-0.34999987471041755,-0.7177035904994116,0.0
1759839280.5774608,0,-1.2049998044967651,-0.8299989104270935,-0.7176984336367696,0.0,-1.7349997754087065,-0.3499998747338553,-0.7177036002715982,0.0
1759839280.587593,0,-1.2049998044967651,-0.8299989104270935,-0.7176984722143641,0.0,-1.7349997755011988,-0.34999987475251343,-0.7177036080509602,0.0
1759839280.5980997,0,-1.2049998044967651,-0.8299989104270935,-0.7176984995552864,0.0,-1.7349997755749778,-0.34999987476739663,-0.7177036142563855,0.0
1759839280.6094465,0,-1.2049998044967651,-0.8299989104270935,-0.717698513573179,0.0,-1.734999775637088,-0.3499998747799259,-0.7177036194803846,0.0
1759839280.6204793,0,-1.2049998044967651,-0.8299989104270935,-0.7176985313586215,0.0,-1.734999775686266,-0.3499998747898464,-0.7177036236166615,0.0
1759839280.631501,0,-1.2049998044967651,-0.8299989104270935,-0.7176985491054673,0.0,-1.7349997757253073,-0.349999874797722,-0.7177036269003501,0.0
1759839280.642984,0,-1.2049998044967651,-0.8299989104270935,-0.7176985616867917,0.0,-1.7349997757563675,-0.34999987480398764,-0.7177036295127616,0.0
1759839280.6534107,0,-1.2049998044967651,-0.8299989104270935,-0.7176985853949418,0.0,-1.7349997757825308,-0.3499998748092655,-0.717703631713307,0.0
1759839280.663528,0,-1.2049998044967651,-0.8299989104270935,-0.7176986096451773,0.0,-1.734999775803225,-0.34999987481344,-0.7177036334538511,0.0
1759839280.6739511,0,-1.2049998044967651,-0.8299989104270935,-0.7176986276052872,0.0,-1.7349997758196278,-0.34999987481674893,-0.7177036348334676,0.0
1759839280.6847823,0,-1.2049998044967651,-0.8299989104270935,-0.7176986399502887,0.0,-1.7349997758326563,-0.3499998748193771,-0.7177036359292638,0.0
1759839280.6963742,0,-1.2049998044967651,-0.8299989104270935,-0.7176986456170464,0.0,-1.734999775843023,-0.3499998748214683,-0.7177036368011784,0.0
1759839280.7068214,0,-1.2049998044967651,-0.8299989104270935,-0.7176986627608742,0.0,-1.7349997758517695,-0.3499998748232327,-0.7177036375368362,0.0
1759839280.7169785,0,-1.2049998044967651,-0.8299989104270935,-0.7176986811715267,0.0,-1.7349997758586873,-0.3499998748246282,-0.7177036381186787,0.0
1759839280.7276382,0,-1.2049998044967651,-0.8299989104270935,-0.7176986934126663,0.0,-1.734999775864169,-0.349999874825734,-0.7177036385797527,0.0
1759839280.7390175,0,-1.2049998044967651,-0.8299989104270935,-0.7176986995290484,0.0,-1.734999775868521,-0.34999987482661193,-0.717703638945784,0.0
1759839280.7503462,0,-1.2049998044967651,-0.8299989104270935,-0.7176987073490935,0.0,-1.7349997758719853,-0.3499998748273108,-0.717703639237163,0.0
1759839280.7608304,0,-1.2049998044967651,-0.8299989104270935,-0.7176987221986622,0.0,-1.73499977587491,-0.34999987482790085,-0.717703639483157,0.0
1759839280.7711957,0,-1.2049998044967651,-0.8299989104270935,-0.7176987367317302,0.0,-1.7349997758772229,-0.3499998748283674,-0.7177036396776773,0.0
1759839280.7813468,0,-1.2049998044967651,-0.8299989104270935,-0.7176987510478252,0.0,-1.7349997758790565,-0.3499998748287373,-0.7177036398319105,0.0
1759839280.7920423,0,-1.2049998044967651,-0.8299989104270935,-0.7176987601909737,0.0,-1.7349997758805131,-0.34999987482903117,-0.717703639954429,0.0
1759839280.8029222,0,-1.2049998044967651,-0.8299989104270935,-0.7176987678401368,0.0,-1.7349997758816729,-0.3499998748292651,-0.717703640051983,0.0
1759839280.814521,0,-1.2049998044967651,-0.8299989104270935,-0.7176987715556518,0.0,-1.7349997758826516,-0.3499998748294625,-0.7177036401343005,0.0
1759839280.8253763,0,-1.2049998044967651,-0.8299989104270935,-0.7176987810346578,0.0,-1.7349997758834248,-0.3499998748296185,-0.7177036401993406,0.0
1759839280.8359509,0,-1.2049998044967651,-0.8299989104270935,-0.7176987920755238,0.0,-1.7349997758840376,-0.34999987482974204,-0.7177036402508779,0.0
1759839280.8460307,0,-1.2049998044967651,-0.8299989104270935,-0.7176988048661848,0.0,-1.7349997758845246,-0.3499998748298403,-0.7177036402918393,0.0
1759839280.8576837,0,-1.2049998044967651,-0.8299989104270935,-0.7176988079443518,0.0,-1.734999775884912,-0.34999987482991846,-0.7177036403244204,0.0
1759839280.8690445,0,-1.2049998044967651,-0.8299989104270935,-0.7176988135250291,0.0,-1.7349997758852211,-0.3499998748299808,-0.7177036403504147,0.0
1759839280.8805082,0,-1.2049998044967651,-0.8299989104270935,-0.7176988194823899,0.0,-1.7349997758854827,-0.3499998748300336,-0.7177036403724176,0.0
1759839280.890906,0,-1.2049998044967651,-0.8299989104270935,-0.717698830919236,0.0,-1.73499977588569,-0.34999987483007544,-0.7177036403898572,0.0
1759839280.9013119,0,-1.2049998044967651,-0.8299989104270935,-0.7176988411502697,0.0,-1.7349997758858549,-0.34999987483010864,-0.7177036404037143,0.0
1759839280.9125142,0,-1.2049998044967651,-0.8299989104270935,-0.7176988466843319,0.0,-1.734999775885986,-0.34999987483013506,-0.7177036404147428,0.0
1759839280.9231246,0,-1.2049998044967651,-0.8299989104270935,-0.7176988547527223,0.0,-1.734999775886091,-0.3499998748301562,-0.7177036404235487,0.0
1759839280.9335537,0,-1.2049998044967651,-0.8299989104270935,-0.7176988630585814,0.0,-1.7349997758861795,-0.3499998748301741,-0.7177036404310039,0.0
1759839280.9440532,0,-1.2049998044967651,-0.8299989104270935,-0.7176988702843126,0.0,-1.7349997758862497,-0.3499998748301883,-0.7177036404369108,0.0
1759839280.9547424,0,-1.2049998044967651,-0.8299989104270935,-0.7176988761887132,0.0,-1.7349997758863054,-0.34999987483019956,-0.717703640441602,0.0
1759839280.9692085,0,-1.2049998044967651,-0.8299989104270935,-0.7176988682748657,0.0,-1.7349997758863498,-0.3499998748302085,-0.7177036404453221,0.0
1759839280.980537,0,-1.2049998044967651,-0.8299989104270935,-0.7176988754065547,0.0,-1.734999775886387,-0.34999987483021605,-0.7177036404484574,0.0
1759839280.9915433,0,-1.2049998044967651,-0.8299989104270935,-0.7176988840685414,0.0,-1.7349997758864166,-0.349999874830222,-0.7177036404509368,0.0
1759839281.0018022,0,-1.2049998044967651,-0.8299989104270935,-0.7176988942022202,0.0,-1.7349997758864402,-0.3499998748302267,-0.7177036404529042,0.0
1759839281.0120034,0,-1.2049998044967651,-0.8299989104270935,-0.7176989029114793,0.0,-1.7349997758864586,-0.3499998748302305,-0.7177036404544693,0.0
1759839281.0221422,0,-1.2049998044967651,-0.8299989104270935,-0.7176989103877283,0.0,-1.7349997758864735,-0.3499998748302335,-0.7177036404557176,0.0
1759839281.0335264,0,-1.2049998044967651,-0.8299989104270935,-0.7176989131180243,0.0,-1.734999775886486,-0.34999987483023604,-0.7177036404567712,0.0
1759839281.0436797,0,-1.2049998044967651,-0.8299989104270935,-0.7176989195983463,0.0,-1.7349997758864957,-0.34999987483023803,-0.7177036404576047,0.0
1759839281.05398,0,-1.2049998044967651,-0.8299989104270935,-0.7176989250690582,0.0,-1.7349997758865034,-0.3499998748302396,-0.7177036404582657,0.0
1759839281.0655065,0,-1.2049998044967651,-0.8299989104270935,-0.7176989267020009,0.0,-1.7349997758865099,-0.34999987483024086,-0.7177036404587908,0.0
1759839281.077033,0,-1.2049998044967651,-0.8299989104270935,-0.7176989288958708,0.0,-1.734999775886515,-0.3499998748302418,-0.7177036404592088,0.0
1759839281.087791,0,-1.2049998044967651,-0.8299989104270935,-0.7176989335947219,0.0,-1.734999775886519,-0.3499998748302427,-0.7177036404595624,0.0
1759839281.0990312,0,-1.2049998044967651,-0.8299989104270935,-0.717698936974454,0.0,-1.7349997758865223,-0.34999987483024336,-0.7177036404598417,0.0
1759839281.1093552,0,-1.2049998044967651,-0.8299989104270935,-0.7176989424824783,0.0,-1.734999775886525,-0.3499998748302439,-0.7177036404600633,0.0
1759839281.1198814,0,-1.2049998044967651,-0.8299989104270935,-0.7176989469606969,0.0,-1.7349997758865272,-0.3499998748302443,-0.7177036404602395,0.0
1759839281.130385,0,-1.2049998044967651,-0.8299989104270935,-0.7176989510197486,0.0,-1.734999775886529,-0.34999987483024464,-0.7177036404603797,0.0
1759839281.1416445,0,-1.2049998044967651,-0.8299989104270935,-0.7176989531670195,0.0,-1.7349997758865303,-0.34999987483024486,-0.717703640460498,0.0
1759839281.1526675,0,-1.2049998044967651,-0.8299989104270935,-0.7176989559999836,0.0,-1.7349997758865312,-0.3499998748302451,-0.7177036404605914,0.0
1759839281.1662462,0,-1.2049998044967651,-0.8299989104270935,-0.717698954048851,0.0,-1.734999775886532,-0.3499998748302453,-0.7177036404606653,0.0
1759839281.1767514,0,-1.2049998044967651,-0.8299989104270935,-0.7176989593276861,0.0,-1.734999775886533,-0.3499998748302454,-0.717703640460724,0.0
1759839281.1875057,0,-1.2049998044967651,-0.8299989104270935,-0.7176989638052369,0.0,-1.7349997758865334,-0.3499998748302455,-0.7177036404607708,0.0
1759839281.1988409,0,-1.2049998044967651,-0.8299989104270935,-0.7176989667033915,0.0,-1.7349997758865339,-0.34999987483024564,-0.7177036404608106,0.0
1759839281.209721,0,-1.2049998044967651,-0.8299989104270935,-0.7176989702348067,0.0,-1.7349997758865343,-0.34999987483024575,-0.7177036404608419,0.0
1759839281.2212033,0,-1.2049998044967651,-0.8299989104270935,-0.7176989725397966,0.0,-1.7349997758865348,-0.34999987483024575,-0.7177036404608667,0.0
1759839281.231377,0,-1.2049998044967651,-0.8299989104270935,-0.7176989768951625,0.0,-1.7349997758865348,-0.34999987483024575,-0.7177036404608863,0.0
1759839281.2422936,0,-1.2049998044967651,-0.8299989104270935,-0.7176989795820248,0.0,-1.7349997758865348,-0.34999987483024575,-0.7177036404609021,0.0
1759839281.2526321,0,-1.2049998044967651,-0.8299989104270935,-0.7176989828746141,0.0,-1.7349997758865348,-0.34999987483024575,-0.7177036404609145,0.0
1759839281.2629967,0,-1.2049998044967651,-0.8299989104270935,-0.717698985772028,0.0,-1.7349997758865348,-0.34999987483024575,-0.7177036404609252,0.0
1759839281.2740123,0,-1.2049998044967651,-0.8299989104270935,-0.7176989874664415,0.0,-1.7349997758865348,-0.34999987483024575,-0.7177036404609336,0.0
1759839281.285043,0,-1.2049998044967651,-0.8299989104270935,-0.7176989891691345,0.0,-1.7349997758865348,-0.34999987483024575,-0.7177036404609403,0.0
1759839281.2961166,0,-1.2049998044967651,-0.8299989104270935,-0.7176989908983167,0.0,-1.7349997758865348,-0.34999987483024575,-0.7177036404609456,0.0
1759839281.3062172,0,-1.2049998044967651,-0.8299989104270935,-0.7176989938755938,0.0,-1.7349997758865348,-0.34999987483024575,-0.7177036404609498,0.0
1759839281.317604,0,-1.2049998044967651,-0.8299989104270935,-0.7176989949947039,0.0,-1.7349997758865348,-0.34999987483024575,-0.7177036404609534,0.0
1759839281.328763,0,-1.2049998044967651,-0.8299989104270935,-0.7176989964929738,0.0,-1.7349997758865348,-0.34999987483024575,-0.7177036404609562,0.0
1759839281.3399546,0,-1.2049998044967651,-0.8299989104270935,-0.7176989980589976,0.0,-1.7349997758865348,-0.34999987483024575,-0.7177036404609586,0.0
1759839281.350802,0,-1.2049998044967651,-0.8299989104270935,-0.7176990000422698,0.0,-1.7349997758865348,-0.34999987483024575,-0.7177036404609605,0.0
1759839281.3619394,0,-1.2049998044967651,-0.8299989104270935,-0.7176990016344292,0.0,-1.7349997758865348,-0.34999987483024575,-0.7177036404609619,0.0
1759839281.372861,0,-1.2049998044967651,-0.8299989104270935,-0.7176990034198826,0.0,-1.7349997758865348,-0.34999987483024575,-0.7177036404609631,0.0
1759839281.3835032,0,-1.2049998044967651,-0.8299989104270935,-0.717699005396465,0.0,-1.7349997758865348,-0.34999987483024575,-0.717703640460964,0.0
1759839281.3938859,0,-1.2049998044967651,-0.8299989104270935,-0.7176990074458978,0.0,-1.7349997758865348,-0.34999987483024575,-0.7177036404609648,0.0
1759839281.4044192,0,-1.2049998044967651,-0.8299989104270935,-0.7176990091328204,0.0,-1.7349997758865348,-0.34999987483024575,-0.7177036404609655,0.0
1759839281.4149299,0,-1.2049998044967651,-0.8299989104270935,-0.7176990106879639,0.0,-1.7349997758865348,-0.34999987483024575,-0.7177036404609659,0.0
1759839281.42549,0,-1.2049998044967651,-0.8299989104270935,-0.7176990120879285,0.0,-1.7349997758865348,-0.34999987483024575,-0.7177036404609664,0.0
1759839281.436518,0,-1.2049998044967651,-0.8299989104270935,-0.71769901302976,0.0,-1.7349997758865348,-0.34999987483024575,-0.7177036404609667,0.0
1759839281.4476717,0,-1.2049998044967651,-0.8299989104270935,-0.7176990139281951,0.0,-1.7349997758865348,-0.34999987483024575,-0.7177036404609669,0.0
1759839281.4700396,0,-1.2049998044967651,-0.8299989104270935,-0.7176990067422828,0.0,-1.7349988631911768,-0.3500006716253677,-0.7177036309285756,0.00012115672836558389
1759839281.480096,0,-1.2049998044967651,-0.8299989104270935,-0.717699010977709,0.0,-1.734997064875507,-0.35000339586720347,-0.7177036232989684,0.0015503835611200714
1759839281.491359,0,-1.2049998044967651,-0.8299989104270935,-0.7176990140671222,0.0,-1.7349937421855361,-0.35002083967585307,-0.717703617481816,0.002695082099592014
1759839281.5021906,0,-1.2049998044967651,-0.8299989104270935,-0.7176990167828752,0.0,-1.7349894922628275,-0.35004716257060153,-0.7177036139363542,0.0036182883873542267
1759839281.5136907,0,-1.2049998044967651,-0.8299989104270935,-0.7176990185554821,0.0,-1.7349843279242423,-0.3500789106063901,-0.7177036111517034,0.004392565507762637
1759839281.5249095,0,-1.2049998044967651,-0.8299989104270935,-0.7176990202307003,0.0,-1.7349788366734398,-0.35011343963941893,-0.7177036091669461,0.0050338590142776805
1759839281.536412,0,-1.2049998044967651,-0.8299989104270935,-0.7176990215288406,0.0,-1.734973767307788,-0.35014749674288187,-0.7177036080259236,0.005527868289853748
1759839281.546743,0,-1.2049998044967651,-0.8299989104270935,-0.7176990233567953,0.0,-1.7349689386197389,-0.3501804051372484,-0.7177036073137046,0.005932378439171939
1759839281.5582237,0,-1.2049998044967651,-0.8299989104270935,-0.7176990242847427,0.0,-1.7349639864145354,-0.35021285156967014,-0.7177036072958274,0.006283375033886413
1759839281.5713186,0,-1.2049998044967651,-0.8299989104270935,-0.717699024318696,0.0,-1.734959333222087,-0.3502433768901606,-0.7177036073958464,0.006579259604606734
1759839281.5794692,0,-1.2049998044967651,-0.8299989104270935,-0.7176990270673578,0.0,-1.734956807383688,-0.3502679381651784,-0.7177036077686303,0.006648407366929951
1759839281.5901868,0,-1.2049998044967651,-0.8299989104270935,-0.7176990280492089,0.0,-1.7349534037499932,-0.35029046942150216,-0.717703608353883,0.006844228956337002
1759839281.601027,0,-1.2049998044967651,-0.8299989104270935,-0.7176990287837111,0.0,-1.7349501280209245,-0.3503118250689604,-0.7177036088175685,0.007015957704271829
1759839281.6121383,0,-1.2049998044967651,-0.8299989104270935,-0.7176990293624463,0.0,-1.7349470021348934,-0.3503318286264614,-0.7177036094036743,0.0071685132602224986
1759839281.6231058,0,-1.2049998044967651,-0.8299989104270935,-0.7176990300256083,0.0,-1.7349440645645011,-0.3503503877352808,-0.7177036098076364,0.007304457600233671
1759839281.6344454,0,-1.2049998044967651,-0.8299989104270935,-0.7176990305316017,0.0,-1.7349433434309662,-0.3503625207431629,-0.7177036104971446,0.00723680339882154
1759839281.6447854,0,-1.2049998044967651,-0.8299989104270935,-0.7176990314855107,0.0,-1.7349416157789255,-0.3503735527758946,-0.7177036110147837,0.007320871264152416
1759839281.6561973,0,-1.2049998044967651,-0.8299989104270935,-0.7176990319212919,0.0,-1.7349398872538555,-0.3503843408922881,-0.7177036118665345,0.007401455605949419
1759839281.6662886,0,-1.2049998044967651,-0.8299989104270935,-0.7176990328902342,0.0,-1.7349381770911563,-0.35039472345035705,-0.7177036124928047,0.007478660041782824
1759839281.6772213,0,-1.2049998044967651,-0.8299989104270935,-0.7176990334370217,0.0,-1.7349363992373261,-0.35040510140580067,-0.7177036126585277,0.007556163072212039
1759839281.6880326,0,-1.2049998044967651,-0.8299989104270935,-0.7176990340020808,0.0,-1.7349345894930934,-0.3504153897377152,-0.7177036130268434,0.00763321694461956
1759839281.6982577,0,-1.2049998044967651,-0.8299989104270935,-0.7176990347577572,0.0,-1.7349350241062735,-0.35041934802426966,-0.717703613588503,0.00751248374742598
1759839281.7088795,0,-1.2049998044967651,-0.8299989104270935,-0.717699035301802,0.0,-1.7349343170937526,-0.3504232306259396,-0.7177036145127269,0.007552264221647574
1759839281.7197556,0,-1.2049998044967651,-0.8299989104270935,-0.7176990357278026,0.0,-1.7349334738288815,-0.3504278043227418,-0.7177036154592129,0.0075967499470542795
1759839281.7302468,0,-1.2049998044967651,-0.8299989104270935,-0.7176990362815765,0.0,-1.7349324831696014,-0.3504329878109349,-0.7177036163738524,0.0076463158352945955
1759839281.7418363,0,-1.2049998044967651,-0.8299989104270935,-0.7176990364716413,0.0,-1.73493133397098,-0.35043885104955685,-0.7177036171840901,0.00770163526308438
1759839281.7525167,0,-1.2049998044967651,-0.8299989104270935,-0.717699036998205,0.0,-1.7349313086017224,-0.35044015051758703,-0.7177036181917377,0.007691711837024993
1759839281.7626443,0,-1.2049998044967651,-0.8299989104270935,-0.7176990376700374,0.0,-1.7349310637135273,-0.3504420623455063,-0.7177036191095457,0.0076968985951931385
1759839281.773066,0,-1.2049998044967651,-0.8299989104270935,-0.7176990381798376,0.0,-1.734930596811962,-0.35044473927077224,-0.7177036199288652,0.007715030219422405
1759839281.783645,0,-1.2049998044967651,-0.8299989104270935,-0.7176990385976669,0.0,-1.7349299438625656,-0.3504481372797275,-0.7177036206021418,0.007743421930474847
1759839281.7949333,0,-1.2049998044967651,-0.8299989104270935,-0.7176990388125439,0.0,-1.7349291028544562,-0.35045231908670205,-0.7177036212584939,0.007781240476669298
1759839281.805438,0,-1.2049998044967651,-0.8299989104270935,-0.717699039265927,0.0,-1.7349303204146025,-0.35045103657065385,-0.7177036219546258,0.007633894574786883
1759839281.815742,0,-1.2049998044967651,-0.8299989104270935,-0.7176990397494869,0.0,-1.734930319203686,-0.35045029127463007,-0.7177036225713745,0.0076508633684762885
1759839281.8266408,0,-1.2049998044967651,-0.8299989104270935,-0.7176990400479824,0.0,-1.7349300245710406,-0.35045099573591953,-0.7177036231861382,0.007678885594904181
1759839281.8373652,0,-1.2049998044967651,-0.8299989104270935,-0.7176990403880232,0.0,-1.7349295278752226,-0.35045288329121926,-0.7177036237113056,0.007713986434309481
1759839281.8483934,0,-1.2049998044967651,-0.8299989104270935,-0.7176990406591557,0.0,-1.7349288097407125,-0.35045588528188787,-0.7177036241768039,0.007756909189119032
1759839281.8592248,0,-1.2049998044967651,-0.8299989104270935,-0.717699040984936,0.0,-1.7349301006358884,-0.35045373654198764,-0.7177036248387094,0.0076148153272191715
1759839281.870684,0,-1.2049998044967651,-0.8299989104270935,-0.7176990411816906,0.0,-1.7349301215703747,-0.3504524716786428,-0.7177036254461026,0.007637501801729179
1759839281.8813457,0,-1.2049998044967651,-0.8299989104270935,-0.7176990415672417,0.0,-1.734929856593453,-0.35045275454783875,-0.7177036259013466,0.007669403748084531
1759839281.8920026,0,-1.2049998044967651,-0.8299989104270935,-0.717699041934507,0.0,-1.7349293791316216,-0.3504543292421425,-0.7177036262990646,0.007707634020856342
1759839281.9034963,0,-1.2049998044967651,-0.8299989104270935,-0.7176990421197935,0.0,-1.7349286604815854,-0.35045715856972814,-0.7177036266974672,0.007753717787112905
1759839281.9147525,0,-1.2049998044967651,-0.8299989104270935,-0.7176990423709828,0.0,-1.7349300239463303,-0.3504546019099233,-0.7177036271445856,0.007610108481224156
1759839281.9249854,0,-1.2049998044967651,-0.8299989104270935,-0.7176990428093291,0.0,-1.7349301343065797,-0.350452862288169,-0.7177036275627592,0.0076302543834211095
1759839281.9357722,0,-1.2049998044967651,-0.8299989104270935,-0.7176990431055934,0.0,-1.7349299627866084,-0.350452740910036,-0.7177036280060897,0.007659278528831799
1759839281.9461088,0,-1.2049998044967651,-0.8299989104270935,-0.7176990434493433,0.0,-1.734929539452851,-0.350453962842898,-0.7177036284271938,0.007696142301858228
1759839281.9563935,0,-1.2049998044967651,-0.8299989104270935,-0.7176990437662063,0.0,-1.734928897393056,-0.3504563667508498,-0.7177036288000609,0.007739482219128607
1759839281.966923,0,-1.2049998044967651,-0.8299989104270935,-0.7176990440120861,0.0,-1.7349302860141158,-0.3504536132898708,-0.717703629203109,0.007595540315768872
1759839281.9783776,0,-1.2049998044967651,-0.8299989104270935,-0.717699044108489,0.0,-1.7349303721344564,-0.3504518623187026,-0.7177036296458691,0.007617909864076744
1759839281.9892771,0,-1.2049998044967651,-0.8299989104270935,-0.7176990443138038,0.0,-1.7349301907493724,-0.3504517282808638,-0.717703630057958,0.007648367074101608
1759839282.0002134,0,-1.2049998044967651,-0.8299989104270935,-0.7176990445212699,0.0,-1.7349297435281397,-0.3504530125544766,-0.717703630422127,0.007687150507862244
1759839282.0102646,0,-1.2049998044967651,-0.8299989104270935,-0.7176990448426199,0.0,-1.7349290854206432,-0.35045546208800066,-0.7177036307672207,0.007731730720953389
1759839282.0204864,0,-1.2049998044967651,-0.8299989104270935,-0.7176990451039504,0.0,-1.7349304904208334,-0.35045263844645086,-0.7177036311330915,0.0075868304889492345
1759839282.0316718,0,-1.2049998044967651,-0.8299989104270935,-0.717699045215987,0.0,-1.7349305933234072,-0.35045079731268436,-0.7177036314888926,0.007608524389487934
1759839282.0421438,0,-1.2049998044967651,-0.8299989104270935,-0.7176990454258333,0.0,-1.73493043504384,-0.3504505234143313,-0.7177036318098792,0.007638072062207458
1759839282.0538306,0,-1.2049998044967651,-0.8299989104270935,-0.7176990454891232,0.0,-1.7349299933174003,-0.3504517713558951,-0.7177036321098581,0.007676829581123042
1759839282.0640745,0,-1.2049998044967651,-0.8299989104270935,-0.7176990457403001,0.0,-1.7349293363552543,-0.3504542057775894,-0.7177036323714651,0.007721596523717448
1759839282.0747082,0,-1.2049998044967651,-0.8299989104270935,-0.7176990459303152,0.0,-1.7349307067746451,-0.35045151831968574,-0.7177036326532081,0.007578708411828694
1759839282.085871,0,-1.2049998044967651,-0.8299989104270935,-0.7176990460511306,0.0,-1.7349307807438323,-0.3504498019763937,-0.7177036329570895,0.00760195089195096
1759839282.0966778,0,-1.2049998044967651,-0.8299989104270935,-0.7176990462147472,0.0,-1.7349305914884652,-0.3504496925326648,-0.7177036332437052,0.007632956705293477
1759839282.1069798,0,-1.2049998044967651,-0.8299989104270935,-0.7176990464241229,0.0,-1.7349301531569368,-0.3504509357807847,-0.7177036334948255,0.007671329921279042
1759839282.1175072,0,-1.2049998044967651,-0.8299989104270935,-0.7176990465917044,0.0,-1.7349294927737569,-0.35045339003366643,-0.7177036337155848,0.007716148956333097
1759839282.1279228,0,-1.2049998044967651,-0.8299989104270935,-0.7176990467556728,0.0,-1.7349286498790222,-0.3504568861907714,-0.7177036338798113,0.0077658930506132005
1759839282.1393955,0,-1.2049998044967651,-0.8299989104270935,-0.7176990468154152,0.0,-1.7349289462023225,-0.3504558790113777,-0.7177036340971553,0.007749029738610956
1759839282.1508193,0,-1.2049998044967651,-0.8299989104270935,-0.7176990468973036,0.0,-1.7349289179573064,-0.3504560629281978,-0.7177036343056699,0.00775090912640463
1759839282.1611266,0,-1.2049998044967651,-0.8299989104270935,-0.7176990470867217,0.0,-1.734928634729534,-0.35045728901579337,-0.7177036345439991,0.007766227986281196
1759839282.1715872,0,-1.2049998044967651,-0.8299989104270935,-0.717699047247013,0.0,-1.7349281333471551,-0.35045948946856126,-0.7177036347377028,0.007792294975736785
1759839282.181977,0,-1.2049998044967651,-0.8299989104270935,-0.7176990473957332,0.0,-1.7349296050205443,-0.35045662879340095,-0.717703634940888,0.00763731365007926
1759839282.1928859,0,-1.2049998044967651,-0.8299989104270935,-0.7176990474923635,0.0,-1.734929798101242,-0.3504545970106753,-0.7177036351341862,0.007649842709420461
1759839282.2029214,0,-1.2049998044967651,-0.8299989104270935,-0.7176990476512531,0.0,-1.734929727653265,-0.3504540767793968,-0.7177036353197535,0.007671515568829233
1759839282.214111,0,-1.2049998044967651,-0.8299989104270935,-0.7176990477144969,0.0,-1.7349293726051511,-0.35045498107470296,-0.7177036354763533,0.007703724846943611
1759839282.224968,0,-1.2049998044967651,-0.8299989104270935,-0.7176990478067591,0.0,-1.7349287840953216,-0.35045713523469907,-0.7177036355916804,0.007743768246978864
1759839282.235428,0,-1.2049998044967651,-0.8299989104270935,-0.7176990479276277,0.0,-1.7349302559247615,-0.3504539924615452,-0.717703635752654,0.007594701565457948
1759839282.2463217,0,-1.2049998044967651,-0.8299989104270935,-0.7176990480138254,0.0,-1.7349304439734134,-0.35045178140244454,-0.717703635901627,0.007612282112920199
1759839282.2570283,0,-1.2049998044967651,-0.8299989104270935,-0.7176990481108234,0.0,-1.7349303442697361,-0.35045121205916274,-0.7177036360667166,0.007639153614579288
1759839282.2672014,0,-1.2049998044967651,-0.8299989104270935,-0.7176990482360726,0.0,-1.7349299887033627,-0.35045204636445715,-0.717703636190346,0.007673809616521952
1759839282.2780316,0,-1.2049998044967651,-0.8299989104270935,-0.7176990483116832,0.0,-1.7349293942032014,-0.35045415819601566,-0.7177036363084615,0.007715975703306008
1759839282.2890608,0,-1.2049998044967651,-0.8299989104270935,-0.7176990483754828,0.0,-1.7349307975068167,-0.35045127696757566,-0.7177036364515762,0.007571929720686215
1759839282.2997754,0,-1.2049998044967651,-0.8299989104270935,-0.7176990484603536,0.0,-1.734930921384127,-0.35044931720734057,-0.7177036365889186,0.007593576869684692
1759839282.310727,0,-1.2049998044967651,-0.8299989104270935,-0.7176990485317685,0.0,-1.7349307237572016,-0.35044908179107714,-0.7177036367110974,0.0076253132167441
1759839282.321594,0,-1.2049998044967651,-0.8299989104270935,-0.7176990486078658,0.0,-1.7349303014856872,-0.3504502354190544,-0.7177036368243821,0.0076635146216998545
1759839282.3323483,0,-1.2049998044967651,-0.8299989104270935,-0.7176990486884929,0.0,-1.734929649326447,-0.35045263492622875,-0.7177036369298457,0.0077084696244964345
1759839282.3430183,0,-1.2049998044967651,-0.8299989104270935,-0.7176990487697346,0.0,-1.7349287974963188,-0.3504561278827499,-0.7177036370312692,0.007759011092739368
1759839282.3542528,0,-1.2049998044967651,-0.8299989104270935,-0.7176990488216433,0.0,-1.7349291187215297,-0.35045501341025487,-0.7177036371606637,0.007741121566970866
1759839282.364443,0,-1.2049998044967651,-0.8299989104270935,-0.7176990489211992,0.0,-1.734929125632528,-0.35045501694887055,-0.7177036372786784,0.00774106318613583
1759839282.3757575,0,-1.2049998044967651,-0.8299989104270935,-0.7176990489647609,0.0,-1.7349288659848754,-0.35045613277030424,-0.7177036373877137,0.007755612892297102
1759839282.3872476,0,-1.2049998044967651,-0.8299989104270935,-0.7176990490046826,0.0,-1.7349283613164102,-0.3504583338994795,-0.7177036374862983,0.007782360555333573
1759839282.3979836,0,-1.2049998044967651,-0.8299989104270935,-0.7176990490806077,0.0,-1.7349276531951825,-0.35046148732344656,-0.7177036375714662,0.007818203358310216
1759839282.4090328,0,-1.2049998044967651,-0.8299989104270935,-0.7176990491412951,0.0,-1.7349280886879488,-0.3504600404677609,-0.717703637686484,0.007789871576870015
1759839282.4193118,0,-1.2049998044967651,-0.8299989104270935,-0.7176990492273169,0.0,-1.7349282036711142,-0.3504596765070494,-0.7177036377846064,0.007781339050962433
1759839282.4293962,0,-1.2049998044967651,-0.8299989104270935,-0.7176990493103457,0.0,-1.7349280717323485,-0.35046028951624353,-0.7177036378739902,0.007787457599593539
1759839282.4408784,0,-1.2049998044967651,-0.8299989104270935,-0.7176990493353959,0.0,-1.7349276813685162,-0.35046200010895584,-0.7177036379573657,0.007807396806553679
1759839282.4520948,0,-1.2049998044967651,-0.8299989104270935,-0.7176990493742039,0.0,-1.7349270638341543,-0.3504647350212545,-0.717703638033274,0.007838344333831626
1759839282.463019,0,-1.2049998044967651,-0.8299989104270935,-0.7174062383065883,0.005235987755982988,-1.7349275807799103,-0.3504628884955675,-0.7177036381295496,0.0078061487141834664
1759839282.473235,0,-1.2049998044967651,-0.8299989104270935,-0.717398870585243,0.005235987755982988,-1.7349277809076493,-0.35046212103325364,-0.717703638218605,0.00779404759303156
1759839282.4842765,0,-1.2049990156209123,-0.8299995991197683,-0.7173760785515744,0.005288347633542818,-1.7349276882680047,-0.3504625008744622,-0.717703638275721,0.007798858978091267
1759839282.495671,0,-1.2049983077971818,-0.8300007158190914,-0.7173967555804164,0.005330601239207096,-1.734927333707426,-0.3504640017930358,-0.7177036383291283,0.007817622010083401
1759839282.5070534,0,-1.2049976587397897,-0.8300020884199077,-0.7173535352731789,0.005365418549480323,-1.7349267421768737,-0.3504665741108252,-0.7177036383889369,0.00784785208111193
1759839282.5172262,0,-1.2049976587397897,-0.8300020884199079,-0.7173836687158193,0.005365418549480323,-1.7349273610185652,-0.3504642545697491,-0.7177036384565313,0.007810866472043731
1759839282.5280414,0,-1.2049880316666417,-0.8300174993851616,-0.7173037448706159,0.006409964577894883,-1.7349276235010795,-0.35046314962415565,-0.7177036385352547,0.00779603840195112
1759839282.538312,0,-1.204983220075665,-0.8300312529338228,-0.7173072297827544,0.006807623132983652,-1.7349276153727555,-0.35046311726493745,-0.7177036386068981,0.007797297705541998
1759839282.5484223,0,-1.2049785087438638,-0.8300469329993242,-0.7172449859566674,0.007140194236203173,-1.7349273657752935,-0.35046411599802374,-0.717703638672603,0.007811479159296144
1759839282.5587482,0,-1.20497408296119,-0.8300634344743569,-0.7172467502802996,0.0074151898812285216,-1.7349268928183126,-0.3504661214240861,-0.7177036387366088,0.007836556942977564
1759839282.5695555,0,-1.2049740829611904,-0.8300634344743574,-0.717250985077087,0.0074151898812285216,-1.7349284572884314,-0.3504627865943756,-0.717703638803322,0.007677831646863373
1759839282.5806768,0,-1.204966902370583,-0.8300944947746296,-0.7172308998499051,0.007800867906103803,-1.734928720226717,-0.35046038502231786,-0.7177036388705204,0.0076871524583058265
1759839282.5919025,0,-1.2032065307334232,-0.8318226286556656,-0.7161997834799088,0.025483113977276862,-1.7349286892833569,-0.3504596339209162,-0.7177036389303031,0.007707578671442289
1759839282.6028042,0,-1.2025491110897721,-0.8324051564939222,-0.715367461144404,0.02560967216082857,-1.7349283766012837,-0.350460321140591,-0.7177036389810721,0.007738262140626882
1759839282.6130896,0,-1.2022791213910893,-0.8326519712137697,-0.7147767064951233,0.025893883557321237,-1.7349278314969119,-0.3504622345597958,-0.7177036390244934,0.007776634853998152
1759839282.6239436,0,-1.2021817852746703,-0.8327362879662017,-0.71434192615825,0.025893883557321237,-1.734929337222041,-0.35045888687332927,-0.7177036390723991,0.007789867619916441
1759839282.6339443,0,-1.202090702414654,-0.8328290088766345,-0.7140053487120679,0.02629665348527857,-1.7349291161713132,-0.35045837959067866,-0.7177036391143963,0.007967886655814134
1759839282.645189,0,-1.201981498421379,-0.8329542926258653,-0.7136671960523479,0.02689003430448271,-1.7349284355716577,-0.3504609949830131,-0.7177036391645425,0.008125918781210927
1759839282.6564245,0,-1.2019402266137909,-0.8330052943474889,-0.7134391719100109,0.027111256364871616,-1.7349273739234943,-0.3504659412562623,-0.7177036392125223,0.008269893285540335
1759839282.6679769,0,-1.2019069700359148,-0.8330490530763053,-0.7133003004853167,0.02729947881850659,-1.7349260056545543,-0.3504726982102557,-0.7177036392570486,0.008403452818518044
1759839282.6792424,0,-1.2019067210752012,-0.8330491969006095,-0.7132235042315854,0.02729947881850659,-1.7349268330037897,-0.3504742663140298,-0.7177036393032941,0.008313890518965708
1759839282.690106,0,-1.2018645764913345,-0.833110282945421,-0.7131126452366489,0.027552184048220484,-1.734926236449407,-0.35047675389706096,-0.717703639330322,0.0083977667518783
1759839282.7007399,0,-1.2018500754029304,-0.833133985226059,-0.7130581722473261,0.027651997665898854,-1.7349254000115946,-0.35048076114655474,-0.7177036393620441,0.00847907688397091
1759839282.7113526,0,-1.2018508983337008,-0.8331332497990225,-0.7130491668581869,0.027651997665898854,-1.734924347193498,-0.35048597292171735,-0.7177036393852197,0.008559540363366492
1759839282.721416,0,-1.2018303373790848,-0.8331675159998765,-0.712978505029407,0.027738352655841663,-1.7349230894870193,-0.3504921966691503,-0.7177036394175105,0.008640527050401085
1759839282.7323372,0,-1.2018271697487954,-0.8331702453642442,-0.7129601298849826,0.027738352655841663,-1.734924265537003,-0.35049202276228053,-0.717703639453573,0.008497414305773865
1759839282.7427063,0,-1.2018194639193092,-0.8331839112938879,-0.7129671497461351,0.027795341124597528,-1.7349240513850321,-0.35049245422416075,-0.7177036394871045,0.008537873344295429
1759839282.7534478,0,-1.2018102585717874,-0.8331986521597433,-0.712969562322425,0.027847487287504684,-1.7349235567295558,-0.3504944432913489,-0.7177036395194575,0.00858504074873082
1759839282.764439,0,-1.2018018123651593,-0.8332124472695253,-0.7129493915399662,0.027895663233474876,-1.7349228016937595,-0.3504977455214651,-0.7177036395501268,0.00863916890971959
1759839282.7758937,0,-1.2017930494005336,-0.8332262940945764,-0.7129274119378518,0.0279410452768999,-1.7349218072145098,-0.350502259607218,-0.7177036395776466,0.008699864198402242
1759839282.7865775,0,-1.2017909080354894,-0.8332341425074428,-0.7129491891885771,0.027983520490920875,-1.7349206370495833,-0.35050773120405854,-0.7177036396041875,0.008764523883901457
1759839282.7987833,0,-1.1938745894015677,-0.8404315643793197,-0.7041618688279281,0.08334349493586636,-1.7349207621099365,-0.3505080356302362,-0.71770363963753,0.008752875554633303
1759839282.8095777,0,-1.1908312557151997,-0.8429728435016968,-0.6971306209555087,0.08393125352928948,-1.7349205494383215,-0.3505094747753533,-0.7177036396740339,0.008760614502149858
1759839282.8201644,0,-1.189598941576663,-0.844001832971569,-0.6918909423415583,0.08440523410151166,-1.734920079521996,-0.35051191035114726,-0.7177036397079526,0.00878254607222584
1759839282.831257,0,-1.18892480282431,-0.8445636793932642,-0.6877005633619726,0.08532296199727692,-1.7349193710750765,-0.35051534997516987,-0.7177036397383799,0.00881663909611305
1759839282.8414278,0,-1.1887718803629188,-0.8446830834712588,-0.6850903610013548,0.08532296199727692,-1.7349209206906455,-0.350512934103317,-0.7177036397688924,0.00998185233038853
1759839282.8522925,0,-1.188329828578049,-0.8450942751739291,-0.682280922120614,0.08674950201660014,-1.7349171048547747,-0.3505275202815702,-0.7177036397979167,0.01134838095344887
1759839282.8627896,0,-1.1881675886338146,-0.8452515449168843,-0.6805700006609733,0.08727697021535147,-1.7349116949062005,-0.3505553492831952,-0.717703639824536,0.012475114165198947
1759839282.874063,0,-1.18802615721306,-0.8453918127604573,-0.6792485875103057,0.08770818776076891,-1.7349052599688106,-0.3505915741282083,-0.7177036398485646,0.013413559348069608
1759839282.885317,0,-1.188015763090657,-0.8453977858351375,-0.6785413114555174,0.08770818776076891,-1.7348984159986964,-0.3506322931526565,-0.7177036398665438,0.014193665914771196
1759839282.895445,0,-1.1879424356691792,-0.8454831925914181,-0.6778522928567381,0.08805886347223656,-1.7348914411131817,-0.3506749847153425,-0.7177036398788013,0.014847139576616993
1759839282.9054723,0,-1.1879519933484912,-0.8454744334408366,-0.6775602408464515,0.08805886347223656,-1.7348889345227108,-0.3507072317500683,-0.7177036398945554,0.014983405220698754
1759839282.9162524,0,-1.1877942646689765,-0.8456437099193348,-0.6769269454172415,0.08856138546991511,-1.734883876369634,-0.3507389590075039,-0.7177036399130422,0.01540754823514958
1759839282.9270446,0,-1.1877355277284225,-0.8457097788873288,-0.6766128037398423,0.08875013451437612,-1.7348785885381632,-0.35077156435517043,-0.7177036399300778,0.015783024826989376
1759839282.9377627,0,-1.187689718633938,-0.8457644844365961,-0.6764087628793637,0.08891142292652553,-1.7348732483607878,-0.350804012637035,-0.7177036399471447,0.016117240544762042
1759839282.9484706,0,-1.18765662185677,-0.8457960231098803,-0.6762231631358036,0.08897110347525075,-1.734868002559866,-0.3508356669538149,-0.7177036399631059,0.016415438663922997
1759839282.9584892,0,-1.1876716342495528,-0.8457839662884211,-0.6762584406602046,0.08897110347525075,-1.734865255053577,-0.35085696170872976,-0.71770363998004,0.016545600719339245
1759839282.9698262,0,-1.187590595297903,-0.8458736582998042,-0.676027241455893,0.08917206125824463,-1.7348620336737668,-0.3508786437802623,-0.7177036399986015,0.016691225961266685
1759839282.980731,0,-1.1875695832794613,-0.845901871226552,-0.6759991690234455,0.08925202666803068,-1.7348586777015433,-0.35089995001818214,-0.7177036400141994,0.01683990218430117
1759839282.9912658,0,-1.187558984452847,-0.8459215407181218,-0.6759956073352837,0.08932443774909751,-1.7348552013781673,-0.35092101681641397,-0.7177036400270462,0.01699078485038359
1759839283.004186,0,-1.1772670102244225,-0.8539847449460962,-0.6623277826223951,0.11671651722732593,-1.734851539654722,-0.35094225575019905,-0.7177036400400739,0.01714943510855949
1759839283.0152242,0,-1.1734003132422528,-0.8568941685352262,-0.651441719635917,0.11676298044519458,-1.7348505396944343,-0.35095234561615246,-0.7177036400576337,0.01715185360959099
1759839283.0254347,0,-1.1718246770552356,-0.8580698142566048,-0.6434566647307574,0.11708017479619365,-1.7348491485547757,-0.3509628214422143,-0.7177036400721704,0.017184864726599067
1759839283.0357487,0,-1.1711606122567044,-0.8585612323682401,-0.6376243232293047,0.11734150208291105,-1.7348474525879987,-0.35097376504942607,-0.7177036400854744,0.01724121564015321
1759839283.0472069,0,-1.1707844075859968,-0.8588389163843996,-0.6331384001829672,0.11755933248685448,-1.7348454019877242,-0.35098572611840373,-0.71770364009806,0.01731988121027125
1759839283.058401,0,-1.1703995961946372,-0.8591140067453746,-0.6293336919248156,0.11796150518360268,-1.734843029397332,-0.3509987526298884,-0.717703640109241,0.017416398496722694
1759839283.068804,0,-1.1701403260763585,-0.8593098069525075,-0.6265749921137385,0.11833990446800455,-1.7348407685447274,-0.35100305217089767,-0.7177036401234206,0.019382579893965
1759839283.0799887,0,-1.1699074957362405,-0.8594871288839739,-0.6244362658076117,0.11864785620360511,-1.7348357425630854,-0.3510300691149305,-0.7177036401361103,0.020990741539723523
1759839283.0912864,0,-1.169721499146441,-0.859631148257504,-0.6227883274601438,0.11890654716267104,-1.734828564238314,-0.3510719585361338,-0.7177036401466085,0.02233973403868286
1759839283.1012871,0,-1.1696155538859676,-0.8597187853812583,-0.6217295845228479,0.1191229363966708,-1.7348200677859988,-0.3511229744367467,-0.7177036401531586,0.023477588439378628
1759839283.1117275,0,-1.1695003662238692,-0.8598125542729285,-0.6209084112519094,0.11930183138508481,-1.7348109898677038,-0.3511789395698892,-0.7177036401611627,0.024435634776880995
1759839283.1220202,0,-1.1695040188871968,-0.859808574335341,-0.6206095871721158,0.11930183138508481,-1.7348088906580024,-0.35121910314525845,-0.7177036401704947,0.024578389096392168
1759839283.1328506,0,-1.1693119839241377,-0.8599574481257679,-0.6198015203759297,0.11953977501434154,-1.7348024269596978,-0.3512598244173029,-0.7177036401803966,0.02520250736184275
1759839283.1430333,0,-1.169260158715811,-0.8600008285295198,-0.6195326515190075,0.11963578377756814,-1.7347954230334106,-0.3513030854648984,-0.7177036401887877,0.025756238669481523
1759839283.1534111,0,-1.169259452824281,-0.8600010932209864,-0.6194809145286034,0.11963578377756814,-1.7347882967085932,-0.35134677228723316,-0.7177036401949669,0.026245623812577085
1759839283.1637285,0,-1.16920436292011,-0.860047680539514,-0.6192946685738241,0.11972327095088871,-1.7347808054149025,-0.3513912847088151,-0.717703640199493,0.026696838184769416
1759839283.1756,0,-1.1691169913478134,-0.8601011207961211,-0.6190319045799387,0.11971595028441348,-1.7347732184632998,-0.3514357330541463,-0.7177036402052485,0.027114311750638727
1759839283.18569,0,-1.1691545698653814,-0.8600747139665014,-0.6191736641331438,0.11971595028441348,-1.7347738748746837,-0.3514571087353567,-0.7177036402125299,0.02678064227947158
1759839283.1967711,0,-1.1690679271067694,-0.8601429428387601,-0.618944750550353,0.11981824567407724,-1.7347703643371384,-0.3514781002415485,-0.7177036402213351,0.02701202512292719
1759839283.2075913,0,-1.1573626265308872,-0.8680327803087668,-0.6033896863645567,0.13052403698407927,-1.734766294870841,-0.35150160162665256,-0.7177036402300225,0.02724742959416714
1759839283.2181702,0,-1.1528851778131222,-0.870989167718699,-0.5907936085997316,0.13056824723584656,-1.7347617779582198,-0.35152675919993037,-0.7177036402374583,0.027487451999821756
1759839283.229008,0,-1.1509326976217507,-0.8722537082357568,-0.5808898743728648,0.1306993178179974,-1.7347558363515228,-0.3515542013400233,-0.7177036402454012,0.02787451392175968
1759839283.2394528,0,-1.1502796609954988,-0.8726607079673685,-0.5742756112846162,0.1306993178179974,-1.7347575145745429,-0.3515626260762101,-0.7177036402537197,0.0289754516232298
1759839283.2507906,0,-1.1493486506855937,-0.8732543417578713,-0.567746116750356,0.13109426011362305,-1.7347518041874053,-0.35158970895095404,-0.7177036402627375,0.03050065043647629
1759839283.2617123,0,-1.1490031380106644,-0.873466463469126,-0.5636151425978141,0.13124255410793767,-1.734744109779409,-0.35163178115128724,-0.7177036402709432,0.031788964354204634
1759839283.2729015,0,-1.14874388716754,-0.8736251266307892,-0.5605353865358642,0.13137093306336156,-1.7347348992623468,-0.35168390602060323,-0.7177036402783277,0.032898525523396144
1759839283.284082,0,-1.1485479544795674,-0.873739166360684,-0.5582725287472675,0.13145427600460233,-1.7347249177596864,-0.35174199565116626,-0.7177036402850392,0.033853979502180206
1759839283.294661,0,-1.1485600058976722,-0.8737262019373265,-0.557151513334387,0.13145427600460233,-1.7347242030965015,-0.3517784288765286,-0.7177036402920166,0.03379714920561901
1759839283.3059835,0,-1.1482697360781084,-0.8739033016658322,-0.5554030776584169,0.13159735339928955,-1.734717440127744,-0.35181720932903365,-0.7177036402968919,0.03443134345805379
1759839283.3175905,0,-1.148151823821048,-0.8739740482042394,-0.5544312072311773,0.13165594117378004,-1.7347100210173916,-0.3518601079914847,-0.7177036403040273,0.035005957872278656
1759839283.3283117,0,-1.148092917692343,-0.8740102234763539,-0.553880225446053,0.13171067565970598,-1.7347020254995658,-0.35190564156051274,-0.7177036403100463,0.0355371836374138
1759839283.3394113,0,-1.148021520134553,-0.87404862911946,-0.5534691531266102,0.13173113644991483,-1.7346936966641648,-0.3519527289606243,-0.717703640315146,0.03603168476377617
1759839283.3505785,0,-1.1480171882410848,-0.874050724632461,-0.5533810485280632,0.13173113644991483,-1.7346909904529726,-0.3519771310666004,-0.7177036403205584,0.03616506421813014
1759839283.3611832,0,-1.147979834742608,-0.874070631329841,-0.5532525660131751,0.13175406750904217,-1.7346871904416554,-0.35200372483594994,-0.7177036403258746,0.03634718525005249
