timestamp,vehicle_id,x,y,theta,velocity,gps_available,dt,gps_x,gps_y,gps_theta,gps_velocity,control_steering,control_acceleration
1759839279.1578715,0,-1.205,-0.83,-0.7801621756414647,0.0,False,0.01,nan,nan,nan,nan,0.0,0.0
1759839279.1679442,0,-1.205,-0.83,-0.7801621756414647,0.0,False,0.010072708129882812,nan,nan,nan,nan,0.0,0.0
1759839279.1790483,0,-1.205,-0.83,-0.7801621756414647,0.0,False,0.011104106903076172,nan,nan,nan,nan,0.0,0.0
1759839279.1896808,0,-1.205,-0.83,-0.7801621756414647,0.0,False,0.010632514953613281,nan,nan,nan,nan,0.0,0.0
1759839279.1997175,0,-1.205,-0.83,-0.7801621756414647,0.0,False,0.010036706924438477,nan,nan,nan,nan,0.0,0.0
1759839279.2105234,0,-1.205,-0.83,-0.7801621756414647,0.0,False,0.010805845260620117,nan,nan,nan,nan,0.0,0.0
1759839279.2215858,0,-1.205,-0.83,-0.7801621756414647,0.0,False,0.011062383651733398,nan,nan,nan,nan,0.0,0.0
1759839279.2330341,0,-1.205,-0.83,-0.7801621756414647,0.0,False,0.011448383331298828,nan,nan,nan,nan,0.0,0.0
1759839279.243381,0,-1.205,-0.83,-0.7801621756414647,0.0,False,0.01034688949584961,nan,nan,nan,nan,0.0,0.0
1759839279.253768,0,-1.205,-0.83,-0.7801621756414647,0.0,False,0.010386943817138672,nan,nan,nan,nan,0.0,0.0
1759839279.2643173,0,-1.205,-0.83,-0.7801621756414647,0.0,False,0.010549306869506836,nan,nan,nan,nan,0.0,0.0
1759839279.2755365,0,-1.205,-0.83,-0.7801621756414647,0.0,False,0.011219263076782227,nan,nan,nan,nan,0.0,0.0
1759839279.28699,0,-1.205,-0.83,-0.7801621756414647,0.0,False,0.011453390121459961,nan,nan,nan,nan,0.0,0.0
1759839279.2979305,0,-1.205,-0.83,-0.7801621756414647,0.0,False,0.0109405517578125,nan,nan,nan,nan,0.0,0.0
1759839279.3094416,0,-1.205,-0.83,-0.7801621756414647,0.0,False,0.011511087417602539,nan,nan,nan,nan,0.0,0.0
1759839279.3208964,0,-1.205,-0.83,-0.7801621756414647,0.0,False,0.01145482063293457,nan,nan,nan,nan,0.0,0.0
1759839279.3318021,0,-1.205,-0.83,-0.7801621756414647,0.0,False,0.010905742645263672,nan,nan,nan,nan,0.0,0.0
1759839279.3420835,0,-1.205,-0.83,-0.7801621756414647,0.0,False,0.01028132438659668,nan,nan,nan,nan,0.0,0.0
1759839279.3536162,0,-1.2049998061259588,-0.8299989195068678,-0.7229957016367123,0.0,True,0.011532783508300781,-1.2049998044967651,-0.8299989104270935,-0.7176990509033203,0.0,0.0,0.0
1759839279.3649907,0,-1.2049998050413424,-0.8299989134621155,-0.7181101292370737,0.0,True,0.011374473571777344,-1.2049998044967651,-0.8299989104270935,-0.7176990509033203,0.0,0.0,0.0
1759839279.3759172,0,-1.2049998047010528,-0.8299989115656232,-0.7176516001604973,0.0,True,0.010926485061645508,-1.2049998044967651,-0.8299989104270935,-0.7176990509033203,0.0,0.0,0.0
1759839279.3876948,0,-1.2049998045745929,-0.8299989108608407,-0.7175897269798259,0.0,True,0.011777639389038086,-1.2049998044967651,-0.8299989104270935,-0.7176990509033203,0.0,0.0,0.0
1759839279.3984923,0,-1.2049998045264814,-0.8299989105927073,-0.7175863321678744,0.0,True,0.010797500610351562,-1.2049998044967651,-0.8299989104270935,-0.7176990509033203,0.0,0.0,0.0
1759839279.4089155,0,-1.2049998045081152,-0.8299989104903488,-0.7175957796122034,0.0,True,0.01042318344116211,-1.2049998044967651,-0.8299989104270935,-0.7176990509033203,0.0,0.0,0.0
1759839279.419729,0,-1.2049998045011003,-0.8299989104512547,-0.7176067668080535,0.0,True,0.010813474655151367,-1.2049998044967651,-0.8299989104270935,-0.7176990509033203,0.0,0.0,0.0
1759839279.4307053,0,-1.204999804498421,-0.8299989104363222,-0.7176176429114474,0.0,True,0.010976314544677734,-1.2049998044967651,-0.8299989104270935,-0.7176990509033203,0.0,0.0,0.0
1759839279.4421864,0,-1.2049998044973975,-0.8299989104306186,-0.7176270397604263,0.0,True,0.011481046676635742,-1.2049998044967651,-0.8299989104270935,-0.7176990509033203,0.0,0.0,0.0
1759839279.4537475,0,-1.2049998044970067,-0.82999891042844,-0.7176355273692909,0.0,True,0.011561155319213867,-1.2049998044967651,-0.8299989104270935,-0.7176990509033203,0.0,0.0,0.0
1759839279.4646418,0,-1.2049998044968575,-0.8299989104276078,-0.717643594554918,0.0,True,0.010894298553466797,-1.2049998044967651,-0.8299989104270935,-0.7176990509033203,0.0,0.0,0.0
1759839279.475694,0,-1.2049998044968004,-0.8299989104272899,-0.7176500177484506,0.0,True,0.011052131652832031,-1.2049998044967651,-0.8299989104270935,-0.7176990509033203,0.0,0.0,0.0
1759839279.4870927,0,-1.2049998044967787,-0.8299989104271686,-0.7176550454140376,0.0,True,0.011398792266845703,-1.2049998044967651,-0.8299989104270935,-0.7176990509033203,0.0,0.0,0.0
1759839279.4983377,0,-1.2049998044967702,-0.8299989104271221,-0.7176594632253206,0.0,True,0.011245012283325195,-1.2049998044967651,-0.8299989104270935,-0.7176990509033203,0.0,0.0,0.0
1759839279.5093198,0,-1.2049998044967671,-0.8299989104271045,-0.7176633944034769,0.0,True,0.010982036590576172,-1.2049998044967651,-0.8299989104270935,-0.7176990509033203,0.0,0.0,0.0
1759839279.5207613,0,-1.2049998044967658,-0.8299989104270977,-0.7176664186910813,0.0,True,0.011441469192504883,-1.2049998044967651,-0.8299989104270935,-0.7176990509033203,0.0,0.0,0.0
1759839279.5312161,0,-1.2049998044967654,-0.8299989104270952,-0.7176696085935035,0.0,True,0.010454893112182617,-1.2049998044967651,-0.8299989104270935,-0.7176990509033203,0.0,0.0,0.0
1759839279.5423944,0,-1.2049998044967651,-0.8299989104270942,-0.7176718657278514,0.0,True,0.011178255081176758,-1.2049998044967651,-0.8299989104270935,-0.7176990509033203,0.0,0.0,0.0
1759839279.5538728,0,-1.2049998044967651,-0.8299989104270937,-0.7176736943640023,0.0,True,0.011478424072265625,-1.2049998044967651,-0.8299989104270935,-0.7176990509033203,0.0,0.0,0.0
1759839279.5639746,0,-1.2049998044967651,-0.8299989104270936,-0.7176759887743636,0.0,True,0.010101795196533203,-1.2049998044967651,-0.8299989104270935,-0.7176990509033203,0.0,0.0,0.0
1759839279.57539,0,-1.2049998044967651,-0.8299989104270935,-0.7176773327224844,0.0,True,0.011415481567382812,-1.2049998044967651,-0.8299989104270935,-0.7176990509033203,0.0,0.0,0.0
1759839279.5864775,0,-1.2049998044967651,-0.8299989104270935,-0.7176786979680969,0.0,True,0.011087417602539062,-1.2049998044967651,-0.8299989104270935,-0.7176990509033203,0.0,0.0,0.0
1759839279.5977361,0,-1.2049998044967651,-0.8299989104270935,-0.7176798837362277,0.0,True,0.011258602142333984,-1.2049998044967651,-0.8299989104270935,-0.7176990509033203,0.0,0.0,0.0
1759839279.60895,0,-1.2049998044967651,-0.8299989104270935,-0.7176809973698397,0.0,True,0.01121377944946289,-1.2049998044967651,-0.8299989104270935,-0.7176990509033203,0.0,0.0,0.0
1759839279.6203387,0,-1.2049998044967651,-0.8299989104270935,-0.7176819671260333,0.0,True,0.011388778686523438,-1.2049998044967651,-0.8299989104270935,-0.7176990509033203,0.0,0.0,0.0
1759839279.6315367,0,-1.2049998044967651,-0.8299989104270935,-0.7176829380979104,0.0,True,0.011198043823242188,-1.2049998044967651,-0.8299989104270935,-0.7176990509033203,0.0,0.0,0.0
1759839279.6429102,0,-1.2049998044967651,-0.8299989104270935,-0.7176837787652222,0.0,True,0.011373519897460938,-1.2049998044967651,-0.8299989104270935,-0.7176990509033203,0.0,0.0,0.0
1759839279.654329,0,-1.2049998044967651,-0.8299989104270935,-0.7176845517623622,0.0,True,0.011418819427490234,-1.2049998044967651,-0.8299989104270935,-0.7176990509033203,0.0,0.0,0.0
1759839279.6657019,0,-1.2049998044967651,-0.8299989104270935,-0.7176852927627166,0.0,True,0.011372804641723633,-1.2049998044967651,-0.8299989104270935,-0.7176990509033203,0.0,0.0,0.0
1759839279.6763365,0,-1.2049998044967651,-0.8299989104270935,-0.7176861735052533,0.0,True,0.010634660720825195,-1.2049998044967651,-0.8299989104270935,-0.7176990509033203,0.0,0.0,0.0
1759839279.687666,0,-1.2049998044967651,-0.8299989104270935,-0.7176867703907064,0.0,True,0.011329412460327148,-1.2049998044967651,-0.8299989104270935,-0.7176990509033203,0.0,0.0,0.0
1759839279.6979053,0,-1.2049998044967651,-0.8299989104270935,-0.7176875780195502,0.0,True,0.010239362716674805,-1.2049998044967651,-0.8299989104270935,-0.7176990509033203,0.0,0.0,0.0
1759839279.7092478,0,-1.2049998044967651,-0.8299989104270935,-0.7176880245541923,0.0,True,0.011342525482177734,-1.2049998044967651,-0.8299989104270935,-0.7176990509033203,0.0,0.0,0.0
1759839279.7201986,0,-1.2049998044967651,-0.8299989104270935,-0.7176885348086195,0.0,True,0.010950803756713867,-1.2049998044967651,-0.8299989104270935,-0.7176990509033203,0.0,0.0,0.0
1759839279.7314572,0,-1.2049998044967651,-0.8299989104270935,-0.7176889512208149,0.0,True,0.011258602142333984,-1.2049998044967651,-0.8299989104270935,-0.7176990509033203,0.0,0.0,0.0
1759839279.7415845,0,-1.2049998044967651,-0.8299989104270935,-0.7176895769145961,0.0,True,0.01012730598449707,-1.2049998044967651,-0.8299989104270935,-0.7176990509033203,0.0,0.0,0.0
1759839279.757946,0,-1.2049998044967651,-0.8299989104270935,-0.7176889624445941,0.0,True,0.016361474990844727,-1.2049998044967651,-0.8299989104270935,-0.7176990509033203,0.0,0.0,0.0
1759839279.7688246,0,-1.2049998044967651,-0.8299989104270935,-0.7176896392380563,0.0,True,0.010878562927246094,-1.2049998044967651,-0.8299989104270935,-0.7176990509033203,0.0,0.0,0.0
1759839279.7798564,0,-1.2049998044967651,-0.8299989104270935,-0.717690253282095,0.0,True,0.011031866073608398,-1.2049998044967651,-0.8299989104270935,-0.7176990509033203,0.0,0.0,0.0
1759839279.7914057,0,-1.2049998044967651,-0.8299989104270935,-0.7176906875010012,0.0,True,0.011549234390258789,-1.2049998044967651,-0.8299989104270935,-0.7176990509033203,0.0,0.0,0.0
1759839279.8022063,0,-1.2049998044967651,-0.8299989104270935,-0.7176911906454428,0.0,True,0.010800600051879883,-1.2049998044967651,-0.8299989104270935,-0.7176990509033203,0.0,0.0,0.0
1759839279.8132176,0,-1.2049998044967651,-0.8299989104270935,-0.7176915937195307,0.0,True,0.011011362075805664,-1.2049998044967651,-0.8299989104270935,-0.7176990509033203,0.0,0.0,0.0
1759839279.8235123,0,-1.2049998044967651,-0.8299989104270935,-0.7176920494391048,0.0,True,0.010294675827026367,-1.2049998044967651,-0.8299989104270935,-0.7176990509033203,0.0,0.0,0.0
1759839279.834032,0,-1.2049998044967651,-0.8299989104270935,-0.7176924049266944,0.0,True,0.010519742965698242,-1.2049998044967651,-0.8299989104270935,-0.7176990509033203,0.0,0.0,0.0
1759839279.845058,0,-1.2049998044967651,-0.8299989104270935,-0.717692644273134,0.0,True,0.01102590560913086,-1.2049998044967651,-0.8299989104270935,-0.7176990509033203,0.0,0.0,0.0
1759839279.8559995,0,-1.2049998044967651,-0.8299989104270935,-0.7176928818453607,0.0,True,0.010941505432128906,-1.2049998044967651,-0.8299989104270935,-0.7176990509033203,0.0,0.0,0.0
1759839279.866693,0,-1.2049998044967651,-0.8299989104270935,-0.7176931409607281,0.0,True,0.010693550109863281,-1.2049998044967651,-0.8299989104270935,-0.7176990509033203,0.0,0.0,0.0
1759839279.8774905,0,-1.2049998044967651,-0.8299989104270935,-0.7176933685496554,0.0,True,0.010797500610351562,-1.2049998044967651,-0.8299989104270935,-0.7176990509033203,0.0,0.0,0.0
1759839279.887817,0,-1.2049998044967651,-0.8299989104270935,-0.7176936360674944,0.0,True,0.010326385498046875,-1.2049998044967651,-0.8299989104270935,-0.7176990509033203,0.0,0.0,0.0
1759839279.898421,0,-1.2049998044967651,-0.8299989104270935,-0.71769384429928,0.0,True,0.010604143142700195,-1.2049998044967651,-0.8299989104270935,-0.7176990509033203,0.0,0.0,0.0
1759839279.9094813,0,-1.2049998044967651,-0.8299989104270935,-0.71769398726817,0.0,True,0.011060237884521484,-1.2049998044967651,-0.8299989104270935,-0.7176990509033203,0.0,0.0,0.0
1759839279.91986,0,-1.2049998044967651,-0.8299989104270935,-0.7176942052819442,0.0,True,0.010378599166870117,-1.2049998044967651,-0.8299989104270935,-0.7176990509033203,0.0,0.0,0.0
1759839279.9310875,0,-1.2049998044967651,-0.8299989104270935,-0.717694321733255,0.0,True,0.011227607727050781,-1.2049998044967651,-0.8299989104270935,-0.7176990509033203,0.0,0.0,0.0
1759839279.942197,0,-1.2049998044967651,-0.8299989104270935,-0.7176944575066209,0.0,True,0.011109590530395508,-1.2049998044967651,-0.8299989104270935,-0.7176990509033203,0.0,0.0,0.0
1759839279.9543853,0,-1.2049998044967651,-0.8299989104270935,-0.7176945006063136,0.0,True,0.012188196182250977,-1.2049998044967651,-0.8299989104270935,-0.7176990509033203,0.0,0.0,0.0
1759839279.9655485,0,-1.2049998044967651,-0.8299989104270935,-0.7176946694282762,0.0,True,0.01116323471069336,-1.2049998044967651,-0.8299989104270935,-0.7176990509033203,0.0,0.0,0.0
1759839279.9771018,0,-1.2049998044967651,-0.8299989104270935,-0.7176948057634362,0.0,True,0.011553287506103516,-1.2049998044967651,-0.8299989104270935,-0.7176990509033203,0.0,0.0,0.0
1759839279.9881873,0,-1.2049998044967651,-0.8299989104270935,-0.7176949828400474,0.0,True,0.01108551025390625,-1.2049998044967651,-0.8299989104270935,-0.7176990509033203,0.0,0.0,0.0
1759839279.999553,0,-1.2049998044967651,-0.8299989104270935,-0.7176951273166488,0.0,True,0.011365652084350586,-1.2049998044967651,-0.8299989104270935,-0.7176990509033203,0.0,0.0,0.0
1759839280.0110211,0,-1.2049998044967651,-0.8299989104270935,-0.717695259197507,0.0,True,0.011468172073364258,-1.2049998044967651,-0.8299989104270935,-0.7176990509033203,0.0,0.0,0.0
1759839280.0213332,0,-1.2049998044967651,-0.8299989104270935,-0.7176954749687976,0.0,True,0.010312080383300781,-1.2049998044967651,-0.8299989104270935,-0.7176990509033203,0.0,0.0,0.0
1759839280.0325513,0,-1.2049998044967651,-0.8299989104270935,-0.7176955980432247,0.0,True,0.011218070983886719,-1.2049998044967651,-0.8299989104270935,-0.7176990509033203,0.0,0.0,0.0
1759839280.0426943,0,-1.2049998044967651,-0.8299989104270935,-0.7176957871073153,0.0,True,0.010143041610717773,-1.2049998044967651,-0.8299989104270935,-0.7176990509033203,0.0,0.0,0.0
1759839280.053033,0,-1.2049998044967651,-0.8299989104270935,-0.717695938399121,0.0,True,0.010338783264160156,-1.2049998044967651,-0.8299989104270935,-0.7176990509033203,0.0,0.0,0.0
1759839280.063763,0,-1.2049998044967651,-0.8299989104270935,-0.7176960446334366,0.0,True,0.010729789733886719,-1.2049998044967651,-0.8299989104270935,-0.7176990509033203,0.0,0.0,0.0
1759839280.0738575,0,-1.2049998044967651,-0.8299989104270935,-0.717696184003259,0.0,True,0.010094642639160156,-1.2049998044967651,-0.8299989104270935,-0.7176990509033203,0.0,0.0,0.0
1759839280.0846438,0,-1.2049998044967651,-0.8299989104270935,-0.7176962663626156,0.0,True,0.010786294937133789,-1.2049998044967651,-0.8299989104270935,-0.7176990509033203,0.0,0.0,0.0
1759839280.0947645,0,-1.2049998044967651,-0.8299989104270935,-0.7176963856965983,0.0,True,0.010120630264282227,-1.2049998044967651,-0.8299989104270935,-0.7176990509033203,0.0,0.0,0.0
1759839280.1061165,0,-1.2049998044967651,-0.8299989104270935,-0.7176964248364506,0.0,True,0.011352062225341797,-1.2049998044967651,-0.8299989104270935,-0.7176990509033203,0.0,0.0,0.0
1759839280.117493,0,-1.2049998044967651,-0.8299989104270935,-0.7176964729497008,0.0,True,0.011376380920410156,-1.2049998044967651,-0.8299989104270935,-0.7176990509033203,0.0,0.0,0.0
1759839280.1286716,0,-1.2049998044967651,-0.8299989104270935,-0.7176965437402103,0.0,True,0.011178731918334961,-1.2049998044967651,-0.8299989104270935,-0.7176990509033203,0.0,0.0,0.0
1759839280.1393182,0,-1.2049998044967651,-0.8299989104270935,-0.7176966463035122,0.0,True,0.010646581649780273,-1.2049998044967651,-0.8299989104270935,-0.7176990509033203,0.0,0.0,0.0
1759839280.1502764,0,-1.2049998044967651,-0.8299989104270935,-0.7176967269255563,0.0,True,0.010958194732666016,-1.2049998044967651,-0.8299989104270935,-0.7176990509033203,0.0,0.0,0.0
1759839280.1604009,0,-1.2049998044967651,-0.8299989104270935,-0.7176968437572349,0.0,True,0.010124444961547852,-1.2049998044967651,-0.8299989104270935,-0.7176990509033203,0.0,0.0,0.0
1759839280.1705632,0,-1.2049998044967651,-0.8299989104270935,-0.7176969448669368,0.0,True,0.010162353515625,-1.2049998044967651,-0.8299989104270935,-0.7176990509033203,0.0,0.0,0.0
1759839280.1810894,0,-1.2049998044967651,-0.8299989104270935,-0.7176970168406953,0.0,True,0.010526180267333984,-1.2049998044967651,-0.8299989104270935,-0.7176990509033203,0.0,0.0,0.0
1759839280.1917295,0,-1.2049998044967651,-0.8299989104270935,-0.7176970791013488,0.0,True,0.010640144348144531,-1.2049998044967651,-0.8299989104270935,-0.7176990509033203,0.0,0.0,0.0
1759839280.2032576,0,-1.2049998044967651,-0.8299989104270935,-0.7176971035872377,0.0,True,0.01152801513671875,-1.2049998044967651,-0.8299989104270935,-0.7176990509033203,0.0,0.0,0.0
1759839280.2137084,0,-1.2049998044967651,-0.8299989104270935,-0.7176971816123991,0.0,True,0.01045083999633789,-1.2049998044967651,-0.8299989104270935,-0.7176990509033203,0.0,0.0,0.0
1759839280.225046,0,-1.2049998044967651,-0.8299989104270935,-0.7176972219435811,0.0,True,0.011337518692016602,-1.2049998044967651,-0.8299989104270935,-0.7176990509033203,0.0,0.0,0.0
1759839280.236454,0,-1.2049998044967651,-0.8299989104270935,-0.7176972639469703,0.0,True,0.011408090591430664,-1.2049998044967651,-0.8299989104270935,-0.7176990509033203,0.0,0.0,0.0
1759839280.2478945,0,-1.2049998044967651,-0.8299989104270935,-0.7176973105779609,0.0,True,0.011440515518188477,-1.2049998044967651,-0.8299989104270935,-0.7176990509033203,0.0,0.0,0.0
1759839280.2584515,0,-1.2049998044967651,-0.8299989104270935,-0.7176973917206269,0.0,True,0.010556936264038086,-1.2049998044967651,-0.8299989104270935,-0.7176990509033203,0.0,0.0,0.0
1759839280.2695973,0,-1.2049998044967651,-0.8299989104270935,-0.7176974459797574,0.0,True,0.011145830154418945,-1.2049998044967651,-0.8299989104270935,-0.7176990509033203,0.0,0.0,0.0
1759839280.2796915,0,-1.2049998044967651,-0.8299989104270935,-0.7176975320073691,0.0,True,0.010094165802001953,-1.2049998044967651,-0.8299989104270935,-0.7176990509033203,0.0,0.0,0.0
1759839280.2897396,0,-1.2049998044967651,-0.8299989104270935,-0.71769760845444,0.0,True,0.010048151016235352,-1.2049998044967651,-0.8299989104270935,-0.7176990509033203,0.0,0.0,0.0
1759839280.3008027,0,-1.2049998044967651,-0.8299989104270935,-0.7176976430076358,0.0,True,0.011063098907470703,-1.2049998044967651,-0.8299989104270935,-0.7176990509033203,0.0,0.0,0.0
1759839280.3112774,0,-1.2049998044967651,-0.8299989104270935,-0.7176976955971774,0.0,True,0.010474681854248047,-1.2049998044967651,-0.8299989104270935,-0.7176990509033203,0.0,0.0,0.0
1759839280.3212986,0,-1.2049998044967651,-0.8299989104270935,-0.7176977584321413,0.0,True,0.010021209716796875,-1.2049998044967651,-0.8299989104270935,-0.7176990509033203,0.0,0.0,0.0
1759839280.3317907,0,-1.2049998044967651,-0.8299989104270935,-0.7176978010376125,0.0,True,0.010492086410522461,-1.2049998044967651,-0.8299989104270935,-0.7176990509033203,0.0,0.0,0.0
1759839280.342512,0,-1.2049998044967651,-0.8299989104270935,-0.7176978348730501,0.0,True,0.010721206665039062,-1.2049998044967651,-0.8299989104270935,-0.7176990509033203,0.0,0.0,0.0
1759839280.353349,0,-1.2049998044967651,-0.8299989104270935,-0.7176978663651568,0.0,True,0.010837078094482422,-1.2049998044967651,-0.8299989104270935,-0.7176990509033203,0.0,0.0,0.0
1759839280.3659294,0,-1.2049998044967651,-0.8299989104270935,-0.7176978565669927,0.0,True,0.012580394744873047,-1.2049998044967651,-0.8299989104270935,-0.7176990509033203,0.0,0.0,0.0
1759839280.3767166,0,-1.2049998044967651,-0.8299989104270935,-0.7176979038762195,0.0,True,0.010787248611450195,-1.2049998044967651,-0.8299989104270935,-0.7176990509033203,0.0,0.0,0.0
1759839280.3872225,0,-1.2049998044967651,-0.8299989104270935,-0.717697957437764,0.0,True,0.010505914688110352,-1.2049998044967651,-0.8299989104270935,-0.7176990509033203,0.0,0.0,0.0
1759839280.3987389,0,-1.2049998044967651,-0.8299989104270935,-0.7176979828581462,0.0,True,0.011516332626342773,-1.2049998044967651,-0.8299989104270935,-0.7176990509033203,0.0,0.0,0.0
1759839280.410116,0,-1.2049998044967651,-0.8299989104270935,-0.7176980130640924,0.0,True,0.011377096176147461,-1.2049998044967651,-0.8299989104270935,-0.7176990509033203,0.0,0.0,0.0
1759839280.421572,0,-1.2049998044967651,-0.8299989104270935,-0.7176980434061164,0.0,True,0.011456012725830078,-1.2049998044967651,-0.8299989104270935,-0.7176990509033203,0.0,0.0,0.0
1759839280.431811,0,-1.2049998044967651,-0.8299989104270935,-0.7176980989795503,0.0,True,0.010239124298095703,-1.2049998044967651,-0.8299989104270935,-0.7176990509033203,0.0,0.0,0.0
1759839280.442608,0,-1.2049998044967651,-0.8299989104270935,-0.7176981368938886,0.0,True,0.01079702377319336,-1.2049998044967651,-0.8299989104270935,-0.7176990509033203,0.0,0.0,0.0
1759839280.452983,0,-1.2049998044967651,-0.8299989104270935,-0.7176981787907923,0.0,True,0.010374784469604492,-1.2049998044967651,-0.8299989104270935,-0.7176990509033203,0.0,0.0,0.0
1759839280.4644516,0,-1.2049998044967651,-0.8299989104270935,-0.7176981964955154,0.0,True,0.011468648910522461,-1.2049998044967651,-0.8299989104270935,-0.7176990509033203,0.0,0.0,0.0
1759839280.4753633,0,-1.2049998044967651,-0.8299989104270935,-0.7176982258220157,0.0,True,0.010911703109741211,-1.2049998044967651,-0.8299989104270935,-0.7176990509033203,0.0,0.0,0.0
1759839280.4868631,0,-1.2049998044967651,-0.8299989104270935,-0.71769824507723,0.0,True,0.011499881744384766,-1.2049998044967651,-0.8299989104270935,-0.7176990509033203,0.0,0.0,0.0
1759839280.498197,0,-1.2049998044967651,-0.8299989104270935,-0.7176982689144111,0.0,True,0.011333942413330078,-1.2049998044967651,-0.8299989104270935,-0.7176990509033203,0.0,0.0,0.0
1759839280.509686,0,-1.2049998044967651,-0.8299989104270935,-0.7176982913318053,0.0,True,0.011488914489746094,-1.2049998044967651,-0.8299989104270935,-0.7176990509033203,0.0,0.0,0.0
1759839280.5209587,0,-1.2049998044967651,-0.8299989104270935,-0.7176983179326193,0.0,True,0.011272668838500977,-1.2049998044967651,-0.8299989104270935,-0.7176990509033203,0.0,0.0,0.0
1759839280.531739,0,-1.2049998044967651,-0.8299989104270935,-0.7176983511181465,0.0,True,0.01078033447265625,-1.2049998044967651,-0.8299989104270935,-0.7176990509033203,0.0,0.0,0.0
1759839280.5427904,0,-1.2049998044967651,-0.8299989104270935,-0.7176983774685528,0.0,True,0.011051416397094727,-1.2049998044967651,-0.8299989104270935,-0.7176990509033203,0.0,0.0,0.0
1759839280.5529273,0,-1.2049998044967651,-0.8299989104270935,-0.7176984142446763,0.0,True,0.010136842727661133,-1.2049998044967651,-0.8299989104270935,-0.7176990509033203,0.0,0.0,0.0
1759839280.56735,0,-1.2049998044967651,-0.8299989104270935,-0.7176983908952685,0.0,True,0.01442265510559082,-1.2049998044967651,-0.8299989104270935,-0.7176990509033203,0.0,0.0,0.0
1759839280.5774608,0,-1.2049998044967651,-0.8299989104270935,-0.7176984336367696,0.0,True,0.010110855102539062,-1.2049998044967651,-0.8299989104270935,-0.7176990509033203,0.0,0.0,0.0
1759839280.587593,0,-1.2049998044967651,-0.8299989104270935,-0.717698472214364,0.0,True,0.010132312774658203,-1.2049998044967651,-0.8299989104270935,-0.7176990509033203,0.0,0.0,0.0
1759839280.5980997,0,-1.2049998044967651,-0.8299989104270935,-0.7176984995552864,0.0,True,0.010506629943847656,-1.2049998044967651,-0.8299989104270935,-0.7176990509033203,0.0,0.0,0.0
1759839280.6094465,0,-1.2049998044967651,-0.8299989104270935,-0.717698513573179,0.0,True,0.011346817016601562,-1.2049998044967651,-0.8299989104270935,-0.7176990509033203,0.0,0.0,0.0
1759839280.6204793,0,-1.2049998044967651,-0.8299989104270935,-0.7176985313586215,0.0,True,0.011032819747924805,-1.2049998044967651,-0.8299989104270935,-0.7176990509033203,0.0,0.0,0.0
1759839280.631501,0,-1.2049998044967651,-0.8299989104270935,-0.7176985491054673,0.0,True,0.011021614074707031,-1.2049998044967651,-0.8299989104270935,-0.7176990509033203,0.0,0.0,0.0
1759839280.642984,0,-1.2049998044967651,-0.8299989104270935,-0.7176985616867917,0.0,True,0.011482954025268555,-1.2049998044967651,-0.8299989104270935,-0.7176990509033203,0.0,0.0,0.0
1759839280.6534107,0,-1.2049998044967651,-0.8299989104270935,-0.7176985853949418,0.0,True,0.010426759719848633,-1.2049998044967651,-0.8299989104270935,-0.7176990509033203,0.0,0.0,0.0
1759839280.663528,0,-1.2049998044967651,-0.8299989104270935,-0.7176986096451774,0.0,True,0.010117292404174805,-1.2049998044967651,-0.8299989104270935,-0.7176990509033203,0.0,0.0,0.0
1759839280.6739511,0,-1.2049998044967651,-0.8299989104270935,-0.7176986276052872,0.0,True,0.01042318344116211,-1.2049998044967651,-0.8299989104270935,-0.7176990509033203,0.0,0.0,0.0
1759839280.6847823,0,-1.2049998044967651,-0.8299989104270935,-0.7176986399502887,0.0,True,0.010831117630004883,-1.2049998044967651,-0.8299989104270935,-0.7176990509033203,0.0,0.0,0.0
1759839280.6963742,0,-1.2049998044967651,-0.8299989104270935,-0.7176986456170464,0.0,True,0.011591911315917969,-1.2049998044967651,-0.8299989104270935,-0.7176990509033203,0.0,0.0,0.0
1759839280.7068214,0,-1.2049998044967651,-0.8299989104270935,-0.7176986627608741,0.0,True,0.010447263717651367,-1.2049998044967651,-0.8299989104270935,-0.7176990509033203,0.0,0.0,0.0
1759839280.7169785,0,-1.2049998044967651,-0.8299989104270935,-0.7176986811715267,0.0,True,0.010157108306884766,-1.2049998044967651,-0.8299989104270935,-0.7176990509033203,0.0,0.0,0.0
1759839280.7276382,0,-1.2049998044967651,-0.8299989104270935,-0.7176986934126663,0.0,True,0.01065969467163086,-1.2049998044967651,-0.8299989104270935,-0.7176990509033203,0.0,0.0,0.0
1759839280.7390175,0,-1.2049998044967651,-0.8299989104270935,-0.7176986995290484,0.0,True,0.011379241943359375,-1.2049998044967651,-0.8299989104270935,-0.7176990509033203,0.0,0.0,0.0
1759839280.7503462,0,-1.2049998044967651,-0.8299989104270935,-0.7176987073490935,0.0,True,0.011328697204589844,-1.2049998044967651,-0.8299989104270935,-0.7176990509033203,0.0,0.0,0.0
1759839280.7608304,0,-1.2049998044967651,-0.8299989104270935,-0.7176987221986622,0.0,True,0.01048421859741211,-1.2049998044967651,-0.8299989104270935,-0.7176990509033203,0.0,0.0,0.0
1759839280.7711957,0,-1.2049998044967651,-0.8299989104270935,-0.7176987367317302,0.0,True,0.01036524772644043,-1.2049998044967651,-0.8299989104270935,-0.7176990509033203,0.0,0.0,0.0
1759839280.7813468,0,-1.2049998044967651,-0.8299989104270935,-0.7176987510478252,0.0,True,0.010151147842407227,-1.2049998044967651,-0.8299989104270935,-0.7176990509033203,0.0,0.0,0.0
1759839280.7920423,0,-1.2049998044967651,-0.8299989104270935,-0.7176987601909737,0.0,True,0.010695457458496094,-1.2049998044967651,-0.8299989104270935,-0.7176990509033203,0.0,0.0,0.0
1759839280.8029222,0,-1.2049998044967651,-0.8299989104270935,-0.7176987678401368,0.0,True,0.010879993438720703,-1.2049998044967651,-0.8299989104270935,-0.7176990509033203,0.0,0.0,0.0
1759839280.814521,0,-1.2049998044967651,-0.8299989104270935,-0.7176987715556518,0.0,True,0.011598825454711914,-1.2049998044967651,-0.8299989104270935,-0.7176990509033203,0.0,0.0,0.0
1759839280.8253763,0,-1.2049998044967651,-0.8299989104270935,-0.7176987810346578,0.0,True,0.01085519790649414,-1.2049998044967651,-0.8299989104270935,-0.7176990509033203,0.0,0.0,0.0
1759839280.8359509,0,-1.2049998044967651,-0.8299989104270935,-0.7176987920755238,0.0,True,0.010574579238891602,-1.2049998044967651,-0.8299989104270935,-0.7176990509033203,0.0,0.0,0.0
1759839280.8460307,0,-1.2049998044967651,-0.8299989104270935,-0.7176988048661848,0.0,True,0.01007986068725586,-1.2049998044967651,-0.8299989104270935,-0.7176990509033203,0.0,0.0,0.0
1759839280.8576837,0,-1.2049998044967651,-0.8299989104270935,-0.7176988079443518,0.0,True,0.011652946472167969,-1.2049998044967651,-0.8299989104270935,-0.7176990509033203,0.0,0.0,0.0
1759839280.8690445,0,-1.2049998044967651,-0.8299989104270935,-0.7176988135250291,0.0,True,0.011360883712768555,-1.2049998044967651,-0.8299989104270935,-0.7176990509033203,0.0,0.0,0.0
1759839280.8805082,0,-1.2049998044967651,-0.8299989104270935,-0.7176988194823899,0.0,True,0.011463642120361328,-1.2049998044967651,-0.8299989104270935,-0.7176990509033203,0.0,0.0,0.0
1759839280.890906,0,-1.2049998044967651,-0.8299989104270935,-0.717698830919236,0.0,True,0.010397911071777344,-1.2049998044967651,-0.8299989104270935,-0.7176990509033203,0.0,0.0,0.0
1759839280.9013119,0,-1.2049998044967651,-0.8299989104270935,-0.7176988411502698,0.0,True,0.010405778884887695,-1.2049998044967651,-0.8299989104270935,-0.7176990509033203,0.0,0.0,0.0
1759839280.9125142,0,-1.2049998044967651,-0.8299989104270935,-0.7176988466843319,0.0,True,0.011202335357666016,-1.2049998044967651,-0.8299989104270935,-0.7176990509033203,0.0,0.0,0.0
1759839280.9231246,0,-1.2049998044967651,-0.8299989104270935,-0.7176988547527223,0.0,True,0.010610342025756836,-1.2049998044967651,-0.8299989104270935,-0.7176990509033203,0.0,0.0,0.0
1759839280.9335537,0,-1.2049998044967651,-0.8299989104270935,-0.7176988630585814,0.0,True,0.010429143905639648,-1.2049998044967651,-0.8299989104270935,-0.7176990509033203,0.0,0.0,0.0
1759839280.9440532,0,-1.2049998044967651,-0.8299989104270935,-0.7176988702843126,0.0,True,0.01049947738647461,-1.2049998044967651,-0.8299989104270935,-0.7176990509033203,0.0,0.0,0.0
1759839280.9547424,0,-1.2049998044967651,-0.8299989104270935,-0.7176988761887131,0.0,True,0.010689258575439453,-1.2049998044967651,-0.8299989104270935,-0.7176990509033203,0.0,0.0,0.0
1759839280.9692085,0,-1.2049998044967651,-0.8299989104270935,-0.7176988682748657,0.0,True,0.014466047286987305,-1.2049998044967651,-0.8299989104270935,-0.7176990509033203,0.0,0.0,0.0
1759839280.980537,0,-1.2049998044967651,-0.8299989104270935,-0.7176988754065547,0.0,True,0.011328458786010742,-1.2049998044967651,-0.8299989104270935,-0.7176990509033203,0.0,0.0,0.0
1759839280.9915433,0,-1.2049998044967651,-0.8299989104270935,-0.7176988840685414,0.0,True,0.011006355285644531,-1.2049998044967651,-0.8299989104270935,-0.7176990509033203,0.0,0.0,0.0
1759839281.0018022,0,-1.2049998044967651,-0.8299989104270935,-0.7176988942022202,0.0,True,0.010258913040161133,-1.2049998044967651,-0.8299989104270935,-0.7176990509033203,0.0,0.0,0.0
1759839281.0120034,0,-1.2049998044967651,-0.8299989104270935,-0.7176989029114793,0.0,True,0.010201215744018555,-1.2049998044967651,-0.8299989104270935,-0.7176990509033203,0.0,0.0,0.0
1759839281.0221422,0,-1.2049998044967651,-0.8299989104270935,-0.7176989103877283,0.0,True,0.010138750076293945,-1.2049998044967651,-0.8299989104270935,-0.7176990509033203,0.0,0.0,0.0
1759839281.0335264,0,-1.2049998044967651,-0.8299989104270935,-0.7176989131180243,0.0,True,0.011384248733520508,-1.2049998044967651,-0.8299989104270935,-0.7176990509033203,0.0,0.0,0.0
1759839281.0436797,0,-1.2049998044967651,-0.8299989104270935,-0.7176989195983463,0.0,True,0.01015329360961914,-1.2049998044967651,-0.8299989104270935,-0.7176990509033203,0.0,0.0,0.0
1759839281.05398,0,-1.2049998044967651,-0.8299989104270935,-0.7176989250690582,0.0,True,0.010300397872924805,-1.2049998044967651,-0.8299989104270935,-0.7176990509033203,0.0,0.0,0.0
1759839281.0655065,0,-1.2049998044967651,-0.8299989104270935,-0.7176989267020009,0.0,True,0.011526346206665039,-1.2049998044967651,-0.8299989104270935,-0.7176990509033203,0.0,0.0,0.0
1759839281.077033,0,-1.2049998044967651,-0.8299989104270935,-0.7176989288958708,0.0,True,0.01152658462524414,-1.2049998044967651,-0.8299989104270935,-0.7176990509033203,0.0,0.0,0.0
1759839281.087791,0,-1.2049998044967651,-0.8299989104270935,-0.7176989335947219,0.0,True,0.010757923126220703,-1.2049998044967651,-0.8299989104270935,-0.7176990509033203,0.0,0.0,0.0
1759839281.0990312,0,-1.2049998044967651,-0.8299989104270935,-0.717698936974454,0.0,True,0.011240243911743164,-1.2049998044967651,-0.8299989104270935,-0.7176990509033203,0.0,0.0,0.0
1759839281.1093552,0,-1.2049998044967651,-0.8299989104270935,-0.7176989424824782,0.0,True,0.01032400131225586,-1.2049998044967651,-0.8299989104270935,-0.7176990509033203,0.0,0.0,0.0
1759839281.1198814,0,-1.2049998044967651,-0.8299989104270935,-0.7176989469606969,0.0,True,0.010526180267333984,-1.2049998044967651,-0.8299989104270935,-0.7176990509033203,0.0,0.0,0.0
1759839281.130385,0,-1.2049998044967651,-0.8299989104270935,-0.7176989510197487,0.0,True,0.010503530502319336,-1.2049998044967651,-0.8299989104270935,-0.7176990509033203,0.0,0.0,0.0
1759839281.1416445,0,-1.2049998044967651,-0.8299989104270935,-0.7176989531670195,0.0,True,0.01125955581665039,-1.2049998044967651,-0.8299989104270935,-0.7176990509033203,0.0,0.0,0.0
1759839281.1526675,0,-1.2049998044967651,-0.8299989104270935,-0.7176989559999836,0.0,True,0.01102304458618164,-1.2049998044967651,-0.8299989104270935,-0.7176990509033203,0.0,0.0,0.0
1759839281.1662462,0,-1.2049998044967651,-0.8299989104270935,-0.717698954048851,0.0,True,0.013578653335571289,-1.2049998044967651,-0.8299989104270935,-0.7176990509033203,0.0,0.0,0.0
1759839281.1767514,0,-1.2049998044967651,-0.8299989104270935,-0.7176989593276861,0.0,True,0.010505199432373047,-1.2049998044967651,-0.8299989104270935,-0.7176990509033203,0.0,0.0,0.0
1759839281.1875057,0,-1.2049998044967651,-0.8299989104270935,-0.7176989638052369,0.0,True,0.01075434684753418,-1.2049998044967651,-0.8299989104270935,-0.7176990509033203,0.0,0.0,0.0
1759839281.1988409,0,-1.2049998044967651,-0.8299989104270935,-0.7176989667033915,0.0,True,0.011335134506225586,-1.2049998044967651,-0.8299989104270935,-0.7176990509033203,0.0,0.0,0.0
1759839281.209721,0,-1.2049998044967651,-0.8299989104270935,-0.7176989702348067,0.0,True,0.010880231857299805,-1.2049998044967651,-0.8299989104270935,-0.7176990509033203,0.0,0.0,0.0
1759839281.2212033,0,-1.2049998044967651,-0.8299989104270935,-0.7176989725397966,0.0,True,0.01148223876953125,-1.2049998044967651,-0.8299989104270935,-0.7176990509033203,0.0,0.0,0.0
1759839281.231377,0,-1.2049998044967651,-0.8299989104270935,-0.7176989768951625,0.0,True,0.010173559188842773,-1.2049998044967651,-0.8299989104270935,-0.7176990509033203,0.0,0.0,0.0
1759839281.2422936,0,-1.2049998044967651,-0.8299989104270935,-0.7176989795820248,0.0,True,0.010916709899902344,-1.2049998044967651,-0.8299989104270935,-0.7176990509033203,0.0,0.0,0.0
1759839281.2526321,0,-1.2049998044967651,-0.8299989104270935,-0.7176989828746141,0.0,True,0.010338544845581055,-1.2049998044967651,-0.8299989104270935,-0.7176990509033203,0.0,0.0,0.0
1759839281.2629967,0,-1.2049998044967651,-0.8299989104270935,-0.717698985772028,0.0,True,0.010364532470703125,-1.2049998044967651,-0.8299989104270935,-0.7176990509033203,0.0,0.0,0.0
1759839281.2740123,0,-1.2049998044967651,-0.8299989104270935,-0.7176989874664415,0.0,True,0.011015653610229492,-1.2049998044967651,-0.8299989104270935,-0.7176990509033203,0.0,0.0,0.0
1759839281.285043,0,-1.2049998044967651,-0.8299989104270935,-0.7176989891691345,0.0,True,0.01103067398071289,-1.2049998044967651,-0.8299989104270935,-0.7176990509033203,0.0,0.0,0.0
1759839281.2961166,0,-1.2049998044967651,-0.8299989104270935,-0.7176989908983167,0.0,True,0.011073589324951172,-1.2049998044967651,-0.8299989104270935,-0.7176990509033203,0.0,0.0,0.0
1759839281.3062172,0,-1.2049998044967651,-0.8299989104270935,-0.7176989938755938,0.0,True,0.010100603103637695,-1.2049998044967651,-0.8299989104270935,-0.7176990509033203,0.0,0.0,0.0
1759839281.317604,0,-1.2049998044967651,-0.8299989104270935,-0.7176989949947039,0.0,True,0.011386871337890625,-1.2049998044967651,-0.8299989104270935,-0.7176990509033203,0.0,0.0,0.0
1759839281.328763,0,-1.2049998044967651,-0.8299989104270935,-0.7176989964929739,0.0,True,0.011158943176269531,-1.2049998044967651,-0.8299989104270935,-0.7176990509033203,0.0,0.0,0.0
1759839281.3399546,0,-1.2049998044967651,-0.8299989104270935,-0.7176989980589976,0.0,True,0.011191606521606445,-1.2049998044967651,-0.8299989104270935,-0.7176990509033203,0.0,0.0,0.0
1759839281.350802,0,-1.2049998044967651,-0.8299989104270935,-0.7176990000422698,0.0,True,0.010847330093383789,-1.2049998044967651,-0.8299989104270935,-0.7176990509033203,0.0,0.0,0.0
1759839281.3619394,0,-1.2049998044967651,-0.8299989104270935,-0.7176990016344291,0.0,True,0.01113748550415039,-1.2049998044967651,-0.8299989104270935,-0.7176990509033203,0.0,0.0,0.0
1759839281.372861,0,-1.2049998044967651,-0.8299989104270935,-0.7176990034198827,0.0,True,0.010921478271484375,-1.2049998044967651,-0.8299989104270935,-0.7176990509033203,0.0,0.0,0.0
1759839281.3835032,0,-1.2049998044967651,-0.8299989104270935,-0.7176990053964651,0.0,True,0.010642290115356445,-1.2049998044967651,-0.8299989104270935,-0.7176990509033203,0.0,0.0,0.0
1759839281.3938859,0,-1.2049998044967651,-0.8299989104270935,-0.7176990074458978,0.0,True,0.010382652282714844,-1.2049998044967651,-0.8299989104270935,-0.7176990509033203,0.0,0.0,0.0
1759839281.4044192,0,-1.2049998044967651,-0.8299989104270935,-0.7176990091328204,0.0,True,0.010533332824707031,-1.2049998044967651,-0.8299989104270935,-0.7176990509033203,0.0,0.0,0.0
1759839281.4149299,0,-1.2049998044967651,-0.8299989104270935,-0.7176990106879639,0.0,True,0.010510683059692383,-1.2049998044967651,-0.8299989104270935,-0.7176990509033203,0.0,0.0,0.0
1759839281.42549,0,-1.2049998044967651,-0.8299989104270935,-0.7176990120879285,0.0,True,0.010560035705566406,-1.2049998044967651,-0.8299989104270935,-0.7176990509033203,0.0,0.0,0.0
1759839281.436518,0,-1.2049998044967651,-0.8299989104270935,-0.71769901302976,0.0,True,0.011028051376342773,-1.2049998044967651,-0.8299989104270935,-0.7176990509033203,0.0,0.0,0.0
1759839281.4476717,0,-1.2049998044967651,-0.8299989104270935,-0.7176990139281951,0.0,True,0.011153697967529297,-1.2049998044967651,-0.8299989104270935,-0.7176990509033203,0.0,0.0,0.0
1759839281.4700396,0,-1.2049998044967651,-0.8299989104270935,-0.7176990067422828,0.0,True,0.02236795425415039,-1.2049998044967651,-0.8299989104270935,-0.7176990509033203,0.0,0,0
1759839281.480096,0,-1.2049998044967651,-0.8299989104270935,-0.717699010977709,0.0,True,0.010056495666503906,-1.2049998044967651,-0.8299989104270935,-0.7176990509033203,0.0,0,0
1759839281.491359,0,-1.2049998044967651,-0.8299989104270935,-0.7176990140671222,0.0,True,0.011262893676757812,-1.2049998044967651,-0.8299989104270935,-0.7176990509033203,0.0,0,0
1759839281.5021906,0,-1.2049998044967651,-0.8299989104270935,-0.7176990167828752,0.0,True,0.010831594467163086,-1.2049998044967651,-0.8299989104270935,-0.7176990509033203,0.0,0,0
1759839281.5136907,0,-1.2049998044967651,-0.8299989104270935,-0.7176990185554821,0.0,True,0.011500120162963867,-1.2049998044967651,-0.8299989104270935,-0.7176990509033203,0.0,0,0
1759839281.5249095,0,-1.2049998044967651,-0.8299989104270935,-0.7176990202307003,0.0,True,0.011218786239624023,-1.2049998044967651,-0.8299989104270935,-0.7176990509033203,0.0,0,0
1759839281.536412,0,-1.2049998044967651,-0.8299989104270935,-0.7176990215288406,0.0,True,0.011502504348754883,-1.2049998044967651,-0.8299989104270935,-0.7176990509033203,0.0,0,0
1759839281.546743,0,-1.2049998044967651,-0.8299989104270935,-0.7176990233567953,0.0,True,0.010330915451049805,-1.2049998044967651,-0.8299989104270935,-0.7176990509033203,0.0,0,0
1759839281.5582237,0,-1.2049998044967651,-0.8299989104270935,-0.7176990242847427,0.0,True,0.01148080825805664,-1.2049998044967651,-0.8299989104270935,-0.7176990509033203,0.0,0,0
1759839281.5713186,0,-1.2049998044967651,-0.8299989104270935,-0.717699024318696,0.0,True,0.013094902038574219,-1.2049998044967651,-0.8299989104270935,-0.7176990509033203,0.0,0,0
1759839281.5794692,0,-1.2049998044967651,-0.8299989104270935,-0.7176990270673578,0.0,True,0.008150577545166016,-1.2049998044967651,-0.8299989104270935,-0.7176990509033203,0.0,0,0
1759839281.5901868,0,-1.2049998044967651,-0.8299989104270935,-0.7176990280492088,0.0,True,0.010717630386352539,-1.2049998044967651,-0.8299989104270935,-0.7176990509033203,0.0,0,0
1759839281.601027,0,-1.2049998044967651,-0.8299989104270935,-0.7176990287837111,0.0,True,0.010840177536010742,-1.2049998044967651,-0.8299989104270935,-0.7176990509033203,0.0,0,0
1759839281.6121383,0,-1.2049998044967651,-0.8299989104270935,-0.7176990293624463,0.0,True,0.011111259460449219,-1.2049998044967651,-0.8299989104270935,-0.7176990509033203,0.0,0,0
1759839281.6231058,0,-1.2049998044967651,-0.8299989104270935,-0.7176990300256083,0.0,True,0.010967493057250977,-1.2049998044967651,-0.8299989104270935,-0.7176990509033203,0.0,0,0
1759839281.6344454,0,-1.2049998044967651,-0.8299989104270935,-0.7176990305316018,0.0,True,0.011339664459228516,-1.2049998044967651,-0.8299989104270935,-0.7176990509033203,0.0,0,0
1759839281.6447854,0,-1.2049998044967651,-0.8299989104270935,-0.7176990314855107,0.0,True,0.010339975357055664,-1.2049998044967651,-0.8299989104270935,-0.7176990509033203,0.0,0,0
1759839281.6561973,0,-1.2049998044967651,-0.8299989104270935,-0.7176990319212919,0.0,True,0.011411905288696289,-1.2049998044967651,-0.8299989104270935,-0.7176990509033203,0.0,0,0
1759839281.6662886,0,-1.2049998044967651,-0.8299989104270935,-0.7176990328902342,0.0,True,0.010091304779052734,-1.2049998044967651,-0.8299989104270935,-0.7176990509033203,0.0,0,0
1759839281.6772213,0,-1.2049998044967651,-0.8299989104270935,-0.7176990334370217,0.0,True,0.010932683944702148,-1.2049998044967651,-0.8299989104270935,-0.7176990509033203,0.0,0,0
1759839281.6880326,0,-1.2049998044967651,-0.8299989104270935,-0.7176990340020808,0.0,True,0.010811328887939453,-1.2049998044967651,-0.8299989104270935,-0.7176990509033203,0.0,0,0
1759839281.6982577,0,-1.2049998044967651,-0.8299989104270935,-0.7176990347577572,0.0,True,0.010225057601928711,-1.2049998044967651,-0.8299989104270935,-0.7176990509033203,0.0,0,0
1759839281.7088795,0,-1.2049998044967651,-0.8299989104270935,-0.717699035301802,0.0,True,0.010621786117553711,-1.2049998044967651,-0.8299989104270935,-0.7176990509033203,0.0,0,0
1759839281.7197556,0,-1.2049998044967651,-0.8299989104270935,-0.7176990357278026,0.0,True,0.010876178741455078,-1.2049998044967651,-0.8299989104270935,-0.7176990509033203,0.0,0,0
1759839281.7302468,0,-1.2049998044967651,-0.8299989104270935,-0.7176990362815765,0.0,True,0.010491132736206055,-1.2049998044967651,-0.8299989104270935,-0.7176990509033203,0.0,0,0
1759839281.7418363,0,-1.2049998044967651,-0.8299989104270935,-0.7176990364716413,0.0,True,0.011589527130126953,-1.2049998044967651,-0.8299989104270935,-0.7176990509033203,0.0,0,0
1759839281.7525167,0,-1.2049998044967651,-0.8299989104270935,-0.717699036998205,0.0,True,0.010680437088012695,-1.2049998044967651,-0.8299989104270935,-0.7176990509033203,0.0,0,0
1759839281.7626443,0,-1.2049998044967651,-0.8299989104270935,-0.7176990376700374,0.0,True,0.010127544403076172,-1.2049998044967651,-0.8299989104270935,-0.7176990509033203,0.0,0,0
1759839281.773066,0,-1.2049998044967651,-0.8299989104270935,-0.7176990381798376,0.0,True,0.0104217529296875,-1.2049998044967651,-0.8299989104270935,-0.7176990509033203,0.0,0,0
1759839281.783645,0,-1.2049998044967651,-0.8299989104270935,-0.7176990385976669,0.0,True,0.01057887077331543,-1.2049998044967651,-0.8299989104270935,-0.7176990509033203,0.0,0,0
1759839281.7949333,0,-1.2049998044967651,-0.8299989104270935,-0.7176990388125439,0.0,True,0.01128840446472168,-1.2049998044967651,-0.8299989104270935,-0.7176990509033203,0.0,0,0
1759839281.805438,0,-1.2049998044967651,-0.8299989104270935,-0.717699039265927,0.0,True,0.010504722595214844,-1.2049998044967651,-0.8299989104270935,-0.7176990509033203,0.0,0,0
1759839281.815742,0,-1.2049998044967651,-0.8299989104270935,-0.7176990397494869,0.0,True,0.010303974151611328,-1.2049998044967651,-0.8299989104270935,-0.7176990509033203,0.0,0,0
1759839281.8266408,0,-1.2049998044967651,-0.8299989104270935,-0.7176990400479824,0.0,True,0.010898828506469727,-1.2049998044967651,-0.8299989104270935,-0.7176990509033203,0.0,0,0
1759839281.8373652,0,-1.2049998044967651,-0.8299989104270935,-0.7176990403880232,0.0,True,0.010724306106567383,-1.2049998044967651,-0.8299989104270935,-0.7176990509033203,0.0,0,0
1759839281.8483934,0,-1.2049998044967651,-0.8299989104270935,-0.7176990406591557,0.0,True,0.011028289794921875,-1.2049998044967651,-0.8299989104270935,-0.7176990509033203,0.0,0,0
1759839281.8592248,0,-1.2049998044967651,-0.8299989104270935,-0.717699040984936,0.0,True,0.010831356048583984,-1.2049998044967651,-0.8299989104270935,-0.7176990509033203,0.0,0,0
1759839281.870684,0,-1.2049998044967651,-0.8299989104270935,-0.7176990411816906,0.0,True,0.011459112167358398,-1.2049998044967651,-0.8299989104270935,-0.7176990509033203,0.0,0,0
1759839281.8813457,0,-1.2049998044967651,-0.8299989104270935,-0.7176990415672417,0.0,True,0.010661840438842773,-1.2049998044967651,-0.8299989104270935,-0.7176990509033203,0.0,0,0
1759839281.8920026,0,-1.2049998044967651,-0.8299989104270935,-0.7176990419345071,0.0,True,0.01065683364868164,-1.2049998044967651,-0.8299989104270935,-0.7176990509033203,0.0,0,0
1759839281.9034963,0,-1.2049998044967651,-0.8299989104270935,-0.7176990421197935,0.0,True,0.011493682861328125,-1.2049998044967651,-0.8299989104270935,-0.7176990509033203,0.0,0,0
1759839281.9147525,0,-1.2049998044967651,-0.8299989104270935,-0.7176990423709828,0.0,True,0.011256217956542969,-1.2049998044967651,-0.8299989104270935,-0.7176990509033203,0.0,0,0
1759839281.9249854,0,-1.2049998044967651,-0.8299989104270935,-0.7176990428093291,0.0,True,0.010232925415039062,-1.2049998044967651,-0.8299989104270935,-0.7176990509033203,0.0,0,0
1759839281.9357722,0,-1.2049998044967651,-0.8299989104270935,-0.7176990431055934,0.0,True,0.010786771774291992,-1.2049998044967651,-0.8299989104270935,-0.7176990509033203,0.0,0,0
1759839281.9461088,0,-1.2049998044967651,-0.8299989104270935,-0.7176990434493433,0.0,True,0.010336637496948242,-1.2049998044967651,-0.8299989104270935,-0.7176990509033203,0.0,0,0
1759839281.9563935,0,-1.2049998044967651,-0.8299989104270935,-0.7176990437662063,0.0,True,0.010284662246704102,-1.2049998044967651,-0.8299989104270935,-0.7176990509033203,0.0,0,0
1759839281.966923,0,-1.2049998044967651,-0.8299989104270935,-0.7176990440120861,0.0,True,0.010529518127441406,-1.2049998044967651,-0.8299989104270935,-0.7176990509033203,0.0,0,0
1759839281.9783776,0,-1.2049998044967651,-0.8299989104270935,-0.717699044108489,0.0,True,0.011454582214355469,-1.2049998044967651,-0.8299989104270935,-0.7176990509033203,0.0,0,0
1759839281.9892771,0,-1.2049998044967651,-0.8299989104270935,-0.7176990443138038,0.0,True,0.010899543762207031,-1.2049998044967651,-0.8299989104270935,-0.7176990509033203,0.0,0,0
1759839282.0002134,0,-1.2049998044967651,-0.8299989104270935,-0.7176990445212699,0.0,True,0.010936260223388672,-1.2049998044967651,-0.8299989104270935,-0.7176990509033203,0.0,0,0
1759839282.0102646,0,-1.2049998044967651,-0.8299989104270935,-0.7176990448426199,0.0,True,0.010051250457763672,-1.2049998044967651,-0.8299989104270935,-0.7176990509033203,0.0,0,0
1759839282.0204864,0,-1.2049998044967651,-0.8299989104270935,-0.7176990451039504,0.0,True,0.010221719741821289,-1.2049998044967651,-0.8299989104270935,-0.7176990509033203,0.0,0,0
1759839282.0316718,0,-1.2049998044967651,-0.8299989104270935,-0.717699045215987,0.0,True,0.011185407638549805,-1.2049998044967651,-0.8299989104270935,-0.7176990509033203,0.0,0,0
1759839282.0421438,0,-1.2049998044967651,-0.8299989104270935,-0.7176990454258334,0.0,True,0.01047205924987793,-1.2049998044967651,-0.8299989104270935,-0.7176990509033203,0.0,0,0
1759839282.0538306,0,-1.2049998044967651,-0.8299989104270935,-0.7176990454891232,0.0,True,0.01168680191040039,-1.2049998044967651,-0.8299989104270935,-0.7176990509033203,0.0,0,0
1759839282.0640745,0,-1.2049998044967651,-0.8299989104270935,-0.7176990457403001,0.0,True,0.010243892669677734,-1.2049998044967651,-0.8299989104270935,-0.7176990509033203,0.0,0,0
1759839282.0747082,0,-1.2049998044967651,-0.8299989104270935,-0.7176990459303152,0.0,True,0.010633707046508789,-1.2049998044967651,-0.8299989104270935,-0.7176990509033203,0.0,0,0
1759839282.085871,0,-1.2049998044967651,-0.8299989104270935,-0.7176990460511306,0.0,True,0.011162757873535156,-1.2049998044967651,-0.8299989104270935,-0.7176990509033203,0.0,0,0
1759839282.0966778,0,-1.2049998044967651,-0.8299989104270935,-0.7176990462147472,0.0,True,0.010806798934936523,-1.2049998044967651,-0.8299989104270935,-0.7176990509033203,0.0,0,0
1759839282.1069798,0,-1.2049998044967651,-0.8299989104270935,-0.7176990464241229,0.0,True,0.010302066802978516,-1.2049998044967651,-0.8299989104270935,-0.7176990509033203,0.0,0,0
1759839282.1175072,0,-1.2049998044967651,-0.8299989104270935,-0.7176990465917044,0.0,True,0.010527372360229492,-1.2049998044967651,-0.8299989104270935,-0.7176990509033203,0.0,0,0
1759839282.1279228,0,-1.2049998044967651,-0.8299989104270935,-0.7176990467556728,0.0,True,0.01041555404663086,-1.2049998044967651,-0.8299989104270935,-0.7176990509033203,0.0,0,0
1759839282.1393955,0,-1.2049998044967651,-0.8299989104270935,-0.7176990468154152,0.0,True,0.011472702026367188,-1.2049998044967651,-0.8299989104270935,-0.7176990509033203,0.0,0,0
1759839282.1508193,0,-1.2049998044967651,-0.8299989104270935,-0.7176990468973035,0.0,True,0.011423826217651367,-1.2049998044967651,-0.8299989104270935,-0.7176990509033203,0.0,0,0
1759839282.1611266,0,-1.2049998044967651,-0.8299989104270935,-0.7176990470867217,0.0,True,0.01030731201171875,-1.2049998044967651,-0.8299989104270935,-0.7176990509033203,0.0,0,0
1759839282.1715872,0,-1.2049998044967651,-0.8299989104270935,-0.7176990472470131,0.0,True,0.010460615158081055,-1.2049998044967651,-0.8299989104270935,-0.7176990509033203,0.0,0,0
1759839282.181977,0,-1.2049998044967651,-0.8299989104270935,-0.7176990473957332,0.0,True,0.01038980484008789,-1.2049998044967651,-0.8299989104270935,-0.7176990509033203,0.0,0,0
1759839282.1928859,0,-1.2049998044967651,-0.8299989104270935,-0.7176990474923635,0.0,True,0.010908842086791992,-1.2049998044967651,-0.8299989104270935,-0.7176990509033203,0.0,0,0
1759839282.2029214,0,-1.2049998044967651,-0.8299989104270935,-0.7176990476512533,0.0,True,0.010035514831542969,-1.2049998044967651,-0.8299989104270935,-0.7176990509033203,0.0,0,0
1759839282.214111,0,-1.2049998044967651,-0.8299989104270935,-0.7176990477144969,0.0,True,0.011189699172973633,-1.2049998044967651,-0.8299989104270935,-0.7176990509033203,0.0,0,0
1759839282.224968,0,-1.2049998044967651,-0.8299989104270935,-0.7176990478067591,0.0,True,0.010856866836547852,-1.2049998044967651,-0.8299989104270935,-0.7176990509033203,0.0,0,0
1759839282.235428,0,-1.2049998044967651,-0.8299989104270935,-0.7176990479276277,0.0,True,0.010460138320922852,-1.2049998044967651,-0.8299989104270935,-0.7176990509033203,0.0,0,0
1759839282.2463217,0,-1.2049998044967651,-0.8299989104270935,-0.7176990480138254,0.0,True,0.010893583297729492,-1.2049998044967651,-0.8299989104270935,-0.7176990509033203,0.0,0,0
1759839282.2570283,0,-1.2049998044967651,-0.8299989104270935,-0.7176990481108234,0.0,True,0.010706663131713867,-1.2049998044967651,-0.8299989104270935,-0.7176990509033203,0.0,0,0
1759839282.2672014,0,-1.2049998044967651,-0.8299989104270935,-0.7176990482360726,0.0,True,0.01017308235168457,-1.2049998044967651,-0.8299989104270935,-0.7176990509033203,0.0,0,0
1759839282.2780316,0,-1.2049998044967651,-0.8299989104270935,-0.7176990483116832,0.0,True,0.010830163955688477,-1.2049998044967651,-0.8299989104270935,-0.7176990509033203,0.0,0,0
1759839282.2890608,0,-1.2049998044967651,-0.8299989104270935,-0.7176990483754828,0.0,True,0.011029243469238281,-1.2049998044967651,-0.8299989104270935,-0.7176990509033203,0.0,0,0
1759839282.2997754,0,-1.2049998044967651,-0.8299989104270935,-0.7176990484603536,0.0,True,0.010714530944824219,-1.2049998044967651,-0.8299989104270935,-0.7176990509033203,0.0,0,0
1759839282.310727,0,-1.2049998044967651,-0.8299989104270935,-0.7176990485317685,0.0,True,0.010951519012451172,-1.2049998044967651,-0.8299989104270935,-0.7176990509033203,0.0,0,0
1759839282.321594,0,-1.2049998044967651,-0.8299989104270935,-0.7176990486078658,0.0,True,0.010867118835449219,-1.2049998044967651,-0.8299989104270935,-0.7176990509033203,0.0,0,0
1759839282.3323483,0,-1.2049998044967651,-0.8299989104270935,-0.7176990486884929,0.0,True,0.01075434684753418,-1.2049998044967651,-0.8299989104270935,-0.7176990509033203,0.0,0,0
1759839282.3430183,0,-1.2049998044967651,-0.8299989104270935,-0.7176990487697346,0.0,True,0.010669946670532227,-1.2049998044967651,-0.8299989104270935,-0.7176990509033203,0.0,0,0
1759839282.3542528,0,-1.2049998044967651,-0.8299989104270935,-0.7176990488216433,0.0,True,0.011234521865844727,-1.2049998044967651,-0.8299989104270935,-0.7176990509033203,0.0,0,0
1759839282.364443,0,-1.2049998044967651,-0.8299989104270935,-0.7176990489211992,0.0,True,0.010190248489379883,-1.2049998044967651,-0.8299989104270935,-0.7176990509033203,0.0,0,0
1759839282.3757575,0,-1.2049998044967651,-0.8299989104270935,-0.7176990489647608,0.0,True,0.01131439208984375,-1.2049998044967651,-0.8299989104270935,-0.7176990509033203,0.0,0,0
1759839282.3872476,0,-1.2049998044967651,-0.8299989104270935,-0.7176990490046826,0.0,True,0.011490106582641602,-1.2049998044967651,-0.8299989104270935,-0.7176990509033203,0.0,0,0
1759839282.3979836,0,-1.2049998044967651,-0.8299989104270935,-0.7176990490806077,0.0,True,0.01073598861694336,-1.2049998044967651,-0.8299989104270935,-0.7176990509033203,0.0,0,0
1759839282.4090328,0,-1.2049998044967651,-0.8299989104270935,-0.7176990491412951,0.0,True,0.011049270629882812,-1.2049998044967651,-0.8299989104270935,-0.7176990509033203,0.0,0,0
1759839282.4193118,0,-1.2049998044967651,-0.8299989104270935,-0.717699049227317,0.0,True,0.010278940200805664,-1.2049998044967651,-0.8299989104270935,-0.7176990509033203,0.0,0,0
1759839282.4293962,0,-1.2049998044967651,-0.8299989104270935,-0.7176990493103457,0.0,True,0.010084390640258789,-1.2049998044967651,-0.8299989104270935,-0.7176990509033203,0.0,0,0
1759839282.4408784,0,-1.2049998044967651,-0.8299989104270935,-0.7176990493353959,0.0,True,0.01148223876953125,-1.2049998044967651,-0.8299989104270935,-0.7176990509033203,0.0,0,0
1759839282.4520948,0,-1.2049998044967651,-0.8299989104270935,-0.7176990493742039,0.0,True,0.011216402053833008,-1.2049998044967651,-0.8299989104270935,-0.7176990509033203,0.0,0,0
1759839282.463019,0,-1.2049998044967651,-0.8299989104270935,-0.71769904942634,0.0,True,0.010924100875854492,-1.2049998044967651,-0.8299989104270935,-0.7176990509033203,0.0,0.5235987755982988,0.029281111975162297
1759839282.473235,0,-1.2049998044967651,-0.8299989104270935,-0.7176990494988189,0.0,True,0.010215997695922852,-1.2049998044967651,-0.8299989104270935,-0.7176990509033203,0.0,0.5235987755982988,0.03001789135759156
1759839282.4842765,0,-1.2049998044967651,-0.8299989104270935,-0.7176990495390321,0.0,True,0.011041641235351562,-1.2049998044967651,-0.8299989104270935,-0.7176990509033203,0.0,0.5235987755982988,0.032004299791915845
1759839282.495671,0,-1.2049998044967651,-0.8299989104270935,-0.7176990495687292,0.0,True,0.011394500732421875,-1.2049998044967651,-0.8299989104270935,-0.7176990509033203,0.0,0.5235987755982988,0.029692936654221992
1759839282.5070534,0,-1.2049998044967651,-0.8299989104270935,-0.7176990496028015,0.0,True,0.011382341384887695,-1.2049998044967651,-0.8299989104270935,-0.7176990509033203,0.0,0.5235987755982988,0.03379443651436753
1759839282.5172262,0,-1.2049998044967651,-0.8299989104270935,-0.7176990496713813,0.0,True,0.010172843933105469,-1.2049998044967651,-0.8299989104270935,-0.7176990509033203,0.0,0.5235987755982988,0.030781098422506415
1759839282.5280414,0,-1.2049998044967651,-0.8299989104270935,-0.7176990497158329,0.0,True,0.010815143585205078,-1.2049998044967651,-0.8299989104270935,-0.7176990509033203,0.0,0.5235987755982988,0.03279842563926892
1759839282.538312,0,-1.2049998044967651,-0.8299989104270935,-0.7176990497699318,0.0,True,0.01027059555053711,-1.2049998044967651,-0.8299989104270935,-0.7176990509033203,0.0,0.5235987755982988,0.03019831108813118
1759839282.5484223,0,-1.2049998044967651,-0.8299989104270935,-0.7176990498220199,0.0,True,0.01011037826538086,-1.2049998044967651,-0.8299989104270935,-0.7176990509033203,0.0,0.5235987755982988,0.03451865684951433
1759839282.5587482,0,-1.2049998044967651,-0.8299989104270935,-0.717699049862695,0.0,True,0.010325908660888672,-1.2049998044967651,-0.8299989104270935,-0.7176990509033203,0.0,0.5235987755982988,0.03279404164371286
1759839282.5695555,0,-1.2049998044967651,-0.8299989104270935,-0.717699049889017,0.0,True,0.010807275772094727,-1.2049998044967651,-0.8299989104270935,-0.7176990509033203,0.0,0.5235987755982988,0.03237056433395934
1759839282.5806768,0,-1.2049998044967651,-0.8299989104270935,-0.7176990499094202,0.0,True,0.011121273040771484,-1.2049998044967651,-0.8299989104270935,-0.7176990509033203,0.0,0.5235987755982988,0.031227856273778807
1759839282.5919025,0,-1.2030924022056988,-0.8316580963894016,-0.7165516526643625,0.019484266790991623,True,0.011225700378417969,-1.2020153999328613,-0.832594633102417,-0.7136332392692566,0.019484266790991623,0.5235987755982988,0.029890936929415118
1759839282.6028042,0,-1.2023655958234392,-0.832290194254553,-0.7156596201404533,0.019484266790991623,True,0.010901689529418945,-1.2020153999328613,-0.832594633102417,-0.7136332392692566,0.019484266790991623,0.5235987755982988,0.031838641413022666
1759839282.6130896,0,-1.2020913954367112,-0.8325285712196714,-0.7150113373527276,0.019484266790991623,True,0.010285377502441406,-1.2020153999328613,-0.832594633102417,-0.7136332392692566,0.019484266790991623,0.5235987755982988,0.030696767673044207
1759839282.6239436,0,-1.2019834331110677,-0.8326223612622062,-0.714533118339908,0.019484266790991623,True,0.010854005813598633,-1.2020153999328613,-0.832594633102417,-0.7136332392692566,0.019484266790991623,0.5235987755982988,0.031135090206597563
1759839282.6339443,0,-1.2019469673988847,-0.8326539958199901,-0.7141972023757948,0.019484266790991623,True,0.01000070571899414,-1.2020153999328613,-0.832594633102417,-0.7136332392692566,0.019484266790991623,0.5235987755982988,0.02859997286370294
1759839282.645189,0,-1.201926027067458,-0.8326721257846196,-0.7139387802437582,0.019484266790991623,True,0.011244773864746094,-1.2020153999328613,-0.832594633102417,-0.7136332392692566,0.019484266790991623,0.5235987755982988,0.02915749335080264
1759839282.6564245,0,-1.2019180670690643,-0.8326789895724891,-0.7137555799279447,0.019484266790991623,True,0.011235475540161133,-1.2020153999328613,-0.832594633102417,-0.7136332392692566,0.019484266790991623,0.5235987755982988,0.031386368884781496
1759839282.6679769,0,-1.201913234417155,-0.8326831440059071,-0.713621155654053,0.019484266790991623,True,0.01155233383178711,-1.2020153999328613,-0.832594633102417,-0.7136332392692566,0.019484266790991623,0.5235987755982988,0.029549723885514842
1759839282.6792424,0,-1.2019129947552265,-0.8326833249521804,-0.7135298448475602,0.019484266790991623,True,0.01126551628112793,-1.2020153999328613,-0.832594633102417,-0.7136332392692566,0.019484266790991623,0.5235987755982988,0.029011376674279207
1759839282.690106,0,-1.2019151599826285,-0.8326814301847578,-0.713469672830044,0.019484266790991623,True,0.010863542556762695,-1.2020153999328613,-0.832594633102417,-0.7136332392692566,0.019484266790991623,0.5235987755982988,0.029110340216738848
1759839282.7007399,0,-1.2019172757879215,-0.8326795844424065,-0.7134296215940559,0.019484266790991623,True,0.01063394546508789,-1.2020153999328613,-0.832594633102417,-0.7136332392692566,0.019484266790991623,0.5235987755982988,0.028709755529738853
1759839282.7113526,0,-1.2019182013309169,-0.8326787737383701,-0.7134021818552618,0.019484266790991623,True,0.010612726211547852,-1.2020153999328613,-0.832594633102417,-0.7136332392692566,0.019484266790991623,0.5235987755982988,0.02714071795219857
1759839282.721416,0,-1.2019216444888545,-0.8326757868585222,-0.7133899232852361,0.019484266790991623,True,0.010063409805297852,-1.2020153999328613,-0.832594633102417,-0.7136332392692566,0.019484266790991623,0.5235987755982988,0.030375026166921157
1759839282.7323372,0,-1.2019181320069707,-0.8326788235863535,-0.713372498389873,0.019484266790991623,True,0.010921239852905273,-1.2020153999328613,-0.832594633102417,-0.7136332392692566,0.019484266790991623,0.5235987755982988,0.030644300026676195
1759839282.7427063,0,-1.2019198966565332,-0.8326772930144576,-0.7133696774362726,0.019484266790991623,True,0.010369062423706055,-1.2020153999328613,-0.832594633102417,-0.7136332392692566,0.019484266790991623,0.5235987755982988,0.02874637490094766
