timestamp,vehicle_id,x,y,theta,velocity,gps_available,dt,gps_x,gps_y,gps_theta,gps_velocity,control_steering,control_acceleration
1759839279.4582074,1,-1.735,-0.35,-0.7801621756414647,0.0,False,0.01,nan,nan,nan,nan,0.0,0.0
1759839279.4688394,1,-1.735,-0.35,-0.7801621756414647,0.0,False,0.010632038116455078,nan,nan,nan,nan,0.0,0.0
1759839279.4804246,1,-1.735,-0.35,-0.7801621756414647,0.0,False,0.011585235595703125,nan,nan,nan,nan,0.0,0.0
1759839279.4917865,1,-1.735,-0.35,-0.7801621756414647,0.0,False,0.011361837387084961,nan,nan,nan,nan,0.0,0.0
1759839279.5030663,1,-1.735,-0.35,-0.7801621756414647,0.0,False,0.011279821395874023,nan,nan,nan,nan,0.0,0.0
1759839279.514067,1,-1.735,-0.35,-0.7801621756414647,0.0,False,0.011000633239746094,nan,nan,nan,nan,0.0,0.0
1759839279.5244086,1,-1.735,-0.35,-0.7801621756414647,0.0,False,0.010341644287109375,nan,nan,nan,nan,0.0,0.0
1759839279.5354114,1,-1.735,-0.35,-0.7801621756414647,0.0,False,0.011002779006958008,nan,nan,nan,nan,0.0,0.0
1759839279.5455935,1,-1.735,-0.35,-0.7801621756414647,0.0,False,0.01018214225769043,nan,nan,nan,nan,0.0,0.0
1759839279.5565126,1,-1.735,-0.35,-0.7801621756414647,0.0,False,0.01091909408569336,nan,nan,nan,nan,0.0,0.0
1759839279.567744,1,-1.735,-0.35,-0.7801621756414647,0.0,False,0.011231422424316406,nan,nan,nan,nan,0.0,0.0
1759839279.5785763,1,-1.735,-0.35,-0.7801621756414647,0.0,False,0.01083230972290039,nan,nan,nan,nan,0.0,0.0
1759839279.5891578,1,-1.735,-0.35,-0.7801621756414647,0.0,False,0.010581493377685547,nan,nan,nan,nan,0.0,0.0
1759839279.6005921,1,-1.735,-0.35,-0.7801621756414647,0.0,False,0.011434316635131836,nan,nan,nan,nan,0.0,0.0
1759839279.6121914,1,-1.735,-0.35,-0.7801621756414647,0.0,False,0.011599302291870117,nan,nan,nan,nan,0.0,0.0
1759839279.6230292,1,-1.735,-0.35,-0.7801621756414647,0.0,False,0.010837793350219727,nan,nan,nan,nan,0.0,0.0
1759839279.6336648,1,-1.735,-0.35,-0.7801621756414647,0.0,False,0.010635614395141602,nan,nan,nan,nan,0.0,0.0
1759839279.6450338,1,-1.735,-0.35,-0.7801621756414647,0.0,False,0.011368989944458008,nan,nan,nan,nan,0.0,0.0
1759839279.6554468,1,-1.734999777754148,-0.34999987587332726,-0.7229998697934477,0.0,True,0.010412931442260742,-1.7349997758865356,-0.34999987483024597,-0.717703640460968,0.0,0.0,0.0
1759839279.6668196,1,-1.7349997765108072,-0.34999987517890824,-0.718114298658687,0.0,True,0.011372804641723633,-1.7349997758865356,-0.34999987483024597,-0.717703640460968,0.0,0.0,0.0
1759839279.6779613,1,-1.734999776120719,-0.34999987496103985,-0.7176545584965623,0.0,True,0.011141777038574219,-1.7349997758865356,-0.34999987483024597,-0.717703640460968,0.0,0.0,0.0
1759839279.6892903,1,-1.7349997759757527,-0.34999987488007467,-0.7175947880663642,0.0,True,0.011328935623168945,-1.7349997758865356,-0.34999987483024597,-0.717703640460968,0.0,0.0,0.0
1759839279.7005672,1,-1.7349997759206006,-0.3499998748492716,-0.717589345797089,0.0,True,0.011276960372924805,-1.7349997758865356,-0.34999987483024597,-0.717703640460968,0.0,0.0,0.0
1759839279.7113733,1,-1.7349997758995466,-0.3499998748375127,-0.7175986575405364,0.0,True,0.010806083679199219,-1.7349997758865356,-0.34999987483024597,-0.717703640460968,0.0,0.0,0.0
1759839279.7229285,1,-1.7349997758915052,-0.3499998748330216,-0.717609524672115,0.0,True,0.011555194854736328,-1.7349997758865356,-0.34999987483024597,-0.717703640460968,0.0,0.0,0.0
1759839279.7335877,1,-1.734999775888434,-0.3499998748313062,-0.7176223212764938,0.0,True,0.010659217834472656,-1.7349997758865356,-0.34999987483024597,-0.717703640460968,0.0,0.0,0.0
1759839279.7440338,1,-1.7349997758872606,-0.3499998748306509,-0.7176333567572044,0.0,True,0.01044607162475586,-1.7349997758865356,-0.34999987483024597,-0.717703640460968,0.0,0.0,0.0
1759839279.7545097,1,-1.7349997758868125,-0.3499998748304006,-0.7176422180400444,0.0,True,0.010475873947143555,-1.7349997758865356,-0.34999987483024597,-0.717703640460968,0.0,0.0,0.0
1759839279.7647538,1,-1.7349997758866413,-0.34999987483030504,-0.7176496550990539,0.0,True,0.010244131088256836,-1.7349997758865356,-0.34999987483024597,-0.717703640460968,0.0,0.0,0.0
1759839279.7762918,1,-1.734999775886576,-0.3499998748302685,-0.7176545234345006,0.0,True,0.011538028717041016,-1.7349997758865356,-0.34999987483024597,-0.717703640460968,0.0,0.0,0.0
1759839279.787306,1,-1.7349997758865512,-0.3499998748302546,-0.7176594408073331,0.0,True,0.011014223098754883,-1.7349997758865356,-0.34999987483024597,-0.717703640460968,0.0,0.0,0.0
1759839279.7987108,1,-1.7349997758865416,-0.34999987483024925,-0.7176634440952956,0.0,True,0.011404752731323242,-1.7349997758865356,-0.34999987483024597,-0.717703640460968,0.0,0.0,0.0
1759839279.8088214,1,-1.7349997758865379,-0.34999987483024725,-0.7176678624963202,0.0,True,0.010110616683959961,-1.7349997758865356,-0.34999987483024597,-0.717703640460968,0.0,0.0,0.0
1759839279.8190577,1,-1.7349997758865365,-0.34999987483024647,-0.7176713482851618,0.0,True,0.010236263275146484,-1.7349997758865356,-0.34999987483024597,-0.717703640460968,0.0,0.0,0.0
1759839279.829801,1,-1.734999775886536,-0.34999987483024614,-0.7176738949279606,0.0,True,0.010743379592895508,-1.7349997758865356,-0.34999987483024597,-0.717703640460968,0.0,0.0,0.0
1759839279.840946,1,-1.7349997758865359,-0.349999874830246,-0.7176758962498688,0.0,True,0.011144876480102539,-1.7349997758865356,-0.34999987483024597,-0.717703640460968,0.0,0.0,0.0
1759839279.8561022,1,-1.7349997758865356,-0.34999987483024597,-0.7176758110882204,0.0,True,0.015156269073486328,-1.7349997758865356,-0.34999987483024597,-0.717703640460968,0.0,0.0,0.0
1759839279.8661804,1,-1.7349997758865356,-0.34999987483024597,-0.7176787907211271,0.0,True,0.010078191757202148,-1.7349997758865356,-0.34999987483024597,-0.717703640460968,0.0,0.0,0.0
1759839279.8776028,1,-1.7349997758865356,-0.34999987483024597,-0.7176807111422416,0.0,True,0.011422395706176758,-1.7349997758865356,-0.34999987483024597,-0.717703640460968,0.0,0.0,0.0
1759839279.8889346,1,-1.7349997758865356,-0.34999987483024597,-0.7176823729917796,0.0,True,0.011331796646118164,-1.7349997758865356,-0.34999987483024597,-0.717703640460968,0.0,0.0,0.0
1759839279.9000447,1,-1.7349997758865356,-0.34999987483024597,-0.717683908084771,0.0,True,0.011110067367553711,-1.7349997758865356,-0.34999987483024597,-0.717703640460968,0.0,0.0,0.0
1759839279.9100866,1,-1.7349997758865356,-0.34999987483024597,-0.7176856156154141,0.0,True,0.010041952133178711,-1.7349997758865356,-0.34999987483024597,-0.717703640460968,0.0,0.0,0.0
1759839279.9209776,1,-1.7349997758865356,-0.34999987483024597,-0.7176867234671622,0.0,True,0.010890960693359375,-1.7349997758865356,-0.34999987483024597,-0.717703640460968,0.0,0.0,0.0
1759839279.9316907,1,-1.7349997758865356,-0.34999987483024597,-0.717687740516995,0.0,True,0.01071310043334961,-1.7349997758865356,-0.34999987483024597,-0.717703640460968,0.0,0.0,0.0
1759839279.9428074,1,-1.7349997758865356,-0.34999987483024597,-0.717688520374816,0.0,True,0.011116743087768555,-1.7349997758865356,-0.34999987483024597,-0.717703640460968,0.0,0.0,0.0
1759839279.953513,1,-1.7349997758865356,-0.34999987483024597,-0.7176893694561777,0.0,True,0.01070547103881836,-1.7349997758865356,-0.34999987483024597,-0.717703640460968,0.0,0.0,0.0
1759839279.9641454,1,-1.7349997758865356,-0.34999987483024597,-0.7176901571072385,0.0,True,0.010632514953613281,-1.7349997758865356,-0.34999987483024597,-0.717703640460968,0.0,0.0,0.0
1759839279.9750502,1,-1.7349997758865356,-0.34999987483024597,-0.7176907894897102,0.0,True,0.010904788970947266,-1.7349997758865356,-0.34999987483024597,-0.717703640460968,0.0,0.0,0.0
1759839279.986185,1,-1.7349997758865356,-0.34999987483024597,-0.7176913203636452,0.0,True,0.011134862899780273,-1.7349997758865356,-0.34999987483024597,-0.717703640460968,0.0,0.0,0.0
1759839279.9971266,1,-1.7349997758865356,-0.34999987483024597,-0.7176918842963147,0.0,True,0.010941505432128906,-1.7349997758865356,-0.34999987483024597,-0.717703640460968,0.0,0.0,0.0
1759839280.007467,1,-1.7349997758865356,-0.34999987483024597,-0.7176925561803174,0.0,True,0.010340452194213867,-1.7349997758865356,-0.34999987483024597,-0.717703640460968,0.0,0.0,0.0
1759839280.0188477,1,-1.7349997758865356,-0.34999987483024597,-0.7176929191550876,0.0,True,0.011380672454833984,-1.7349997758865356,-0.34999987483024597,-0.717703640460968,0.0,0.0,0.0
1759839280.0300148,1,-1.7349997758865356,-0.34999987483024597,-0.717693332777813,0.0,True,0.011167049407958984,-1.7349997758865356,-0.34999987483024597,-0.717703640460968,0.0,0.0,0.0
1759839280.0407584,1,-1.7349997758865356,-0.34999987483024597,-0.7176938307015899,0.0,True,0.01074361801147461,-1.7349997758865356,-0.34999987483024597,-0.717703640460968,0.0,0.0,0.0
1759839280.0546668,1,-1.7349997758865356,-0.34999987483024597,-0.7176936855887277,0.0,True,0.01390838623046875,-1.7349997758865356,-0.34999987483024597,-0.717703640460968,0.0,0.0,0.0
1759839280.061097,1,-1.7349997758865356,-0.34999987483024597,-0.7176950817490049,0.0,True,0.006430149078369141,-1.7349997758865356,-0.34999987483024597,-0.717703640460968,0.0,0.0,0.0
1759839280.0716147,1,-1.7349997758865356,-0.34999987483024597,-0.717695446053451,0.0,True,0.01051783561706543,-1.7349997758865356,-0.34999987483024597,-0.717703640460968,0.0,0.0,0.0
1759839280.0822177,1,-1.7349997758865356,-0.34999987483024597,-0.7176957116409746,0.0,True,0.010602951049804688,-1.7349997758865356,-0.34999987483024597,-0.717703640460968,0.0,0.0,0.0
1759839280.0933313,1,-1.7349997758865356,-0.34999987483024597,-0.7176958887242169,0.0,True,0.011113643646240234,-1.7349997758865356,-0.34999987483024597,-0.717703640460968,0.0,0.0,0.0
1759839280.104633,1,-1.7349997758865356,-0.34999987483024597,-0.7176960633689458,0.0,True,0.011301755905151367,-1.7349997758865356,-0.34999987483024597,-0.717703640460968,0.0,0.0,0.0
1759839280.1154795,1,-1.7349997758865356,-0.34999987483024597,-0.717696340359387,0.0,True,0.010846376419067383,-1.7349997758865356,-0.34999987483024597,-0.717703640460968,0.0,0.0,0.0
1759839280.126676,1,-1.7349997758865356,-0.34999987483024597,-0.7176965646782794,0.0,True,0.011196613311767578,-1.7349997758865356,-0.34999987483024597,-0.717703640460968,0.0,0.0,0.0
1759839280.1372726,1,-1.7349997758865356,-0.34999987483024597,-0.7176968805383463,0.0,True,0.010596513748168945,-1.7349997758865356,-0.34999987483024597,-0.717703640460968,0.0,0.0,0.0
1759839280.1483297,1,-1.7349997758865356,-0.34999987483024597,-0.7176971109644725,0.0,True,0.011057138442993164,-1.7349997758865356,-0.34999987483024597,-0.717703640460968,0.0,0.0,0.0
1759839280.1594722,1,-1.7349997758865356,-0.34999987483024597,-0.7176973251020673,0.0,True,0.011142492294311523,-1.7349997758865356,-0.34999987483024597,-0.717703640460968,0.0,0.0,0.0
1759839280.1696315,1,-1.7349997758865356,-0.34999987483024597,-0.71769766478692,0.0,True,0.01015925407409668,-1.7349997758865356,-0.34999987483024597,-0.717703640460968,0.0,0.0,0.0
1759839280.1803803,1,-1.7349997758865356,-0.34999987483024597,-0.7176978923242512,0.0,True,0.010748863220214844,-1.7349997758865356,-0.34999987483024597,-0.717703640460968,0.0,0.0,0.0
1759839280.1918375,1,-1.7349997758865356,-0.34999987483024597,-0.7176980194012472,0.0,True,0.011457204818725586,-1.7349997758865356,-0.34999987483024597,-0.717703640460968,0.0,0.0,0.0
1759839280.2033627,1,-1.7349997758865356,-0.34999987483024597,-0.717698156611668,0.0,True,0.011525154113769531,-1.7349997758865356,-0.34999987483024597,-0.717703640460968,0.0,0.0,0.0
1759839280.2138138,1,-1.7349997758865356,-0.34999987483024597,-0.7176984294609063,0.0,True,0.010451078414916992,-1.7349997758865356,-0.34999987483024597,-0.717703640460968,0.0,0.0,0.0
1759839280.2241404,1,-1.7349997758865356,-0.34999987483024597,-0.7176986898815141,0.0,True,0.010326623916625977,-1.7349997758865356,-0.34999987483024597,-0.717703640460968,0.0,0.0,0.0
1759839280.234468,1,-1.7349997758865356,-0.34999987483024597,-0.7176989168169463,0.0,True,0.010327577590942383,-1.7349997758865356,-0.34999987483024597,-0.717703640460968,0.0,0.0,0.0
1759839280.2448962,1,-1.7349997758865356,-0.34999987483024597,-0.7176991072339334,0.0,True,0.010428190231323242,-1.7349997758865356,-0.34999987483024597,-0.717703640460968,0.0,0.0,0.0
1759839280.2551117,1,-1.7349997758865356,-0.34999987483024597,-0.7176993006273733,0.0,True,0.010215520858764648,-1.7349997758865356,-0.34999987483024597,-0.717703640460968,0.0,0.0,0.0
1759839280.2660139,1,-1.7349997758865356,-0.34999987483024597,-0.7176994124209752,0.0,True,0.010902166366577148,-1.7349997758865356,-0.34999987483024597,-0.717703640460968,0.0,0.0,0.0
1759839280.2761052,1,-1.7349997758865356,-0.34999987483024597,-0.717699599258733,0.0,True,0.010091304779052734,-1.7349997758865356,-0.34999987483024597,-0.717703640460968,0.0,0.0,0.0
1759839280.2871995,1,-1.7349997758865356,-0.34999987483024597,-0.7176996843026835,0.0,True,0.011094331741333008,-1.7349997758865356,-0.34999987483024597,-0.717703640460968,0.0,0.0,0.0
1759839280.2975202,1,-1.7349997758865356,-0.34999987483024597,-0.7176998415907789,0.0,True,0.010320663452148438,-1.7349997758865356,-0.34999987483024597,-0.717703640460968,0.0,0.0,0.0
1759839280.3087595,1,-1.7349997758865356,-0.34999987483024597,-0.7176999172331158,0.0,True,0.011239290237426758,-1.7349997758865356,-0.34999987483024597,-0.717703640460968,0.0,0.0,0.0
1759839280.3195908,1,-1.7349997758865356,-0.34999987483024597,-0.7177000349975984,0.0,True,0.010831356048583984,-1.7349997758865356,-0.34999987483024597,-0.717703640460968,0.0,0.0,0.0
1759839280.3298564,1,-1.7349997758865356,-0.34999987483024597,-0.7177001966427898,0.0,True,0.010265588760375977,-1.7349997758865356,-0.34999987483024597,-0.717703640460968,0.0,0.0,0.0
1759839280.339948,1,-1.7349997758865356,-0.34999987483024597,-0.7177003556390318,0.0,True,0.010091543197631836,-1.7349997758865356,-0.34999987483024597,-0.717703640460968,0.0,0.0,0.0
1759839280.3504133,1,-1.7349997758865356,-0.34999987483024597,-0.7177004695638125,0.0,True,0.010465383529663086,-1.7349997758865356,-0.34999987483024597,-0.717703640460968,0.0,0.0,0.0
1759839280.361429,1,-1.7349997758865356,-0.34999987483024597,-0.7177005389983488,0.0,True,0.011015653610229492,-1.7349997758865356,-0.34999987483024597,-0.717703640460968,0.0,0.0,0.0
1759839280.3722546,1,-1.7349997758865356,-0.34999987483024597,-0.7177006279943718,0.0,True,0.010825634002685547,-1.7349997758865356,-0.34999987483024597,-0.717703640460968,0.0,0.0,0.0
1759839280.3834484,1,-1.7349997758865356,-0.34999987483024597,-0.7177006975291427,0.0,True,0.01119375228881836,-1.7349997758865356,-0.34999987483024597,-0.717703640460968,0.0,0.0,0.0
1759839280.3936186,1,-1.7349997758865356,-0.34999987483024597,-0.7177008363827948,0.0,True,0.010170221328735352,-1.7349997758865356,-0.34999987483024597,-0.717703640460968,0.0,0.0,0.0
1759839280.4036248,1,-1.7349997758865356,-0.34999987483024597,-0.7177009717652858,0.0,True,0.010006189346313477,-1.7349997758865356,-0.34999987483024597,-0.717703640460968,0.0,0.0,0.0
1759839280.4137642,1,-1.7349997758865356,-0.34999987483024597,-0.717701081764412,0.0,True,0.01013946533203125,-1.7349997758865356,-0.34999987483024597,-0.717703640460968,0.0,0.0,0.0
1759839280.4254174,1,-1.7349997758865356,-0.34999987483024597,-0.7177010970670636,0.0,True,0.01165318489074707,-1.7349997758865356,-0.34999987483024597,-0.717703640460968,0.0,0.0,0.0
1759839280.4361427,1,-1.7349997758865356,-0.34999987483024597,-0.7177011782479337,0.0,True,0.010725259780883789,-1.7349997758865356,-0.34999987483024597,-0.717703640460968,0.0,0.0,0.0
1759839280.4468746,1,-1.7349997758865356,-0.34999987483024597,-0.717701261783894,0.0,True,0.010731935501098633,-1.7349997758865356,-0.34999987483024597,-0.717703640460968,0.0,0.0,0.0
1759839280.4571896,1,-1.7349997758865356,-0.34999987483024597,-0.7177013633567721,0.0,True,0.01031494140625,-1.7349997758865356,-0.34999987483024597,-0.717703640460968,0.0,0.0,0.0
1759839280.468978,1,-1.7349997758865356,-0.34999987483024597,-0.7177013861093258,0.0,True,0.011788368225097656,-1.7349997758865356,-0.34999987483024597,-0.717703640460968,0.0,0.0,0.0
1759839280.4790401,1,-1.7349997758865356,-0.34999987483024597,-0.7177015006779968,0.0,True,0.010062217712402344,-1.7349997758865356,-0.34999987483024597,-0.717703640460968,0.0,0.0,0.0
1759839280.4894972,1,-1.7349997758865356,-0.34999987483024597,-0.7177015870732895,0.0,True,0.010457038879394531,-1.7349997758865356,-0.34999987483024597,-0.717703640460968,0.0,0.0,0.0
1759839280.5008357,1,-1.7349997758865356,-0.34999987483024597,-0.7177016270068535,0.0,True,0.011338472366333008,-1.7349997758865356,-0.34999987483024597,-0.717703640460968,0.0,0.0,0.0
1759839280.511817,1,-1.7349997758865356,-0.34999987483024597,-0.7177016875670699,0.0,True,0.010981321334838867,-1.7349997758865356,-0.34999987483024597,-0.717703640460968,0.0,0.0,0.0
1759839280.5230906,1,-1.7349997758865356,-0.34999987483024597,-0.7177017385971531,0.0,True,0.011273622512817383,-1.7349997758865356,-0.34999987483024597,-0.717703640460968,0.0,0.0,0.0
1759839280.5339086,1,-1.7349997758865356,-0.34999987483024597,-0.7177018104338622,0.0,True,0.010818004608154297,-1.7349997758865356,-0.34999987483024597,-0.717703640460968,0.0,0.0,0.0
1759839280.5449152,1,-1.7349997758865356,-0.34999987483024597,-0.7177018723556365,0.0,True,0.011006593704223633,-1.7349997758865356,-0.34999987483024597,-0.717703640460968,0.0,0.0,0.0
1759839280.5550532,1,-1.7349997758865356,-0.34999987483024597,-0.7177019633064372,0.0,True,0.01013803482055664,-1.7349997758865356,-0.34999987483024597,-0.717703640460968,0.0,0.0,0.0
1759839280.5652363,1,-1.7349997758865356,-0.34999987483024597,-0.7177020415905737,0.0,True,0.010183095932006836,-1.7349997758865356,-0.34999987483024597,-0.717703640460968,0.0,0.0,0.0
1759839280.5754032,1,-1.7349997758865356,-0.34999987483024597,-0.7177021101440282,0.0,True,0.01016688346862793,-1.7349997758865356,-0.34999987483024597,-0.717703640460968,0.0,0.0,0.0
1759839280.585558,1,-1.7349997758865356,-0.34999987483024597,-0.7177021712637686,0.0,True,0.01015472412109375,-1.7349997758865356,-0.34999987483024597,-0.717703640460968,0.0,0.0,0.0
1759839280.5955653,1,-1.7349997758865356,-0.34999987483024597,-0.7177022309954566,0.0,True,0.010007381439208984,-1.7349997758865356,-0.34999987483024597,-0.717703640460968,0.0,0.0,0.0
1759839280.6070154,1,-1.7349997758865356,-0.34999987483024597,-0.7177022407518532,0.0,True,0.011450052261352539,-1.7349997758865356,-0.34999987483024597,-0.717703640460968,0.0,0.0,0.0
1759839280.6171348,1,-1.7349997758865356,-0.34999987483024597,-0.7177022981183292,0.0,True,0.010119438171386719,-1.7349997758865356,-0.34999987483024597,-0.717703640460968,0.0,0.0,0.0
1759839280.627173,1,-1.7349997758865356,-0.34999987483024597,-0.7177023549107258,0.0,True,0.010038137435913086,-1.7349997758865356,-0.34999987483024597,-0.717703640460968,0.0,0.0,0.0
1759839280.6377602,1,-1.7349997758865356,-0.34999987483024597,-0.7177023904624704,0.0,True,0.010587215423583984,-1.7349997758865356,-0.34999987483024597,-0.717703640460968,0.0,0.0,0.0
1759839280.6492677,1,-1.7349997758865356,-0.34999987483024597,-0.7177024011183128,0.0,True,0.011507511138916016,-1.7349997758865356,-0.34999987483024597,-0.717703640460968,0.0,0.0,0.0
1759839280.659867,1,-1.7349997758865356,-0.34999987483024597,-0.7177024433098413,0.0,True,0.010599374771118164,-1.7349997758865356,-0.34999987483024597,-0.717703640460968,0.0,0.0,0.0
1759839280.6704507,1,-1.7349997758865356,-0.34999987483024597,-0.7177024860818566,0.0,True,0.010583639144897461,-1.7349997758865356,-0.34999987483024597,-0.717703640460968,0.0,0.0,0.0
1759839280.680805,1,-1.7349997758865356,-0.34999987483024597,-0.7177025321959363,0.0,True,0.010354280471801758,-1.7349997758865356,-0.34999987483024597,-0.717703640460968,0.0,0.0,0.0
1759839280.6921155,1,-1.7349997758865356,-0.34999987483024597,-0.7177025523839156,0.0,True,0.011310577392578125,-1.7349997758865356,-0.34999987483024597,-0.717703640460968,0.0,0.0,0.0
1759839280.7021458,1,-1.7349997758865356,-0.34999987483024597,-0.7177026047090465,0.0,True,0.010030269622802734,-1.7349997758865356,-0.34999987483024597,-0.717703640460968,0.0,0.0,0.0
1759839280.7133553,1,-1.7349997758865356,-0.34999987483024597,-0.7177026264529971,0.0,True,0.011209487915039062,-1.7349997758865356,-0.34999987483024597,-0.717703640460968,0.0,0.0,0.0
1759839280.7234519,1,-1.7349997758865356,-0.34999987483024597,-0.7177026733363121,0.0,True,0.010096549987792969,-1.7349997758865356,-0.34999987483024597,-0.717703640460968,0.0,0.0,0.0
1759839280.734916,1,-1.7349997758865356,-0.34999987483024597,-0.7177026882434916,0.0,True,0.011464118957519531,-1.7349997758865356,-0.34999987483024597,-0.717703640460968,0.0,0.0,0.0
1759839280.745391,1,-1.7349997758865356,-0.34999987483024597,-0.7177027259720941,0.0,True,0.010474920272827148,-1.7349997758865356,-0.34999987483024597,-0.717703640460968,0.0,0.0,0.0
1759839280.7563314,1,-1.7349997758865356,-0.34999987483024597,-0.717702753190844,0.0,True,0.0109405517578125,-1.7349997758865356,-0.34999987483024597,-0.717703640460968,0.0,0.0,0.0
1759839280.7667606,1,-1.7349997758865356,-0.34999987483024597,-0.7177027895148509,0.0,True,0.010429143905639648,-1.7349997758865356,-0.34999987483024597,-0.717703640460968,0.0,0.0,0.0
1759839280.7776687,1,-1.7349997758865356,-0.34999987483024597,-0.7177028146843334,0.0,True,0.010908126831054688,-1.7349997758865356,-0.34999987483024597,-0.717703640460968,0.0,0.0,0.0
1759839280.7891018,1,-1.7349997758865356,-0.34999987483024597,-0.7177028306881219,0.0,True,0.011433124542236328,-1.7349997758865356,-0.34999987483024597,-0.717703640460968,0.0,0.0,0.0
1759839280.8004806,1,-1.7349997758865356,-0.34999987483024597,-0.7177028506031835,0.0,True,0.011378765106201172,-1.7349997758865356,-0.34999987483024597,-0.717703640460968,0.0,0.0,0.0
1759839280.810838,1,-1.7349997758865356,-0.34999987483024597,-0.717702888928013,0.0,True,0.010357379913330078,-1.7349997758865356,-0.34999987483024597,-0.717703640460968,0.0,0.0,0.0
1759839280.8213398,1,-1.7349997758865356,-0.34999987483024597,-0.7177029212780539,0.0,True,0.010501861572265625,-1.7349997758865356,-0.34999987483024597,-0.717703640460968,0.0,0.0,0.0
1759839280.832349,1,-1.7349997758865356,-0.34999987483024597,-0.7177029426172226,0.0,True,0.01100921630859375,-1.7349997758865356,-0.34999987483024597,-0.717703640460968,0.0,0.0,0.0
1759839280.8440888,1,-1.7349997758865356,-0.34999987483024597,-0.7177029533266506,0.0,True,0.011739730834960938,-1.7349997758865356,-0.34999987483024597,-0.717703640460968,0.0,0.0,0.0
1759839280.8588014,1,-1.7349997758865356,-0.34999987483024597,-0.7177029274634315,0.0,True,0.01471257209777832,-1.7349997758865356,-0.34999987483024597,-0.717703640460968,0.0,0.0,0.0
1759839280.8648455,1,-1.7349997758865356,-0.34999987483024597,-0.7177030310117409,0.0,True,0.006044149398803711,-1.7349997758865356,-0.34999987483024597,-0.717703640460968,0.0,0.0,0.0
1759839280.8749454,1,-1.7349997758865356,-0.34999987483024597,-0.7177030614100204,0.0,True,0.01009988784790039,-1.7349997758865356,-0.34999987483024597,-0.717703640460968,0.0,0.0,0.0
1759839280.885682,1,-1.7349997758865356,-0.34999987483024597,-0.7177030755400189,0.0,True,0.010736703872680664,-1.7349997758865356,-0.34999987483024597,-0.717703640460968,0.0,0.0,0.0
1759839280.8965156,1,-1.7349997758865356,-0.34999987483024597,-0.7177030885553748,0.0,True,0.010833501815795898,-1.7349997758865356,-0.34999987483024597,-0.717703640460968,0.0,0.0,0.0
1759839280.9079978,1,-1.7349997758865356,-0.34999987483024597,-0.7177030952648416,0.0,True,0.01148223876953125,-1.7349997758865356,-0.34999987483024597,-0.717703640460968,0.0,0.0,0.0
1759839280.919317,1,-1.7349997758865356,-0.34999987483024597,-0.7177031070225546,0.0,True,0.011319160461425781,-1.7349997758865356,-0.34999987483024597,-0.717703640460968,0.0,0.0,0.0
1759839280.9293787,1,-1.7349997758865356,-0.34999987483024597,-0.7177031344681275,0.0,True,0.01006174087524414,-1.7349997758865356,-0.34999987483024597,-0.717703640460968,0.0,0.0,0.0
1759839280.9407172,1,-1.7349997758865356,-0.34999987483024597,-0.7177031455480076,0.0,True,0.011338472366333008,-1.7349997758865356,-0.34999987483024597,-0.717703640460968,0.0,0.0,0.0
1759839280.9509802,1,-1.7349997758865356,-0.34999987483024597,-0.7177031681915835,0.0,True,0.01026296615600586,-1.7349997758865356,-0.34999987483024597,-0.717703640460968,0.0,0.0,0.0
1759839280.9622326,1,-1.7349997758865356,-0.34999987483024597,-0.7177031791857136,0.0,True,0.011252403259277344,-1.7349997758865356,-0.34999987483024597,-0.717703640460968,0.0,0.0,0.0
1759839280.9724348,1,-1.7349997758865356,-0.34999987483024597,-0.7177032006926005,0.0,True,0.010202169418334961,-1.7349997758865356,-0.34999987483024597,-0.717703640460968,0.0,0.0,0.0
1759839280.983727,1,-1.7349997758865356,-0.34999987483024597,-0.7177032102341734,0.0,True,0.011292219161987305,-1.7349997758865356,-0.34999987483024597,-0.717703640460968,0.0,0.0,0.0
1759839280.994096,1,-1.7349997758865356,-0.34999987483024597,-0.7177032286459095,0.0,True,0.010369062423706055,-1.7349997758865356,-0.34999987483024597,-0.717703640460968,0.0,0.0,0.0
1759839281.004435,1,-1.7349997758865356,-0.34999987483024597,-0.7177032459482895,0.0,True,0.010339021682739258,-1.7349997758865356,-0.34999987483024597,-0.717703640460968,0.0,0.0,0.0
1759839281.015144,1,-1.7349997758865356,-0.34999987483024597,-0.7177032584330476,0.0,True,0.010709047317504883,-1.7349997758865356,-0.34999987483024597,-0.717703640460968,0.0,0.0,0.0
1759839281.025864,1,-1.7349997758865356,-0.34999987483024597,-0.7177032703532671,0.0,True,0.010719776153564453,-1.7349997758865356,-0.34999987483024597,-0.717703640460968,0.0,0.0,0.0
1759839281.0367334,1,-1.7349997758865356,-0.34999987483024597,-0.7177032809508219,0.0,True,0.010869503021240234,-1.7349997758865356,-0.34999987483024597,-0.717703640460968,0.0,0.0,0.0
1759839281.0478349,1,-1.7349997758865356,-0.34999987483024597,-0.7177032899808093,0.0,True,0.011101484298706055,-1.7349997758865356,-0.34999987483024597,-0.717703640460968,0.0,0.0,0.0
1759839281.060666,1,-1.7349997758865356,-0.34999987483024597,-0.7177032873317675,0.0,True,0.01283121109008789,-1.7349997758865356,-0.34999987483024597,-0.717703640460968,0.0,0.0,0.0
1759839281.070768,1,-1.7349997758865356,-0.34999987483024597,-0.7177033078068327,0.0,True,0.010102033615112305,-1.7349997758865356,-0.34999987483024597,-0.717703640460968,0.0,0.0,0.0
1759839281.081761,1,-1.7349997758865356,-0.34999987483024597,-0.7177033203678231,0.0,True,0.010992765426635742,-1.7349997758865356,-0.34999987483024597,-0.717703640460968,0.0,0.0,0.0
1759839281.092639,1,-1.7349997758865356,-0.34999987483024597,-0.7177033325288065,0.0,True,0.01087808609008789,-1.7349997758865356,-0.34999987483024597,-0.717703640460968,0.0,0.0,0.0
1759839281.1037033,1,-1.7349997758865356,-0.34999987483024597,-0.7177033427853559,0.0,True,0.011064291000366211,-1.7349997758865356,-0.34999987483024597,-0.717703640460968,0.0,0.0,0.0
1759839281.1141586,1,-1.7349997758865356,-0.34999987483024597,-0.7177033563824367,0.0,True,0.01045536994934082,-1.7349997758865356,-0.34999987483024597,-0.717703640460968,0.0,0.0,0.0
1759839281.1256773,1,-1.7349997758865356,-0.34999987483024597,-0.717703362493177,0.0,True,0.011518716812133789,-1.7349997758865356,-0.34999987483024597,-0.717703640460968,0.0,0.0,0.0
1759839281.1370687,1,-1.7349997758865356,-0.34999987483024597,-0.717703369916812,0.0,True,0.011391401290893555,-1.7349997758865356,-0.34999987483024597,-0.717703640460968,0.0,0.0,0.0
1759839281.148422,1,-1.7349997758865356,-0.34999987483024597,-0.7177033781345514,0.0,True,0.011353254318237305,-1.7349997758865356,-0.34999987483024597,-0.717703640460968,0.0,0.0,0.0
1759839281.1594024,1,-1.7349997758865356,-0.34999987483024597,-0.7177033884968225,0.0,True,0.010980367660522461,-1.7349997758865356,-0.34999987483024597,-0.717703640460968,0.0,0.0,0.0
1759839281.1705482,1,-1.7349997758865356,-0.34999987483024597,-0.7177033974598075,0.0,True,0.011145830154418945,-1.7349997758865356,-0.34999987483024597,-0.717703640460968,0.0,0.0,0.0
1759839281.1809397,1,-1.7349997758865356,-0.34999987483024597,-0.7177034096567549,0.0,True,0.010391473770141602,-1.7349997758865356,-0.34999987483024597,-0.717703640460968,0.0,0.0,0.0
1759839281.192214,1,-1.7349997758865356,-0.34999987483024597,-0.7177034163077174,0.0,True,0.011274337768554688,-1.7349997758865356,-0.34999987483024597,-0.717703640460968,0.0,0.0,0.0
1759839281.202216,1,-1.7349997758865356,-0.34999987483024597,-0.7177034285898305,0.0,True,0.010001897811889648,-1.7349997758865356,-0.34999987483024597,-0.717703640460968,0.0,0.0,0.0
1759839281.2128654,1,-1.7349997758865356,-0.34999987483024597,-0.7177034364597787,0.0,True,0.010649442672729492,-1.7349997758865356,-0.34999987483024597,-0.717703640460968,0.0,0.0,0.0
1759839281.2239099,1,-1.7349997758865356,-0.34999987483024597,-0.7177034419154857,0.0,True,0.011044502258300781,-1.7349997758865356,-0.34999987483024597,-0.717703640460968,0.0,0.0,0.0
1759839281.2351847,1,-1.7349997758865356,-0.34999987483024597,-0.7177034465709724,0.0,True,0.01127481460571289,-1.7349997758865356,-0.34999987483024597,-0.717703640460968,0.0,0.0,0.0
1759839281.246201,1,-1.7349997758865356,-0.34999987483024597,-0.7177034527212083,0.0,True,0.011016368865966797,-1.7349997758865356,-0.34999987483024597,-0.717703640460968,0.0,0.0,0.0
1759839281.259896,1,-1.7349997758865356,-0.34999987483024597,-0.7177034488617231,0.0,True,0.013695001602172852,-1.7349997758865356,-0.34999987483024597,-0.717703640460968,0.0,0.0,0.0
1759839281.2710798,1,-1.7349997758865356,-0.34999987483024597,-0.7177034571963112,0.0,True,0.011183738708496094,-1.7349997758865356,-0.34999987483024597,-0.717703640460968,0.0,0.0,0.0
1759839281.2825181,1,-1.7349997758865356,-0.34999987483024597,-0.717703464627597,0.0,True,0.011438369750976562,-1.7349997758865356,-0.34999987483024597,-0.717703640460968,0.0,0.0,0.0
1759839281.293647,1,-1.7349997758865356,-0.34999987483024597,-0.7177034725865745,0.0,True,0.011128902435302734,-1.7349997758865356,-0.34999987483024597,-0.717703640460968,0.0,0.0,0.0
1759839281.3037667,1,-1.7349997758865356,-0.34999987483024597,-0.7177034830696432,0.0,True,0.01011967658996582,-1.7349997758865356,-0.34999987483024597,-0.717703640460968,0.0,0.0,0.0
1759839281.3141754,1,-1.7349997758865356,-0.34999987483024597,-0.7177034909744044,0.0,True,0.010408639907836914,-1.7349997758865356,-0.34999987483024597,-0.717703640460968,0.0,0.0,0.0
1759839281.3252382,1,-1.7349997758865356,-0.34999987483024597,-0.7177034956916728,0.0,True,0.011062860488891602,-1.7349997758865356,-0.34999987483024597,-0.717703640460968,0.0,0.0,0.0
1759839281.3358202,1,-1.7349997758865356,-0.34999987483024597,-0.7177035016066924,0.0,True,0.01058197021484375,-1.7349997758865356,-0.34999987483024597,-0.717703640460968,0.0,0.0,0.0
1759839281.3459103,1,-1.7349997758865356,-0.34999987483024597,-0.717703508462396,0.0,True,0.010090112686157227,-1.7349997758865356,-0.34999987483024597,-0.717703640460968,0.0,0.0,0.0
1759839281.3573973,1,-1.7349997758865356,-0.34999987483024597,-0.7177035105893275,0.0,True,0.011487007141113281,-1.7349997758865356,-0.34999987483024597,-0.717703640460968,0.0,0.0,0.0
1759839281.367883,1,-1.7349997758865356,-0.34999987483024597,-0.7177035157735148,0.0,True,0.010485649108886719,-1.7349997758865356,-0.34999987483024597,-0.717703640460968,0.0,0.0,0.0
1759839281.3787134,1,-1.7349997758865356,-0.34999987483024597,-0.7177035198014412,0.0,True,0.010830402374267578,-1.7349997758865356,-0.34999987483024597,-0.717703640460968,0.0,0.0,0.0
1759839281.3887506,1,-1.7349997758865356,-0.34999987483024597,-0.7177035256492097,0.0,True,0.01003718376159668,-1.7349997758865356,-0.34999987483024597,-0.717703640460968,0.0,0.0,0.0
1759839281.4000232,1,-1.7349997758865356,-0.34999987483024597,-0.7177035278379371,0.0,True,0.011272668838500977,-1.7349997758865356,-0.34999987483024597,-0.717703640460968,0.0,0.0,0.0
1759839281.4103687,1,-1.7349997758865356,-0.34999987483024597,-0.7177035324236094,0.0,True,0.010345458984375,-1.7349997758865356,-0.34999987483024597,-0.717703640460968,0.0,0.0,0.0
1759839281.4218552,1,-1.7349997758865356,-0.34999987483024597,-0.7177035341534292,0.0,True,0.011486530303955078,-1.7349997758865356,-0.34999987483024597,-0.717703640460968,0.0,0.0,0.0
1759839281.4331105,1,-1.7349997758865356,-0.34999987483024597,-0.7177035367835298,0.0,True,0.011255264282226562,-1.7349997758865356,-0.34999987483024597,-0.717703640460968,0.0,0.0,0.0
1759839281.444198,1,-1.7349997758865356,-0.34999987483024597,-0.7177035400520637,0.0,True,0.011087417602539062,-1.7349997758865356,-0.34999987483024597,-0.717703640460968,0.0,0.0,0.0
1759839281.4543982,1,-1.7349997758865356,-0.34999987483024597,-0.7177035451370521,0.0,True,0.010200262069702148,-1.7349997758865356,-0.34999987483024597,-0.717703640460968,0.0,0.12115672836558389,0.0
1759839281.4663637,1,-1.7349997758865356,-0.34999987483024597,-0.7177035461798695,0.0,True,0.011965513229370117,-1.7349997758865356,-0.34999987483024597,-0.717703640460968,0.0,0.12115672836558389,0.0
1759839281.4779477,1,-1.7349997758865356,-0.34999987483024597,-0.7177035484185392,0.0,True,0.011584043502807617,-1.7349997758865356,-0.34999987483024597,-0.717703640460968,0.0,0.12115672836558389,0.0
1759839281.48882,1,-1.7349997758865356,-0.34999987483024597,-0.7177035522885156,0.0,True,0.010872364044189453,-1.7349997758865356,-0.34999987483024597,-0.717703640460968,0.0,0.12115672836558389,0.0
1759839281.5000913,1,-1.7349997758865356,-0.34999987483024597,-0.7177035552244533,0.0,True,0.011271238327026367,-1.7349997758865356,-0.34999987483024597,-0.717703640460968,0.0,0.12115672836558389,0.0
1759839281.51065,1,-1.7349997758865356,-0.34999987483024597,-0.7177035592685641,0.0,True,0.010558605194091797,-1.7349997758865356,-0.34999987483024597,-0.717703640460968,0.0,0.12115672836558389,0.0
1759839281.521901,1,-1.7349997758865356,-0.34999987483024597,-0.7177035617678591,0.0,True,0.011250972747802734,-1.7349997758865356,-0.34999987483024597,-0.717703640460968,0.0,0.12115672836558389,0.0
1759839281.532804,1,-1.7349997758865356,-0.34999987483024597,-0.7177035647512344,0.0,True,0.010903120040893555,-1.7349997758865356,-0.34999987483024597,-0.717703640460968,0.0,0.12115672836558389,0.0
1759839281.543001,1,-1.7349997758865356,-0.34999987483024597,-0.7177035686518742,0.0,True,0.010196924209594727,-1.7349997758865356,-0.34999987483024597,-0.717703640460968,0.0,0.12115672836558389,0.0
1759839281.553112,1,-1.7349997758865356,-0.34999987483024597,-0.7177035721780705,0.0,True,0.010111093521118164,-1.7349997758865356,-0.34999987483024597,-0.717703640460968,0.0,0.12115672836558389,0.0
1759839281.563777,1,-1.7349997758865356,-0.34999987483024597,-0.7177035744144202,0.0,True,0.010664939880371094,-1.7349997758865356,-0.34999987483024597,-0.717703640460968,0.0,0.12115672836558389,0.0
1759839281.57396,1,-1.7349997758865356,-0.34999987483024597,-0.7177035771738112,0.0,True,0.010183095932006836,-1.7349997758865356,-0.34999987483024597,-0.717703640460968,0.0,0.12115672836558389,0.0
1759839281.585115,1,-1.7349997758865356,-0.34999987483024597,-0.7177035783775381,0.0,True,0.011154890060424805,-1.7349997758865356,-0.34999987483024597,-0.717703640460968,0.0,0.12115672836558389,0.0
1759839281.5968513,1,-1.7349997758865356,-0.34999987483024597,-0.7177035789873667,0.0,True,0.011736392974853516,-1.7349997758865356,-0.34999987483024597,-0.717703640460968,0.0,0.12115672836558389,0.0
1759839281.6069248,1,-1.7349997758865356,-0.34999987483024597,-0.7177035820911186,0.0,True,0.010073423385620117,-1.7349997758865356,-0.34999987483024597,-0.717703640460968,0.0,0.12115672836558389,0.0
1759839281.61852,1,-1.7349997758865356,-0.34999987483024597,-0.7177035830698024,0.0,True,0.01159524917602539,-1.7349997758865356,-0.34999987483024597,-0.717703640460968,0.0,0.12115672836558389,0.0
1759839281.6309395,1,-1.7349997758865356,-0.34999987483024597,-0.717703583280997,0.0,True,0.012419462203979492,-1.7349997758865356,-0.34999987483024597,-0.717703640460968,0.0,0.12115672836558389,0.0
1759839281.6416292,1,-1.7349997758865356,-0.34999987483024597,-0.7177035859614715,0.0,True,0.010689735412597656,-1.7349997758865356,-0.34999987483024597,-0.717703640460968,0.0,0.12115672836558389,0.0
1759839281.6520102,1,-1.7349997758865356,-0.34999987483024597,-0.7177035888094956,0.0,True,0.010380983352661133,-1.7349997758865356,-0.34999987483024597,-0.717703640460968,0.0,0.12115672836558389,0.0
1759839281.6679406,1,-1.7349997758865356,-0.34999987483024597,-0.717703585576217,0.0,True,0.0159304141998291,-1.7349997758865356,-0.34999987483024597,-0.717703640460968,0.0,0.12115672836558389,0.0
1759839281.678872,1,-1.7349997758865356,-0.34999987483024597,-0.7177035887805712,0.0,True,0.01093149185180664,-1.7349997758865356,-0.34999987483024597,-0.717703640460968,0.0,0.12115672836558389,0.0
1759839281.6891503,1,-1.7349997758865356,-0.34999987483024597,-0.7177035924806496,0.0,True,0.01027822494506836,-1.7349997758865356,-0.34999987483024597,-0.717703640460968,0.0,0.12115672836558389,0.0
1759839281.7003844,1,-1.7349997758865356,-0.34999987483024597,-0.7177035946334644,0.0,True,0.011234045028686523,-1.7349997758865356,-0.34999987483024597,-0.717703640460968,0.0,0.12115672836558389,0.0
1759839281.7105079,1,-1.7349997758865356,-0.34999987483024597,-0.7177035974797334,0.0,True,0.010123491287231445,-1.7349997758865356,-0.34999987483024597,-0.717703640460968,0.0,0.12115672836558389,0.0
1759839281.7208734,1,-1.7349997758865356,-0.34999987483024597,-0.717703599666363,0.0,True,0.010365486145019531,-1.7349997758865356,-0.34999987483024597,-0.717703640460968,0.0,0.12115672836558389,0.0
1759839281.7318707,1,-1.7349997758865356,-0.34999987483024597,-0.7177036009911753,0.0,True,0.010997295379638672,-1.7349997758865356,-0.34999987483024597,-0.717703640460968,0.0,0.12115672836558389,0.0
1759839281.7424102,1,-1.7349997758865356,-0.34999987483024597,-0.7177036026093813,0.0,True,0.010539531707763672,-1.7349997758865356,-0.34999987483024597,-0.717703640460968,0.0,0.12115672836558389,0.0
1759839281.7526217,1,-1.7349997758865356,-0.34999987483024597,-0.7177036043514633,0.0,True,0.010211467742919922,-1.7349997758865356,-0.34999987483024597,-0.717703640460968,0.0,0.12115672836558389,0.0
1759839281.763256,1,-1.7349997758865356,-0.34999987483024597,-0.7177036055684685,0.0,True,0.010634422302246094,-1.7349997758865356,-0.34999987483024597,-0.717703640460968,0.0,0.12115672836558389,0.0
1759839281.77471,1,-1.7349997758865356,-0.34999987483024597,-0.7177036061096853,0.0,True,0.011453866958618164,-1.7349997758865356,-0.34999987483024597,-0.717703640460968,0.0,0.12115672836558389,0.0
1759839281.7847626,1,-1.7349997758865356,-0.34999987483024597,-0.7177036077782937,0.0,True,0.010052680969238281,-1.7349997758865356,-0.34999987483024597,-0.717703640460968,0.0,0.12115672836558389,0.0
1759839281.7955375,1,-1.7349997758865356,-0.34999987483024597,-0.7177036087931263,0.0,True,0.010774850845336914,-1.7349997758865356,-0.34999987483024597,-0.717703640460968,0.0,0.12115672836558389,0.0
1759839281.8060153,1,-1.7349997758865356,-0.34999987483024597,-0.71770360995394,0.0,True,0.010477781295776367,-1.7349997758865356,-0.34999987483024597,-0.717703640460968,0.0,0.12115672836558389,0.0
1759839281.817368,1,-1.7349997758865356,-0.34999987483024597,-0.7177036104887087,0.0,True,0.011352777481079102,-1.7349997758865356,-0.34999987483024597,-0.717703640460968,0.0,0.12115672836558389,0.0
1759839281.8287685,1,-1.7349997758865356,-0.34999987483024597,-0.7177036110970363,0.0,True,0.011400461196899414,-1.7349997758865356,-0.34999987483024597,-0.717703640460968,0.0,0.12115672836558389,0.0
1759839281.8400266,1,-1.7349997758865356,-0.34999987483024597,-0.717703611906737,0.0,True,0.011258125305175781,-1.7349997758865356,-0.34999987483024597,-0.717703640460968,0.0,0.12115672836558389,0.0
1759839281.8500435,1,-1.7349997758865356,-0.34999987483024597,-0.7177036134760826,0.0,True,0.010016918182373047,-1.7349997758865356,-0.34999987483024597,-0.717703640460968,0.0,0.12115672836558389,0.0
1759839281.8603425,1,-1.7349997758865356,-0.34999987483024597,-0.717703614687931,0.0,True,0.010298967361450195,-1.7349997758865356,-0.34999987483024597,-0.717703640460968,0.0,0.12115672836558389,0.0
1759839281.8738072,1,-1.7349997758865356,-0.34999987483024597,-0.7177036140517163,0.0,True,0.013464689254760742,-1.7349997758865356,-0.34999987483024597,-0.717703640460968,0.0,0.12115672836558389,0.0
1759839281.8845336,1,-1.7349997758865356,-0.34999987483024597,-0.717703615242165,0.0,True,0.010726451873779297,-1.7349997758865356,-0.34999987483024597,-0.717703640460968,0.0,0.12115672836558389,0.0
1759839281.8952498,1,-1.7349997758865356,-0.34999987483024597,-0.7177036164160846,0.0,True,0.01071619987487793,-1.7349997758865356,-0.34999987483024597,-0.717703640460968,0.0,0.12115672836558389,0.0
1759839281.9061959,1,-1.7349997758865356,-0.34999987483024597,-0.7177036173481568,0.0,True,0.010946035385131836,-1.7349997758865356,-0.34999987483024597,-0.717703640460968,0.0,0.12115672836558389,0.0
1759839281.9174504,1,-1.7349997758865356,-0.34999987483024597,-0.7177036180637444,0.0,True,0.011254549026489258,-1.7349997758865356,-0.34999987483024597,-0.717703640460968,0.0,0.12115672836558389,0.0
1759839281.9287262,1,-1.7349997758865356,-0.34999987483024597,-0.7177036187640429,0.0,True,0.011275768280029297,-1.7349997758865356,-0.34999987483024597,-0.717703640460968,0.0,0.12115672836558389,0.0
1759839281.9394083,1,-1.7349997758865356,-0.34999987483024597,-0.7177036197226343,0.0,True,0.010682106018066406,-1.7349997758865356,-0.34999987483024597,-0.717703640460968,0.0,0.12115672836558389,0.0
1759839281.9507601,1,-1.7349997758865356,-0.34999987483024597,-0.7177036203202611,0.0,True,0.011351823806762695,-1.7349997758865356,-0.34999987483024597,-0.717703640460968,0.0,0.12115672836558389,0.0
1759839281.9618735,1,-1.7349997758865356,-0.34999987483024597,-0.7177036210144703,0.0,True,0.011113405227661133,-1.7349997758865356,-0.34999987483024597,-0.717703640460968,0.0,0.12115672836558389,0.0
1759839281.9725604,1,-1.7349997758865356,-0.34999987483024597,-0.7177036218586146,0.0,True,0.010686874389648438,-1.7349997758865356,-0.34999987483024597,-0.717703640460968,0.0,0.12115672836558389,0.0
1759839281.9830253,1,-1.7349997758865356,-0.34999987483024597,-0.7177036227110456,0.0,True,0.010464906692504883,-1.7349997758865356,-0.34999987483024597,-0.717703640460968,0.0,0.12115672836558389,0.0
1759839281.994002,1,-1.7349997758865356,-0.34999987483024597,-0.7177036232806842,0.0,True,0.010976791381835938,-1.7349997758865356,-0.34999987483024597,-0.717703640460968,0.0,0.12115672836558389,0.0
1759839282.0043895,1,-1.7349997758865356,-0.34999987483024597,-0.7177036240323034,0.0,True,0.010387420654296875,-1.7349997758865356,-0.34999987483024597,-0.717703640460968,0.0,0.12115672836558389,0.0
1759839282.0154653,1,-1.7349997758865356,-0.34999987483024597,-0.7177036244803183,0.0,True,0.011075735092163086,-1.7349997758865356,-0.34999987483024597,-0.717703640460968,0.0,0.12115672836558389,0.0
1759839282.0266628,1,-1.7349997758865356,-0.34999987483024597,-0.7177036248905946,0.0,True,0.011197566986083984,-1.7349997758865356,-0.34999987483024597,-0.717703640460968,0.0,0.12115672836558389,0.0
1759839282.0375738,1,-1.7349997758865356,-0.34999987483024597,-0.7177036254181655,0.0,True,0.010910987854003906,-1.7349997758865356,-0.34999987483024597,-0.717703640460968,0.0,0.12115672836558389,0.0
1759839282.0479107,1,-1.7349997758865356,-0.34999987483024597,-0.7177036261108576,0.0,True,0.010336875915527344,-1.7349997758865356,-0.34999987483024597,-0.717703640460968,0.0,0.12115672836558389,0.0
1759839282.059075,1,-1.7349997758865356,-0.34999987483024597,-0.7177036264866814,0.0,True,0.011164426803588867,-1.7349997758865356,-0.34999987483024597,-0.717703640460968,0.0,0.12115672836558389,0.0
1759839282.0697742,1,-1.7349997758865356,-0.34999987483024597,-0.7177036270002226,0.0,True,0.010699033737182617,-1.7349997758865356,-0.34999987483024597,-0.717703640460968,0.0,0.12115672836558389,0.0
1759839282.0804656,1,-1.7349997758865356,-0.34999987483024597,-0.717703627493151,0.0,True,0.010691404342651367,-1.7349997758865356,-0.34999987483024597,-0.717703640460968,0.0,0.12115672836558389,0.0
1759839282.0905366,1,-1.7349997758865356,-0.34999987483024597,-0.717703628121324,0.0,True,0.010071039199829102,-1.7349997758865356,-0.34999987483024597,-0.717703640460968,0.0,0.12115672836558389,0.0
1759839282.1013377,1,-1.7349997758865356,-0.34999987483024597,-0.717703628484486,0.0,True,0.010801076889038086,-1.7349997758865356,-0.34999987483024597,-0.717703640460968,0.0,0.12115672836558389,0.0
1759839282.112194,1,-1.7349997758865356,-0.34999987483024597,-0.7177036288210736,0.0,True,0.010856389999389648,-1.7349997758865356,-0.34999987483024597,-0.717703640460968,0.0,0.12115672836558389,0.0
1759839282.1233633,1,-1.7349997758865356,-0.34999987483024597,-0.7177036290889536,0.0,True,0.011169195175170898,-1.7349997758865356,-0.34999987483024597,-0.717703640460968,0.0,0.12115672836558389,0.0
1759839282.1335657,1,-1.7349997758865356,-0.34999987483024597,-0.7177036296087529,0.0,True,0.010202407836914062,-1.7349997758865356,-0.34999987483024597,-0.717703640460968,0.0,0.12115672836558389,0.0
1759839282.1437683,1,-1.7349997758865356,-0.34999987483024597,-0.717703630080587,0.0,True,0.010202646255493164,-1.7349997758865356,-0.34999987483024597,-0.717703640460968,0.0,0.12115672836558389,0.0
1759839282.153985,1,-1.7349997758865356,-0.34999987483024597,-0.7177036304946682,0.0,True,0.010216712951660156,-1.7349997758865356,-0.34999987483024597,-0.717703640460968,0.0,0.12115672836558389,0.0
1759839282.1653268,1,-1.7349997758865356,-0.34999987483024597,-0.7177036306290052,0.0,True,0.01134181022644043,-1.7349997758865356,-0.34999987483024597,-0.717703640460968,0.0,0.12115672836558389,0.0
1759839282.1763153,1,-1.7349997758865356,-0.34999987483024597,-0.7177036308774767,0.0,True,0.010988473892211914,-1.7349997758865356,-0.34999987483024597,-0.717703640460968,0.0,0.12115672836558389,0.0
1759839282.187659,1,-1.7349997758865356,-0.34999987483024597,-0.7177036310799672,0.0,True,0.011343717575073242,-1.7349997758865356,-0.34999987483024597,-0.717703640460968,0.0,0.12115672836558389,0.0
1759839282.1980443,1,-1.7349997758865356,-0.34999987483024597,-0.717703631495489,0.0,True,0.010385274887084961,-1.7349997758865356,-0.34999987483024597,-0.717703640460968,0.0,0.12115672836558389,0.0
1759839282.20959,1,-1.7349997758865356,-0.34999987483024597,-0.7177036316648966,0.0,True,0.011545658111572266,-1.7349997758865356,-0.34999987483024597,-0.717703640460968,0.0,0.12115672836558389,0.0
1759839282.220842,1,-1.7349997758865356,-0.34999987483024597,-0.717703631912384,0.0,True,0.01125192642211914,-1.7349997758865356,-0.34999987483024597,-0.717703640460968,0.0,0.12115672836558389,0.0
1759839282.2316365,1,-1.7349997758865356,-0.34999987483024597,-0.7177036322530697,0.0,True,0.010794639587402344,-1.7349997758865356,-0.34999987483024597,-0.717703640460968,0.0,0.12115672836558389,0.0
1759839282.2423131,1,-1.7349997758865356,-0.34999987483024597,-0.7177036325930963,0.0,True,0.01067662239074707,-1.7349997758865356,-0.34999987483024597,-0.717703640460968,0.0,0.12115672836558389,0.0
1759839282.2534957,1,-1.7349997758865356,-0.34999987483024597,-0.7177036328229676,0.0,True,0.011182546615600586,-1.7349997758865356,-0.34999987483024597,-0.717703640460968,0.0,0.12115672836558389,0.0
1759839282.26428,1,-1.7349997758865356,-0.34999987483024597,-0.7177036331139277,0.0,True,0.010784387588500977,-1.7349997758865356,-0.34999987483024597,-0.717703640460968,0.0,0.12115672836558389,0.0
1759839282.2759938,1,-1.7349997758865356,-0.34999987483024597,-0.7177036332519933,0.0,True,0.011713743209838867,-1.7349997758865356,-0.34999987483024597,-0.717703640460968,0.0,0.12115672836558389,0.0
1759839282.2864904,1,-1.7349997758865356,-0.34999987483024597,-0.7177036335896716,0.0,True,0.01049661636352539,-1.7349997758865356,-0.34999987483024597,-0.717703640460968,0.0,0.12115672836558389,0.0
1759839282.297659,1,-1.7349997758865356,-0.34999987483024597,-0.7177036338062024,0.0,True,0.011168479919433594,-1.7349997758865356,-0.34999987483024597,-0.717703640460968,0.0,0.12115672836558389,0.0
1759839282.3086925,1,-1.7349997758865356,-0.34999987483024597,-0.7177036340341516,0.0,True,0.01103353500366211,-1.7349997758865356,-0.34999987483024597,-0.717703640460968,0.0,0.12115672836558389,0.0
1759839282.319652,1,-1.7349997758865356,-0.34999987483024597,-0.7177036342657637,0.0,True,0.010959625244140625,-1.7349997758865356,-0.34999987483024597,-0.717703640460968,0.0,0.12115672836558389,0.0
1759839282.3303654,1,-1.7349997758865356,-0.34999987483024597,-0.7177036345177452,0.0,True,0.010713338851928711,-1.7349997758865356,-0.34999987483024597,-0.717703640460968,0.0,0.12115672836558389,0.0
1759839282.3414881,1,-1.7349997758865356,-0.34999987483024597,-0.7177036347009675,0.0,True,0.011122703552246094,-1.7349997758865356,-0.34999987483024597,-0.717703640460968,0.0,0.12115672836558389,0.0
1759839282.3523371,1,-1.7349997758865356,-0.34999987483024597,-0.7177036349130699,0.0,True,0.0108489990234375,-1.7349997758865356,-0.34999987483024597,-0.717703640460968,0.0,0.12115672836558389,0.0
1759839282.3629844,1,-1.7349997758865356,-0.34999987483024597,-0.7177036351378376,0.0,True,0.010647296905517578,-1.7349997758865356,-0.34999987483024597,-0.717703640460968,0.0,0.12115672836558389,0.0
1759839282.3738256,1,-1.7349997758865356,-0.34999987483024597,-0.717703635323538,0.0,True,0.010841131210327148,-1.7349997758865356,-0.34999987483024597,-0.717703640460968,0.0,0.12115672836558389,0.0
1759839282.3851917,1,-1.7349997758865356,-0.34999987483024597,-0.7177036354445985,0.0,True,0.011366128921508789,-1.7349997758865356,-0.34999987483024597,-0.717703640460968,0.0,0.12115672836558389,0.0
1759839282.3955455,1,-1.7349997758865356,-0.34999987483024597,-0.7177036356781183,0.0,True,0.010353803634643555,-1.7349997758865356,-0.34999987483024597,-0.717703640460968,0.0,0.12115672836558389,0.0
1759839282.4069424,1,-1.7349997758865356,-0.34999987483024597,-0.7177036357881956,0.0,True,0.01139688491821289,-1.7349997758865356,-0.34999987483024597,-0.717703640460968,0.0,0.12115672836558389,0.0
1759839282.4178274,1,-1.7349997758865356,-0.34999987483024597,-0.7177036359534643,0.0,True,0.010885000228881836,-1.7349997758865356,-0.34999987483024597,-0.717703640460968,0.0,0.12115672836558389,0.0
1759839282.428481,1,-1.7349997758865356,-0.34999987483024597,-0.717703636135818,0.0,True,0.01065373420715332,-1.7349997758865356,-0.34999987483024597,-0.717703640460968,0.0,0.12115672836558389,0.0
1759839282.4393604,1,-1.7349997758865356,-0.34999987483024597,-0.7177036362841562,0.0,True,0.010879278182983398,-1.7349997758865356,-0.34999987483024597,-0.717703640460968,0.0,0.12115672836558389,0.0
1759839282.4500866,1,-1.7349997758865356,-0.34999987483024597,-0.7177036364383973,0.0,True,0.010726213455200195,-1.7349997758865356,-0.34999987483024597,-0.717703640460968,0.0,0.12115672836558389,0.0
1759839282.4604316,1,-1.7349997758865356,-0.34999987483024597,-0.7177036366151821,0.0,True,0.010344982147216797,-1.7349997758865356,-0.34999987483024597,-0.717703640460968,0.0,0.12115672836558389,0.0
1759839282.4743526,1,-1.7349997758865356,-0.34999987483024597,-0.7177036364915139,0.0,True,0.013921022415161133,-1.7349997758865356,-0.34999987483024597,-0.717703640460968,0.0,0.12115672836558389,0.0
1759839282.4859276,1,-1.7349997758865356,-0.34999987483024597,-0.7177036366196141,0.0,True,0.011574983596801758,-1.7349997758865356,-0.34999987483024597,-0.717703640460968,0.0,0.12115672836558389,0.0
1759839282.4962702,1,-1.7349997758865356,-0.34999987483024597,-0.7177036368527911,0.0,True,0.010342597961425781,-1.7349997758865356,-0.34999987483024597,-0.717703640460968,0.0,0.12115672836558389,0.0
1759839282.5066562,1,-1.7349997758865356,-0.34999987483024597,-0.7177036370503167,0.0,True,0.010385990142822266,-1.7349997758865356,-0.34999987483024597,-0.717703640460968,0.0,0.12115672836558389,0.0
1759839282.5178385,1,-1.7349997758865356,-0.34999987483024597,-0.7177036371621686,0.0,True,0.011182308197021484,-1.7349997758865356,-0.34999987483024597,-0.717703640460968,0.0,0.12115672836558389,0.0
1759839282.5286396,1,-1.7349997758865356,-0.34999987483024597,-0.7177036372928978,0.0,True,0.010801076889038086,-1.7349997758865356,-0.34999987483024597,-0.717703640460968,0.0,0.12115672836558389,0.0
1759839282.5394297,1,-1.7349997758865356,-0.34999987483024597,-0.717703637415589,0.0,True,0.010790109634399414,-1.7349997758865356,-0.34999987483024597,-0.717703640460968,0.0,0.12115672836558389,0.0
1759839282.54954,1,-1.7349997758865356,-0.34999987483024597,-0.7177036375711641,0.0,True,0.01011037826538086,-1.7349997758865356,-0.34999987483024597,-0.717703640460968,0.0,0.12115672836558389,0.0
1759839282.560375,1,-1.7349997758865356,-0.34999987483024597,-0.717703637663142,0.0,True,0.010834932327270508,-1.7349997758865356,-0.34999987483024597,-0.717703640460968,0.0,0.12115672836558389,0.0
1759839282.5711823,1,-1.7349997758865356,-0.34999987483024597,-0.7177036377515584,0.0,True,0.010807275772094727,-1.7349997758865356,-0.34999987483024597,-0.717703640460968,0.0,0.12115672836558389,0.0
1759839282.5817945,1,-1.7349997758865356,-0.34999987483024597,-0.7177036378492971,0.0,True,0.010612249374389648,-1.7349997758865356,-0.34999987483024597,-0.717703640460968,0.0,0.12115672836558389,0.0
1759839282.5930202,1,-1.7349997758865356,-0.34999987483024597,-0.7177036379088229,0.0,True,0.011225700378417969,-1.7349997758865356,-0.34999987483024597,-0.717703640460968,0.0,0.12115672836558389,0.0
1759839282.6044352,1,-1.7349997758865356,-0.34999987483024597,-0.7177036379635826,0.0,True,0.01141500473022461,-1.7349997758865356,-0.34999987483024597,-0.717703640460968,0.0,0.12115672836558389,0.0
1759839282.6157906,1,-1.7349997758865356,-0.34999987483024597,-0.7177036380298603,0.0,True,0.011355400085449219,-1.7349997758865356,-0.34999987483024597,-0.717703640460968,0.0,0.1374019835710527,0.0
1759839282.6271377,1,-1.7349997758865356,-0.34999987483024597,-0.7177036381017086,0.0,True,0.011347055435180664,-1.7349997758865356,-0.34999987483024597,-0.717703640460968,0.0,0.1374019835710527,0.0
1759839282.6371849,1,-1.7349997758865356,-0.34999987483024597,-0.7177036382365216,0.0,True,0.010047197341918945,-1.7349997758865356,-0.34999987483024597,-0.717703640460968,0.0,0.1374019835710527,0.0
1759839282.6473143,1,-1.7349997758865356,-0.34999987483024597,-0.7177036383494872,0.0,True,0.010129451751708984,-1.7349997758865356,-0.34999987483024597,-0.717703640460968,0.0,0.1374019835710527,0.0
1759839282.6575422,1,-1.7349997758865356,-0.34999987483024597,-0.7177036384410052,0.0,True,0.01022791862487793,-1.7349997758865356,-0.34999987483024597,-0.717703640460968,0.0,0.1374019835710527,0.0
1759839282.6690946,1,-1.7349997758865356,-0.34999987483024597,-0.717703638465018,0.0,True,0.01155233383178711,-1.7349997758865356,-0.34999987483024597,-0.717703640460968,0.0,0.1374019835710527,0.0
1759839282.6843772,1,-1.7349997758865356,-0.34999987483024597,-0.7177036383480093,0.0,True,0.015282630920410156,-1.7349997758865356,-0.34999987483024597,-0.717703640460968,0.0,0.1374019835710527,0.0
1759839282.6947472,1,-1.7349997758865356,-0.34999987483024597,-0.7177036384812112,0.0,True,0.010370016098022461,-1.7349997758865356,-0.34999987483024597,-0.717703640460968,0.0,0.1374019835710527,0.0
1759839282.7059612,1,-1.7349997758865356,-0.34999987483024597,-0.7177036385741538,0.0,True,0.011214017868041992,-1.7349997758865356,-0.34999987483024597,-0.717703640460968,0.0,0.1374019835710527,0.0
1759839282.7173274,1,-1.7349997758865356,-0.34999987483024597,-0.7177036386499154,0.0,True,0.011366128921508789,-1.7349997758865356,-0.34999987483024597,-0.717703640460968,0.0,0.1374019835710527,0.0
1759839282.7286055,1,-1.7349997758865356,-0.34999987483024597,-0.7177036387230906,0.0,True,0.011278152465820312,-1.7349997758865356,-0.34999987483024597,-0.717703640460968,0.0,0.1374019835710527,0.0
1759839282.7396264,1,-1.7349997758865356,-0.34999987483024597,-0.7177036387998736,0.0,True,0.011020898818969727,-1.7349997758865356,-0.34999987483024597,-0.717703640460968,0.0,0.1374019835710527,0.0
1759839282.7505958,1,-1.7349997758865356,-0.34999987483024597,-0.7177036388712814,0.0,True,0.010969400405883789,-1.7349997758865356,-0.34999987483024597,-0.717703640460968,0.0,0.1374019835710527,0.0
1759839282.7620041,1,-1.7349997758865356,-0.34999987483024597,-0.7177036389222842,0.0,True,0.011408329010009766,-1.7349997758865356,-0.34999987483024597,-0.717703640460968,0.0,0.1374019835710527,0.0
1759839282.772779,1,-1.7349997758865356,-0.34999987483024597,-0.7177036389912672,0.0,True,0.010774850845336914,-1.7349997758865356,-0.34999987483024597,-0.717703640460968,0.0,0.1374019835710527,0.0
1759839282.78416,1,-1.7349997758865356,-0.34999987483024597,-0.7177036390364702,0.0,True,0.011380910873413086,-1.7349997758865356,-0.34999987483024597,-0.717703640460968,0.0,0.1374019835710527,0.0
1759839282.7942111,1,-1.7349997758865356,-0.34999987483024597,-0.717703639118282,0.0,True,0.010051250457763672,-1.7349997758865356,-0.34999987483024597,-0.717703640460968,0.0,0.1374019835710527,0.0
1759839282.8054895,1,-1.7349997758865356,-0.34999987483024597,-0.7177036391554292,0.0,True,0.011278390884399414,-1.7349997758865356,-0.34999987483024597,-0.717703640460968,0.0,0.1374019835710527,0.0
1759839282.8156507,1,-1.7349997758865356,-0.34999987483024597,-0.7177036392210727,0.0,True,0.010161161422729492,-1.7349997758865356,-0.34999987483024597,-0.717703640460968,0.0,0.1374019835710527,0.0
1759839282.826003,1,-1.7349997758865356,-0.34999987483024597,-0.7177036392742995,0.0,True,0.010352373123168945,-1.7349997758865356,-0.34999987483024597,-0.717703640460968,0.0,0.1374019835710527,0.0
1759839282.8370178,1,-1.7349997758865356,-0.34999987483024597,-0.7177036393048155,0.0,True,0.011014699935913086,-1.7349997758865356,-0.34999987483024597,-0.717703640460968,0.0,0.2711639693117398,0.0
1759839282.8481915,1,-1.7349997758865356,-0.34999987483024597,-0.7177036393320506,0.0,True,0.011173725128173828,-1.7349997758865356,-0.34999987483024597,-0.717703640460968,0.0,0.2711639693117398,0.0
1759839282.8585062,1,-1.7349997758865356,-0.34999987483024597,-0.7177036393816643,0.0,True,0.010314702987670898,-1.7349997758865356,-0.34999987483024597,-0.717703640460968,0.0,0.2711639693117398,0.0
1759839282.868956,1,-1.7349997758865356,-0.34999987483024597,-0.7177036394240268,0.0,True,0.010449886322021484,-1.7349997758865356,-0.34999987483024597,-0.717703640460968,0.0,0.2711639693117398,0.0
1759839282.8817403,1,-1.7349997758865356,-0.34999987483024597,-0.717703639412214,0.0,True,0.012784242630004883,-1.7349997758865356,-0.34999987483024597,-0.717703640460968,0.0,0.2711639693117398,0.0
1759839282.8934731,1,-1.7349997758865356,-0.34999987483024597,-0.7177036394350864,0.0,True,0.011732816696166992,-1.7349997758865356,-0.34999987483024597,-0.717703640460968,0.0,0.2711639693117398,0.0
1759839282.9040647,1,-1.7349997758865356,-0.34999987483024597,-0.7177036394865084,0.0,True,0.010591506958007812,-1.7349997758865356,-0.34999987483024597,-0.717703640460968,0.0,0.2711639693117398,0.0
1759839282.9152713,1,-1.7349997758865356,-0.34999987483024597,-0.7177036395210781,0.0,True,0.011206626892089844,-1.7349997758865356,-0.34999987483024597,-0.717703640460968,0.0,0.2711639693117398,0.0
1759839282.9256392,1,-1.7349997758865356,-0.34999987483024597,-0.7177036395690806,0.0,True,0.010367870330810547,-1.7349997758865356,-0.34999987483024597,-0.717703640460968,0.0,0.2711639693117398,0.0
1759839282.936313,1,-1.7349997758865356,-0.34999987483024597,-0.7177036396057463,0.0,True,0.010673761367797852,-1.7349997758865356,-0.34999987483024597,-0.717703640460968,0.0,0.2711639693117398,0.0
1759839282.9464798,1,-1.7349997758865356,-0.34999987483024597,-0.717703639647393,0.0,True,0.01016688346862793,-1.7349997758865356,-0.34999987483024597,-0.717703640460968,0.0,0.2711639693117398,0.0
1759839282.9575844,1,-1.7349997758865356,-0.34999987483024597,-0.7177036396679419,0.0,True,0.011104583740234375,-1.7349997758865356,-0.34999987483024597,-0.717703640460968,0.0,0.2711639693117398,0.0
