timestamp,observer_vehicle_id,vehicle_0_x,vehicle_0_y,vehicle_0_theta,vehicle_0_velocity,vehicle_1_x,vehicle_1_y,vehicle_1_theta,vehicle_1_velocity,vehicle_2_x,vehicle_2_y,vehicle_2_theta,vehicle_2_velocity
1759839019.327564,0,-1.205,-0.83,-0.7801621756414646,0.0,0.0,0.0,0.0,0.0,0.0,0.0,0.0,0.0
1759839019.338976,0,-1.205,-0.83,-0.7801621756414646,0.0,0.0,0.0,0.0,0.0,0.0,0.0,0.0,0.0
1759839019.3495252,0,-1.205,-0.83,-0.7801621756414646,0.0,0.0,0.0,0.0,0.0,0.0,0.0,0.0,0.0
1759839019.360325,0,-1.205,-0.83,-0.7801621756414646,0.0,0.0,0.0,0.0,0.0,0.0,0.0,0.0,0.0
1759839019.370518,0,-1.205,-0.83,-0.7801621756414646,0.0,0.0,0.0,0.0,0.0,0.0,0.0,0.0,0.0
1759839019.380972,0,-1.205,-0.83,-0.7801621756414646,0.0,0.0,0.0,0.0,0.0,0.0,0.0,0.0,0.0
1759839019.3911815,0,-1.205,-0.83,-0.7801621756414646,0.0,0.0,0.0,0.0,0.0,0.0,0.0,0.0,0.0
1759839019.4016125,0,-1.205,-0.83,-0.7801621756414646,0.0,0.0,0.0,0.0,0.0,0.0,0.0,0.0,0.0
1759839019.412132,0,-1.205,-0.83,-0.7801621756414646,0.0,0.0,0.0,0.0,0.0,0.0,0.0,0.0,0.0
1759839019.4227371,0,-1.205,-0.83,-0.7801621756414646,0.0,0.0,0.0,0.0,0.0,0.0,0.0,0.0,0.0
1759839019.433218,0,-1.205,-0.83,-0.7801621756414646,0.0,0.0,0.0,0.0,0.0,0.0,0.0,0.0,0.0
1759839019.4435694,0,-1.205,-0.83,-0.7801621756414646,0.0,0.0,0.0,0.0,0.0,0.0,0.0,0.0,0.0
1759839019.4544752,0,-1.205,-0.83,-0.7801621756414646,0.0,0.0,0.0,0.0,0.0,0.0,0.0,0.0,0.0
1759839019.4648614,0,-1.205,-0.83,-0.7801621756414646,0.0,0.0,0.0,0.0,0.0,0.0,0.0,0.0,0.0
1759839019.475088,0,-1.205,-0.83,-0.7801621756414646,0.0,0.0,0.0,0.0,0.0,0.0,0.0,0.0,0.0
1759839019.4857426,0,-1.205,-0.83,-0.7801621756414646,0.0,-0.3438701114654541,-0.06936861038208009,1.7427097368569513,0.0,0.0,0.0,0.0,0.0
1759839019.496408,0,-1.205,-0.83,-0.7801621756414646,0.0,-0.6166191361247662,-0.12439002746032748,-3.1379157190593054,0.0,0.0,0.0,0.0,0.0
1759839019.5076177,0,-1.205,-0.83,-0.7801621756414646,0.0,-0.8333848347194225,-0.16811797818547428,-0.7838720458135178,0.0,0.0,0.0,0.0,0.0
1759839019.5250864,0,-1.2050001607735952,-0.8299997470180194,-0.7229993176682541,0.0,-1.0049867812969473,-0.20273508556422565,1.113677348315344,0.0,0.0,0.0,0.0,0.0
1759839019.5358565,0,-1.205000161673033,-0.8299997456027273,-0.7181165243417383,0.0,-1.1423557385632908,-0.23044640259201826,2.654016183237837,0.0,0.0,0.0,0.0,0.0
1759839019.5469036,0,-1.2050001619552244,-0.8299997451586908,-0.7176554124057475,0.0,-1.2593800278469423,-0.25405360792301424,-2.4099974584594888,0.0,0.0,0.0,0.0,0.0
1759839019.5578966,0,-1.2050001620600936,-0.829999744993676,-0.7175952355241613,0.0,-1.3522508537607543,-0.27278835666643453,-0.19459990170614525,0.0,0.0,0.0,0.0,0.0
1759839019.5694423,0,-1.205000162099991,-0.8299997449308965,-0.7175874921692547,0.0,-1.426103656036524,-0.2876866164915178,1.589421125417812,0.0,0.0,0.0,0.0,0.0
1759839019.5796125,0,-1.2050001621152215,-0.8299997449069307,-0.7175981232323956,0.0,-1.4850779899187476,-0.29958345617957444,3.033901774187771,0.0,0.0,0.0,0.0,0.0
1759839019.5901897,0,-1.2050001621210387,-0.8299997448977774,-0.7176097493598449,0.0,-1.5322642786709602,-0.30910230405466055,-2.072646103817565,0.0,0.0,0.0,0.0,0.0
1759839019.6002502,0,-1.2050001621232607,-0.8299997448942812,-0.717621858030764,0.0,-1.572229167931139,-0.3171643854616131,0.07940675539875854,0.0,0.0,0.0,0.0,0.0
1759839019.6111872,0,-1.2050001621241093,-0.8299997448929457,-0.7176309713491271,0.0,-1.603959813989925,-0.3235653803437889,1.8089733111427917,0.0,0.0,0.0,0.0,0.0
1759839019.6216345,0,-1.2050001621244335,-0.8299997448924357,-0.7176397680624476,0.0,-1.6292310661250016,-0.3286633274603749,-3.0765288373982393,0.0,0.0,0.0,0.0,0.0
1759839019.632091,0,-1.2050001621245572,-0.8299997448922408,-0.7176471457866391,0.0,-1.6494075320378847,-0.332733507903896,-0.741603954728516,0.0,0.0,0.0,0.0,0.0
1759839019.6424155,0,-1.2050001621246045,-0.8299997448921663,-0.7176534111068396,0.0,-1.665558398835763,-0.33599160783430376,1.1478616553292211,0.0,0.0,0.0,0.0,0.0
1759839019.6531854,0,-1.2050001621246227,-0.8299997448921379,-0.7176582265666163,0.0,-1.6792387835337368,-0.3387513396177567,2.6652905821933612,0.0,0.0,0.0,0.0,0.0
1759839019.6634262,0,-1.2050001621246296,-0.829999744892127,-0.7176628103299514,0.0,-1.6901098479405137,-0.34094434972863386,-2.392478895716333,0.0,0.0,0.0,0.0,0.0
1759839019.6740794,0,-1.2050001621246322,-0.8299997448921229,-0.7176663483590069,0.0,-1.6987658721151537,-0.34269052175233644,-0.18458160530660248,0.0,0.0,0.0,0.0,0.0
1759839019.68543,0,-1.2050001621246331,-0.8299997448921214,-0.7176689720542626,0.0,-1.7056705268375334,-0.34408339158105855,1.598784178208952,0.0,0.0,0.0,0.0,0.0
1759839019.6967301,0,-1.2050001621246336,-0.8299997448921207,-0.7176714842270915,0.0,-1.7111931684342632,-0.3451974691365948,3.0475530189682156,0.0,0.0,0.0,0.0,0.0
1759839019.707819,0,-1.2050001621246338,-0.8299997448921205,-0.7176739391151195,0.0,-1.7158890956637978,-0.3461447490823058,2.304851961897282,0.0,0.0,0.0,0.0,0.0
1759839019.7183473,0,-1.2050001621246338,-0.8299997448921204,-0.717676422827914,0.0,-1.7196185047484436,-0.3468970593849481,1.7150140163695688,0.0,0.0,0.0,0.0,0.0
1759839019.7282672,0,-1.2050001621246338,-0.8299997448921204,-0.7176788244486366,0.0,-1.722589620015626,-0.347496403832046,1.245106723995573,0.0,0.0,0.0,0.0,0.0
1759839019.73875,0,-1.2050001621246338,-0.8299997448921204,-0.7176805310428254,0.0,-1.72496081113135,-0.3479747293429794,0.8700825675118296,0.0,0.0,0.0,0.0,0.0
1759839019.7489402,0,-1.2050001621246338,-0.8299997448921204,-0.717682126468425,0.0,-1.7268584903876258,-0.3483575362765187,0.569948361693357,0.0,0.0,0.0,0.0,0.0
1759839019.760344,0,-1.2050001621246338,-0.8299997448921204,-0.717683014589694,0.0,-1.7284663663575905,-0.34868188301084596,0.3156490243822979,0.0,0.0,0.0,0.0,0.0
1759839019.77162,0,-1.2050001621246338,-0.8299997448921204,-0.7176839734461815,0.0,-1.7297419669444303,-0.34893920191626904,0.11390188096671672,0.0,0.0,0.0,0.0,0.0
1759839019.7816615,0,-1.2050001621246338,-0.8299997448921204,-0.7176853801508116,0.0,-1.7307579651924487,-0.3491441528701875,-0.04678693210506257,0.0,0.0,0.0,0.0,0.0
1759839019.7932336,0,-1.2050001621246338,-0.8299997448921204,-0.7176860669401339,0.0,-1.7315678269487735,-0.34930752120258834,-0.17487349586626896,0.0,0.0,0.0,0.0,0.0
1759839019.8037424,0,-1.2050001621246338,-0.8299997448921204,-0.7176871094155199,0.0,-1.7322158620582295,-0.34943824526054296,-0.277365791271749,0.0,0.0,0.0,0.0,0.0
1759839019.8141332,0,-1.2050001621246338,-0.8299997448921204,-0.7176880864556381,0.0,-1.7327654279501998,-0.34954910574088344,-0.3642843376941114,0.0,0.0,0.0,0.0,0.0
1759839019.825443,0,-1.2050001621246338,-0.8299997448921204,-0.7176886716951216,0.0,-1.7332014600474681,-0.34963706376093767,-0.4332465433946841,0.0,0.0,0.0,0.0,0.0
1759839019.8365223,0,-1.2050001621246338,-0.8299997448921204,-0.7176893197436449,0.0,-1.733548424387364,-0.3497070547009576,-0.4881219214426744,0.0,0.0,0.0,0.0,0.0
1759839019.8473983,0,-1.2050001621246338,-0.8299997448921204,-0.7176900055433286,0.0,-1.7338252973448989,-0.3497629065460485,-0.5319117478569441,0.0,0.0,0.0,0.0,0.0
1759839019.8580103,0,-1.2050001621246338,-0.8299997448921204,-0.7176907111403175,0.0,-1.7340468669627416,-0.349807602395303,-0.5669548780723472,0.0,0.0,0.0,0.0,0.0
1759839019.868928,0,-1.2050001621246338,-0.8299997448921204,-0.7176912717355854,0.0,-1.7342345826569108,-0.34984546910487707,-0.5966437206956969,0.0,0.0,0.0,0.0,0.0
1759839019.880503,0,-1.2050001621246338,-0.8299997448921204,-0.7176916439460133,0.0,-1.734383557087936,-0.3498755207824342,-0.6202053011867781,0.0,0.0,0.0,0.0,0.0
1759839019.8909883,0,-1.2050001621246338,-0.8299997448921204,-0.7176922811384863,0.0,-1.734502244161942,-0.3498994627814315,-0.6389766771081217,0.0,0.0,0.0,0.0,0.0
1759839019.901953,0,-1.2050001621246338,-0.8299997448921204,-0.7176927546584047,0.0,-1.7345969887313288,-0.3499185750091468,-0.6539613411363114,0.0,0.0,0.0,0.0,0.0
1759839019.9134147,0,-1.2050001621246338,-0.8299997448921204,-0.7176930941640087,0.0,-1.734672775935206,-0.34993386308642427,-0.6659477356609467,0.0,0.0,0.0,0.0,0.0
1759839019.9246392,0,-1.2050001621246338,-0.8299997448921204,-0.7176934914782329,0.0,-1.7347371136384175,-0.34994684152774724,-0.6761232937241584,0.0,0.0,0.0,0.0,0.0
1759839019.9357214,0,-1.2050001621246338,-0.8299997448921204,-0.7176939095374095,0.0,-1.7347882193280917,-0.34995715075797457,-0.6842060956689172,0.0,0.0,0.0,0.0,0.0
1759839019.9461064,0,-1.2050001621246338,-0.8299997448921204,-0.7176944286324982,0.0,-1.7348289505996295,-0.3499653672219028,-0.6906480946497959,0.0,0.0,0.0,0.0,0.0
1759839019.9566808,0,-1.2050001621246338,-0.8299997448921204,-0.7176948504284635,0.0,-1.7348614868747796,-0.34997193056061127,-0.6957939848576312,0.0,0.0,0.0,0.0,0.0
1759839019.9675932,0,-1.2050001621246338,-0.8299997448921204,-0.7176951679910708,0.0,-1.7348890302816289,-0.3499774867193142,-0.7001502102381127,0.0,0.0,0.0,0.0,0.0
1759839019.9781358,0,-1.2050001621246338,-0.8299997448921204,-0.7176955266650946,0.0,-1.734910863220592,-0.34998189094114834,-0.703603276279015,0.0,0.0,0.0,0.0,0.0
1759839019.988804,0,-1.2050001621246338,-0.8299997448921204,-0.717695836075869,0.0,-1.7349282109342543,-0.34998539038661525,-0.706346965575066,0.0,0.0,0.0,0.0,0.0
1759839020.0001895,0,-1.2050001621246338,-0.8299997448921204,-0.7176960182007139,0.0,-1.734942019491824,-0.3499881759003222,-0.7085309070635646,0.0,0.0,0.0,0.0,0.0
1759839020.010405,0,-1.2050001621246338,-0.8299997448921204,-0.7176963814614847,0.0,-1.7349530540263731,-0.3499904018277648,-0.7102761130843,0.0,-0.3867625093460083,0.039072930431365976,1.1704549613760975,0.0
1759839020.0207932,0,-1.2050001621246338,-0.8299997448921204,-0.7176966847332071,0.0,-1.7349618914804483,-0.3499921845519442,-0.7116738320357974,0.0,-0.6935668152020037,0.07006803209989475,2.1120967147202907,0.0
1759839020.032285,0,-1.2050001621246338,-0.8299997448921204,-0.7176968101745143,0.0,-1.7349689781943995,-0.34999361411029956,-0.7127946564620539,0.0,-0.9372693275759558,0.09468823463203245,2.874782884014562,0.0
1759839020.043513,0,-1.2050001621246338,-0.8299997448921204,-0.717696990716238,0.0,-1.7349750086123286,-0.3499948305886837,-0.7137484186375499,0.0,-1.1314281777161572,0.11430325692824765,-2.786218314610346,0.0
1759839020.0538096,0,-1.2050001621246338,-0.8299997448921204,-0.7176972973619584,0.0,-1.7349798158056702,-0.3499958003136443,-0.7145087173819546,0.0,-1.2866775538888768,0.12998742467492755,-1.0835604302409398,0.0
1759839020.0638592,0,-1.2050001621246338,-0.8299997448921204,-0.7176976013518974,0.0,-1.734983658247846,-0.34999657542540347,-0.7151164324776484,0.0,-1.4111492920222843,0.14256226180943077,0.2948688256638888,0.0
1759839020.0751157,0,-1.2050001621246338,-0.8299997448921204,-0.7176977264191411,0.0,-1.7349867329044695,-0.3499971956565989,-0.7156027157211466,0.0,-1.511050933494477,0.1526548891786728,1.416279386745366,0.0
1759839020.0853615,0,-1.2050001621246338,-0.8299997448921204,-0.7176979698482047,0.0,-1.734989202362971,-0.34999769380497314,-0.715993281705172,0.0,-1.5915315710364444,0.1607854971765023,2.3335756722290832,0.0
1759839020.0959814,0,-1.2050001621246338,-0.8299997448921204,-0.7176981540344016,0.0,-1.734991189701885,-0.34999809469838705,-0.7163075963527462,0.0,-1.6604006893198615,0.16774304399795523,3.0584054010632142,0.0
1759839020.106741,0,-1.2050001621246338,-0.8299997448921204,-0.71769831248168,0.0,-1.734992792758974,-0.3499984180730387,-0.7165611335427848,0.0,-1.7154154470579086,0.1733009451643118,-2.6316883106208864,0.0
1759839020.1202044,0,-1.2050001621246338,-0.8299997448921204,-0.7176982061386852,0.0,-1.7349941634454504,-0.34999869457302424,-0.716777919332961,0.0,-1.7593474659918436,0.17773920553866318,-0.9635742504960516,0.0
1759839020.1294892,0,-1.2050001621246338,-0.8299997448921204,-0.7176985721200921,0.0,-1.7349952631038712,-0.34999891640022013,-0.7169518397179517,0.0,-1.7946980475868475,0.1813105207049277,0.3911599194805808,0.0
1759839020.1409461,0,-1.2050001621246338,-0.8299997448921204,-0.7176986934385674,0.0,-1.7349961451966236,-0.3499990943392583,-0.7170913502315456,0.0,-1.8231381056641123,0.18418369580298985,1.4965927326199513,0.0
1759839020.1526139,0,-1.2050001621246338,-0.8299997448921204,-0.7176987927494629,0.0,-1.7349968544941292,-0.3499992374213952,-0.7172035316988956,0.0,-1.8460739690187944,0.18650080610087313,2.404096733838777,0.0
1759839020.1630268,0,-1.2050001621246338,-0.8299997448921204,-0.717699011964342,0.0,-1.7349974271803388,-0.3499993529457922,-0.7172941069212918,0.0,-1.8646467320463136,0.1883771313913456,-3.1297441486426822,0.0
1759839020.173279,0,-1.2050001621246338,-0.8299997448921204,-0.7176992219891218,0.0,-1.7349978907677617,-0.3499994464623753,-0.7173674272374347,0.0,-1.8805963067469953,0.1899884473995683,-1.3694624216943303,0.0
1759839020.1835356,0,-1.2050001621246338,-0.8299997448921204,-0.717699402292137,0.0,-1.734998266928834,-0.34999952234298903,-0.7174269203284638,0.0,-1.8934230891944228,0.19128428131861608,0.05996565420868308,0.0
1759839020.193858,0,-1.2050001621246338,-0.8299997448921204,-0.7176995543687426,0.0,-1.734998572849748,-0.34999958405449616,-0.7174753043376191,0.0,-1.9037625000041773,0.19232882692349898,1.2262360830881553,0.0
1759839020.2052262,0,-1.2050001621246338,-0.8299997448921204,-0.7176996142322274,0.0,-1.7349988219343586,-0.3499996343007723,-0.7175146991993114,0.0,-1.9121072589574717,0.19317186154596,2.1831469766273863,0.0
1759839020.2152588,0,-1.2050001621246338,-0.8299997448921204,-0.7176997803893173,0.0,-1.7349990394419879,-0.34999967817722205,-0.7175490998913048,0.0,-1.9188699562606806,0.19385506737607905,2.9726108461116243,0.0
1759839020.2268262,0,-1.2050001621246338,-0.8299997448921204,-0.7176998263541545,0.0,-1.7349992150174054,-0.34999971359494975,-0.7175768686453062,0.0,-1.9243537001311475,0.1944090661158134,-2.6541234955382014,0.0
1759839020.2377477,0,-1.2050001621246338,-0.8299997448921204,-0.7176999281315162,0.0,-1.7349993572253468,-0.3499997422816658,-0.7175993600475962,0.0,-1.928815430535182,0.19485981528996457,-1.0113378116496834,0.0
1759839020.2485259,0,-1.2050001621246338,-0.8299997448921204,-0.7177000419145649,0.0,-1.7349994727154616,-0.3499997655787623,-0.7176176257970753,0.0,-1.9324552798554357,0.19522753340077995,0.34440623743728804,0.0
1759839020.2589176,0,-1.2050001621246338,-0.8299997448921204,-0.7177001744596936,0.0,-1.7349995667811131,-0.3499997845540362,-0.7176325030844365,0.0,-1.9356202501501987,0.19554727655363546,1.460529765156328,0.0
1759839020.269771,0,-1.2050001621246338,-0.8299997448921204,-0.7177002669064123,0.0,-1.7349996435375894,-0.3499998000376387,-0.717644642777674,0.0,-1.9381830631352788,0.195806186378282,2.379424383344402,0.0
1759839020.279941,0,-1.2050001621246338,-0.8299997448921204,-0.7177003950242451,0.0,-1.7349997063751421,-0.34999981271346403,-0.7176545810741083,0.0,-1.9402650863627906,0.19601652410947165,3.140273702349373,0.0
1759839020.2906182,0,-1.2050001621246338,-0.8299997448921204,-0.7177004818363333,0.0,-1.7349997579054481,-0.34999982310834943,-0.7176627310327768,0.0,-1.9419594902972657,0.19618770235310837,-2.5084824618246424,0.0
1759839020.3020365,0,-1.2050001621246338,-0.8299997448921204,-0.7177005246850108,0.0,-1.7349998030791225,-0.34999983222095143,-0.7176698756357616,0.0,-1.9433406140202043,0.19632723126255397,-0.8955990607368676,0.0
1759839020.3135872,0,-1.2050001621246338,-0.8299997448921204,-0.7177005714531273,0.0,-1.7349998398059308,-0.34999983962962006,-0.7176756842946121,0.0,-1.9444691171314412,0.1964412390127661,0.4391731214701473,0.0
1759839020.3280108,0,-1.2050001621246338,-0.8299997448921204,-0.7177004902840683,0.0,-1.734999869643503,-0.34999984564856634,-0.7176804033618586,0.0,-1.9453904284435022,0.19653431507865127,1.5502744499777903,0.0
1759839020.3390453,0,-1.2050001621246338,-0.8299997448921204,-0.7177006227446832,0.0,-1.7349998940599027,-0.3499998505739335,-0.7176842650243145,0.0,-1.946200592685542,0.19661631419944833,1.2013646504525637,0.0
1759839020.350153,0,-1.2050001621246338,-0.8299997448921204,-0.7177007475359857,0.0,-1.7349999140881036,-0.3499998546140969,-0.7176874326556005,0.0,-1.9468598984287535,0.19668304448507992,0.9174244038297041,0.0
1759839020.3612092,0,-1.2050001621246338,-0.8299997448921204,-0.7177008590654097,0.0,-1.7349999305587773,-0.34999985793662264,-0.7176900376335483,0.0,-1.9473978269916796,0.1967374898270522,0.6857571229128168,0.0
1759839020.371371,0,-1.2050001621246338,-0.8299997448921204,-0.7177009950776636,0.0,-1.7349999450688411,-0.3499998608636468,-0.7176923325242615,0.0,-1.9478382900491593,0.19678207039674753,0.4960648739724427,0.0
1759839020.3816087,0,-1.2050001621246338,-0.8299997448921204,-0.7177011061488301,0.0,-1.7349999569230974,-0.34999986325493154,-0.7176942073762737,0.0,-1.9481997467735972,0.196818654501639,0.3403979280416587,0.0
1759839020.3927064,0,-1.2050001621246338,-0.8299997448921204,-0.7177011653934251,0.0,-1.7349999666203713,-0.3499998652111018,-0.7176957410830902,0.0,-1.9484967457335203,0.19684871464540693,0.2124907183811854,0.0
1759839020.403406,0,-1.2050001621246338,-0.8299997448921204,-0.7177012373269029,0.0,-1.7349999745768137,-0.34999986681610507,-0.7176969994625181,0.0,-1.9487415073805876,0.1968734876961328,0.10708031789908362,0.0
1759839020.4142063,0,-1.2050001621246338,-0.8299997448921204,-0.717701301361128,0.0,-1.734999981119867,-0.3499998681359942,-0.7176980343023899,0.0,-1.9489436761342123,0.1968939497940503,0.020013207753735576,0.0
1759839020.4251678,0,-1.2050001621246338,-0.8299997448921204,-0.7177013563023671,0.0,-1.73499998651256,-0.3499998692238283,-0.7176988872028955,0.0,-1.9491225673181454,0.19691205590024422,-0.057029055881322205,0.0
1759839020.4357216,0,-1.2050001621246338,-0.8299997448921204,-0.7177014243584772,0.0,-1.734999990970262,-0.34999987012305256,-0.7176995922265981,0.0,-1.9492692866661954,0.1969269057997087,-0.12021601928729438,0.0
1759839020.4470942,0,-1.2050001621246338,-0.8299997448921204,-0.7177014602359684,0.0,-1.7349999949669155,-0.34999987092927237,-0.7177002243315155,0.0,-1.9493897871170092,0.19693910200698328,-0.17211140784486617,0.0
1759839020.4575217,0,-1.2050001621246338,-0.8299997448921204,-0.7177015297203262,0.0,-1.7349999982387165,-0.3499998715892722,-0.717700741794809,0.0,-1.9494891207082312,0.1969491558537506,-0.21489095994181961,0.0
1759839020.4688413,0,-1.2050001621246338,-0.8299997448921204,-0.7177015661214697,0.0,-1.7350000009205933,-0.34999987213027034,-0.717701165956538,0.0,-1.949571105680528,0.19695745379544943,-0.2501990601563753,0.0
1759839020.4795241,0,-1.2050001621246338,-0.8299997448921204,-0.7177016235185967,0.0,-1.735000003126202,-0.34999987257519394,-0.7177015147924092,0.0,-1.949638996056539,0.19696432518134208,-0.2794371038202643,0.0
1759839020.4896348,0,-1.2050001621246338,-0.8299997448921204,-0.7177016945198673,0.0,-1.7350000049457477,-0.3499998729422395,-0.7177018025691158,0.0,-1.9496993681382724,0.19697043561841884,-0.3054372774165471,0.0
1759839020.5010238,0,-1.2050001621246338,-0.8299997448921204,-0.7177017207196208,0.0,-1.7350000064478146,-0.349999873245242,-0.7177020401338419,0.0,-1.9497489358455926,0.1969754525127833,-0.32678437955534223,0.0
1759839020.5121925,0,-1.2050001621246338,-0.8299997448921204,-0.7177017557969538,0.0,-1.7350000076912664,-0.34999987349607575,-0.7177022367963893,0.0,-1.9497897474145682,0.1969795831724702,-0.3443605148754763,0.0
1759839020.5230641,0,-1.2050001621246338,-0.8299997448921204,-0.7177018012283831,0.0,-1.735000008794089,-0.34999987371854124,-0.7177024112172268,0.0,-1.9498234456706611,0.19698299387270682,-0.3588731916484818,0.0
1759839020.5333138,0,-1.2050001621246338,-0.8299997448921204,-0.7177018610064358,0.0,-1.7350000097017249,-0.34999987390163295,-0.7177025547676087,0.0,-1.9498513594956126,0.1969858191135473,-0.3708947134121414,0.0
1759839020.544751,0,-1.2050001621246338,-0.8299997448921204,-0.7177018850395704,0.0,-1.7350000104493482,-0.3499998740524463,-0.7177026730106226,0.0,-1.9498744993555472,0.1969881611672588,-0.38086025307915217,0.0
1759839020.5551174,0,-1.2050001621246338,-0.8299997448921204,-0.7177019367223991,0.0,-1.735000011067558,-0.3499998741771539,-0.7177027707857924,0.0,-1.9498937564668217,0.19699011023648658,-0.3891536267996151,0.0
1759839020.5656648,0,-1.2050001621246338,-0.8299997448921204,-0.7177019801315794,0.0,-1.7350000115798183,-0.34999987428048895,-0.7177028518041417,0.0,-1.949910948121035,0.196991850254692,-0.3965574793936767,0.0
1759839020.5773416,0,-1.2050001621246338,-0.8299997448921204,-0.7177019948743997,0.0,-1.735000012004662,-0.34999987436619,-0.7177029189968092,0.0,-1.9499251281525238,0.19699328545764794,-0.4026643299399141,0.0
1759839020.5882018,0,-1.2050001621246338,-0.8299997448921204,-0.7177020318151914,0.0,-1.7350000123582807,-0.3499998744375233,-0.7177029749246124,0.0,-1.9499368663850873,0.19699447351890756,-0.40771958189745044,0.0
1759839020.5993643,0,-1.2050001621246338,-0.8299997448921204,-0.7177020623126609,0.0,-1.7350000126531957,-0.34999987449701464,-0.7177030215679576,0.0,-1.9499466028603631,0.19699545897638748,-0.4119127460243498,0.0
1759839020.6103437,0,-1.2050001621246338,-0.8299997448921204,-0.7177020965385861,0.0,-1.7350000129179015,-0.3499998745504121,-0.7177030634334531,0.0,-1.949954700648924,0.19699627857753493,-0.4154001842951874,0.0
1759839020.6208863,0,-1.2050001621246338,-0.8299997448921204,-0.7177021380935393,0.0,-1.7350000131372654,-0.34999987459466303,-0.7177030981277526,0.0,-1.9499614555903184,0.1969969622651462,-0.4183093046011834,0.0
1759839020.6324482,0,-1.2050001621246338,-0.8299997448921204,-0.7177021570466309,0.0,-1.7350000133192403,-0.3499998746313717,-0.7177031269086344,0.0,-1.9499670956584716,0.196997533113137,-0.42073828744996133,0.0
1759839020.6427486,0,-1.2050001621246338,-0.8299997448921204,-0.7177022005400087,0.0,-1.7350000134708286,-0.3499998746619507,-0.7177031508836477,0.0,-1.9499718246505975,0.19699801174842654,-0.4227749012733307,0.0
1759839020.6537735,0,-1.2050001621246338,-0.8299997448921204,-0.7177022273093208,0.0,-1.7350000135972692,-0.3499998746874568,-0.7177031708813052,0.0,-1.9499760884578055,0.19699844330097374,-0.4246111759950988,0.0
1759839020.665202,0,-1.2050001621246338,-0.8299997448921204,-0.7177022462854445,0.0,-1.7350000137029291,-0.3499998747087709,-0.7177031875923239,0.0,-1.9499796329976402,0.19699880205434125,-0.4261376870640112,0.0
1759839020.67541,0,-1.2050001621246338,-0.8299997448921204,-0.7177022867016163,0.0,-1.7350000137915877,-0.34999987472665545,-0.7177032016144466,0.0,-1.949982591686637,0.1969991015120115,-0.4274118923807911,0.0
1759839020.686646,0,-1.2050001621246338,-0.8299997448921204,-0.717702306845311,0.0,-1.7350000138717545,-0.34999987474282696,-0.7177032142934827,0.0,-1.9499850634775122,0.19699935168928182,-0.4284764074680262,0.0
1759839020.6972053,0,-1.2050001621246338,-0.8299997448921204,-0.7177023371729234,0.0,-1.7350000139384911,-0.3499998747562893,-0.7177032248484495,0.0,-1.9499871354020437,0.19699956139489597,-0.4293687139108615,0.0
1759839020.707379,0,-1.2050001621246338,-0.8299997448921204,-0.7177023709522034,0.0,-1.7350000139942046,-0.34999987476752803,-0.7177032336599872,0.0,-1.9499888770272897,0.19699973766994186,-0.43011877184226355,0.0
1759839020.7181294,0,-1.2050001621246338,-0.8299997448921204,-0.717702392502531,0.0,-1.735000014040783,-0.349999874776924,-0.7177032410267696,0.0,-1.9499903430389578,0.19699988604932175,-0.43075013251046584,0.0
1759839020.7301037,0,-1.2050001621246338,-0.8299997448921204,-0.7177023964108606,0.0,-1.7350000140797504,-0.3499998747847846,-0.7177032471897901,0.0,-1.9499916695615473,0.19700002031059918,-0.4313214200430261,0.0
1759839020.7408621,0,-1.2050001621246338,-0.8299997448921204,-0.7177024209724294,0.0,-1.7350000141124882,-0.34999987479138867,-0.7177032523675752,0.0,-1.9499927790271534,0.19700013260289687,-0.4317992286182267,0.0
1759839020.7515712,0,-1.2050001621246338,-0.8299997448921204,-0.7177024457523249,0.0,-1.7350000141400577,-0.3499998747969501,-0.7177032567279493,0.0,-1.949993709175288,0.19700022674594253,-0.4321998113424047,0.0
1759839020.76252,0,-1.2050001621246338,-0.8299997448921204,-0.717702465724674,0.0,-1.73500001416332,-0.3499998748016427,-0.717703260407081,0.0,-1.9499944905281845,0.1970003058289818,-0.432536313089046,0.0
1759839020.7727504,0,-1.2050001621246338,-0.8299997448921204,-0.7177024933801945,0.0,-1.7350000141830138,-0.34999987480561534,-0.7177032635218089,0.0,-1.9499951490858203,0.19700037248354926,-0.4328199311516264,0.0
1759839020.782868,0,-1.2050001621246338,-0.8299997448921204,-0.7177025192382089,0.0,-1.7350000142011615,-0.3499998748092762,-0.7177032663920174,0.0,-1.9499957054499677,0.19700042879481133,-0.4330595380030513,0.0
1759839020.7942739,0,-1.2050001621246338,-0.8299997448921204,-0.7177025275144047,0.0,-1.7350000142163746,-0.34999987481234507,-0.7177032687981258,0.0,-1.9499961756185025,0.1970004763819603,-0.4332620233766994,0.0
1759839020.805356,0,-1.2050001621246338,-0.8299997448921204,-0.7177025409561235,0.0,-1.7350000142291648,-0.3499998748149251,-0.7177032708209992,0.0,-1.9499965740819105,0.19700051671162117,-0.43343362782499895,0.0
1759839020.8165681,0,-1.2050001621246338,-0.8299997448921204,-0.7177025542148243,0.0,-1.7350000142399413,-0.349999874817099,-0.7177032725253778,0.0,-1.9499969405425703,0.19700055380218917,-0.433591449793323,0.0
1759839020.827419,0,-1.2050001621246338,-0.8299997448921204,-0.7177025718954457,0.0,-1.7350000142490474,-0.3499998748189359,-0.717703273965555,0.0,-1.9499972490372455,0.1970005850258483,-0.43372430781110255,0.0
1759839020.83879,0,-1.2050001621246338,-0.8299997448921204,-0.7177025840180473,0.0,-1.7350000142567537,-0.3499998748204904,-0.7177032751843468,0.0,-1.9499975091427493,0.19700061135189617,-0.43383632628142993,0.0
1759839020.8495307,0,-1.2050001621246338,-0.8299997448921204,-0.7177026026233692,0.0,-1.7350000142632966,-0.3499998748218103,-0.7177032762191922,0.0,-1.9499977291738582,0.1970006336218959,-0.4339310860919259,0.0
1759839020.859825,0,-1.2050001621246338,-0.8299997448921204,-0.7177026240871314,0.0,-1.7350000142688684,-0.3499998748229342,-0.7177032771004102,0.0,-1.9499979158475051,0.1970006525156882,-0.43401147999397827,0.0
1759839020.8709433,0,-1.2050001621246338,-0.8299997448921204,-0.7177026358461234,0.0,-1.7350000142740267,-0.34999987482397477,-0.7177032779162335,0.0,-1.9499980743692433,0.1970006685601425,-0.4340797498397951,0.0
1759839020.881053,0,-1.2050001621246338,-0.8299997448921204,-0.7177026558948931,0.0,-1.7350000142783881,-0.34999987482485456,-0.7177032786060148,0.0,-1.9499982095002306,0.19700068223714967,-0.43413794609582174,0.0
1759839020.8914118,0,-1.2050001621246338,-0.8299997448921204,-0.7177026717032717,0.0,-1.7350000142820823,-0.34999987482559974,-0.71770327919027,0.0,-1.9499983345711798,0.19700069489595062,-0.43419180984041617,0.0
1759839020.901805,0,-1.2050001621246338,-0.8299997448921204,-0.7177026855425819,0.0,-1.735000014285218,-0.3499998748262323,-0.7177032796861992,0.0,-1.9499984403783155,0.197000705605004,-0.43423737732489504,0.0
1759839020.9131076,0,-1.2050001621246338,-0.8299997448921204,-0.7177026914155178,0.0,-1.7350000142878819,-0.34999987482676964,-0.7177032801074996,0.0,-1.9499985299665337,0.1970007146724927,-0.4342759598809193,0.0
1759839020.9233932,0,-1.2050001621246338,-0.8299997448921204,-0.7177027060051238,0.0,-1.7350000142901536,-0.3499998748272279,-0.7177032804667903,0.0,-1.9499986061152736,0.19700072237973204,-0.4343087545171727,0.0
1759839020.9345934,0,-1.2050001621246338,-0.8299997448921204,-0.7177027132138214,0.0,-1.7350000142920923,-0.34999987482761896,-0.7177032807734184,0.0,-1.9499986708906336,0.19700072893583795,-0.434336651030912,0.0
1759839020.945497,0,-1.2050001621246338,-0.8299997448921204,-0.7177027231238711,0.0,-1.7350000142938893,-0.34999987482798145,-0.717703281057632,0.0,-1.949998726143377,0.19700073452813163,-0.43436044648200134,0.0
1759839020.9563897,0,-1.2050001621246338,-0.8299997448921204,-0.7177027333385215,0.0,-1.7350000142954138,-0.349999874828289,-0.7177032812987594,0.0,-1.949998773379564,0.19700073930904594,-0.4343807894787391,0.0
1759839020.967746,0,-1.2050001621246338,-0.8299997448921204,-0.7177027405187051,0.0,-1.7350000142967092,-0.3499998748285503,-0.7177032815036541,0.0,-1.9499988138221063,0.19700074340235532,-0.4343982066869711,0.0
1759839020.9789996,0,-1.2050001621246338,-0.8299997448921204,-0.717702749069737,0.0,-1.7350000142978128,-0.34999987482877293,-0.7177032816781952,0.0,-1.949998851571301,0.19700074722306304,-0.43441446396325734,0.0
1759839020.9898305,0,-1.2050001621246338,-0.8299997448921204,-0.7177027605659809,0.0,-1.7350000142987558,-0.34999987482896316,-0.7177032818273192,0.0,-1.9499988837094422,0.19700075047585944,-0.43442830475237465,0.0
1759839021.0003042,0,-1.2050001621246338,-0.8299997448921204,-0.7177027734865487,0.0,-1.7350000142995636,-0.34999987482912615,-0.7177032819550812,0.0,-1.949998911146754,0.19700075325287097,-0.4344401210563736,0.0
1759839021.0117059,0,-1.2050001621246338,-0.8299997448921204,-0.7177027799287643,0.0,-1.7350000143002562,-0.3499998748292658,-0.7177032820646116,0.0,-1.9499989345874007,0.1970007556253682,-0.43445021613456136,0.0
1759839021.0225053,0,-1.2050001621246338,-0.8299997448921204,-0.7177027899459834,0.0,-1.7350000143009021,-0.34999987482939615,-0.7177032821667798,0.0,-1.9499989546789243,0.19700075765889077,-0.4344588688609552,0.0
1759839021.0328941,0,-1.2050001621246338,-0.8299997448921204,-0.7177028016507948,0.0,-1.7350000143014535,-0.3499998748295074,-0.7177032822539805,0.0,-1.9499989719488708,0.19700075940683318,-0.43446630643137063,0.0
1759839021.0429013,0,-1.2050001621246338,-0.8299997448921204,-0.7177028139940571,0.0,-1.7350000143019253,-0.3499998748296026,-0.7177032823286102,0.0,-1.9499989868339203,0.1970007609133931,-0.43447271690882744,0.0
1759839021.0542393,0,-1.2050001621246338,-0.8299997448921204,-0.717702818191821,0.0,-1.735000014302329,-0.34999987482968403,-0.7177032823924786,0.0,-1.9499990008313726,0.19700076233011668,-0.4344787451287865,0.0
1759839021.0645704,0,-1.2050001621246338,-0.8299997448921204,-0.7177028276117756,0.0,-1.735000014302676,-0.349999874829754,-0.7177032824473508,0.0,-1.9499990128081865,0.19700076354232546,-0.4344839031295231,0.0
1759839021.0754921,0,-1.2050001621246338,-0.8299997448921204,-0.7177028337483549,0.0,-1.7350000143029742,-0.34999987482981415,-0.717703282494547,0.0,-1.9499990230681667,0.19700076458076843,-0.43448832174916224,0.0
1759839021.0859513,0,-1.2050001621246338,-0.8299997448921204,-0.7177028418707465,0.0,-1.7350000143032316,-0.3499998748298661,-0.7177032825352605,0.0,-1.9499990318833749,0.1970007654729817,-0.43449211815526734,0.0
1759839021.0967157,0,-1.2050001621246338,-0.8299997448921204,-0.7177028481960868,0.0,-1.735000014303454,-0.34999987482991096,-0.7177032825704367,0.0,-1.9499990394694495,0.19700076624079077,-0.43449538521600084,0.0
1759839021.1070259,0,-1.2050001621246338,-0.8299997448921204,-0.7177028561987981,0.0,-1.7350000143036468,-0.3499998748299499,-0.7177032826009169,0.0,-1.9499990460167418,0.1970007669034616,-0.4344982049089569,0.0
1759839021.1176069,0,-1.2050001621246338,-0.8299997448921204,-0.7177028624796904,0.0,-1.7350000143038298,-0.34999987482998673,-0.7177032826298554,0.0,-1.949999051676497,0.19700076747630216,-0.43450064237025615,0.0
1759839021.1276593,0,-1.2050001621246338,-0.8299997448921204,-0.7177028704525235,0.0,-1.7350000143039874,-0.34999987483001854,-0.7177032826547786,0.0,-1.9499990565836893,0.19700076797297364,-0.4345027557288533,0.0
1759839021.1378465,0,-1.2050001621246338,-0.8299997448921204,-0.7177028771086214,0.0,-1.7350000143041235,-0.34999987483004597,-0.7177032826762821,0.0,-1.949999060845792,0.19700076840435368,-0.4345045912695784,0.0
1759839021.148074,0,-1.2050001621246338,-0.8299997448921204,-0.7177028829932475,0.0,-1.735000014304241,-0.34999987483006967,-0.7177032826948718,0.0,-1.9499990649138415,0.19700076881609302,-0.4345063432381935,0.0
1759839021.1582127,0,-1.2050001621246338,-0.8299997448921204,-0.717702888778792,0.0,-1.735000014304343,-0.3499998748300902,-0.7177032827109775,0.0,-1.9499990684238806,0.19700076917135448,-0.43450785489107174,0.0
1759839021.1711385,0,-1.2050001621246338,-0.8299997448921204,-0.717702884808606,0.0,-1.7350000143044308,-0.34999987483010797,-0.717703282724891,0.0,-1.9499990714443316,0.19700076947706327,-0.4345091556951804,0.0
1759839021.182534,0,-1.2050001621246338,-0.8299997448921204,-0.7177028883561185,0.0,-1.7350000143045072,-0.3499998748301234,-0.7177032827369726,0.0,-1.949999074056781,0.197000769741477,-0.4345102807870694,0.0
1759839021.1925447,0,-1.2050001621246338,-0.8299997448921204,-0.7177028971539946,0.0,-1.735000014304574,-0.3499998748301369,-0.7177032827475465,0.0,-1.9499990763268287,0.19700076997123525,-0.4345112584182723,0.0
1759839021.2033608,0,-1.2050001621246338,-0.8299997448921204,-0.7177029024344481,0.0,-1.7350000143046382,-0.3499998748301498,-0.717703282757691,0.0,-1.9499990783003573,0.19700077017098194,-0.4345121083489934,0.0
1759839021.2139647,0,-1.2050001621246338,-0.8299997448921204,-0.7177029078865756,0.0,-1.7350000143046937,-0.349999874830161,-0.7177032827664727,0.0,-1.949999080028352,0.1970007703458774,-0.4345128525366756,0.0
1759839021.2250612,0,-1.2050001621246338,-0.8299997448921204,-0.7177029115820872,0.0,-1.735000014304742,-0.3499998748301707,-0.7177032827740838,0.0,-1.9499990815662671,0.19700077050153433,-0.4345135148637128,0.0
1759839021.2353117,0,-1.2050001621246338,-0.8299997448921204,-0.7177029176605582,0.0,-1.7350000143047837,-0.3499998748301792,-0.7177032827807045,0.0,-1.9499990829350118,0.19700077064006902,-0.4345141043347759,0.0
1759839021.2469692,0,-1.2050001621246338,-0.8299997448921204,-0.7177029194725044,0.0,-1.73500001430482,-0.3499998748301865,-0.7177032827864679,0.0,-1.9499990841531945,0.1970007707633649,-0.434514628964022,0.0
1759839021.257411,0,-1.2050001621246338,-0.8299997448921204,-0.7177029248791521,0.0,-1.7350000143048525,-0.34999987483019307,-0.7177032827915973,0.0,-1.949999085237377,0.19700077087309822,-0.434515095884051,0.0
1759839021.267528,0,-1.2050001621246338,-0.8299997448921204,-0.7177029307348448,0.0,-1.7350000143048814,-0.3499998748301989,-0.7177032827961626,0.0,-1.9499990862068157,0.19700077097121796,-0.4345155133878114,0.0
1759839021.27804,0,-1.2050001621246338,-0.8299997448921204,-0.7177029348994317,0.0,-1.7350000143049071,-0.34999987483020406,-0.7177032828002257,0.0,-1.9499990870650998,0.19700077105808747,-0.4345158830212236,0.0
1759839021.2887661,0,-1.2050001621246338,-0.8299997448921204,-0.7177029382165312,0.0,-1.73500001430493,-0.3499998748302087,-0.7177032828038418,0.0,-1.9499990878289728,0.19700077113540132,-0.4345162119949605,0.0
1759839021.299647,0,-1.2050001621246338,-0.8299997448921204,-0.7177029411345881,0.0,-1.73500001430493,-0.3499998748302087,-0.7177032828038418,0.0,-1.9499990885088199,0.19700077120421064,-0.4345165047815863,0.0
1759839021.3106601,0,-1.2050001621246338,-0.8299997448921204,-0.7177029438530234,0.0,-1.73500001430493,-0.3499998748302087,-0.7177032828038418,0.0,-1.9499990891138836,0.19700077126545093,-0.43451676536168327,0.0
1759839021.3216856,0,-1.2050001621246338,-0.8299997448921204,-0.7177029466920999,0.0,-1.73500001430493,-0.3499998748302087,-0.7177032828038418,0.0,-1.9499990891138836,0.19700077126545093,-0.43451676536168327,0.0
1759839021.3390036,0,-1.2050001621246338,-0.8299997448921204,-0.7177029373436117,0.0,-1.7350000143049502,-0.34999987483021283,-0.7177032828070601,0.0,-1.9499990891138836,0.19700077126545093,-0.43451676536168327,0.0
1759839021.346379,0,-1.2050001621246338,-0.8299997448921204,-0.7177029507204509,0.0,-1.7350000143049682,-0.3499998748302165,-0.7177032828099242,0.0,-1.9499990891138836,0.19700077126545093,-0.43451676536168327,0.0
1759839021.3564532,0,-1.2050001621246338,-0.8299997448921204,-0.7177029569112037,0.0,-1.7350000143049682,-0.3499998748302165,-0.7177032828099242,0.0,-1.9499990891138836,0.19700077126545093,-0.43451676536168327,0.0
1759839021.3678172,0,-1.2050001621246338,-0.8299997448921204,-0.7177029592947548,0.0,-1.7350000143049682,-0.3499998748302165,-0.7177032828099242,0.0,-1.9499990891138836,0.19700077126545093,-0.43451676536168327,0.0
1759839021.3779166,0,-1.2050001621246338,-0.8299997448921204,-0.7177029637615977,0.0,-1.7350000143049682,-0.3499998748302165,-0.7177032828099242,0.0,-1.9499990891138836,0.19700077126545093,-0.43451676536168327,0.0
1759839021.387932,0,-1.2050001621246338,-0.8299997448921204,-0.717702967833084,0.0,-1.7350000143049682,-0.3499998748302165,-0.7177032828099242,0.0,-1.9499990891138836,0.19700077126545093,-0.43451676536168327,0.0
1759839021.3979359,0,-1.2050001621246338,-0.8299997448921204,-0.7177029713253305,0.0,-1.7350000143049682,-0.3499998748302165,-0.7177032828099242,0.0,-1.9499990891138836,0.19700077126545093,-0.43451676536168327,0.0
1759839021.4086933,0,-1.2050001621246338,-0.8299997448921204,-0.7177029731740951,0.0,-1.7350000143049682,-0.3499998748302165,-0.7177032828099242,0.0,-1.9499990891138836,0.19700077126545093,-0.43451676536168327,0.0
1759839021.4193954,0,-1.2050001621246338,-0.8299997448921204,-0.7177029751162571,0.0,-1.7350000143049682,-0.3499998748302165,-0.7177032828099242,0.0,-1.9499990891138836,0.19700077126545093,-0.43451676536168327,0.0
1759839021.43062,0,-1.2050001621246338,-0.8299997448921204,-0.717702976358197,0.0,-1.7350000143049682,-0.3499998748302165,-0.7177032828099242,0.0,-1.9499990891138836,0.19700077126545093,-0.43451676536168327,0.0
1759839021.4414427,0,-1.2050001621246338,-0.8299997448921204,-0.7177029784241888,0.0,-1.7350000143049682,-0.3499998748302165,-0.7177032828099242,0.0,-1.9499990891138836,0.19700077126545093,-0.43451676536168327,0.0
1759839021.4529347,0,-1.2050001621246338,-0.8299997448921204,-0.7177029796307188,0.0,-1.7350000143049682,-0.3499998748302165,-0.7177032828099242,0.0,-1.9499990891138836,0.19700077126545093,-0.43451676536168327,0.0
1759839021.4632602,0,-1.2050001621246338,-0.8299997448921204,-0.7177029826162986,0.0,-1.7350000143049682,-0.3499998748302165,-0.7177032828099242,0.0,-1.9499990891138836,0.19700077126545093,-0.43451676536168327,0.0
1759839021.4743264,0,-1.2050001621246338,-0.8299997448921204,-0.7177029844134317,0.0,-1.7350000143049682,-0.3499998748302165,-0.7177032828099242,0.0,-1.9499990891138836,0.19700077126545093,-0.43451676536168327,0.0
1759839021.4847505,0,-1.2050001621246338,-0.8299997448921204,-0.7177029869707781,0.0,-1.7350000143049682,-0.3499998748302165,-0.7177032828099242,0.0,-1.9499990891138836,0.19700077126545093,-0.43451676536168327,0.0
1759839021.4959583,0,-1.2050001621246338,-0.8299997448921204,-0.717702988389906,0.0,-1.7350000143049682,-0.3499998748302165,-0.7177032828099242,0.0,-1.9499990891138836,0.19700077126545093,-0.43451676536168327,0.0
1759839021.5064597,0,-1.2050001621246338,-0.8299997448921204,-0.7177029906777772,0.0,-1.7350000143049682,-0.3499998748302165,-0.7177032828099242,0.0,-1.9499990891138836,0.19700077126545093,-0.43451676536168327,0.0
1759839021.51685,0,-1.2050001621246338,-0.8299997448921204,-0.7177029929355427,0.0,-1.7350000143049682,-0.3499998748302165,-0.7177032828099242,0.0,-1.9499990891138836,0.19700077126545093,-0.43451676536168327,0.0
1759839021.5273178,0,-1.2050001621246338,-0.8299997448921204,-0.7177029948883309,0.0,-1.7350000143049682,-0.3499998748302165,-0.7177032828099242,0.0,-1.9499990891138836,0.19700077126545093,-0.43451676536168327,0.0
1759839021.5417078,0,-1.2050001621246338,-0.8299997448921204,-0.7177029926614509,0.0,-1.7350000143049682,-0.3499998748302165,-0.7177032828099242,0.0,-1.9499990891138836,0.19700077126545093,-0.43451676536168327,0.0
1759839021.5530753,0,-1.2050001621246338,-0.8299997448921204,-0.7177029945784632,0.0,-1.7350000143049682,-0.3499998748302165,-0.7177032828099242,0.0,-1.9499990891138836,0.19700077126545093,-0.43451676536168327,0.0
1759839021.5645726,0,-1.2050001621246338,-0.8299997448921204,-0.717702996535488,0.0,-1.7350000143049682,-0.3499998748302165,-0.7177032828099242,0.0,-1.9499990891138836,0.19700077126545093,-0.43451676536168327,0.0
1759839021.5750217,0,-1.2050001621246338,-0.8299997448921204,-0.7177029993489867,0.0,-1.7350000143049682,-0.3499998748302165,-0.7177032828099242,0.0,-1.9499990891138836,0.19700077126545093,-0.43451676536168327,0.0
1759839021.5862765,0,-1.2050001621246338,-0.8299997448921204,-0.7177030010576129,0.0,-1.7350000143049682,-0.3499998748302165,-0.7177032828099242,0.0,-1.9499990891138836,0.19700077126545093,-0.43451676536168327,0.0
1759839021.5976944,0,-1.2050001621246338,-0.8299997448921204,-0.7177030024819668,0.0,-1.7350000143049682,-0.3499998748302165,-0.7177032828099242,0.0,-1.9499990891138836,0.19700077126545093,-0.43451676536168327,0.0
1759839021.6078296,0,-1.2050001621246338,-0.8299997448921204,-0.7177030049341884,0.0,-1.7350000143049682,-0.3499998748302165,-0.7177032828099242,0.0,-1.9499990891138836,0.19700077126545093,-0.43451676536168327,0.0
1759839021.6180525,0,-1.2050001621246338,-0.8299997448921204,-0.7177030069752366,0.0,-1.7350000143049682,-0.3499998748302165,-0.7177032828099242,0.0,-1.9499990891138836,0.19700077126545093,-0.43451676536168327,0.0
1759839021.629496,0,-1.2050001621246338,-0.8299997448921204,-0.7177030077657669,0.0,-1.7350000143049682,-0.3499998748302165,-0.7177032828099242,0.0,-1.9499990891138836,0.19700077126545093,-0.43451676536168327,0.0
1759839021.6407971,0,-1.2050001621246338,-0.8299997448921204,-0.7177030087233707,0.0,-1.7350000143049682,-0.3499998748302165,-0.7177032828099242,0.0,-1.9499990891138836,0.19700077126545093,-0.43451676536168327,0.0
1759839021.652218,0,-1.2050001621246338,-0.8299997448921204,-0.7177030096723431,0.0,-1.7350000143049682,-0.3499998748302165,-0.7177032828099242,0.0,-1.9499990891138836,0.19700077126545093,-0.43451676536168327,0.0
1759839021.6624186,0,-1.2050001621246338,-0.8299997448921204,-0.717703011525785,0.0,-1.7350000143049682,-0.3499998748302165,-0.7177032828099242,0.0,-1.9499990891138836,0.19700077126545093,-0.43451676536168327,0.0
1759839021.6736386,0,-1.2050001621246338,-0.8299997448921204,-0.7177030124772887,0.0,-1.7350000143049682,-0.3499998748302165,-0.7177032828099242,0.0,-1.9499990891138836,0.19700077126545093,-0.43451676536168327,0.0
1759839021.684766,0,-1.2050001621246338,-0.8299997448921204,-0.7177030134649094,0.0,-1.7350000143049682,-0.3499998748302165,-0.7177032828099242,0.0,-1.9499990891138836,0.19700077126545093,-0.43451676536168327,0.0
1759839021.695235,0,-1.2050001621246338,-0.8299997448921204,-0.717703014866963,0.0,-1.7350000143049682,-0.3499998748302165,-0.7177032828099242,0.0,-1.9499990891138836,0.19700077126545093,-0.43451676536168327,0.0
1759839021.7056653,0,-1.2050001621246338,-0.8299997448921204,-0.7177030161580245,0.0,-1.7350000143049682,-0.3499998748302165,-0.7177032828099242,0.0,-1.9499990891138836,0.19700077126545093,-0.43451676536168327,0.0
1759839021.7158124,0,-1.2050001621246338,-0.8299997448921204,-0.717703017470761,0.0,-1.7350000143049682,-0.3499998748302165,-0.7177032828099242,0.0,-1.9499990891138836,0.19700077126545093,-0.43451676536168327,0.0
1759839021.7263565,0,-1.2050001621246338,-0.8299997448921204,-0.7177030183963797,0.0,-1.7350000143049682,-0.3499998748302165,-0.7177032828099242,0.0,-1.9499990891138836,0.19700077126545093,-0.43451676536168327,0.0
1759839021.7441838,0,-1.2050001621246338,-0.8299997448921204,-0.7177030153507946,0.0,-1.7350000143049682,-0.3499998748302165,-0.7177032828099242,0.0,-1.9499990891138836,0.19700077126545093,-0.43451676536168327,0.0
1759839021.7552798,0,-1.2050001621246338,-0.8299997448921204,-0.7177030170029042,0.0,-1.7350000143049682,-0.3499998748302165,-0.7177032828099242,0.0,-1.9499990891138836,0.19700077126545093,-0.43451676536168327,0.0
1759839021.766302,0,-1.2050001621246338,-0.8299997448921204,-0.7177030187173159,0.0,-1.7350000143049682,-0.3499998748302165,-0.7177032828099242,0.0,-1.9499990891138836,0.19700077126545093,-0.43451676536168327,0.0
1759839021.7766252,0,-1.2050001621246338,-0.8299997448921204,-0.7177030204923049,0.0,-1.7350000143049682,-0.3499998748302165,-0.7177032828099242,0.0,-1.9499990891138836,0.19700077126545093,-0.43451676536168327,0.0
1759839021.7880788,0,-1.2050001621246338,-0.8299997448921204,-0.7177030214250255,0.0,-1.7350000143049682,-0.3499998748302165,-0.7177032828099242,0.0,-1.9499990891138836,0.19700077126545093,-0.43451676536168327,0.0
1759839021.7984529,0,-1.2050001621246338,-0.8299997448921204,-0.7177030227372933,0.0,-1.7350000143049682,-0.3499998748302165,-0.7177032828099242,0.0,-1.9499990891138836,0.19700077126545093,-0.43451676536168327,0.0
1759839021.809479,0,-1.2050001621246338,-0.8299997448921204,-0.7177030235863562,0.0,-1.7350000143049682,-0.3499998748302165,-0.7177032828099242,0.0,-1.9499990891138836,0.19700077126545093,-0.43451676536168327,0.0
1759839021.8208766,0,-1.2050001621246338,-0.8299997448921204,-0.7177030241983484,0.0,-1.7350000143049682,-0.3499998748302165,-0.7177032828099242,0.0,-1.9499990891138836,0.19700077126545093,-0.43451676536168327,0.0
1759839021.8334088,0,-1.2050001621246338,-0.8299997448921204,-0.7177030243648144,0.0,-1.7350000143049682,-0.3499998748302165,-0.7177032828099242,0.0,-1.9499990891138836,0.19700077126545093,-0.43451676536168327,0.0
1759839021.8442805,0,-1.2050001621246338,-0.8299997448921204,-0.7177030253197199,0.0,-1.7350000143049682,-0.3499998748302165,-0.7177032828099242,0.0,-1.9499990891138836,0.19700077126545093,-0.43451676536168327,0.0
1759839021.85441,0,-1.2050001621246338,-0.8299997448921204,-0.7177030264841431,0.0,-1.7350000143049682,-0.3499998748302165,-0.7177032828099242,0.0,-1.9499990891138836,0.19700077126545093,-0.43451676536168327,0.0
1759839021.8654506,0,-1.2050001621246338,-0.8299997448921204,-0.7177030271352436,0.0,-1.7350000143049682,-0.3499998748302165,-0.7177032828099242,0.0,-1.9499990891138836,0.19700077126545093,-0.43451676536168327,0.0
1759839021.8759704,0,-1.2050001621246338,-0.8299997448921204,-0.7177030279059089,0.0,-1.7350000143049682,-0.3499998748302165,-0.7177032828099242,0.0,-1.9499990891138836,0.19700077126545093,-0.43451676536168327,0.0
1759839021.8864923,0,-1.2050001621246338,-0.8299997448921204,-0.717703028597759,0.0,-1.7350000143049682,-0.3499998748302165,-0.7177032828099242,0.0,-1.9499990891138836,0.19700077126545093,-0.43451676536168327,0.0
1759839021.8968644,0,-1.2050001621246338,-0.8299997448921204,-0.7177030292665147,0.0,-1.7350000143049682,-0.3499998748302165,-0.7177032828099242,0.0,-1.9499990891138836,0.19700077126545093,-0.43451676536168327,0.0
1759839021.9083097,0,-1.2050001621246338,-0.8299997448921204,-0.7177030295276197,0.0,-1.7350000143049682,-0.3499998748302165,-0.7177032828099242,0.0,-1.9499990891138836,0.19700077126545093,-0.43451676536168327,0.0
1759839021.9193904,0,-1.2050001621246338,-0.8299997448921204,-0.7177030299462146,0.0,-1.7350000143049682,-0.3499998748302165,-0.7177032828099242,0.0,-1.9499990891138836,0.19700077126545093,-0.43451676536168327,0.0
1759839021.9308035,0,-1.2050001621246338,-0.8299997448921204,-0.7177030302894458,0.0,-1.7350000143049682,-0.3499998748302165,-0.7177032828099242,0.0,-1.9499990891138836,0.19700077126545093,-0.43451676536168327,0.0
1759839021.941103,0,-1.2050001621246338,-0.8299997448921204,-0.7177030309809407,0.0,-1.7350000143049682,-0.3499998748302165,-0.7177032828099242,0.0,-1.9499990891138836,0.19700077126545093,-0.43451676536168327,0.0
1759839021.951873,0,-1.2050001621246338,-0.8299997448921204,-0.7177030314721655,0.0,-1.7350000143049682,-0.3499998748302165,-0.7177032828099242,0.0,-1.9499990891138836,0.19700077126545093,-0.43451676536168327,0.0
1759839021.9622235,0,-1.2050001621246338,-0.8299997448921204,-0.7177030320348052,0.0,-1.7350000143049682,-0.3499998748302165,-0.7177032828099242,0.0,-1.9499990891138836,0.19700077126545093,-0.43451676536168327,0.0
1759839021.972225,0,-1.2050001621246338,-0.8299997448921204,-0.7177030326304106,0.0,-1.7350000143049682,-0.3499998748302165,-0.7177032828099242,0.0,-1.9499990891138836,0.19700077126545093,-0.43451676536168327,0.0
1759839021.9832315,0,-1.2050001621246338,-0.8299997448921204,-0.7177030328970346,0.0,-1.7350000143049682,-0.3499998748302165,-0.7177032828099242,0.0,-1.9499990891138836,0.19700077126545093,-0.43451676536168327,0.0
1759839022.0121844,0,-1.2050001621246338,-0.8299997448921204,-0.717703029089888,0.0,-1.7350000143049682,-0.3499998748302165,-0.7177032828099242,0.0,-1.9499990891138836,0.19700077126545093,-0.43451676536168327,0.0
1759839022.0226793,0,-1.2050001621246338,-0.8299997448921204,-0.7177030307438715,0.0,-1.7350000143049682,-0.3499998748302165,-0.7177032828099242,0.0,-1.9499990891138836,0.19700077126545093,-0.43451676536168327,0.0
1759839022.0329683,0,-1.2050001621246338,-0.8299997448921204,-0.7177030323296751,0.0,-1.7350000143049682,-0.3499998748302165,-0.7177032828099242,0.0,-1.9499990891138836,0.19700077126545093,-0.43451676536168327,0.0
1759839022.0444424,0,-1.2050001621246338,-0.8299997448921204,-0.7177030332887958,0.0,-1.7350000143049682,-0.3499998748302165,-0.7177032828099242,0.0,-1.9499990891138836,0.19700077126545093,-0.43451676536168327,0.0
1759839022.055162,0,-1.2050001621246338,-0.8299997448921204,-0.7177030341712314,0.0,-1.7350000143049682,-0.3499998748302165,-0.7177032828099242,0.0,-1.9499990891138836,0.19700077126545093,-0.43451676536168327,0.0
1759839022.065867,0,-1.2050001621246338,-0.8299997448921204,-0.7177030348753295,0.0,-1.7350000143049682,-0.3499998748302165,-0.7177032828099242,0.0,-1.9499990891138836,0.19700077126545093,-0.43451676536168327,0.0
1759839022.0763254,0,-1.2050001621246338,-0.8299997448921204,-0.717703035485421,0.0,-1.7350000143049682,-0.3499998748302165,-0.7177032828099242,0.0,-1.9499990891138836,0.19700077126545093,-0.43451676536168327,0.0
1759839022.087723,0,-1.2050001621246338,-0.8299997448921204,-0.7177030358218772,0.0,-1.7350000143049682,-0.3499998748302165,-0.7177032828099242,0.0,-1.9499990891138836,0.19700077126545093,-0.43451676536168327,0.0
1759839022.0986078,0,-1.2050001621246338,-0.8299997448921204,-0.7177030362099508,0.0,-1.7350000143049682,-0.3499998748302165,-0.7177032828099242,0.0,-1.9499990891138836,0.19700077126545093,-0.43451676536168327,0.0
1759839022.1086674,0,-1.2050001621246338,-0.8299997448921204,-0.7177030366919226,0.0,-1.7350000143049682,-0.3499998748302165,-0.7177032828099242,0.0,-1.9499990891138836,0.19700077126545093,-0.43451676536168327,0.0
1759839022.1188176,0,-1.2050001621246338,-0.8299997448921204,-0.7177030370838705,0.0,-1.7350000143049682,-0.3499998748302165,-0.7177032828099242,0.0,-1.9499990891138836,0.19700077126545093,-0.43451676536168327,0.0
1759839022.1296418,0,-1.2050001621246338,-0.8299997448921204,-0.7177030373114093,0.0,-1.7350000143049682,-0.3499998748302165,-0.7177032828099242,0.0,-1.9499990891138836,0.19700077126545093,-0.43451676536168327,0.0
1759839022.140885,0,-1.2050001621246338,-0.8299997448921204,-0.7177030374635365,0.0,-1.7350000143049682,-0.3499998748302165,-0.7177032828099242,0.0,-1.9499990891138836,0.19700077126545093,-0.43451676536168327,0.0
1759839022.1519916,0,-1.2050001621246338,-0.8299997448921204,-0.7177030376511162,0.0,-1.7350000143049682,-0.3499998748302165,-0.7177032828099242,0.0,-1.9499990891138836,0.19700077126545093,-0.43451676536168327,0.0
1759839022.1636164,0,-1.2050001621246338,-0.8299997448921204,-0.7177030377769711,0.0,-1.7350000143049682,-0.3499998748302165,-0.7177032828099242,0.0,-1.9499990891138836,0.19700077126545093,-0.43451676536168327,0.0
1759839022.1736262,0,-1.2050001621246338,-0.8299997448921204,-0.7177030381418206,0.0,-1.7350000143049682,-0.3499998748302165,-0.7177032828099242,0.0,-1.9499990891138836,0.19700077126545093,-0.43451676536168327,0.0
1759839022.1844983,0,-1.2050001621246338,-0.8299997448921204,-0.7177030383514875,0.0,-1.7350000143049682,-0.3499998748302165,-0.7177032828099242,0.0,-1.9499990891138836,0.19700077126545093,-0.43451676536168327,0.0
1759839022.1960073,0,-1.2050001621246338,-0.8299997448921204,-0.7177030384659524,0.0,-1.7350000143049682,-0.3499998748302165,-0.7177032828099242,0.0,-1.9499990891138836,0.19700077126545093,-0.43451676536168327,0.0
1759839022.2069983,0,-1.2050001621246338,-0.8299997448921204,-0.7177030386617052,0.0,-1.7350000143049682,-0.3499998748302165,-0.7177032828099242,0.0,-1.9499990891138836,0.19700077126545093,-0.43451676536168327,0.0
1759839022.2184246,0,-1.2050001621246338,-0.8299997448921204,-0.7177030388068406,0.0,-1.7350000143049682,-0.3499998748302165,-0.7177032828099242,0.0,-1.9499990891138836,0.19700077126545093,-0.43451676536168327,0.0
1759839022.229283,0,-1.2050001621246338,-0.8299997448921204,-0.7177030390242827,0.0,-1.7350000143049682,-0.3499998748302165,-0.7177032828099242,0.0,-1.9499990891138836,0.19700077126545093,-0.43451676536168327,0.0
1759839022.2404923,0,-1.2050001621246338,-0.8299997448921204,-0.7177030391924362,0.0,-1.7350000143049682,-0.3499998748302165,-0.7177032828099242,0.0,-1.9499990891138836,0.19700077126545093,-0.43451676536168327,0.0
1759839022.250723,0,-1.2050001621246338,-0.8299997448921204,-0.7177030394596356,0.0,-1.7350000143049682,-0.3499998748302165,-0.7177032828099242,0.0,-1.9499990891138836,0.19700077126545093,-0.43451676536168327,0.0
1759839022.2621028,0,-1.2050001621246338,-0.8299997448921204,-0.7177030395783888,0.0,-1.7350000143049682,-0.3499998748302165,-0.7177032828099242,0.0,-1.9499990891138836,0.19700077126545093,-0.43451676536168327,0.0
1759839022.2728572,0,-1.2050001621246338,-0.8299997448921204,-0.7177030397616092,0.0,-1.7350000143049682,-0.3499998748302165,-0.7177032828099242,0.0,-1.9499990891138836,0.19700077126545093,-0.43451676536168327,0.0
1759839022.2832973,0,-1.2050001621246338,-0.8299997448921204,-0.71770303996556,0.0,-1.7350000143049682,-0.3499998748302165,-0.7177032828099242,0.0,-1.9499990891138836,0.19700077126545093,-0.43451676536168327,0.0
1759839022.2936404,0,-1.2050001621246338,-0.8299997448921204,-0.7177030401573568,0.0,-1.7350000143049682,-0.3499998748302165,-0.7177032828099242,0.0,-1.9499990891138836,0.19700077126545093,-0.43451676536168327,0.0
1759839022.3048646,0,-1.2050001621246338,-0.8299997448921204,-0.717703040249777,0.0,-1.7350000143049682,-0.3499998748302165,-0.7177032828099242,0.0,-1.9499990891138836,0.19700077126545093,-0.43451676536168327,0.0
1759839022.3156197,0,-1.2050001621246338,-0.8299997448921204,-0.7177030403891855,0.0,-1.7350000143049682,-0.3499998748302165,-0.7177032828099242,0.0,-1.9499990891138836,0.19700077126545093,-0.43451676536168327,0.0
1759839022.3260577,0,-1.2050001621246338,-0.8299997448921204,-0.7177030405524754,0.0,-1.7350000143049682,-0.3499998748302165,-0.7177032828099242,0.0,-1.9499990891138836,0.19700077126545093,-0.43451676536168327,0.0
1759839022.3364763,0,-1.2050001621246338,-0.8299997448921204,-0.7177030407036433,0.0,-1.7350000143049682,-0.3499998748302165,-0.7177032828099242,0.0,-1.9499990891138836,0.19700077126545093,-0.43451676536168327,0.0
1759839022.3482554,0,-1.2050001621246338,-0.8299997448921204,-0.7177030407360334,0.0,-1.7350000143049682,-0.3499998748302165,-0.7177032828099242,0.0,-1.9499990891138836,0.19700077126545093,-0.43451676536168327,0.0
1759839022.3594246,0,-1.2050001621246338,-0.8299997448921204,-0.7177030408358256,0.0,-1.7350000143049682,-0.3499998748302165,-0.7177032828099242,0.0,-1.9499990891138836,0.19700077126545093,-0.43451676536168327,0.0
1759839022.3705335,0,-1.2050001621246338,-0.8299997448921204,-0.7177030409486136,0.0,-1.7350000143049682,-0.3499998748302165,-0.7177032828099242,0.0,-1.9499990891138836,0.19700077126545093,-0.43451676536168327,0.0
1759839022.3807664,0,-1.2050001621246338,-0.8299997448921204,-0.7177030411225971,0.0,-1.7350000143049682,-0.3499998748302165,-0.7177032828099242,0.0,-1.9499990891138836,0.19700077126545093,-0.43451676536168327,0.0
1759839022.391129,0,-1.2050001621246338,-0.8299997448921204,-0.7177030412674413,0.0,-1.7350000143049682,-0.3499998748302165,-0.7177032828099242,0.0,-1.9499990891138836,0.19700077126545093,-0.43451676536168327,0.0
1759839022.4021516,0,-1.2050001621246338,-0.8299997448921204,-0.7177030413516334,0.0,-1.7350000143049682,-0.3499998748302165,-0.7177032828099242,0.0,-1.9499990891138836,0.19700077126545093,-0.43451676536168327,0.0
1759839022.4128413,0,-1.2050001621246338,-0.8299997448921204,-0.717703041457245,0.0,-1.7350000143049682,-0.3499998748302165,-0.7177032828099242,0.0,-1.9499990891138836,0.19700077126545093,-0.43451676536168327,0.0
1759839022.4234648,0,-1.2050001621246338,-0.8299997448921204,-0.7177030415634462,0.0,-1.7350000143049682,-0.3499998748302165,-0.7177032828099242,0.0,-1.9499990891138836,0.19700077126545093,-0.43451676536168327,0.0
1759839022.4342422,0,-1.2050001621246338,-0.8299997448921204,-0.7177030416545822,0.0,-1.7350000143049682,-0.3499998748302165,-0.7177032828099242,0.0,-1.9499990891138836,0.19700077126545093,-0.43451676536168327,0.0
1759839022.4446182,0,-1.2050001621246338,-0.8299997448921204,-0.7177030417659616,0.0,-1.7350000143049682,-0.3499998748302165,-0.7177032828099242,0.0,-1.9499990891138836,0.19700077126545093,-0.43451676536168327,0.0
1759839022.4551702,0,-1.2050001621246338,-0.8299997448921204,-0.7177030418586376,0.0,-1.7350000143049682,-0.3499998748302165,-0.7177032828099242,0.0,-1.9499990891138836,0.19700077126545093,-0.43451676536168327,0.0
1759839022.4664283,0,-1.2050001621246338,-0.8299997448921204,-0.7177030419077202,0.0,-1.7350000143049682,-0.3499998748302165,-0.7177032828099242,0.0,-1.9499990891138836,0.19700077126545093,-0.43451676536168327,0.0
1759839022.4767199,0,-1.2050001621246338,-0.8299997448921204,-0.7177030420141471,0.0,-1.7350000143049682,-0.3499998748302165,-0.7177032828099242,0.0,-1.9499990891138836,0.19700077126545093,-0.43451676536168327,0.0
1759839022.4880233,0,-1.2050001621246338,-0.8299997448921204,-0.7177030420623325,0.0,-1.7350000143049682,-0.3499998748302165,-0.7177032828099242,0.0,-1.9499990891138836,0.19700077126545093,-0.43451676536168327,0.0
1759839022.4992163,0,-1.2050001621246338,-0.8299997448921204,-0.7177030421214745,0.0,-1.7350000143049682,-0.3499998748302165,-0.7177032828099242,0.0,-1.9499990891138836,0.19700077126545093,-0.43451676536168327,0.0
1759839022.5104315,0,-1.2050001621246338,-0.8299997448921204,-0.7177030421850255,0.0,-1.7350000143049682,-0.3499998748302165,-0.7177032828099242,0.0,-1.9499990891138836,0.19700077126545093,-0.43451676536168327,0.0
1759839022.520711,0,-1.2050001621246338,-0.8299997448921204,-0.7177030422936532,0.0,-1.7350000143049682,-0.3499998748302165,-0.7177032828099242,0.0,-1.9499990891138836,0.19700077126545093,-0.43451676536168327,0.0
1759839022.5319757,0,-1.2050001621246338,-0.8299997448921204,-0.7177030423480204,0.0,-1.7350000143049682,-0.3499998748302165,-0.7177032828099242,0.0,-1.9499990891138836,0.19700077126545093,-0.43451676536168327,0.0
1759839022.5429015,0,-1.2050001621246338,-0.8299997448921204,-0.7177030424176571,0.0,-1.7350000143049682,-0.3499998748302165,-0.7177032828099242,0.0,-1.9499990891138836,0.19700077126545093,-0.43451676536168327,0.0
1759839022.553144,0,-1.2050001621246338,-0.8299997448921204,-0.7177030425138398,0.0,-1.7350000143049682,-0.3499998748302165,-0.7177032828099242,0.0,-1.9499990891138836,0.19700077126545093,-0.43451676536168327,0.0
1759839022.564394,0,-1.2050001621246338,-0.8299997448921204,-0.7177030425597426,0.0,-1.7350000143049682,-0.3499998748302165,-0.7177032828099242,0.0,-1.9499990891138836,0.19700077126545093,-0.43451676536168327,0.0
1759839022.5756469,0,-1.2050001621246338,-0.8299997448921204,-0.7177030426072761,0.0,-1.7350000143049682,-0.3499998748302165,-0.7177032828099242,0.0,-1.9499990891138836,0.19700077126545093,-0.43451676536168327,0.0
1759839022.5867069,0,-1.2050001621246338,-0.8299997448921204,-0.7177030426655726,0.0,-1.7350000143049682,-0.3499998748302165,-0.7177032828099242,0.0,-1.9499990891138836,0.19700077126545093,-0.43451676536168327,0.0
1759839022.5969515,0,-1.2050001621246338,-0.8299997448921204,-0.7177030427525376,0.0,-1.7350000143049682,-0.3499998748302165,-0.7177032828099242,0.0,-1.9499990891138836,0.19700077126545093,-0.43451676536168327,0.0
1759839022.60769,0,-1.2050001621246338,-0.8299997448921204,-0.7177030428126407,0.0,-1.7350000143049682,-0.3499998748302165,-0.7177032828099242,0.0,-1.9499990891138836,0.19700077126545093,-0.43451676536168327,0.0
