timestamp,observer_vehicle_id,vehicle_0_x,vehicle_0_y,vehicle_0_theta,vehicle_0_velocity,vehicle_1_x,vehicle_1_y,vehicle_1_theta,vehicle_1_velocity,vehicle_2_x,vehicle_2_y,vehicle_2_theta,vehicle_2_velocity
1759839019.47259,1,0.0,0.0,0.0,0.0,-1.735,-0.35,-0.7801621756414646,0.0,0.0,0.0,0.0,0.0
1759839019.483631,1,0.0,0.0,0.0,0.0,-1.735,-0.35,-0.7801621756414646,0.0,0.0,0.0,0.0,0.0
1759839019.494806,1,-0.23902134609222414,-0.16463710975646972,1.7425935164362223,0.0,-1.735,-0.35,-0.7801621756414646,0.0,0.0,0.0,0.0,0.0
1759839019.5061228,1,-0.4284445518630813,-0.29511118510071155,-3.138087050834236,0.0,-1.735,-0.35,-0.7801621756414646,0.0,0.0,0.0,0.0,0.0
1759839019.5171728,1,-0.5790067029458048,-0.39881789497511866,-0.7838562090671493,0.0,-1.735,-0.35,-0.7801621756414646,0.0,0.0,0.0,0.0,0.0
1759839019.5285988,1,-0.6989466535400235,-0.4814321348035017,1.113774328148167,0.0,-1.735,-0.35,-0.7801621756414646,0.0,0.0,0.0,0.0,0.0
1759839019.5389218,1,-0.7948613769968615,-0.5474978779314482,2.651601246489735,0.0,-1.735,-0.35,-0.7801621756414646,0.0,0.0,0.0,0.0,0.0
1759839019.5491161,1,-0.8767728093357009,-0.6039181273695402,1.9786959996294893,0.0,-1.735,-0.35,-0.7801621756414646,0.0,0.0,0.0,0.0,0.0
1759839019.5594735,1,-0.9416452720736326,-0.6486020063450264,1.445766476769695,0.0,-1.735,-0.35,-0.7801621756414646,0.0,0.0,0.0,0.0,0.0
1759839019.5709674,1,-0.9930906272432334,-0.6840373502063476,1.0231411065159899,0.0,-1.735,-0.35,-0.7801621756414646,0.0,0.0,0.0,0.0,0.0
1759839019.5813444,1,-1.0340465379497596,-0.7122476089217328,0.6866868849568145,0.0,-1.735,-0.35,-0.7801621756414646,0.0,0.0,0.0,0.0,0.0
1759839019.5914695,1,-1.0667406832895006,-0.7347671984657526,0.41810335134557913,0.0,-1.735,-0.35,-0.7801621756414646,0.0,0.0,0.0,0.0,0.0
1759839019.6018887,1,-1.094331695234704,-0.7537717712311054,0.1914422348934897,0.0,-1.735,-0.35,-0.7801621756414646,0.0,0.0,0.0,0.0,0.0
1759839019.6128004,1,-1.1161751384536227,-0.7688174428767938,0.011997594117322569,0.0,-1.735,-0.35,-0.7801621756414646,0.0,0.0,0.0,0.0,0.0
1759839019.623112,1,-1.1335239961357408,-0.7807672629439364,-0.13052387117749784,0.0,-1.735,-0.35,-0.7801621756414646,0.0,0.0,0.0,0.0,0.0
1759839019.6336255,1,-1.1473340684700077,-0.7902795825751483,-0.24397409256791777,0.0,-1.735,-0.35,-0.7801621756414646,0.0,0.0,0.0,0.0,0.0
1759839019.6443958,1,-1.1583516489028796,-0.7978684455516306,-0.33448389650243854,0.0,-1.735,-0.35,-0.7801621756414646,0.0,0.0,0.0,0.0,0.0
1759839019.654659,1,-1.1676671600382527,-0.8042849303681447,-0.41101114234825975,0.0,-1.735,-0.35,-0.7801621756414646,0.0,0.0,0.0,0.0,0.0
1759839019.6688623,1,-1.1750163524905077,-0.8093470231613648,-0.47138501227219226,0.0,-1.7350000141859054,-0.34999987587332726,-0.722999563501542,0.0,0.0,0.0,0.0,0.0
1759839019.6792064,1,-1.1808567881347563,-0.8133698906228018,-0.519364392887917,0.0,-1.7350000142652677,-0.34999987517890824,-0.7181191700623053,0.0,0.0,0.0,0.0,0.0
1759839019.689412,1,-1.185510306642883,-0.8165752145622881,-0.5575932082201448,0.0,-1.735000014290167,-0.34999987496103985,-0.7176610863365553,0.0,0.0,0.0,0.0,0.0
1759839019.7003374,1,-1.18922429550047,-0.8191333944374555,-0.588103755010642,0.0,-1.73500001429942,-0.34999987488007467,-0.7175974919092152,0.0,0.0,0.0,0.0,0.0
1759839019.711608,1,-1.1923652211735416,-0.8212968508058919,-0.6139065679399163,0.0,-1.7350000143029403,-0.3499998748492716,-0.7175881852008033,0.0,0.0,0.0,0.0,0.0
1759839019.722035,1,-1.1948544494737203,-0.8230114207699901,-0.6343556644334831,0.0,-1.7350000143042843,-0.3499998748375127,-0.7175969999558768,0.0,0.0,0.0,0.0,0.0
1759839019.73249,1,-1.1968320562932893,-0.8243735880141057,-0.6506017727863409,0.0,-1.7350000143047974,-0.3499998748330216,-0.717608928794883,0.0,0.0,0.0,0.0,0.0
1759839019.7427125,1,-1.1984074875263815,-0.8254587384089361,-0.6635439948003564,0.0,-1.7350000143049935,-0.3499998748313062,-0.7176209314054347,0.0,0.0,0.0,0.0,0.0
1759839019.7530274,1,-1.1996654553414945,-0.8263252213391842,-0.6738782438667057,0.0,-1.7350000143050683,-0.3499998748306509,-0.7176311881410271,0.0,0.0,0.0,0.0,0.0
1759839019.7643118,1,-1.2007279254847278,-0.8270570462968261,-0.6826064728037438,0.0,-1.735000014305097,-0.3499998748304006,-0.7176387697276283,0.0,0.0,0.0,0.0,0.0
1759839019.7754316,1,-1.2015692907747688,-0.8276365751632765,-0.6895183177322104,0.0,-1.7350000143051079,-0.34999987483030504,-0.7176459326195842,0.0,0.0,0.0,0.0,0.0
1759839019.786371,1,-1.2022374530486815,-0.8280968025220575,-0.6950072938986874,0.0,-1.735000014305112,-0.3499998748302685,-0.7176523830915382,0.0,0.0,0.0,0.0,0.0
1759839019.7964272,1,-1.2027699342018228,-0.8284635732965819,-0.699381644969986,0.0,-1.7350000143051136,-0.3499998748302546,-0.7176585597077256,0.0,0.0,0.0,0.0,0.0
1759839019.8068724,1,-1.2031951265929512,-0.8287564440239235,-0.7028746151543183,0.0,-1.7350000143051143,-0.34999987483024925,-0.7176631646274707,0.0,0.0,0.0,0.0,0.0
1759839019.8181882,1,-1.2035540791031891,-0.8290036890004276,-0.7058234224284172,0.0,-1.7350000143051145,-0.34999987483024725,-0.7176663614826531,0.0,0.0,0.0,0.0,0.0
1759839019.8282678,1,-1.2038387344978136,-0.8291997584367693,-0.7081618763306458,0.0,-1.7350000143051147,-0.34999987483024647,-0.7176700685204604,0.0,0.0,0.0,0.0,0.0
1759839019.8389404,1,-1.2040648775851979,-0.8293555248424418,-0.7100196496071821,0.0,-1.7350000143051147,-0.34999987483024614,-0.7176727839232981,0.0,0.0,0.0,0.0,0.0
1759839019.849514,1,-1.2042450101875088,-0.829479599419874,-0.7114994451590932,0.0,-1.7350000143051147,-0.349999874830246,-0.7176751823948919,0.0,0.0,0.0,0.0,0.0
1759839019.860151,1,-1.2043888433499075,-0.8295786710960527,-0.7126810395579092,0.0,-1.7350000143051147,-0.34999987483024597,-0.7176772446433066,0.0,0.0,0.0,0.0,0.0
1759839019.870644,1,-1.2045108457755445,-0.8296627058527398,-0.7136832936999343,0.0,-1.7350000143051147,-0.34999987483024597,-0.7176791368819408,0.0,0.0,0.0,0.0,0.0
1759839019.8817096,1,-1.204607416965844,-0.8297292236816882,-0.7144766293649633,0.0,-1.7350000143051147,-0.34999987483024597,-0.7176805403452597,0.0,0.0,0.0,0.0,0.0
1759839019.8920858,1,-1.2046841138805064,-0.8297820521933236,-0.7151066971689398,0.0,-1.7350000143051147,-0.34999987483024597,-0.717682151662391,0.0,0.0,0.0,0.0,0.0
1759839019.9030397,1,-1.2047451407090224,-0.8298240872156518,-0.7156080346737931,0.0,-1.7350000143051147,-0.34999987483024597,-0.7176833372992988,0.0,0.0,0.0,0.0,0.0
1759839019.9133434,1,-1.2047938581253654,-0.8298576435667444,-0.7160082499323313,0.0,-1.7350000143051147,-0.34999987483024597,-0.717684683145789,0.0,0.0,0.0,0.0,0.0
1759839019.9236615,1,-1.2048328431940383,-0.8298844963177716,-0.7163285136184872,0.0,-1.7350000143051147,-0.34999987483024597,-0.7176858596503202,0.0,0.0,0.0,0.0,0.0
1759839019.9346805,1,-1.2048659725340967,-0.829907315667604,-0.7166006722917491,0.0,-1.7350000143051147,-0.34999987483024597,-0.7176866493985957,0.0,0.0,0.0,0.0,0.0
1759839019.9451685,1,-1.204892260749868,-0.8299254228798546,-0.7168166308926198,0.0,-1.7350000143051147,-0.34999987483024597,-0.7176875854791582,0.0,0.0,0.0,0.0,0.0
1759839019.9566345,1,-1.2049131515711182,-0.8299398123895024,-0.7169882497110085,0.0,-1.7350000143051147,-0.34999987483024597,-0.7176881408081925,0.0,0.0,0.0,0.0,0.0
1759839019.9682136,1,-1.2049297962138017,-0.8299512771492459,-0.7171249860257574,0.0,-1.7350000143051147,-0.34999987483024597,-0.7176886952154682,0.0,0.0,0.0,0.0,0.0
1759839019.9783616,1,-1.2049438502472247,-0.829960957508247,-0.717240440395922,0.0,-1.7350000143051147,-0.34999987483024597,-0.7176896860046824,0.0,0.0,0.0,0.0,0.0
1759839019.9883645,1,-1.2049549846426317,-0.8299686268328854,-0.7173319098389042,0.0,-1.7350000143051147,-0.34999987483024597,-0.7176905860886755,0.0,0.0,0.0,0.0,0.0
1759839019.9995422,1,-1.2049638164673366,-0.8299747101565268,-0.7174044635840116,0.0,-1.7350000143051147,-0.34999987483024597,-0.7176910434009898,0.0,0.0,0.0,0.0,0.0
1759839020.010414,1,-1.204970842715791,-0.8299795498068552,-0.7174621844578355,0.0,-1.7350000143051147,-0.34999987483024597,-0.7176915685810563,0.0,-0.3867590689659119,0.039072582864761354,1.1704557279943046,0.0
1759839020.0213444,1,-1.2049764465726853,-0.8299834097198705,-0.7175082203358464,0.0,-1.7350000143051147,-0.34999987483024597,-0.7176920650103611,0.0,-0.6933917109310446,0.07005034207867475,2.1122742707589173,0.0
1759839020.032668,1,-1.204980925647581,-0.8299864948877848,-0.7175450160908736,0.0,-1.7350000143051147,-0.34999987483024597,-0.7176924561722764,0.0,-0.9370318961464983,0.09466424796967188,2.8751211554940506,0.0
1759839020.042946,1,-1.2049845192325246,-0.8299889701339512,-0.7175745375153499,0.0,-1.7350000143051147,-0.34999987483024597,-0.7176930786383213,0.0,-1.1313511285547613,0.11429547298732715,-2.7863201820544123,0.0
1759839020.054022,1,-1.2049875809892354,-0.8299910790590721,-0.7175996899525201,0.0,-1.7350000143051147,-0.34999987483024597,-0.7176934691876334,0.0,-1.2865803365093331,0.12997760322684032,-1.083742896760146,0.0
1759839020.064028,1,-1.2049900182962594,-0.82999275786588,-0.7176197125139369,0.0,-1.7350000143051147,-0.34999987483024597,-0.7176940513758492,0.0,-1.4110479202838422,0.1425520206645728,0.2946986808953389,0.0
1759839020.078122,1,-1.2049919548376615,-0.8299940917474377,-0.7176356212684663,0.0,-1.7350000143051147,-0.34999987483024597,-0.7176937989903234,0.0,-1.5106443141460353,0.15261381019834305,1.4165792232720131,0.0
1759839020.089111,1,-1.20499350363888,-0.8299951585551906,-0.7176483447239895,0.0,-1.7350000143051147,-0.34999987483024597,-0.7176942851071075,0.0,-1.595657227581922,0.16120229427366087,2.3150392218356504,0.0
1759839020.1005137,1,-1.2049947449802287,-0.8299960135858808,-0.7176585423860599,0.0,-1.7350000143051147,-0.34999987483024597,-0.7176946939725646,0.0,-1.6634125226606558,0.16804731639187143,3.0459225656600393,0.0
1759839020.1118982,1,-1.2049957425640556,-0.8299967007174172,-0.7176667375716664,0.0,-1.7350000143051147,-0.34999987483024597,-0.717695076866999,0.0,-1.7175595271833002,0.17351755223338985,-2.638209912410766,0.0
1759839020.1232607,1,-1.2049965463962502,-0.8299972543936457,-0.71767334108092,0.0,-1.7350000143051147,-0.34999987483024597,-0.7176954393599928,0.0,-1.7609479307185312,0.17790089351361574,-0.9702215374458516,0.0
1759839020.1341271,1,-1.2049972342041488,-0.829997728152828,-0.7176789914465715,0.0,-1.7350000143051147,-0.34999987483024597,-0.7176958527615599,0.0,-1.795826392858155,0.1814245125092598,0.38524825073339325,0.0
1759839020.145656,1,-1.204997784421474,-0.8299981071402032,-0.7176835115009093,0.0,-1.7350000143051147,-0.34999987483024597,-0.7176961266592059,0.0,-1.8239145896136644,0.18426214059173945,1.4925358656432943,0.0
1759839020.1567082,1,-1.2049982259857506,-0.8299984112878162,-0.7176871389666979,0.0,-1.7350000143051147,-0.34999987483024597,-0.7176964563020576,0.0,-1.846606821496574,0.18655463786401288,2.4023513348284817,0.0
1759839020.167055,1,-1.2049985815404247,-0.8299986561923774,-0.7176900598606308,0.0,-1.7350000143051147,-0.34999987483024597,-0.7176968540703701,0.0,-1.8650010624915077,0.18841292785170619,-3.1288921969784025,0.0
1759839020.1778114,1,-1.204998868400339,-0.8299988537802776,-0.7176924164247376,0.0,-1.7350000143051147,-0.34999987483024597,-0.7176971441003701,0.0,-1.8808073763138244,0.1900097708378582,-1.3712120332292794,0.0
1759839020.1886408,1,-1.20499910039604,-0.829999013577939,-0.7176943222774386,0.0,-1.7350000143051147,-0.34999987483024597,-0.7176973929019842,0.0,-1.89352450089938,0.19129452650111686,0.05758298236125838,0.0
1759839020.1995041,1,-1.2049992884825886,-0.8299991431311611,-0.7176958674149325,0.0,-1.7350000143051147,-0.34999987483024597,-0.7176976195006812,0.0,-1.903781604037464,0.19233075692070792,1.2248445461240396,0.0
1759839020.210646,1,-1.2049994413025849,-0.8299992483929304,-0.7176971228364809,0.0,-1.7350000143051147,-0.34999987483024597,-0.7176978017866187,0.0,-1.9120728169153174,0.1931683820165731,2.1838052379624835,0.0
1759839020.221609,1,-1.2049995739132986,-0.8299993397346312,-0.7176982122380774,0.0,-1.7350000143051147,-0.34999987483024597,-0.7176980031606348,0.0,-1.9187934914336877,0.19384734246791616,2.976477043854411,0.0
1759839020.2330427,1,-1.2049996807823458,-0.8299994133455805,-0.717699090170992,0.0,-1.7350000143051147,-0.34999987483024597,-0.7176981487618476,0.0,-1.9242519058273664,0.19439878228102112,-2.6466974443828253,0.0
1759839020.2433088,1,-1.2049997672466153,-0.829999472901805,-0.7176998004779533,0.0,-1.7350000143051147,-0.34999987483024597,-0.7176984208002253,0.0,-1.9287027079454608,0.1948484274180799,-1.0076641198833174,0.0
1759839020.2537005,1,-1.204999837358481,-0.8299995211945626,-0.7177003764493511,0.0,-1.7350000143051147,-0.34999987483024597,-0.7176986499090727,0.0,-1.932566843334393,0.19523880417275663,0.3529634379404041,0.0
1759839020.2640455,1,-1.2049998943498188,-0.8299995604499558,-0.7177008446351595,0.0,-1.7350000143051147,-0.34999987483024597,-0.7176988548336317,0.0,-1.9356938090752311,0.19555470789119003,1.4683509199209441,0.0
1759839020.2983513,1,-1.2049999423293534,-0.8299995934980571,-0.7177012387886932,0.0,-1.7350000143051147,-0.34999987483024597,-0.7176969983906858,0.0,-1.938161737385239,0.19580403193071388,2.396728490519576,0.0
1759839020.30837,1,-1.2049999812715606,-0.8299996203212854,-0.7177015587002721,0.0,-1.7350000143051147,-0.34999987483024597,-0.717697832015098,0.0,-1.940180207923602,0.19600794921074338,-3.1125583876235274,0.0
1759839020.3191967,1,-1.2050000129225817,-0.8299996421223754,-0.7177018187145052,0.0,-1.7350000143051147,-0.34999987483024597,-0.7176985205086659,0.0,-1.941833258293998,0.19617494968406035,-1.405103592327096,0.0
1759839020.330175,1,-1.2050000387067763,-0.82999965988242,-0.7177020305325541,0.0,-1.7350000143051147,-0.34999987483024597,-0.7176990154083285,0.0,-1.9431901051649312,0.19631202600897,0.012789535726620362,0.0
1759839020.3402884,1,-1.2050000597854658,-0.8299996744013325,-0.7177022036947169,0.0,-1.7350000143051147,-0.34999987483024597,-0.7176994457103056,0.0,-1.9443853746704804,0.19643293042124196,-0.06573227031035236,0.0
1759839020.3511856,1,-1.2050000770410585,-0.829999686286912,-0.7177023454500069,0.0,-1.7350000143051147,-0.34999987483024597,-0.717699720119839,0.0,-1.945358588406629,0.19653137335334872,-0.12966638714976295,0.0
1759839020.3615851,1,-1.2050000912101877,-0.8299996960465486,-0.717702461849893,0.0,-1.7350000143051147,-0.34999987483024597,-0.7176999678324059,0.0,-1.9461534305927737,0.1966117735701355,-0.18188259753637814,0.0
1759839020.372253,1,-1.2050001028684045,-0.8299997040766793,-0.7177025576225485,0.0,-1.7350000143051147,-0.34999987483024597,-0.7177001510632319,0.0,-1.9468039244482036,0.19667757260283247,-0.224616016323672,0.0
1759839020.383811,1,-1.2050001131223487,-0.829999711139553,-0.717702641859055,0.0,-1.7350000143051147,-0.34999987483024597,-0.7177002491706226,0.0,-1.9473370012971811,0.19673149462027056,-0.25963586477114076,0.0
1759839020.3951447,1,-1.2050001214908324,-0.8299997169037292,-0.7177027106064372,0.0,-1.7350000143051147,-0.34999987483024597,-0.7177003563765894,0.0,-1.947775106204849,0.19677580999527944,-0.2884166446906788,0.0
1759839020.4058099,1,-1.2050001283434946,-0.8299997216238142,-0.7177027669012946,0.0,-1.7350000143051147,-0.34999987483024597,-0.7177004982462876,0.0,-1.9481363676332613,0.19681235246580675,-0.31214928379736895,0.0
1759839020.4174237,1,-1.2050001339620282,-0.8299997254938364,-0.7177028130577414,0.0,-1.7350000143051147,-0.34999987483024597,-0.7177005721593517,0.0,-1.9484549809847893,0.1968445809798194,-0.3330802083071297,0.0
1759839020.4284558,1,-1.2050001385839395,-0.8299997286773895,-0.7177028510269033,0.0,-1.7350000143051147,-0.34999987483024597,-0.7177006780531592,0.0,-1.9487156895847357,0.1968709522876328,-0.35020714915362705,0.0
1759839020.43934,1,-1.2050001423960803,-0.829999731303176,-0.7177028823437718,0.0,-1.7350000143051147,-0.34999987483024597,-0.7177007858789395,0.0,-1.948929586262746,0.19689258845589586,-0.36425883656362684,0.0
1759839020.4497168,1,-1.2050001455499462,-0.8299997334755453,-0.717702908252887,0.0,-1.7350000143051147,-0.34999987483024597,-0.7177009095507909,0.0,-1.949105614580524,0.19691039414758746,-0.3758228071672429,0.0
1759839020.4606667,1,-1.2050001483404162,-0.8299997353976094,-0.7177029311766953,0.0,-1.7350000143051147,-0.34999987483024597,-0.7177009898472466,0.0,-1.9492507140272812,0.19692507130888853,-0.38535494244004737,0.0
1759839020.4772754,1,-1.2050001506153027,-0.8299997369645415,-0.7177029498649655,0.0,-1.7350000143051147,-0.34999987483024597,-0.7177008056793107,0.0,-1.9493697636597755,0.1969371134682351,-0.39317576620245875,0.0
1759839020.4885814,1,-1.2050001524887268,-0.8299997382549482,-0.7177029652552099,0.0,-1.7350000143051147,-0.34999987483024597,-0.7177009363628457,0.0,-1.9494754063728221,0.19694779948513122,-0.4001158383657332,0.0
1759839020.499034,1,-1.2050001540370616,-0.8299997393214347,-0.7177029779748343,0.0,-1.7350000143051147,-0.34999987483024597,-0.7177011038765286,0.0,-1.9495622205727112,0.196956580952211,-0.40581899379075553,0.0
1759839020.5101478,1,-1.2050001553186271,-0.8299997402041717,-0.7177029885029396,0.0,-1.7350000143051147,-0.34999987483024597,-0.7177012148419112,0.0,-1.9496336720962153,0.19696380844727807,-0.4105129164948648,0.0
1759839020.5214255,1,-1.2050001563817632,-0.8299997409364553,-0.7177029972366393,0.0,-1.7350000143051147,-0.34999987483024597,-0.7177013023033805,0.0,-1.9496926133583192,0.19696977049903305,-0.41438499248192573,0.0
1759839020.5322266,1,-1.2050001572664257,-0.8299997415458071,-0.7177030045041721,0.0,-1.7350000143051147,-0.34999987483024597,-0.7177013993364768,0.0,-1.9497413855391048,0.19697470392352498,-0.4175890227879533,0.0
1759839020.5432465,1,-1.2050001580615888,-0.8299997420935121,-0.717703011036465,0.0,-1.7350000143051147,-0.34999987483024597,-0.7177014767823611,0.0,-1.9497818283114101,0.19697879480812758,-0.4202458625281182,0.0
1759839020.5547805,1,-1.2050001587172317,-0.8299997425451161,-0.7177030164225939,0.0,-1.7350000143051147,-0.34999987483024597,-0.7177015284475559,0.0,-1.9498154231206615,0.1969821930046423,-0.42245283349460205,0.0
1759839020.5653536,1,-1.2050001592598698,-0.829999742918883,-0.7177030208803848,0.0,-1.7350000143051147,-0.34999987483024597,-0.7177016135343681,0.0,-1.9498434349210367,0.1969850264662552,-0.42429303534498314,0.0
1759839020.5763845,1,-1.205000159709771,-0.8299997432287731,-0.7177030245763399,0.0,-1.7350000143051147,-0.34999987483024597,-0.7177016744879783,0.0,-1.9498685055963976,0.19698756242593263,-0.42594002349180055,0.0
1759839020.5872223,1,-1.2050001600837827,-0.8299997434863907,-0.7177030276488574,0.0,-1.7350000143051147,-0.34999987483024597,-0.7177017370082766,0.0,-1.9498892552948872,0.19698966130830944,-0.42730315021140614,0.0
1759839020.5973852,1,-1.2050001603957197,-0.8299997437012515,-0.7177030302114292,0.0,-1.7350000143051147,-0.34999987483024597,-0.7177018159696278,0.0,-1.949906484739011,0.19699140410841096,-0.42843501801473083,0.0
1759839020.6074789,1,-1.205000160656488,-0.8299997438808675,-0.7177030323536486,0.0,-1.7350000143051147,-0.34999987483024597,-0.7177018865905165,0.0,-1.949920824596207,0.19699285461977956,-0.4293770578476887,0.0
1759839020.6189563,1,-1.2050001608745549,-0.8299997440310711,-0.7177030341450764,0.0,-1.7350000143051147,-0.34999987483024597,-0.7177019066454342,0.0,-1.9499327643661235,0.19699406235649308,-0.4301614268064491,0.0
1759839020.6298096,1,-1.2050001610575185,-0.8299997441570957,-0.7177030356481281,0.0,-1.7350000143051147,-0.34999987483024597,-0.717701949002894,0.0,-1.9499427387801043,0.19699507129268237,-0.4308166840486859,0.0
1759839020.6400716,1,-1.2050001612230676,-0.8299997442711252,-0.7177030370081204,0.0,-1.7350000143051147,-0.34999987483024597,-0.717702008334669,0.0,-1.949951097613853,0.19699591680900902,-0.4313658076725018,0.0
1759839020.6505926,1,-1.2050001613610368,-0.829999744366158,-0.7177030381415431,0.0,-1.7350000143051147,-0.34999987483024597,-0.717702054849827,0.0,-1.9499581156384462,0.19699662669923446,-0.43182684843636965,0.0
1759839020.661785,1,-1.2050001614761832,-0.8299997444454702,-0.7177030390874731,0.0,-1.7350000143051147,-0.34999987483024597,-0.7177020802935115,0.0,-1.9499644573135047,0.19699726817506244,-0.43224345722339425,0.0
1759839020.6804142,1,-1.2050001615715498,-0.8299997445111584,-0.7177030398709141,0.0,-1.7350000143051147,-0.34999987483024597,-0.7177019284729198,0.0,-1.9499696885206637,0.1969977973243665,-0.4325871151448687,0.0
1759839020.6919882,1,-1.2050001616516108,-0.8299997445663041,-0.7177030405286181,0.0,-1.7350000143051147,-0.34999987483024597,-0.7177020031298227,0.0,-1.9499740615865295,0.19699823967059543,-0.43287439849654835,0.0
1759839020.7031753,1,-1.2050001617190245,-0.8299997446127382,-0.7177030410824226,0.0,-1.7350000143051147,-0.34999987483024597,-0.717702089196921,0.0,-1.9499777282997244,0.19699861056753687,-0.43311527885110057,0.0
1759839020.7139254,1,-1.2050001617759583,-0.829999744651954,-0.7177030415501369,0.0,-1.7350000143051147,-0.34999987483024597,-0.7177021705377502,0.0,-1.9499808119815472,0.1969989224894396,-0.43331785765433256,0.0
1759839020.7248867,1,-1.2050001618278217,-0.8299997446876772,-0.7177030419761949,0.0,-1.7350000143051147,-0.34999987483024597,-0.7177022327489055,0.0,-1.9499834105211173,0.19699918533802566,-0.43348856561531907,0.0
1759839020.735645,1,-1.2050001618713317,-0.8299997447176469,-0.7177030423336332,0.0,-1.7350000143051147,-0.34999987483024597,-0.7177022889463558,0.0,-1.9499856059680718,0.19699940741281505,-0.4336327928871781,0.0
1759839020.7468677,1,-1.2050001619078952,-0.8299997447428317,-0.7177030426340034,0.0,-1.7350000143051147,-0.34999987483024597,-0.7177023279607617,0.0,-1.9499876053406935,0.19699960965420965,-0.4337641392893576,0.0
1759839020.7578244,1,-1.2050001619387056,-0.8299997447640539,-0.7177030428871142,0.0,-1.7350000143051147,-0.34999987483024597,-0.7177023683936704,0.0,-1.9499892831646173,0.19699977937017282,-0.43387436193295414,0.0
1759839020.7685797,1,-1.2050001619647366,-0.8299997447819838,-0.7177030431009583,0.0,-1.7350000143051147,-0.34999987483024597,-0.7177024088800614,0.0,-1.9499906948526808,0.19699992216584764,-0.43396710109829895,0.0
1759839020.779244,1,-1.2050001619867818,-0.8299997447971685,-0.7177030432820616,0.0,-1.7350000143051147,-0.34999987483024597,-0.7177024467128668,0.0,-1.9499918854980431,0.1970000426025166,-0.43404531912675787,0.0
1759839020.7895684,1,-1.205000162005503,-0.8299997448100637,-0.7177030434358574,0.0,-1.7350000143051147,-0.34999987483024597,-0.7177024862611674,0.0,-1.9499928924754022,0.19700014446072112,-0.4341114713045666,0.0
1759839020.8006651,1,-1.205000162022713,-0.8299997448219179,-0.7177030435772381,0.0,-1.7350000143051147,-0.34999987483024597,-0.7177025082372293,0.0,-1.949993745021911,0.19700023069787023,-0.43416747833166647,0.0
1759839020.8118584,1,-1.2050001620372086,-0.8299997448319024,-0.7177030436963201,0.0,-1.7350000143051147,-0.34999987483024597,-0.7177025284132785,0.0,-1.9499944683913393,0.19700030386844408,-0.43421499922439544,0.0
1759839020.822823,1,-1.2050001620494508,-0.8299997448403349,-0.7177030437968906,0.0,-1.7350000143051147,-0.34999987483024597,-0.7177025531521064,0.0,-1.949995083792384,0.1970003661177538,-0.4342554272628,0.0
1759839020.8330479,1,-1.205000162059825,-0.8299997448474805,-0.7177030438821151,0.0,-1.7350000143051147,-0.34999987483024597,-0.7177025884572803,0.0,-1.9499956537610603,0.1970004237714691,-0.434292870675873,0.0
1759839020.8437638,1,-1.2050001620686288,-0.8299997448535446,-0.7177030439544388,0.0,-1.7350000143051147,-0.34999987483024597,-0.7177026126463364,0.0,-1.9499961353474677,0.19700047248510336,-0.43432450792110855,0.0
1759839020.8540945,1,-1.2050001620761208,-0.8299997448587051,-0.7177030440159873,0.0,-1.7350000143051147,-0.34999987483024597,-0.7177026403474223,0.0,-1.9499965434055515,0.1970005137611692,-0.4343513148107408,0.0
1759839020.8642004,1,-1.2050001620825126,-0.8299997448631078,-0.7177030440684964,0.0,-1.7350000143051147,-0.34999987483024597,-0.7177026685069627,0.0,-1.94999689002914,0.19700054882298668,-0.4343740858343905,0.0
1759839020.87533,1,-1.2050001620879687,-0.8299997448668658,-0.7177030441133169,0.0,-1.7350000143051147,-0.34999987483024597,-0.7177026800596096,0.0,-1.9499971846411635,0.1970005786237081,-0.4343934400202462,0.0
1759839020.8861947,1,-1.2050001620926383,-0.8299997448700821,-0.7177030441516773,0.0,-1.7350000143051147,-0.34999987483024597,-0.7177026962799465,0.0,-1.9499974357226422,0.19700060402120922,-0.4344099345188358,0.0
1759839020.897095,1,-1.2050001620969917,-0.8299997448730806,-0.71770304418744,0.0,-1.7350000143051147,-0.34999987483024597,-0.7177027129066254,0.0,-1.9499976501718137,0.19700062571326354,-0.4344240225016591,0.0
1759839020.9084003,1,-1.2050001621006903,-0.8299997448756282,-0.7177030442178234,0.0,-1.7350000143051147,-0.34999987483024597,-0.7177027251428498,0.0,-1.9499978336238668,0.1970006442698841,-0.4344360741657098,0.0
1759839020.9186993,1,-1.2050001621038446,-0.8299997448778009,-0.7177030442437363,0.0,-1.7350000143051147,-0.34999987483024597,-0.7177027503563985,0.0,-1.949998004965759,0.19700066160153246,-0.43444733026715676,0.0
1759839020.9288666,1,-1.2050001621065412,-0.8299997448796583,-0.7177030442658883,0.0,-1.7350000143051147,-0.34999987483024597,-0.7177027748109879,0.0,-1.9499981508002033,0.19700067635304053,-0.43445691068722625,0.0
1759839020.94028,1,-1.2050001621088466,-0.8299997448812463,-0.7177030442848276,0.0,-1.7350000143051147,-0.34999987483024597,-0.7177027829586891,0.0,-1.9499982749528428,0.19700068891138142,-0.43446506674695823,0.0
1759839020.9506488,1,-1.2050001621108255,-0.8299997448826094,-0.7177030443010847,0.0,-1.7350000143051147,-0.34999987483024597,-0.7177028034486188,0.0,-1.9499983810650012,0.19700069964488387,-0.4344720376587811,0.0
1759839020.96099,1,-1.2050001621126798,-0.8299997448838865,-0.7177030443163164,0.0,-1.7350000143051147,-0.34999987483024597,-0.7177028229730933,0.0,-1.949998471955356,0.1970007088386639,-0.4344780085923453,0.0
1759839020.971678,1,-1.2050001621142594,-0.8299997448849745,-0.7177030443292929,0.0,-1.7350000143051147,-0.34999987483024597,-0.7177028372604966,0.0,-1.9499985499287615,0.19700071672586317,-0.4344831309623198,0.0
1759839020.9829788,1,-1.2050001621156068,-0.8299997448859026,-0.7177030443403621,0.0,-1.7350000143051147,-0.34999987483024597,-0.7177028453349887,0.0,-1.9499986168986252,0.19700072350002745,-0.43448753046771604,0.0
1759839020.9945576,1,-1.2050001621167583,-0.8299997448866958,-0.717703044349822,0.0,-1.7350000143051147,-0.34999987483024597,-0.717702852488026,0.0,-1.9499986745204203,0.1970007293286119,-0.4344913158628846,0.0
1759839021.0059814,1,-1.205000162117745,-0.8299997448873754,-0.7177030443579273,0.0,-1.7350000143051147,-0.34999987483024597,-0.7177028632259166,0.0,-1.9499987287737965,0.19700073481647262,-0.43449487997379,0.0
1759839021.0167782,1,-1.205000162118593,-0.8299997448879596,-0.717703044364895,0.0,-1.7350000143051147,-0.34999987483024597,-0.7177028804101013,0.0,-1.9499987752217975,0.19700073951480068,-0.43449793131986597,0.0
1759839021.027677,1,-1.2050001621193238,-0.8299997448884628,-0.7177030443708966,0.0,-1.7350000143051147,-0.34999987483024597,-0.7177028957329803,0.0,-1.949998815067998,0.1970007435453406,-0.4345005489685333,0.0
1759839021.0381913,1,-1.2050001621199546,-0.8299997448888975,-0.7177030443760807,0.0,-1.7350000143051147,-0.34999987483024597,-0.7177029129956978,0.0,-1.9499988493471323,0.19700074701275824,-0.43450280089541243,0.0
1759839021.0495434,1,-1.2050001621205504,-0.8299997448893079,-0.7177030443809755,0.0,-1.7350000143051147,-0.34999987483024597,-0.7177029222112647,0.0,-1.9499988788582163,0.19700074999787603,-0.4345047395909161,0.0
1759839021.059868,1,-1.205000162121062,-0.8299997448896602,-0.7177030443851777,0.0,-1.7350000143051147,-0.34999987483024597,-0.7177029392601568,0.0,-1.9499989043654078,0.19700075257799038,-0.4345064152554749,0.0
1759839021.070275,1,-1.205000162121502,-0.8299997448899633,-0.7177030443887925,0.0,-1.7350000143051147,-0.34999987483024597,-0.7177029540668514,0.0,-1.949998926453877,0.19700075481229268,-0.4345078663311491,0.0
1759839021.085806,1,-1.205000162121878,-0.8299997448902223,-0.7177030443918822,0.0,-1.7350000143051147,-0.34999987483024597,-0.7177029327757793,0.0,-1.9499989472793193,0.1970007569188367,-0.43450923443375905,0.0
1759839021.0972226,1,-1.2050001621222026,-0.8299997448904459,-0.717703044394549,0.0,-1.7350000143051147,-0.34999987483024597,-0.7177029478723327,0.0,-1.9499989651813374,0.19700075872966932,-0.4345104104855188,0.0
1759839021.1087294,1,-1.2050001621224835,-0.8299997448906393,-0.7177030443968557,0.0,-1.7350000143051147,-0.34999987483024597,-0.7177029632952117,0.0,-1.949998980602714,0.19700076028957902,-0.43451142357448497,0.0
1759839021.1193974,1,-1.205000162122727,-0.8299997448908072,-0.7177030443988583,0.0,-1.7350000143051147,-0.34999987483024597,-0.717702982317917,0.0,-1.949998993936108,0.19700076163828417,-0.43451229949590187,0.0
1759839021.130094,1,-1.2050001621229391,-0.8299997448909533,-0.7177030444006004,0.0,-1.7350000143051147,-0.34999987483024597,-0.7177029983827231,0.0,-1.949999005487785,0.19700076280676432,-0.43451305836955323,0.0
1759839021.1413343,1,-1.2050001621231423,-0.8299997448910932,-0.7177030444022693,0.0,-1.7350000143051147,-0.34999987483024597,-0.7177030090270122,0.0,-1.949999015507026,0.19700076382023488,-0.43451371657164684,0.0
1759839021.1514626,1,-1.2050001621233182,-0.8299997448912142,-0.7177030444037132,0.0,-1.7350000143051147,-0.34999987483024597,-0.7177030248123407,0.0,-1.9499990242332295,0.19700076470291153,-0.434514289829187,0.0
1759839021.161866,1,-1.2050001621234707,-0.8299997448913191,-0.7177030444049646,0.0,-1.7350000143051147,-0.34999987483024597,-0.7177030369007831,0.0,-1.949999032599927,0.19700076554922333,-0.4345148394694218,0.0
1759839021.1725469,1,-1.2050001621236028,-0.8299997448914103,-0.7177030444060506,0.0,-1.7350000143051147,-0.34999987483024597,-0.7177030459073546,0.0,-1.9499990398322118,0.19700076628078647,-0.43451531458574344,0.0
1759839021.1833172,1,-1.2050001621237176,-0.8299997448914895,-0.717703044406995,0.0,-1.7350000143051147,-0.34999987483024597,-0.7177030537503395,0.0,-1.9499990460960384,0.19700076691438775,-0.43451572608036926,0.0
1759839021.1934767,1,-1.2050001621238184,-0.8299997448915589,-0.7177030444078227,0.0,-1.7350000143051147,-0.34999987483024597,-0.7177030641645441,0.0,-1.9499990515383026,0.19700076746488598,-0.4345160836034223,0.0
1759839021.204274,1,-1.2050001621239081,-0.8299997448916208,-0.7177030444085595,0.0,-1.7350000143051147,-0.34999987483024597,-0.7177030705390237,0.0,-1.94999905627069,0.19700076794357846,-0.43451639449197094,0.0
1759839021.2150621,1,-1.205000162123988,-0.8299997448916757,-0.7177030444092152,0.0,-1.7350000143051147,-0.34999987483024597,-0.7177030767684354,0.0,-1.949999060421948,0.1970007683634883,-0.4345166672039256,0.0
1759839021.2256067,1,-1.2050001621240591,-0.8299997448917247,-0.7177030444097987,0.0,-1.7350000143051147,-0.34999987483024597,-0.7177030840650342,0.0,-1.9499990641165674,0.19700076873720804,-0.43451690991756525,0.0
1759839021.235959,1,-1.2050001621241233,-0.8299997448917688,-0.717703044410325,0.0,-1.7350000143051147,-0.34999987483024597,-0.7177030918109378,0.0,-1.949999067404779,0.19700076906981862,-0.43451712593270453,0.0
1759839021.247786,1,-1.2050001621241795,-0.8299997448918075,-0.7177030444107865,0.0,-1.7350000143051147,-0.34999987483024597,-0.7177030930229442,0.0,-1.9499990703312873,0.19700076936584204,-0.43451731818617845,0.0
1759839021.2583501,1,-1.2050001621242294,-0.8299997448918419,-0.7177030444111971,0.0,-1.7350000143051147,-0.34999987483024597,-0.7177031003756582,0.0,-1.9499990729358796,0.19700076962930288,-0.4345174892917703,0.0
1759839021.2685502,1,-1.2050001621242739,-0.8299997448918726,-0.7177030444115627,0.0,-1.7350000143051147,-0.34999987483024597,-0.7177031088789613,0.0,-1.9499990729358796,0.19700076962930288,-0.4345174892917703,0.0
1759839021.2840595,1,-1.2050001621243134,-0.8299997448918998,-0.717703044411888,0.0,-1.7350000143051147,-0.34999987483024597,-0.7177030973954839,0.0,-1.9499990752539669,0.197000769863783,-0.43451764157574707,0.0
1759839021.29443,1,-1.2050001621243134,-0.8299997448918998,-0.717703044411888,0.0,-1.7350000143051147,-0.34999987483024597,-0.7177031087449119,0.0,-1.9499990773170646,0.19700077007247033,-0.4345177771084863,0.0
1759839021.305443,1,-1.2050001621243134,-0.8299997448918998,-0.717703044411888,0.0,-1.7350000143051147,-0.34999987483024597,-0.7177031173634489,0.0,-1.9499990791532213,0.19700077025820206,-0.43451789773262434,0.0
1759839021.3164685,1,-1.2050001621243134,-0.8299997448918998,-0.717703044411888,0.0,-1.7350000143051147,-0.34999987483024597,-0.7177031247771914,0.0,-1.949999080787401,0.1970007704235033,-0.4345180050881072,0.0
1759839021.327571,1,-1.2050001621243134,-0.8299997448918998,-0.717703044411888,0.0,-1.7350000143051147,-0.34999987483024597,-0.7177031311687186,0.0,-1.949999080787401,0.1970007704235033,-0.4345180050881072,0.0
1759839021.3385735,1,-1.2050001621243485,-0.8299997448919241,-0.7177030444121776,0.0,-1.7350000143051147,-0.34999987483024597,-0.7177031373417861,0.0,-1.949999080787401,0.1970007704235033,-0.4345180050881072,0.0
1759839021.3494377,1,-1.2050001621243485,-0.8299997448919241,-0.7177030444121776,0.0,-1.7350000143051147,-0.34999987483024597,-0.717703143429075,0.0,-1.949999080787401,0.1970007704235033,-0.4345180050881072,0.0
1759839021.3595014,1,-1.2050001621243485,-0.8299997448919241,-0.7177030444121776,0.0,-1.7350000143051147,-0.34999987483024597,-0.7177031512088572,0.0,-1.949999080787401,0.1970007704235033,-0.4345180050881072,0.0
1759839021.369843,1,-1.2050001621243485,-0.8299997448919241,-0.7177030444121776,0.0,-1.7350000143051147,-0.34999987483024597,-0.7177031571081649,0.0,-1.949999080787401,0.1970007704235033,-0.4345180050881072,0.0
1759839021.380098,1,-1.2050001621243485,-0.8299997448919241,-0.7177030444121776,0.0,-1.7350000143051147,-0.34999987483024597,-0.7177031624525405,0.0,-1.949999080787401,0.1970007704235033,-0.4345180050881072,0.0
1759839021.3911452,1,-1.2050001621243485,-0.8299997448919241,-0.7177030444121776,0.0,-1.7350000143051147,-0.34999987483024597,-0.7177031651947736,0.0,-1.949999080787401,0.1970007704235033,-0.4345180050881072,0.0
1759839021.401912,1,-1.2050001621243485,-0.8299997448919241,-0.7177030444121776,0.0,-1.7350000143051147,-0.34999987483024597,-0.7177031687712265,0.0,-1.949999080787401,0.1970007704235033,-0.4345180050881072,0.0
1759839021.412509,1,-1.2050001621243485,-0.8299997448919241,-0.7177030444121776,0.0,-1.7350000143051147,-0.34999987483024597,-0.71770317277457,0.0,-1.949999080787401,0.1970007704235033,-0.4345180050881072,0.0
1759839021.423852,1,-1.2050001621243485,-0.8299997448919241,-0.7177030444121776,0.0,-1.7350000143051147,-0.34999987483024597,-0.7177031748925805,0.0,-1.949999080787401,0.1970007704235033,-0.4345180050881072,0.0
1759839021.4352086,1,-1.2050001621243485,-0.8299997448919241,-0.7177030444121776,0.0,-1.7350000143051147,-0.34999987483024597,-0.7177031773141387,0.0,-1.949999080787401,0.1970007704235033,-0.4345180050881072,0.0
1759839021.4460452,1,-1.2050001621243485,-0.8299997448919241,-0.7177030444121776,0.0,-1.7350000143051147,-0.34999987483024597,-0.7177031811847332,0.0,-1.949999080787401,0.1970007704235033,-0.4345180050881072,0.0
1759839021.4569411,1,-1.2050001621243485,-0.8299997448919241,-0.7177030444121776,0.0,-1.7350000143051147,-0.34999987483024597,-0.7177031848053623,0.0,-1.949999080787401,0.1970007704235033,-0.4345180050881072,0.0
1759839021.468098,1,-1.2050001621243485,-0.8299997448919241,-0.7177030444121776,0.0,-1.7350000143051147,-0.34999987483024597,-0.7177031877334644,0.0,-1.949999080787401,0.1970007704235033,-0.4345180050881072,0.0
1759839021.4829202,1,-1.2050001621243485,-0.8299997448919241,-0.7177030444121776,0.0,-1.7350000143051147,-0.34999987483024597,-0.7177031837526383,0.0,-1.949999080787401,0.1970007704235033,-0.4345180050881072,0.0
1759839021.4938064,1,-1.2050001621243485,-0.8299997448919241,-0.7177030444121776,0.0,-1.7350000143051147,-0.34999987483024597,-0.7177031891809804,0.0,-1.949999080787401,0.1970007704235033,-0.4345180050881072,0.0
1759839021.5038567,1,-1.2050001621243485,-0.8299997448919241,-0.7177030444121776,0.0,-1.7350000143051147,-0.34999987483024597,-0.7177031958406754,0.0,-1.949999080787401,0.1970007704235033,-0.4345180050881072,0.0
1759839021.514925,1,-1.2050001621243485,-0.8299997448919241,-0.7177030444121776,0.0,-1.7350000143051147,-0.34999987483024597,-0.7177031995694012,0.0,-1.949999080787401,0.1970007704235033,-0.4345180050881072,0.0
1759839021.5262294,1,-1.2050001621243485,-0.8299997448919241,-0.7177030444121776,0.0,-1.7350000143051147,-0.34999987483024597,-0.7177032024254295,0.0,-1.949999080787401,0.1970007704235033,-0.4345180050881072,0.0
1759839021.5364907,1,-1.2050001621243485,-0.8299997448919241,-0.7177030444121776,0.0,-1.7350000143051147,-0.34999987483024597,-0.7177032068138924,0.0,-1.949999080787401,0.1970007704235033,-0.4345180050881072,0.0
1759839021.5468454,1,-1.2050001621243485,-0.8299997448919241,-0.7177030444121776,0.0,-1.7350000143051147,-0.34999987483024597,-0.717703210484256,0.0,-1.949999080787401,0.1970007704235033,-0.4345180050881072,0.0
1759839021.5577261,1,-1.2050001621243485,-0.8299997448919241,-0.7177030444121776,0.0,-1.7350000143051147,-0.34999987483024597,-0.7177032128639578,0.0,-1.949999080787401,0.1970007704235033,-0.4345180050881072,0.0
1759839021.568283,1,-1.2050001621243485,-0.8299997448919241,-0.7177030444121776,0.0,-1.7350000143051147,-0.34999987483024597,-0.7177032155726374,0.0,-1.949999080787401,0.1970007704235033,-0.4345180050881072,0.0
1759839021.5789878,1,-1.2050001621243485,-0.8299997448919241,-0.7177030444121776,0.0,-1.7350000143051147,-0.34999987483024597,-0.7177032178845763,0.0,-1.949999080787401,0.1970007704235033,-0.4345180050881072,0.0
1759839021.5901923,1,-1.2050001621243485,-0.8299997448919241,-0.7177030444121776,0.0,-1.7350000143051147,-0.34999987483024597,-0.7177032194037682,0.0,-1.949999080787401,0.1970007704235033,-0.4345180050881072,0.0
1759839021.601546,1,-1.2050001621243485,-0.8299997448919241,-0.7177030444121776,0.0,-1.7350000143051147,-0.34999987483024597,-0.717703220848195,0.0,-1.949999080787401,0.1970007704235033,-0.4345180050881072,0.0
1759839021.611785,1,-1.2050001621243485,-0.8299997448919241,-0.7177030444121776,0.0,-1.7350000143051147,-0.34999987483024597,-0.7177032238629462,0.0,-1.949999080787401,0.1970007704235033,-0.4345180050881072,0.0
1759839021.6232312,1,-1.2050001621243485,-0.8299997448919241,-0.7177030444121776,0.0,-1.7350000143051147,-0.34999987483024597,-0.7177032251123094,0.0,-1.949999080787401,0.1970007704235033,-0.4345180050881072,0.0
1759839021.6345685,1,-1.2050001621243485,-0.8299997448919241,-0.7177030444121776,0.0,-1.7350000143051147,-0.34999987483024597,-0.7177032265958339,0.0,-1.949999080787401,0.1970007704235033,-0.4345180050881072,0.0
1759839021.6454184,1,-1.2050001621243485,-0.8299997448919241,-0.7177030444121776,0.0,-1.7350000143051147,-0.34999987483024597,-0.7177032287543526,0.0,-1.949999080787401,0.1970007704235033,-0.4345180050881072,0.0
1759839021.6556797,1,-1.2050001621243485,-0.8299997448919241,-0.7177030444121776,0.0,-1.7350000143051147,-0.34999987483024597,-0.7177032314482634,0.0,-1.949999080787401,0.1970007704235033,-0.4345180050881072,0.0
1759839021.666901,1,-1.2050001621243485,-0.8299997448919241,-0.7177030444121776,0.0,-1.7350000143051147,-0.34999987483024597,-0.717703232799508,0.0,-1.949999080787401,0.1970007704235033,-0.4345180050881072,0.0
1759839021.6773624,1,-1.2050001621243485,-0.8299997448919241,-0.7177030444121776,0.0,-1.7350000143051147,-0.34999987483024597,-0.7177032349301804,0.0,-1.949999080787401,0.1970007704235033,-0.4345180050881072,0.0
1759839021.6910276,1,-1.2050001621243485,-0.8299997448919241,-0.7177030444121776,0.0,-1.7350000143051147,-0.34999987483024597,-0.7177032337667892,0.0,-1.949999080787401,0.1970007704235033,-0.4345180050881072,0.0
1759839021.70146,1,-1.2050001621243485,-0.8299997448919241,-0.7177030444121776,0.0,-1.7350000143051147,-0.34999987483024597,-0.7177032364351668,0.0,-1.949999080787401,0.1970007704235033,-0.4345180050881072,0.0
1759839021.7127273,1,-1.2050001621243485,-0.8299997448919241,-0.7177030444121776,0.0,-1.7350000143051147,-0.34999987483024597,-0.7177032381728363,0.0,-1.949999080787401,0.1970007704235033,-0.4345180050881072,0.0
1759839021.7233791,1,-1.2050001621243485,-0.8299997448919241,-0.7177030444121776,0.0,-1.7350000143051147,-0.34999987483024597,-0.7177032403139982,0.0,-1.949999080787401,0.1970007704235033,-0.4345180050881072,0.0
1759839021.7348692,1,-1.2050001621243485,-0.8299997448919241,-0.7177030444121776,0.0,-1.7350000143051147,-0.34999987483024597,-0.7177032415151441,0.0,-1.949999080787401,0.1970007704235033,-0.4345180050881072,0.0
1759839021.745784,1,-1.2050001621243485,-0.8299997448919241,-0.7177030444121776,0.0,-1.7350000143051147,-0.34999987483024597,-0.7177032431889678,0.0,-1.949999080787401,0.1970007704235033,-0.4345180050881072,0.0
1759839021.7564476,1,-1.2050001621243485,-0.8299997448919241,-0.7177030444121776,0.0,-1.7350000143051147,-0.34999987483024597,-0.7177032449575265,0.0,-1.949999080787401,0.1970007704235033,-0.4345180050881072,0.0
1759839021.767307,1,-1.2050001621243485,-0.8299997448919241,-0.7177030444121776,0.0,-1.7350000143051147,-0.34999987483024597,-0.7177032463963062,0.0,-1.949999080787401,0.1970007704235033,-0.4345180050881072,0.0
1759839021.7776513,1,-1.2050001621243485,-0.8299997448919241,-0.7177030444121776,0.0,-1.7350000143051147,-0.34999987483024597,-0.7177032481034633,0.0,-1.949999080787401,0.1970007704235033,-0.4345180050881072,0.0
1759839021.7891293,1,-1.2050001621243485,-0.8299997448919241,-0.7177030444121776,0.0,-1.7350000143051147,-0.34999987483024597,-0.7177032488102206,0.0,-1.949999080787401,0.1970007704235033,-0.4345180050881072,0.0
1759839021.7994206,1,-1.2050001621243485,-0.8299997448919241,-0.7177030444121776,0.0,-1.7350000143051147,-0.34999987483024597,-0.717703250405588,0.0,-1.949999080787401,0.1970007704235033,-0.4345180050881072,0.0
1759839021.8094454,1,-1.2050001621243485,-0.8299997448919241,-0.7177030444121776,0.0,-1.7350000143051147,-0.34999987483024597,-0.7177032520319582,0.0,-1.949999080787401,0.1970007704235033,-0.4345180050881072,0.0
1759839021.8198316,1,-1.2050001621243485,-0.8299997448919241,-0.7177030444121776,0.0,-1.7350000143051147,-0.34999987483024597,-0.7177032531967917,0.0,-1.949999080787401,0.1970007704235033,-0.4345180050881072,0.0
1759839021.8307724,1,-1.2050001621243485,-0.8299997448919241,-0.7177030444121776,0.0,-1.7350000143051147,-0.34999987483024597,-0.7177032538988044,0.0,-1.949999080787401,0.1970007704235033,-0.4345180050881072,0.0
1759839021.841598,1,-1.2050001621243485,-0.8299997448919241,-0.7177030444121776,0.0,-1.7350000143051147,-0.34999987483024597,-0.7177032547058566,0.0,-1.949999080787401,0.1970007704235033,-0.4345180050881072,0.0
1759839021.8524108,1,-1.2050001621243485,-0.8299997448919241,-0.7177030444121776,0.0,-1.7350000143051147,-0.34999987483024597,-0.7177032555460787,0.0,-1.949999080787401,0.1970007704235033,-0.4345180050881072,0.0
1759839021.8627882,1,-1.2050001621243485,-0.8299997448919241,-0.7177030444121776,0.0,-1.7350000143051147,-0.34999987483024597,-0.7177032566359713,0.0,-1.949999080787401,0.1970007704235033,-0.4345180050881072,0.0
1759839021.8738792,1,-1.2050001621243485,-0.8299997448919241,-0.7177030444121776,0.0,-1.7350000143051147,-0.34999987483024597,-0.7177032572538522,0.0,-1.949999080787401,0.1970007704235033,-0.4345180050881072,0.0
1759839021.889607,1,-1.2050001621243485,-0.8299997448919241,-0.7177030444121776,0.0,-1.7350000143051147,-0.34999987483024597,-0.7177032554970388,0.0,-1.949999080787401,0.1970007704235033,-0.4345180050881072,0.0
1759839021.9010026,1,-1.2050001621243485,-0.8299997448919241,-0.7177030444121776,0.0,-1.7350000143051147,-0.34999987483024597,-0.7177032567370301,0.0,-1.949999080787401,0.1970007704235033,-0.4345180050881072,0.0
1759839021.9114757,1,-1.2050001621243485,-0.8299997448919241,-0.7177030444121776,0.0,-1.7350000143051147,-0.34999987483024597,-0.7177032584744687,0.0,-1.949999080787401,0.1970007704235033,-0.4345180050881072,0.0
1759839021.9218526,1,-1.2050001621243485,-0.8299997448919241,-0.7177030444121776,0.0,-1.7350000143051147,-0.34999987483024597,-0.7177032599767585,0.0,-1.949999080787401,0.1970007704235033,-0.4345180050881072,0.0
1759839021.9328465,1,-1.2050001621243485,-0.8299997448919241,-0.7177030444121776,0.0,-1.7350000143051147,-0.34999987483024597,-0.7177032609377729,0.0,-1.949999080787401,0.1970007704235033,-0.4345180050881072,0.0
1759839021.9441316,1,-1.2050001621243485,-0.8299997448919241,-0.7177030444121776,0.0,-1.7350000143051147,-0.34999987483024597,-0.7177032616617556,0.0,-1.949999080787401,0.1970007704235033,-0.4345180050881072,0.0
1759839021.95511,1,-1.2050001621243485,-0.8299997448919241,-0.7177030444121776,0.0,-1.7350000143051147,-0.34999987483024597,-0.717703262491554,0.0,-1.949999080787401,0.1970007704235033,-0.4345180050881072,0.0
1759839021.9652936,1,-1.2050001621243485,-0.8299997448919241,-0.7177030444121776,0.0,-1.7350000143051147,-0.34999987483024597,-0.7177032635916873,0.0,-1.949999080787401,0.1970007704235033,-0.4345180050881072,0.0
1759839021.9764357,1,-1.2050001621243485,-0.8299997448919241,-0.7177030444121776,0.0,-1.7350000143051147,-0.34999987483024597,-0.7177032641665093,0.0,-1.949999080787401,0.1970007704235033,-0.4345180050881072,0.0
1759839021.987236,1,-1.2050001621243485,-0.8299997448919241,-0.7177030444121776,0.0,-1.7350000143051147,-0.34999987483024597,-0.7177032648481614,0.0,-1.949999080787401,0.1970007704235033,-0.4345180050881072,0.0
1759839021.9975293,1,-1.2050001621243485,-0.8299997448919241,-0.7177030444121776,0.0,-1.7350000143051147,-0.34999987483024597,-0.7177032656829194,0.0012114522821944718,-1.949999080787401,0.1970007704235033,-0.4345180050881072,0.0
1759839022.0080194,1,-1.2050001621243485,-0.8299997448919241,-0.7177030444121776,0.0,-1.7350000143051147,-0.34999987483024597,-0.7177032663548388,0.0012114522821944718,-1.949999080787401,0.1970007704235033,-0.4345180050881072,0.0
1759839022.0194988,1,-1.2050001621243485,-0.8299997448919241,-0.7177030444121776,0.0,-1.7350000143051147,-0.34999987483024597,-0.7177032666239035,0.0012114522821944718,-1.949999080787401,0.1970007704235033,-0.4345180050881072,0.0
1759839022.0298686,1,-1.2050001621243485,-0.8299997448919241,-0.7177030444121776,0.0,-1.7350000143051147,-0.34999987483024597,-0.7177032673189334,0.0012114522821944718,-1.949999080787401,0.1970007704235033,-0.4345180050881072,0.0
1759839022.0412872,1,-1.2050001621243485,-0.8299997448919241,-0.7177030444121776,0.0,-1.7350000143051147,-0.34999987483024597,-0.717703267630716,0.0012114522821944718,-1.949999080787401,0.1970007704235033,-0.4345180050881072,0.0
1759839022.0534942,1,-1.2050001621243485,-0.8299997448919241,-0.7177030444121776,0.0,-1.7350000143051147,-0.34999987483024597,-0.7177032677386599,0.0012114522821944718,-1.949999080787401,0.1970007704235033,-0.4345180050881072,0.0
1759839022.0636935,1,-1.2050001621243485,-0.8299997448919241,-0.7177030444121776,0.0,-1.7350000143051147,-0.34999987483024597,-0.7177032685637244,0.0012114522821944718,-1.949999080787401,0.1970007704235033,-0.4345180050881072,0.0
1759839022.0747786,1,-1.2050001621243485,-0.8299997448919241,-0.7177030444121776,0.0,-1.7350000143051147,-0.34999987483024597,-0.7177032690503893,0.0012114522821944718,-1.949999080787401,0.1970007704235033,-0.4345180050881072,0.0
1759839022.0882585,1,-1.2050001621243485,-0.8299997448919241,-0.7177030444121776,0.0,-1.7350000143051147,-0.34999987483024597,-0.7177032688479308,0.0012114522821944718,-1.949999080787401,0.1970007704235033,-0.4345180050881072,0.0
1759839022.0987563,1,-1.2050001621243485,-0.8299997448919241,-0.7177030444121776,0.0,-1.7350000143051147,-0.34999987483024597,-0.7177032696335673,0.0012114522821944718,-1.949999080787401,0.1970007704235033,-0.4345180050881072,0.0
1759839022.108773,1,-1.2050001621243485,-0.8299997448919241,-0.7177030444121776,0.0,-1.7350000143051147,-0.34999987483024597,-0.7177032704792641,0.0012114522821944718,-1.949999080787401,0.1970007704235033,-0.4345180050881072,0.0
1759839022.1192136,1,-1.2050001621243485,-0.8299997448919241,-0.7177030444121776,0.0,-1.7350000143051147,-0.34999987483024597,-0.7177032710725513,0.0012114522821944718,-1.949999080787401,0.1970007704235033,-0.4345180050881072,0.0
1759839022.130013,1,-1.2050001621243485,-0.8299997448919241,-0.7177030444121776,0.0,-1.7350000143051147,-0.34999987483024597,-0.7177032714912492,0.0012114522821944718,-1.949999080787401,0.1970007704235033,-0.4345180050881072,0.0
1759839022.140317,1,-1.2050001621243485,-0.8299997448919241,-0.7177030444121776,0.0,-1.7350000143051147,-0.34999987483024597,-0.7177032719942602,0.0012114522821944718,-1.949999080787401,0.1970007704235033,-0.4345180050881072,0.0
1759839022.1508465,1,-1.2050001621243485,-0.8299997448919241,-0.7177030444121776,0.0,-1.7350000143051147,-0.34999987483024597,-0.7177032723944716,0.0012114522821944718,-1.949999080787401,0.1970007704235033,-0.4345180050881072,0.0
1759839022.1615024,1,-1.2050001621243485,-0.8299997448919241,-0.7177030444121776,0.0,-1.7350000143051147,-0.34999987483024597,-0.7177032727344734,0.0012114522821944718,-1.949999080787401,0.1970007704235033,-0.4345180050881072,0.0
1759839022.1715093,1,-1.2050001621243485,-0.8299997448919241,-0.7177030444121776,0.0,-1.7350000143051147,-0.34999987483024597,-0.7177032731976656,0.0012114522821944718,-1.949999080787401,0.1970007704235033,-0.4345180050881072,0.0
1759839022.182322,1,-1.2050001621243485,-0.8299997448919241,-0.7177030444121776,0.0,-1.7350000143051147,-0.34999987483024597,-0.7177032734446733,0.0012114522821944718,-1.949999080787401,0.1970007704235033,-0.4345180050881072,0.0
1759839022.19238,1,-1.2050001621243485,-0.8299997448919241,-0.7177030444121776,0.0,-1.7350000143051147,-0.34999987483024597,-0.7177032738415932,0.0012114522821944718,-1.949999080787401,0.1970007704235033,-0.4345180050881072,0.0
1759839022.203863,1,-1.2050001621243485,-0.8299997448919241,-0.7177030444121776,0.0,-1.7350000143051147,-0.34999987483024597,-0.7177032739307769,0.0012114522821944718,-1.949999080787401,0.1970007704235033,-0.4345180050881072,0.0
1759839022.215324,1,-1.2050001621243485,-0.8299997448919241,-0.7177030444121776,0.0,-1.7350000143051147,-0.34999987483024597,-0.7177032740700681,0.0012114522821944718,-1.949999080787401,0.1970007704235033,-0.4345180050881072,0.0
1759839022.2266748,1,-1.2050001621243485,-0.8299997448919241,-0.7177030444121776,0.0,-1.7350000143051147,-0.34999987483024597,-0.7177032742791879,0.0012114522821944718,-1.949999080787401,0.1970007704235033,-0.4345180050881072,0.0
1759839022.2370188,1,-1.2050001621243485,-0.8299997448919241,-0.7177030444121776,0.0,-1.7350000143051147,-0.34999987483024597,-0.7177032746879082,0.0012114522821944718,-1.949999080787401,0.1970007704235033,-0.4345180050881072,0.0
1759839022.2470987,1,-1.2050001621243485,-0.8299997448919241,-0.7177030444121776,0.0,-1.7350000143051147,-0.34999987483024597,-0.71770327510092,0.0012114522821944718,-1.949999080787401,0.1970007704235033,-0.4345180050881072,0.0
1759839022.257896,1,-1.2050001621243485,-0.8299997448919241,-0.7177030444121776,0.0,-1.7350000143051147,-0.34999987483024597,-0.7177032753403747,0.0012114522821944718,-1.949999080787401,0.1970007704235033,-0.4345180050881072,0.0
1759839022.2691748,1,-1.2050001621243485,-0.8299997448919241,-0.7177030444121776,0.0,-1.7350000143051147,-0.34999987483024597,-0.7177032754931201,0.0012114522821944718,-1.949999080787401,0.1970007704235033,-0.4345180050881072,0.0
1759839022.2802052,1,-1.2050001621243485,-0.8299997448919241,-0.7177030444121776,0.0,-1.7350000143051147,-0.34999987483024597,-0.7177032757052579,0.0012114522821944718,-1.949999080787401,0.1970007704235033,-0.4345180050881072,0.0
1759839022.2940578,1,-1.2050001621243485,-0.8299997448919241,-0.7177030444121776,0.0,-1.7350000143051147,-0.34999987483024597,-0.7177032755212576,0.0012114522821944718,-1.949999080787401,0.1970007704235033,-0.4345180050881072,0.0
1759839022.304806,1,-1.2050001621243485,-0.8299997448919241,-0.7177030444121776,0.0,-1.7350000143051147,-0.34999987483024597,-0.7177032758965467,0.0012114522821944718,-1.949999080787401,0.1970007704235033,-0.4345180050881072,0.0
1759839022.3156173,1,-1.2050001621243485,-0.8299997448919241,-0.7177030444121776,0.0,-1.7350000143051147,-0.34999987483024597,-0.717703276246354,0.0012114522821944718,-1.949999080787401,0.1970007704235033,-0.4345180050881072,0.0
1759839022.3260944,1,-1.2050001621243485,-0.8299997448919241,-0.7177030444121776,0.0,-1.7350000143051147,-0.34999987483024597,-0.7177032765940226,0.0012114522821944718,-1.949999080787401,0.1970007704235033,-0.4345180050881072,0.0
1759839022.336851,1,-1.2050001621243485,-0.8299997448919241,-0.7177030444121776,0.0,-1.7350000143051147,-0.34999987483024597,-0.7177032768580602,0.0012114522821944718,-1.949999080787401,0.1970007704235033,-0.4345180050881072,0.0
1759839022.347917,1,-1.2050001621243485,-0.8299997448919241,-0.7177030444121776,0.0,-1.7350000143051147,-0.34999987483024597,-0.7177032770561631,0.0012114522821944718,-1.949999080787401,0.1970007704235033,-0.4345180050881072,0.0
1759839022.3589265,1,-1.2050001621243485,-0.8299997448919241,-0.7177030444121776,0.0,-1.7350000143051147,-0.34999987483024597,-0.7177032772532854,0.0012114522821944718,-1.949999080787401,0.1970007704235033,-0.4345180050881072,0.0
1759839022.3689523,1,-1.2050001621243485,-0.8299997448919241,-0.7177030444121776,0.0,-1.7350000143051147,-0.34999987483024597,-0.7177032775548895,0.0012114522821944718,-1.949999080787401,0.1970007704235033,-0.4345180050881072,0.0
1759839022.3791354,1,-1.2050001621243485,-0.8299997448919241,-0.7177030444121776,0.0,-1.7350000143051147,-0.34999987483024597,-0.7177032777991901,0.0012114522821944718,-1.949999080787401,0.1970007704235033,-0.4345180050881072,0.0
1759839022.3900545,1,-1.2050001621243485,-0.8299997448919241,-0.7177030444121776,0.0,-1.7350000143051147,-0.34999987483024597,-0.7177032779324328,0.0012114522821944718,-1.949999080787401,0.1970007704235033,-0.4345180050881072,0.0
1759839022.400099,1,-1.2050001621243485,-0.8299997448919241,-0.7177030444121776,0.0,-1.7350000143051147,-0.34999987483024597,-0.7177032781547439,0.0012114522821944718,-1.949999080787401,0.1970007704235033,-0.4345180050881072,0.0
1759839022.4101985,1,-1.2050001621243485,-0.8299997448919241,-0.7177030444121776,0.0,-1.7350000143051147,-0.34999987483024597,-0.7177032783494699,0.0012114522821944718,-1.949999080787401,0.1970007704235033,-0.4345180050881072,0.0
1759839022.4208179,1,-1.2050001621243485,-0.8299997448919241,-0.7177030444121776,0.0,-1.7350000143051147,-0.34999987483024597,-0.7177032784723067,0.0012114522821944718,-1.949999080787401,0.1970007704235033,-0.4345180050881072,0.0
1759839022.432154,1,-1.2050001621243485,-0.8299997448919241,-0.7177030444121776,0.0,-1.7350000143051147,-0.34999987483024597,-0.717703278527285,0.0012114522821944718,-1.949999080787401,0.1970007704235033,-0.4345180050881072,0.0
1759839022.443125,1,-1.2050001621243485,-0.8299997448919241,-0.7177030444121776,0.0,-1.7350000143051147,-0.34999987483024597,-0.7177032786374724,0.0012114522821944718,-1.949999080787401,0.1970007704235033,-0.4345180050881072,0.0
1759839022.4531322,1,-1.2050001621243485,-0.8299997448919241,-0.7177030444121776,0.0,-1.7350000143051147,-0.34999987483024597,-0.7177032788411672,0.0012114522821944718,-1.949999080787401,0.1970007704235033,-0.4345180050881072,0.0
1759839022.463953,1,-1.2050001621243485,-0.8299997448919241,-0.7177030444121776,0.0,-1.7350000143051147,-0.34999987483024597,-0.7177032789544988,0.0012114522821944718,-1.949999080787401,0.1970007704235033,-0.4345180050881072,0.0
1759839022.4766734,1,-1.2050001621243485,-0.8299997448919241,-0.7177030444121776,0.0,-1.7350000143051147,-0.34999987483024597,-0.7177032789121434,0.0012114522821944718,-1.949999080787401,0.1970007704235033,-0.4345180050881072,0.0
1759839022.486848,1,-1.2050001621243485,-0.8299997448919241,-0.7177030444121776,0.0,-1.7350000143051147,-0.34999987483024597,-0.7177032791174831,0.0012114522821944718,-1.949999080787401,0.1970007704235033,-0.4345180050881072,0.0
1759839022.501658,1,-1.2050001621243485,-0.8299997448919241,-0.7177030444121776,0.0,-1.7350000143051147,-0.34999987483024597,-0.7177032789629081,0.0012114522821944718,-1.949999080787401,0.1970007704235033,-0.4345180050881072,0.0
1759839022.5088022,1,-1.2050001621243485,-0.8299997448919241,-0.7177030444121776,0.0,-1.7350000143051147,-0.34999987483024597,-0.7177032794390943,0.0012114522821944718,-1.949999080787401,0.1970007704235033,-0.4345180050881072,0.0
1759839022.5198705,1,-1.2050001621243485,-0.8299997448919241,-0.7177030444121776,0.0,-1.7350000143051147,-0.34999987483024597,-0.7177032795516105,0.0012114522821944718,-1.949999080787401,0.1970007704235033,-0.4345180050881072,0.0
1759839022.5313344,1,-1.2050001621243485,-0.8299997448919241,-0.7177030444121776,0.0,-1.7350000143051147,-0.34999987483024597,-0.7177032796147724,0.0012114522821944718,-1.949999080787401,0.1970007704235033,-0.4345180050881072,0.0
1759839022.5427723,1,-1.2050001621243485,-0.8299997448919241,-0.7177030444121776,0.0,-1.7350000143051147,-0.34999987483024597,-0.7177032796906389,0.0012114522821944718,-1.949999080787401,0.1970007704235033,-0.4345180050881072,0.0
1759839022.5530038,1,-1.2050001621243485,-0.8299997448919241,-0.7177030444121776,0.0,-1.7350000143051147,-0.34999987483024597,-0.7177032798518469,0.0012114522821944718,-1.949999080787401,0.1970007704235033,-0.4345180050881072,0.0
1759839022.5636268,1,-1.2050001621243485,-0.8299997448919241,-0.7177030444121776,0.0,-1.7350000143051147,-0.34999987483024597,-0.7177032799715857,0.0012114522821944718,-1.949999080787401,0.1970007704235033,-0.4345180050881072,0.0
1759839022.5746944,1,-1.2050001621243485,-0.8299997448919241,-0.7177030444121776,0.0,-1.7350000143051147,-0.34999987483024597,-0.7177032800530583,0.0012114522821944718,-1.949999080787401,0.1970007704235033,-0.4345180050881072,0.0
1759839022.5861254,1,-1.2050001621243485,-0.8299997448919241,-0.7177030444121776,0.0,-1.7350000143051147,-0.34999987483024597,-0.7177032801142609,0.0012114522821944718,-1.949999080787401,0.1970007704235033,-0.4345180050881072,0.0
1759839022.5963054,1,-1.2050001621243485,-0.8299997448919241,-0.7177030444121776,0.0,-1.7350000143051147,-0.34999987483024597,-0.717703280251733,0.0012114522821944718,-1.949999080787401,0.1970007704235033,-0.4345180050881072,0.0
1759839022.6078928,1,-1.2050001621243485,-0.8299997448919241,-0.7177030444121776,0.0,-1.7350000143051147,-0.34999987483024597,-0.7177032803001708,0.0012114522821944718,-1.949999080787401,0.1970007704235033,-0.4345180050881072,0.0
1759839022.618679,1,-1.2050001621243485,-0.8299997448919241,-0.7177030444121776,0.0,-1.7350000143051147,-0.34999987483024597,-0.7177032803959218,0.0012114522821944718,-1.949999080787401,0.1970007704235033,-0.4345180050881072,0.0
1759839022.6296036,1,-1.2050001621243485,-0.8299997448919241,-0.7177030444121776,0.0,-1.7350000143051147,-0.34999987483024597,-0.717703280481544,0.0012114522821944718,-1.949999080787401,0.1970007704235033,-0.4345180050881072,0.0
1759839022.640841,1,-1.2050001621243485,-0.8299997448919241,-0.7177030444121776,0.0,-1.7350000143051147,-0.34999987483024597,-0.717703280548383,0.0012114522821944718,-1.949999080787401,0.1970007704235033,-0.4345180050881072,0.0
1759839022.6522107,1,-1.2050001621243485,-0.8299997448919241,-0.7177030444121776,0.0,-1.7350000143051147,-0.34999987483024597,-0.717703280610662,0.0012114522821944718,-1.949999080787401,0.1970007704235033,-0.4345180050881072,0.0
1759839022.6631167,1,-1.2050001621243485,-0.8299997448919241,-0.7177030444121776,0.0,-1.7350000143051147,-0.34999987483024597,-0.7177032806967887,0.0012114522821944718,-1.949999080787401,0.1970007704235033,-0.4345180050881072,0.0
