timestamp,vehicle_id,x,y,theta,velocity,gps_available,dt,gps_x,gps_y,gps_theta,gps_velocity,control_steering,control_acceleration
1759839020.0090733,2,-1.95,0.197,-0.8848819307611251,0.0,False,0.01,nan,nan,nan,nan,0.0,0.0
1759839020.0193062,2,-1.95,0.197,-0.8848819307611251,0.0,False,0.010232925415039062,nan,nan,nan,nan,0.0,0.0
1759839020.0308137,2,-1.95,0.197,-0.8848819307611251,0.0,False,0.011507511138916016,nan,nan,nan,nan,0.0,0.0
1759839020.0411558,2,-1.95,0.197,-0.8848819307611251,0.0,False,0.010342121124267578,nan,nan,nan,nan,0.0,0.0
1759839020.0513747,2,-1.95,0.197,-0.8848819307611251,0.0,False,0.01021885871887207,nan,nan,nan,nan,0.0,0.0
1759839020.062223,2,-1.95,0.197,-0.8848819307611251,0.0,False,0.010848283767700195,nan,nan,nan,nan,0.0,0.0
1759839020.0723393,2,-1.95,0.197,-0.8848819307611251,0.0,False,0.010116338729858398,nan,nan,nan,nan,0.0,0.0
1759839020.0824702,2,-1.95,0.197,-0.8848819307611251,0.0,False,0.010130882263183594,nan,nan,nan,nan,0.0,0.0
1759839020.0937278,2,-1.95,0.197,-0.8848819307611251,0.0,False,0.011257648468017578,nan,nan,nan,nan,0.0,0.0
1759839020.1038582,2,-1.95,0.197,-0.8848819307611251,0.0,False,0.01013040542602539,nan,nan,nan,nan,0.0,0.0
1759839020.1140954,2,-1.95,0.197,-0.8848819307611251,0.0,False,0.01023721694946289,nan,nan,nan,nan,0.0,0.0
1759839020.1244698,2,-1.95,0.197,-0.8848819307611251,0.0,False,0.010374307632446289,nan,nan,nan,nan,0.0,0.0
1759839020.1358323,2,-1.95,0.197,-0.8848819307611251,0.0,False,0.011362552642822266,nan,nan,nan,nan,0.0,0.0
1759839020.1461692,2,-1.95,0.197,-0.8848819307611251,0.0,False,0.010336875915527344,nan,nan,nan,nan,0.0,0.0
1759839020.156684,2,-1.95,0.197,-0.8848819307611251,0.0,False,0.01051473617553711,nan,nan,nan,nan,0.0,0.0
1759839020.1677659,2,-1.95,0.197,-0.8848819307611251,0.0,False,0.011081933975219727,nan,nan,nan,nan,0.0,0.0
1759839020.1791217,2,-1.95,0.197,-0.8848819307611251,0.0,False,0.011355876922607422,nan,nan,nan,nan,0.0,0.0
1759839020.190383,2,-1.95,0.197,-0.8848819307611251,0.0,False,0.011261224746704102,nan,nan,nan,nan,0.0,0.0
1759839020.2027333,2,-1.949999101559321,0.19700076532959937,-0.4727083829690528,0.0,True,0.012350320816040039,-1.9499990940093994,0.19700077176094055,-0.43451887369155884,0.0,0.0,0.0
1759839020.2135873,2,-1.94999909653305,0.19700076961118862,-0.4375046435658998,0.0,True,0.010854005813598633,-1.9499990940093994,0.19700077176094055,-0.43451887369155884,0.0,0.0,0.0
1759839020.2248704,2,-1.9499990949560981,0.19700077095450277,-0.434179102487942,0.0,True,0.011283159255981445,-1.9499990940093994,0.19700077176094055,-0.43451887369155884,0.0,0.0,0.0
1759839020.2363267,2,-1.9499990943700645,0.19700077145371087,-0.4337432837914328,0.0,True,0.01145625114440918,-1.9499990940093994,0.19700077176094055,-0.43451887369155884,0.0,0.0,0.0
1759839020.2466273,2,-1.9499990941471088,0.19700077164363383,-0.43372303537071133,0.0,True,0.010300636291503906,-1.9499990940093994,0.19700077176094055,-0.43451887369155884,0.0,0.0,0.0
1759839020.258027,2,-1.949999094061997,0.19700077171613586,-0.4337664631245861,0.0,True,0.01139974594116211,-1.9499990940093994,0.19700077176094055,-0.43451887369155884,0.0,0.0,0.0
1759839020.2688928,2,-1.9499990940294898,0.19700077174382682,-0.43385179186444844,0.0,True,0.01086568832397461,-1.9499990940093994,0.19700077176094055,-0.43451887369155884,0.0,0.0,0.0
1759839020.2801168,2,-1.9499990940170733,0.1970007717544037,-0.4339325475426392,0.0,True,0.011224031448364258,-1.9499990940093994,0.19700077176094055,-0.43451887369155884,0.0,0.0,0.0
1759839020.2903414,2,-1.9499990940123306,0.1970007717584437,-0.4340149392718047,0.0,True,0.010224580764770508,-1.9499990940093994,0.19700077176094055,-0.43451887369155884,0.0,0.0,0.0
1759839020.3010483,2,-1.949999094010519,0.19700077175998684,-0.43407676493973213,0.0,True,0.010706901550292969,-1.9499990940093994,0.19700077176094055,-0.43451887369155884,0.0,0.0,0.0
1759839020.3124633,2,-1.949999094009827,0.19700077176057626,-0.43412308449015136,0.0,True,0.01141500473022461,-1.9499990940093994,0.19700077176094055,-0.43451887369155884,0.0,0.0,0.0
1759839020.323465,2,-1.9499990940095628,0.1970007717608014,-0.43416687936894505,0.0,True,0.011001825332641602,-1.9499990940093994,0.19700077176094055,-0.43451887369155884,0.0,0.0,0.0
1759839020.3343534,2,-1.9499990940094618,0.1970007717608874,-0.4342046947512088,0.0,True,0.010888338088989258,-1.9499990940093994,0.19700077176094055,-0.43451887369155884,0.0,0.0,0.0
1759839020.3448527,2,-1.9499990940094232,0.19700077176092026,-0.43423833491620556,0.0,True,0.010499238967895508,-1.9499990940093994,0.19700077176094055,-0.43451887369155884,0.0,0.0,0.0
1759839020.3559866,2,-1.9499990940094085,0.1970007717609328,-0.434262887865172,0.0,True,0.011133909225463867,-1.9499990940093994,0.19700077176094055,-0.43451887369155884,0.0,0.0,0.0
1759839020.3667965,2,-1.949999094009403,0.19700077176093758,-0.434285717626004,0.0,True,0.010809898376464844,-1.9499990940093994,0.19700077176094055,-0.43451887369155884,0.0,0.0,0.0
1759839020.3777132,2,-1.9499990940094007,0.1970007717609394,-0.4343049246823085,0.0,True,0.010916709899902344,-1.9499990940093994,0.19700077176094055,-0.43451887369155884,0.0,0.0,0.0
1759839020.3889632,2,-1.9499990940093999,0.1970007717609401,-0.43432039427812796,0.0,True,0.011250019073486328,-1.9499990940093994,0.19700077176094055,-0.43451887369155884,0.0,0.0,0.0
1759839020.4015443,2,-1.9499990940093996,0.19700077176094039,-0.4343298371950457,0.0,True,0.012581110000610352,-1.9499990940093994,0.19700077176094055,-0.43451887369155884,0.0,0.0,0.0
1759839020.411267,2,-1.9499990940093994,0.1970007717609405,-0.4343493249601238,0.0,True,0.009722709655761719,-1.9499990940093994,0.19700077176094055,-0.43451887369155884,0.0,0.0,0.0
1759839020.4215608,2,-1.9499990940093994,0.19700077176094052,-0.4343634150666702,0.0,True,0.010293722152709961,-1.9499990940093994,0.19700077176094055,-0.43451887369155884,0.0,0.0,0.0
1759839020.4330292,2,-1.9499990940093994,0.19700077176094055,-0.4343715115352502,0.0,True,0.01146841049194336,-1.9499990940093994,0.19700077176094055,-0.43451887369155884,0.0,0.0,0.0
1759839020.4430761,2,-1.9499990940093994,0.19700077176094055,-0.43438307210922744,0.0,True,0.010046958923339844,-1.9499990940093994,0.19700077176094055,-0.43451887369155884,0.0,0.0,0.0
1759839020.4544487,2,-1.9499990940093994,0.19700077176094055,-0.43438946842723425,0.0,True,0.011372566223144531,-1.9499990940093994,0.19700077176094055,-0.43451887369155884,0.0,0.0,0.0
1759839020.4648762,2,-1.9499990940093994,0.19700077176094055,-0.4343979083386298,0.0,True,0.010427474975585938,-1.9499990940093994,0.19700077176094055,-0.43451887369155884,0.0,0.0,0.0
1759839020.4761958,2,-1.9499990940093994,0.19700077176094055,-0.4344033170069963,0.0,True,0.011319637298583984,-1.9499990940093994,0.19700077176094055,-0.43451887369155884,0.0,0.0,0.0
1759839020.4863636,2,-1.9499990940093994,0.19700077176094055,-0.43441110227960067,0.0,True,0.010167837142944336,-1.9499990940093994,0.19700077176094055,-0.43451887369155884,0.0,0.0,0.0
1759839020.4969893,2,-1.9499990940093994,0.19700077176094055,-0.43441690536811706,0.0,True,0.010625600814819336,-1.9499990940093994,0.19700077176094055,-0.43451887369155884,0.0,0.0,0.0
1759839020.5073674,2,-1.9499990940093994,0.19700077176094055,-0.4344225787672791,0.0,True,0.010378122329711914,-1.9499990940093994,0.19700077176094055,-0.43451887369155884,0.0,0.0,0.0
1759839020.517999,2,-1.9499990940093994,0.19700077176094055,-0.4344271457890674,0.0,True,0.010631561279296875,-1.9499990940093994,0.19700077176094055,-0.43451887369155884,0.0,0.0,0.0
1759839020.5294065,2,-1.9499990940093994,0.19700077176094055,-0.4344299380667529,0.0,True,0.011407613754272461,-1.9499990940093994,0.19700077176094055,-0.43451887369155884,0.0,0.0,0.0
1759839020.5401344,2,-1.9499990940093994,0.19700077176094055,-0.43443415298262344,0.0,True,0.010727882385253906,-1.9499990940093994,0.19700077176094055,-0.43451887369155884,0.0,0.0,0.0
1759839020.551026,2,-1.9499990940093994,0.19700077176094055,-0.43443788246066006,0.0,True,0.01089167594909668,-1.9499990940093994,0.19700077176094055,-0.43451887369155884,0.0,0.0,0.0
1759839020.5619516,2,-1.9499990940093994,0.19700077176094055,-0.4344413557664488,0.0,True,0.010925531387329102,-1.9499990940093994,0.19700077176094055,-0.43451887369155884,0.0,0.0,0.0
1759839020.571972,2,-1.9499990940093994,0.19700077176094055,-0.43444605344691034,0.0,True,0.010020256042480469,-1.9499990940093994,0.19700077176094055,-0.43451887369155884,0.0,0.0,0.0
1759839020.5825074,2,-1.9499990940093994,0.19700077176094055,-0.43444936218410746,0.0,True,0.010535478591918945,-1.9499990940093994,0.19700077176094055,-0.43451887369155884,0.0,0.0,0.0
1759839020.5935194,2,-1.9499990940093994,0.19700077176094055,-0.4344516668995144,0.0,True,0.011012077331542969,-1.9499990940093994,0.19700077176094055,-0.43451887369155884,0.0,0.0,0.0
1759839020.603943,2,-1.9499990940093994,0.19700077176094055,-0.43445478726626163,0.0,True,0.010423660278320312,-1.9499990940093994,0.19700077176094055,-0.43451887369155884,0.0,0.0,0.0
1759839020.6151655,2,-1.9499990940093994,0.19700077176094055,-0.43445663380538235,0.0,True,0.011222362518310547,-1.9499990940093994,0.19700077176094055,-0.43451887369155884,0.0,0.0,0.0
1759839020.6264832,2,-1.9499990940093994,0.19700077176094055,-0.4344584548571291,0.0,True,0.011317729949951172,-1.9499990940093994,0.19700077176094055,-0.43451887369155884,0.0,0.0,0.0
1759839020.6377041,2,-1.9499990940093994,0.19700077176094055,-0.4344605431205064,0.0,True,0.011220932006835938,-1.9499990940093994,0.19700077176094055,-0.43451887369155884,0.0,0.0,0.0
1759839020.6485817,2,-1.9499990940093994,0.19700077176094055,-0.43446306934176704,0.0,True,0.010877609252929688,-1.9499990940093994,0.19700077176094055,-0.43451887369155884,0.0,0.0,0.0
1759839020.6601133,2,-1.9499990940093994,0.19700077176094055,-0.43446473348015857,0.0,True,0.011531591415405273,-1.9499990940093994,0.19700077176094055,-0.43451887369155884,0.0,0.0,0.0
1759839020.6704464,2,-1.9499990940093994,0.19700077176094055,-0.43446773922533666,0.0,True,0.010333061218261719,-1.9499990940093994,0.19700077176094055,-0.43451887369155884,0.0,0.0,0.0
1759839020.681725,2,-1.9499990940093994,0.19700077176094055,-0.4344694444743826,0.0,True,0.011278629302978516,-1.9499990940093994,0.19700077176094055,-0.43451887369155884,0.0,0.0,0.0
1759839020.6929858,2,-1.9499990940093994,0.19700077176094055,-0.4344711251435385,0.0,True,0.011260747909545898,-1.9499990940093994,0.19700077176094055,-0.43451887369155884,0.0,0.0,0.0
1759839020.703507,2,-1.9499990940093994,0.19700077176094055,-0.4344735119371883,0.0,True,0.010521173477172852,-1.9499990940093994,0.19700077176094055,-0.43451887369155884,0.0,0.0,0.0
1759839020.7142048,2,-1.9499990940093994,0.19700077176094055,-0.43447550057907236,0.0,True,0.01069784164428711,-1.9499990940093994,0.19700077176094055,-0.43451887369155884,0.0,0.0,0.0
1759839020.725484,2,-1.9499990940093994,0.19700077176094055,-0.43447679286210494,0.0,True,0.011279106140136719,-1.9499990940093994,0.19700077176094055,-0.43451887369155884,0.0,0.0,0.0
1759839020.7364495,2,-1.9499990940093994,0.19700077176094055,-0.4344783714168017,0.0,True,0.010965585708618164,-1.9499990940093994,0.19700077176094055,-0.43451887369155884,0.0,0.0,0.0
1759839020.747168,2,-1.9499990940093994,0.19700077176094055,-0.4344801041493316,0.0,True,0.010718584060668945,-1.9499990940093994,0.19700077176094055,-0.43451887369155884,0.0,0.0,0.0
1759839020.7579134,2,-1.9499990940093994,0.19700077176094055,-0.43448168413429755,0.0,True,0.01074528694152832,-1.9499990940093994,0.19700077176094055,-0.43451887369155884,0.0,0.0,0.0
1759839020.7693079,2,-1.9499990940093994,0.19700077176094055,-0.434482659129646,0.0,True,0.011394500732421875,-1.9499990940093994,0.19700077176094055,-0.43451887369155884,0.0,0.0,0.0
1759839020.7801049,2,-1.9499990940093994,0.19700077176094055,-0.4344841249693161,0.0,True,0.01079702377319336,-1.9499990940093994,0.19700077176094055,-0.43451887369155884,0.0,0.0,0.0
1759839020.7912846,2,-1.9499990940093994,0.19700077176094055,-0.4344852528776624,0.0,True,0.011179685592651367,-1.9499990940093994,0.19700077176094055,-0.43451887369155884,0.0,0.0,0.0
1759839020.8056421,2,-1.9499990940093994,0.19700077176094055,-0.4344842671302729,0.0,True,0.014357566833496094,-1.9499990940093994,0.19700077176094055,-0.43451887369155884,0.0,0.0,0.0
1759839020.816265,2,-1.9499990940093994,0.19700077176094055,-0.4344863484666952,0.0,True,0.010622978210449219,-1.9499990940093994,0.19700077176094055,-0.43451887369155884,0.0,0.0,0.0
1759839020.8270178,2,-1.9499990940093994,0.19700077176094055,-0.4344881991466778,0.0,True,0.010752677917480469,-1.9499990940093994,0.19700077176094055,-0.43451887369155884,0.0,0.0,0.0
1759839020.8384647,2,-1.9499990940093994,0.19700077176094055,-0.43448936299132157,0.0,True,0.011446952819824219,-1.9499990940093994,0.19700077176094055,-0.43451887369155884,0.0,0.0,0.0
1759839020.8497136,2,-1.9499990940093994,0.19700077176094055,-0.4344905591888093,0.0,True,0.01124882698059082,-1.9499990940093994,0.19700077176094055,-0.43451887369155884,0.0,0.0,0.0
1759839020.859888,2,-1.9499990940093994,0.19700077176094055,-0.43449227212841635,0.0,True,0.01017451286315918,-1.9499990940093994,0.19700077176094055,-0.43451887369155884,0.0,0.0,0.0
1759839020.8702765,2,-1.9499990940093994,0.19700077176094055,-0.43449361846741574,0.0,True,0.010388374328613281,-1.9499990940093994,0.19700077176094055,-0.43451887369155884,0.0,0.0,0.0
1759839020.8815663,2,-1.9499990940093994,0.19700077176094055,-0.4344943051285597,0.0,True,0.011289834976196289,-1.9499990940093994,0.19700077176094055,-0.43451887369155884,0.0,0.0,0.0
1759839020.8924928,2,-1.9499990940093994,0.19700077176094055,-0.4344951763587197,0.0,True,0.010926485061645508,-1.9499990940093994,0.19700077176094055,-0.43451887369155884,0.0,0.0,0.0
1759839020.9029706,2,-1.9499990940093994,0.19700077176094055,-0.43449623890145617,0.0,True,0.010477781295776367,-1.9499990940093994,0.19700077176094055,-0.43451887369155884,0.0,0.0,0.0
1759839020.9143384,2,-1.9499990940093994,0.19700077176094055,-0.43449678867787256,0.0,True,0.0113677978515625,-1.9499990940093994,0.19700077176094055,-0.43451887369155884,0.0,0.0,0.0
1759839020.925578,2,-1.9499990940093994,0.19700077176094055,-0.43449742648910217,0.0,True,0.011239767074584961,-1.9499990940093994,0.19700077176094055,-0.43451887369155884,0.0,0.0,0.0
1759839020.936562,2,-1.9499990940093994,0.19700077176094055,-0.4344982022037289,0.0,True,0.010983943939208984,-1.9499990940093994,0.19700077176094055,-0.43451887369155884,0.0,0.0,0.0
1759839020.9476302,2,-1.9499990940093994,0.19700077176094055,-0.43449891821727427,0.0,True,0.011068105697631836,-1.9499990940093994,0.19700077176094055,-0.43451887369155884,0.0,0.0,0.0
1759839020.9585917,2,-1.9499990940093994,0.19700077176094055,-0.434499653355374,0.0,True,0.010961532592773438,-1.9499990940093994,0.19700077176094055,-0.43451887369155884,0.0,0.0,0.0
1759839020.9698575,2,-1.9499990940093994,0.19700077176094055,-0.43450023714122743,0.0,True,0.011265754699707031,-1.9499990940093994,0.19700077176094055,-0.43451887369155884,0.0,0.0,0.0
1759839020.9802969,2,-1.9499990940093994,0.19700077176094055,-0.4345011297443371,0.0,True,0.010439395904541016,-1.9499990940093994,0.19700077176094055,-0.43451887369155884,0.0,0.0,0.0
1759839020.9904473,2,-1.9499990940093994,0.19700077176094055,-0.43450203472752413,0.0,True,0.010150432586669922,-1.9499990940093994,0.19700077176094055,-0.43451887369155884,0.0,0.0,0.0
1759839021.004503,2,-1.9499990940093994,0.19700077176094055,-0.4345014658625477,0.0,True,0.014055728912353516,-1.9499990940093994,0.19700077176094055,-0.43451887369155884,0.0,0.0,0.0
1759839021.014495,2,-1.9499990940093994,0.19700077176094055,-0.4345025688881865,0.0,True,0.009991884231567383,-1.9499990940093994,0.19700077176094055,-0.43451887369155884,0.0,0.0,0.0
1759839021.025756,2,-1.9499990940093994,0.19700077176094055,-0.43450316492217134,0.0,True,0.011260986328125,-1.9499990940093994,0.19700077176094055,-0.43451887369155884,0.0,0.0,0.0
1759839021.0371242,2,-1.9499990940093994,0.19700077176094055,-0.43450367667973566,0.0,True,0.011368274688720703,-1.9499990940093994,0.19700077176094055,-0.43451887369155884,0.0,0.0,0.0
1759839021.0481784,2,-1.9499990940093994,0.19700077176094055,-0.4345042765041569,0.0,True,0.011054277420043945,-1.9499990940093994,0.19700077176094055,-0.43451887369155884,0.0,0.0,0.0
1759839021.0584877,2,-1.9499990940093994,0.19700077176094055,-0.4345050561665609,0.0,True,0.010309219360351562,-1.9499990940093994,0.19700077176094055,-0.43451887369155884,0.0,0.0,0.0
1759839021.06938,2,-1.9499990940093994,0.19700077176094055,-0.43450557043413696,0.0,True,0.010892391204833984,-1.9499990940093994,0.19700077176094055,-0.43451887369155884,0.0,0.0,0.0
1759839021.0802467,2,-1.9499990940093994,0.19700077176094055,-0.43450604768429457,0.0,True,0.010866641998291016,-1.9499990940093994,0.19700077176094055,-0.43451887369155884,0.0,0.0,0.0
1759839021.091282,2,-1.9499990940093994,0.19700077176094055,-0.43450645641240726,0.0,True,0.01103520393371582,-1.9499990940093994,0.19700077176094055,-0.43451887369155884,0.0,0.0,0.0
1759839021.10199,2,-1.9499990940093994,0.19700077176094055,-0.43450693985024635,0.0,True,0.010708093643188477,-1.9499990940093994,0.19700077176094055,-0.43451887369155884,0.0,0.0,0.0
1759839021.112861,2,-1.9499990940093994,0.19700077176094055,-0.43450735283818354,0.0,True,0.010870933532714844,-1.9499990940093994,0.19700077176094055,-0.43451887369155884,0.0,0.0,0.0
1759839021.1244268,2,-1.9499990940093994,0.19700077176094055,-0.43450758384826393,0.0,True,0.011565923690795898,-1.9499990940093994,0.19700077176094055,-0.43451887369155884,0.0,0.0,0.0
1759839021.1355278,2,-1.9499990940093994,0.19700077176094055,-0.4345079561497496,0.0,True,0.011101007461547852,-1.9499990940093994,0.19700077176094055,-0.43451887369155884,0.0,0.0,0.0
1759839021.146722,2,-1.9499990940093994,0.19700077176094055,-0.4345083104186216,0.0,True,0.011194229125976562,-1.9499990940093994,0.19700077176094055,-0.43451887369155884,0.0,0.0,0.0
1759839021.1579638,2,-1.9499990940093994,0.19700077176094055,-0.4345086511412095,0.0,True,0.011241674423217773,-1.9499990940093994,0.19700077176094055,-0.43451887369155884,0.0,0.0,0.0
1759839021.169202,2,-1.9499990940093994,0.19700077176094055,-0.43450899047858726,0.0,True,0.011238336563110352,-1.9499990940093994,0.19700077176094055,-0.43451887369155884,0.0,0.0,0.0
1759839021.1815305,2,-1.9499990940093994,0.19700077176094055,-0.4345091139934212,0.0,True,0.012328386306762695,-1.9499990940093994,0.19700077176094055,-0.43451887369155884,0.0,0.0,0.0
1759839021.1920621,2,-1.9499990940093994,0.19700077176094055,-0.4345096344417847,0.0,True,0.01053166389465332,-1.9499990940093994,0.19700077176094055,-0.43451887369155884,0.0,0.0,0.0
1759839021.2040167,2,-1.9499990940093994,0.19700077176094055,-0.43450984693627426,0.0,True,0.011954545974731445,-1.9499990940093994,0.19700077176094055,-0.43451887369155884,0.0,0.0,0.0
1759839021.215295,2,-1.9499990940093994,0.19700077176094055,-0.4345101929977453,0.0,True,0.011278390884399414,-1.9499990940093994,0.19700077176094055,-0.43451887369155884,0.0,0.0,0.0
1759839021.2253773,2,-1.9499990940093994,0.19700077176094055,-0.43451072900958465,0.0,True,0.010082244873046875,-1.9499990940093994,0.19700077176094055,-0.43451887369155884,0.0,0.0,0.0
1759839021.2361293,2,-1.9499990940093994,0.19700077176094055,-0.4345110743730256,0.0,True,0.010751962661743164,-1.9499990940093994,0.19700077176094055,-0.43451887369155884,0.0,0.0,0.0
1759839021.2463171,2,-1.9499990940093994,0.19700077176094055,-0.43451146586307665,0.0,True,0.010187864303588867,-1.9499990940093994,0.19700077176094055,-0.43451887369155884,0.0,0.0,0.0
1759839021.25714,2,-1.9499990940093994,0.19700077176094055,-0.4345117088502004,0.0,True,0.010822772979736328,-1.9499990940093994,0.19700077176094055,-0.43451887369155884,0.0,0.0,0.0
1759839021.2681308,2,-1.9499990940093994,0.19700077176094055,-0.43451191208954576,0.0,True,0.01099085807800293,-1.9499990940093994,0.19700077176094055,-0.43451887369155884,0.0,0.0,0.0
1759839021.2785323,2,-1.9499990940093994,0.19700077176094055,-0.4345122020920442,0.0,True,0.010401487350463867,-1.9499990940093994,0.19700077176094055,-0.43451887369155884,0.0,0.0,0.0
1759839021.2895417,2,-1.9499990940093994,0.19700077176094055,-0.43451238478244747,0.0,True,0.011009454727172852,-1.9499990940093994,0.19700077176094055,-0.43451887369155884,0.0,0.0,0.0
1759839021.3009343,2,-1.9499990940093994,0.19700077176094055,-0.43451251736178165,0.0,True,0.011392593383789062,-1.9499990940093994,0.19700077176094055,-0.43451887369155884,0.0,0.0,0.0
1759839021.3118558,2,-1.9499990940093994,0.19700077176094055,-0.43451273145885594,0.0,True,0.010921478271484375,-1.9499990940093994,0.19700077176094055,-0.43451887369155884,0.0,0.0,0.0
1759839021.3226385,2,-1.9499990940093994,0.19700077176094055,-0.43451296113943627,0.0,True,0.010782718658447266,-1.9499990940093994,0.19700077176094055,-0.43451887369155884,0.0,0.0,0.0
1759839021.3330462,2,-1.9499990940093994,0.19700077176094055,-0.43451322262068537,0.0,True,0.010407686233520508,-1.9499990940093994,0.19700077176094055,-0.43451887369155884,0.0,0.0,0.0
1759839021.343205,2,-1.9499990940093994,0.19700077176094055,-0.4345134863353586,0.0,True,0.010158777236938477,-1.9499990940093994,0.19700077176094055,-0.43451887369155884,0.0,0.0,0.0
1759839021.3547535,2,-1.9499990940093994,0.19700077176094055,-0.4345135606225021,0.0,True,0.011548519134521484,-1.9499990940093994,0.19700077176094055,-0.43451887369155884,0.0,0.0,0.0
1759839021.3648255,2,-1.9499990940093994,0.19700077176094055,-0.43451381636809394,0.0,True,0.010071992874145508,-1.9499990940093994,0.19700077176094055,-0.43451887369155884,0.0,0.0,0.0
1759839021.3756819,2,-1.9499990940093994,0.19700077176094055,-0.4345139658560484,0.0,True,0.010856389999389648,-1.9499990940093994,0.19700077176094055,-0.43451887369155884,0.0,0.0,0.0
1759839021.3871527,2,-1.9499990940093994,0.19700077176094055,-0.43451404805502847,0.0,True,0.011470794677734375,-1.9499990940093994,0.19700077176094055,-0.43451887369155884,0.0,0.0,0.0
1759839021.3978376,2,-1.9499990940093994,0.19700077176094055,-0.43451422770849035,0.0,True,0.010684967041015625,-1.9499990940093994,0.19700077176094055,-0.43451887369155884,0.0,0.0,0.0
1759839021.413965,2,-1.9499990940093994,0.19700077176094055,-0.43451389374121874,0.0,True,0.016127347946166992,-1.9499990940093994,0.19700077176094055,-0.43451887369155884,0.0,0.0,0.0
1759839021.4240682,2,-1.9499990940093994,0.19700077176094055,-0.4345142526679471,0.0,True,0.010103225708007812,-1.9499990940093994,0.19700077176094055,-0.43451887369155884,0.0,0.0,0.0
1759839021.4343793,2,-1.9499990940093994,0.19700077176094055,-0.4345145630583005,0.0,True,0.010311126708984375,-1.9499990940093994,0.19700077176094055,-0.43451887369155884,0.0,0.0,0.0
1759839021.4457326,2,-1.9499990940093994,0.19700077176094055,-0.43451472772406063,0.0,True,0.011353254318237305,-1.9499990940093994,0.19700077176094055,-0.43451887369155884,0.0,0.0,0.0
1759839021.4569204,2,-1.9499990940093994,0.19700077176094055,-0.43451488931247617,0.0,True,0.01118779182434082,-1.9499990940093994,0.19700077176094055,-0.43451887369155884,0.0,0.0,0.0
1759839021.467981,2,-1.9499990940093994,0.19700077176094055,-0.4345150508846878,0.0,True,0.011060714721679688,-1.9499990940093994,0.19700077176094055,-0.43451887369155884,0.0,0.0,0.0
1759839021.479148,2,-1.9499990940093994,0.19700077176094055,-0.4345151926104478,0.0,True,0.011166810989379883,-1.9499990940093994,0.19700077176094055,-0.43451887369155884,0.0,0.0,0.0
1759839021.4905045,2,-1.9499990940093994,0.19700077176094055,-0.4345153126999559,0.0,True,0.011356592178344727,-1.9499990940093994,0.19700077176094055,-0.43451887369155884,0.0,0.0,0.0
1759839021.5007176,2,-1.9499990940093994,0.19700077176094055,-0.434515510717544,0.0,True,0.010213136672973633,-1.9499990940093994,0.19700077176094055,-0.43451887369155884,0.0,0.0,0.0
1759839021.5158808,2,-1.9499990940093994,0.19700077176094055,-0.4345153510436326,0.0,True,0.015163183212280273,-1.9499990940093994,0.19700077176094055,-0.43451887369155884,0.0,0.0,0.0
1759839021.5274966,2,-1.9499990940093994,0.19700077176094055,-0.4345155001745624,0.0,True,0.011615753173828125,-1.9499990940093994,0.19700077176094055,-0.43451887369155884,0.0,0.0,0.0
1759839021.5377343,2,-1.9499990940093994,0.19700077176094055,-0.43451574101009705,0.0,True,0.010237693786621094,-1.9499990940093994,0.19700077176094055,-0.43451887369155884,0.0,0.0,0.0
1759839021.5485377,2,-1.9499990940093994,0.19700077176094055,-0.43451590739360135,0.0,True,0.010803461074829102,-1.9499990940093994,0.19700077176094055,-0.43451887369155884,0.0,0.0,0.0
1759839021.5588868,2,-1.9499990940093994,0.19700077176094055,-0.43451607305631335,0.0,True,0.010349035263061523,-1.9499990940093994,0.19700077176094055,-0.43451887369155884,0.0,0.0,0.0
1759839021.5697708,2,-1.9499990940093994,0.19700077176094055,-0.4345161832661031,0.0,True,0.01088404655456543,-1.9499990940093994,0.19700077176094055,-0.43451887369155884,0.0,0.0,0.0
1759839021.5803235,2,-1.9499990940093994,0.19700077176094055,-0.43451630012153686,0.0,True,0.010552644729614258,-1.9499990940093994,0.19700077176094055,-0.43451887369155884,0.0,0.0,0.0
1759839021.5915594,2,-1.9499990940093994,0.19700077176094055,-0.43451636942186944,0.0,True,0.011235952377319336,-1.9499990940093994,0.19700077176094055,-0.43451887369155884,0.0,0.0,0.0
1759839021.6017475,2,-1.9499990940093994,0.19700077176094055,-0.4345164924886795,0.0,True,0.010188102722167969,-1.9499990940093994,0.19700077176094055,-0.43451887369155884,0.0,0.0,0.0
1759839021.6161978,2,-1.9499990940093994,0.19700077176094055,-0.43451639475341963,0.0,True,0.014450311660766602,-1.9499990940093994,0.19700077176094055,-0.43451887369155884,0.0,0.0,0.0
1759839021.6264248,2,-1.9499990940093994,0.19700077176094055,-0.4345165452774502,0.0,True,0.010226964950561523,-1.9499990940093994,0.19700077176094055,-0.43451887369155884,0.0,0.0,0.0
1759839021.63786,2,-1.9499990940093994,0.19700077176094055,-0.4345166299854881,0.0,True,0.011435270309448242,-1.9499990940093994,0.19700077176094055,-0.43451887369155884,0.0,0.0,0.0
1759839021.6486619,2,-1.9499990940093994,0.19700077176094055,-0.4345167354427062,0.0,True,0.01080179214477539,-1.9499990940093994,0.19700077176094055,-0.43451887369155884,0.0,0.0,0.0
1759839021.6590507,2,-1.9499990940093994,0.19700077176094055,-0.4345168474311283,0.0,True,0.010388851165771484,-1.9499990940093994,0.19700077176094055,-0.43451887369155884,0.0,0.0,0.0
1759839021.669262,2,-1.9499990940093994,0.19700077176094055,-0.4345169510906519,0.0,True,0.01021122932434082,-1.9499990940093994,0.19700077176094055,-0.43451887369155884,0.0,0.0,0.0
1759839021.6804857,2,-1.9499990940093994,0.19700077176094055,-0.4345169995550897,0.0,True,0.011223793029785156,-1.9499990940093994,0.19700077176094055,-0.43451887369155884,0.0,0.0,0.0
1759839021.6915863,2,-1.9499990940093994,0.19700077176094055,-0.4345170531861484,0.0,True,0.011100530624389648,-1.9499990940093994,0.19700077176094055,-0.43451887369155884,0.0,0.0,0.0
1759839021.7025895,2,-1.9499990940093994,0.19700077176094055,-0.43451711199888265,0.0,True,0.011003255844116211,-1.9499990940093994,0.19700077176094055,-0.43451887369155884,0.0,0.0,0.0
1759839021.7130198,2,-1.9499990940093994,0.19700077176094055,-0.43451719048884385,0.0,True,0.010430335998535156,-1.9499990940093994,0.19700077176094055,-0.43451887369155884,0.0,0.0,0.0
1759839021.723167,2,-1.9499990940093994,0.19700077176094055,-0.4345172711195495,0.0,True,0.0101470947265625,-1.9499990940093994,0.19700077176094055,-0.43451887369155884,0.0,0.0,0.0
1759839021.7342389,2,-1.9499990940093994,0.19700077176094055,-0.4345173103444768,0.0,True,0.011071920394897461,-1.9499990940093994,0.19700077176094055,-0.43451887369155884,0.0,0.0,0.0
1759839021.7444675,2,-1.9499990940093994,0.19700077176094055,-0.43451737756812747,0.0,True,0.010228633880615234,-1.9499990940093994,0.19700077176094055,-0.43451887369155884,0.0,0.0,0.0
1759839021.7553022,2,-1.9499990940093994,0.19700077176094055,-0.43451742006498506,0.0,True,0.010834693908691406,-1.9499990940093994,0.19700077176094055,-0.43451887369155884,0.0,0.0,0.0
1759839021.7657163,2,-1.9499990940093994,0.19700077176094055,-0.43451747460036927,0.0,True,0.01041412353515625,-1.9499990940093994,0.19700077176094055,-0.43451887369155884,0.0,0.0,0.0
1759839021.7773035,2,-1.9499990940093994,0.19700077176094055,-0.4345174914382781,0.0,True,0.011587142944335938,-1.9499990940093994,0.19700077176094055,-0.43451887369155884,0.0,0.0,0.0
1759839021.788684,2,-1.9499990940093994,0.19700077176094055,-0.43451752107163166,0.0,True,0.011380434036254883,-1.9499990940093994,0.19700077176094055,-0.43451887369155884,0.0,0.0,0.0
1759839021.7990668,2,-1.9499990940093994,0.19700077176094055,-0.4345175832018562,0.0,True,0.010382890701293945,-1.9499990940093994,0.19700077176094055,-0.43451887369155884,0.0,0.0,0.0
1759839021.8158243,2,-1.9499990940093994,0.19700077176094055,-0.4345174746368059,0.0,True,0.016757488250732422,-1.9499990940093994,0.19700077176094055,-0.43451887369155884,0.0,0.0,0.0
1759839021.8262022,2,-1.9499990940093994,0.19700077176094055,-0.4345175717469001,0.0,True,0.010377883911132812,-1.9499990940093994,0.19700077176094055,-0.43451887369155884,0.0,0.0,0.0
1759839021.8370173,2,-1.9499990940093994,0.19700077176094055,-0.43451765191328384,0.0,True,0.010815143585205078,-1.9499990940093994,0.19700077176094055,-0.43451887369155884,0.0,0.0,0.0
1759839021.8486037,2,-1.9499990940093994,0.19700077176094055,-0.4345177005159968,0.0,True,0.011586427688598633,-1.9499990940093994,0.19700077176094055,-0.43451887369155884,0.0,0.0,0.0
1759839021.8592377,2,-1.9499990940093994,0.19700077176094055,-0.43451776583231627,0.0,True,0.01063394546508789,-1.9499990940093994,0.19700077176094055,-0.43451887369155884,0.0,0.0,0.0
1759839021.8697634,2,-1.9499990940093994,0.19700077176094055,-0.43451782476633305,0.0,True,0.010525703430175781,-1.9499990940093994,0.19700077176094055,-0.43451887369155884,0.0,0.0,0.0
1759839021.8813007,2,-1.9499990940093994,0.19700077176094055,-0.4345178539383241,0.0,True,0.011537313461303711,-1.9499990940093994,0.19700077176094055,-0.43451887369155884,0.0,0.0,0.0
1759839021.8922138,2,-1.9499990940093994,0.19700077176094055,-0.4345178954818838,0.0,True,0.01091313362121582,-1.9499990940093994,0.19700077176094055,-0.43451887369155884,0.0,0.0,0.0
1759839021.9026866,2,-1.9499990940093994,0.19700077176094055,-0.43451794292887946,0.0,True,0.010472774505615234,-1.9499990940093994,0.19700077176094055,-0.43451887369155884,0.0,0.0,0.0
1759839021.9140806,2,-1.9499990940093994,0.19700077176094055,-0.4345179674115691,0.0,True,0.011394023895263672,-1.9499990940093994,0.19700077176094055,-0.43451887369155884,0.0,0.0,0.0
1759839021.925056,2,-1.9499990940093994,0.19700077176094055,-0.43451799980975103,0.0,True,0.010975360870361328,-1.9499990940093994,0.19700077176094055,-0.43451887369155884,0.0,0.0,0.0
1759839021.9364517,2,-1.9499990940093994,0.19700077176094055,-0.43451802383724214,0.0,True,0.011395692825317383,-1.9499990940093994,0.19700077176094055,-0.43451887369155884,0.0,0.0,0.0
1759839021.9469392,2,-1.9499990940093994,0.19700077176094055,-0.43451806393098913,0.0,True,0.010487556457519531,-1.9499990940093994,0.19700077176094055,-0.43451887369155884,0.0,0.0,0.0
1759839021.9582179,2,-1.9499990940093994,0.19700077176094055,-0.4345180871703427,0.0,True,0.011278629302978516,-1.9499990940093994,0.19700077176094055,-0.43451887369155884,0.0,0.0,0.0
1759839021.968269,2,-1.9499990940093994,0.19700077176094055,-0.4345181295215603,0.0,True,0.010051250457763672,-1.9499990940093994,0.19700077176094055,-0.43451887369155884,0.0,0.0,0.0
1759839021.9795794,2,-1.9499990940093994,0.19700077176094055,-0.4345181472406132,0.0,True,0.011310338973999023,-1.9499990940093994,0.19700077176094055,-0.43451887369155884,0.0,0.0,0.0
1759839021.990586,2,-1.9499990940093994,0.19700077176094055,-0.4345181698572027,0.0,True,0.011006593704223633,-1.9499990940093994,0.19700077176094055,-0.43451887369155884,0.0,0.0,0.0
1759839022.0018954,2,-1.9499990940093994,0.19700077176094055,-0.43451818833573874,0.0,True,0.011309385299682617,-1.9499990940093994,0.19700077176094055,-0.43451887369155884,0.0,0.0,0.0
1759839022.0157275,2,-1.9499990940093994,0.19700077176094055,-0.4345181735192849,0.0,True,0.01383209228515625,-1.9499990940093994,0.19700077176094055,-0.43451887369155884,0.0,0.6,0.0
1759839022.0264242,2,-1.9499990940093994,0.19700077176094055,-0.4345182115551829,0.0,True,0.010696649551391602,-1.9499990940093994,0.19700077176094055,-0.43451887369155884,0.0,0.6,0.0
1759839022.0367048,2,-1.9499990940093994,0.19700077176094055,-0.4345182524129818,0.0,True,0.010280609130859375,-1.9499990940093994,0.19700077176094055,-0.43451887369155884,0.0,0.6,0.0
1759839022.047028,2,-1.9499990940093994,0.19700077176094055,-0.43451828598443853,0.0,True,0.010323286056518555,-1.9499990940093994,0.19700077176094055,-0.43451887369155884,0.0,0.6,0.0
1759839022.0573764,2,-1.9499990940093994,0.19700077176094055,-0.4345183138624211,0.0,True,0.010348320007324219,-1.9499990940093994,0.19700077176094055,-0.43451887369155884,0.0,0.6,0.0
1759839022.0675862,2,-1.9499990940093994,0.19700077176094055,-0.43451833951525565,0.0,True,0.010209798812866211,-1.9499990940093994,0.19700077176094055,-0.43451887369155884,0.0,0.6,0.0
1759839022.0782888,2,-1.9499990940093994,0.19700077176094055,-0.43451835639954517,0.0,True,0.01070261001586914,-1.9499990940093994,0.19700077176094055,-0.43451887369155884,0.0,0.6,0.0
1759839022.0888667,2,-1.9499990940093994,0.19700077176094055,-0.43451837376188784,0.0,True,0.010577917098999023,-1.9499990940093994,0.19700077176094055,-0.43451887369155884,0.0,0.6,0.0
1759839022.1003048,2,-1.9499990940093994,0.19700077176094055,-0.43451838144022226,0.0,True,0.011438131332397461,-1.9499990940093994,0.19700077176094055,-0.43451887369155884,0.0,0.6,0.0
1759839022.111328,2,-1.9499990940093994,0.19700077176094055,-0.43451839536966474,0.0,True,0.01102304458618164,-1.9499990940093994,0.19700077176094055,-0.43451887369155884,0.0,0.6,0.0
1759839022.1218798,2,-1.9499990940093994,0.19700077176094055,-0.43451841461503804,0.0,True,0.010551929473876953,-1.9499990940093994,0.19700077176094055,-0.43451887369155884,0.0,0.6,0.0
1759839022.1333537,2,-1.9499990940093994,0.19700077176094055,-0.43451842384411243,0.0,True,0.011473894119262695,-1.9499990940093994,0.19700077176094055,-0.43451887369155884,0.0,0.6,0.0
1759839022.1441095,2,-1.9499990940093994,0.19700077176094055,-0.43451844079020674,0.0,True,0.010755777359008789,-1.9499990940093994,0.19700077176094055,-0.43451887369155884,0.0,0.6,0.0
1759839022.1544077,2,-1.9499990940093994,0.19700077176094055,-0.43451846109909553,0.0,True,0.01029825210571289,-1.9499990940093994,0.19700077176094055,-0.43451887369155884,0.0,0.6,0.0
1759839022.1654804,2,-1.9499990940093994,0.19700077176094055,-0.4345184725142168,0.0,True,0.011072635650634766,-1.9499990940093994,0.19700077176094055,-0.43451887369155884,0.0,0.6,0.0
1759839022.1757627,2,-1.9499990940093994,0.19700077176094055,-0.43451849033764134,0.0,True,0.010282278060913086,-1.9499990940093994,0.19700077176094055,-0.43451887369155884,0.0,0.6,0.0
1759839022.186174,2,-1.9499990940093994,0.19700077176094055,-0.434518505479879,0.0,True,0.010411262512207031,-1.9499990940093994,0.19700077176094055,-0.43451887369155884,0.0,0.6,0.0
1759839022.1964426,2,-1.9499990940093994,0.19700077176094055,-0.43451852027628846,0.0,True,0.010268688201904297,-1.9499990940093994,0.19700077176094055,-0.43451887369155884,0.0,0.6,0.0
1759839022.2064822,2,-1.9499990940093994,0.19700077176094055,-0.4345185353919163,0.0,True,0.010039567947387695,-1.9499990940093994,0.19700077176094055,-0.43451887369155884,0.0,0.6,0.0
1759839022.219492,2,-1.9499990940093994,0.19700077176094055,-0.43451852742078856,0.0,True,0.013009786605834961,-1.9499990940093994,0.19700077176094055,-0.43451887369155884,0.0,0.6,0.0
1759839022.2295043,2,-1.9499990940093994,0.19700077176094055,-0.43451854549223334,0.0,True,0.010012388229370117,-1.9499990940093994,0.19700077176094055,-0.43451887369155884,0.0,0.6,0.0
1759839022.2408078,2,-1.9499990940093994,0.19700077176094055,-0.4345185537149341,0.0,True,0.011303424835205078,-1.9499990940093994,0.19700077176094055,-0.43451887369155884,0.0,0.6,0.0
1759839022.2511203,2,-1.9499990940093994,0.19700077176094055,-0.43451856851280724,0.0,True,0.010312557220458984,-1.9499990940093994,0.19700077176094055,-0.43451887369155884,0.0,0.6,0.0
1759839022.2622502,2,-1.9499990940093994,0.19700077176094055,-0.43451857679448835,0.0,True,0.01112985610961914,-1.9499990940093994,0.19700077176094055,-0.43451887369155884,0.0,0.6,0.0
1759839022.2737532,2,-1.9499990940093994,0.19700077176094055,-0.4345185828664526,0.0,True,0.011502981185913086,-1.9499990940093994,0.19700077176094055,-0.43451887369155884,0.0,0.6,0.0
1759839022.2849092,2,-1.9499990940093994,0.19700077176094055,-0.4345185919886738,0.0,True,0.011156082153320312,-1.9499990940093994,0.19700077176094055,-0.43451887369155884,0.0,0.6,0.0
1759839022.2950432,2,-1.9499990940093994,0.19700077176094055,-0.4345186070485827,0.0,True,0.010133981704711914,-1.9499990940093994,0.19700077176094055,-0.43451887369155884,0.0,0.6,0.0
1759839022.3061032,2,-1.9499990940093994,0.19700077176094055,-0.4345186151624567,0.0,True,0.011059999465942383,-1.9499990940093994,0.19700077176094055,-0.43451887369155884,0.0,0.6,0.0
1759839022.3173776,2,-1.9499990940093994,0.19700077176094055,-0.4345186218195778,0.0,True,0.011274337768554688,-1.9499990940093994,0.19700077176094055,-0.43451887369155884,0.0,0.6,0.0
1759839022.328189,2,-1.9499990940093994,0.19700077176094055,-0.434518631242236,0.0,True,0.010811328887939453,-1.9499990940093994,0.19700077176094055,-0.43451887369155884,0.0,0.6,0.0
1759839022.338666,2,-1.9499990940093994,0.19700077176094055,-0.4345186418985012,0.0,True,0.010477066040039062,-1.9499990940093994,0.19700077176094055,-0.43451887369155884,0.0,0.6,0.0
1759839022.3494225,2,-1.9499990940093994,0.19700077176094055,-0.4345186501758853,0.0,True,0.010756492614746094,-1.9499990940093994,0.19700077176094055,-0.43451887369155884,0.0,0.6,0.0
1759839022.3604887,2,-1.9499990940093994,0.19700077176094055,-0.43451865648973964,0.0,True,0.011066198348999023,-1.9499990940093994,0.19700077176094055,-0.43451887369155884,0.0,0.6,0.0
1759839022.3708918,2,-1.9499990940093994,0.19700077176094055,-0.43451866582771004,0.0,True,0.010403156280517578,-1.9499990940093994,0.19700077176094055,-0.43451887369155884,0.0,0.6,0.0
1759839022.3820317,2,-1.9499990940093994,0.19700077176094055,-0.43451867122394816,0.0,True,0.011139869689941406,-1.9499990940093994,0.19700077176094055,-0.43451887369155884,0.0,0.6,0.0
1759839022.3932242,2,-1.9499990940093994,0.19700077176094055,-0.4345186765357525,0.0,True,0.011192560195922852,-1.9499990940093994,0.19700077176094055,-0.43451887369155884,0.0,0.6,0.0
1759839022.4041805,2,-1.9499990940093994,0.19700077176094055,-0.4345186831285126,0.0,True,0.010956287384033203,-1.9499990940093994,0.19700077176094055,-0.43451887369155884,0.0,0.6,0.0
1759839022.4201958,2,-1.9499990940093994,0.19700077176094055,-0.4345186704722259,0.0,True,0.016015291213989258,-1.9499990940093994,0.19700077176094055,-0.43451887369155884,0.0,0.6,0.0
1759839022.4276822,2,-1.9499990940093994,0.19700077176094055,-0.4345186949101265,0.0,True,0.0074863433837890625,-1.9499990940093994,0.19700077176094055,-0.43451887369155884,0.0,0.6,0.0
1759839022.4379945,2,-1.9499990940093994,0.19700077176094055,-0.43451870503019485,0.0,True,0.010312318801879883,-1.9499990940093994,0.19700077176094055,-0.43451887369155884,0.0,0.6,0.0
1759839022.4489105,2,-1.9499990940093994,0.19700077176094055,-0.43451871069322223,0.0,True,0.010915994644165039,-1.9499990940093994,0.19700077176094055,-0.43451887369155884,0.0,0.6,0.0
1759839022.4599214,2,-1.9499990940093994,0.19700077176094055,-0.4345187156241277,0.0,True,0.011010885238647461,-1.9499990940093994,0.19700077176094055,-0.43451887369155884,0.0,0.6,0.0
1759839022.4701993,2,-1.9499990940093994,0.19700077176094055,-0.4345187228983889,0.0,True,0.010277986526489258,-1.9499990940093994,0.19700077176094055,-0.43451887369155884,0.0,0.6,0.0
1759839022.4803429,2,-1.9499990940093994,0.19700077176094055,-0.43451872985345474,0.0,True,0.010143518447875977,-1.9499990940093994,0.19700077176094055,-0.43451887369155884,0.0,0.6,0.0
1759839022.4913337,2,-1.9499990940093994,0.19700077176094055,-0.4345187333714229,0.0,True,0.01099085807800293,-1.9499990940093994,0.19700077176094055,-0.43451887369155884,0.0,0.6,0.0
1759839022.5024672,2,-1.9499990940093994,0.19700077176094055,-0.4345187365578873,0.0,True,0.011133432388305664,-1.9499990940093994,0.19700077176094055,-0.43451887369155884,0.0,0.6,0.0
1759839022.5127046,2,-1.9499990940093994,0.19700077176094055,-0.43451874262360235,0.0,True,0.010237455368041992,-1.9499990940093994,0.19700077176094055,-0.43451887369155884,0.0,0.6,0.0
1759839022.5250142,2,-1.9499990940093994,0.19700077176094055,-0.43451874253440437,0.0,True,0.012309551239013672,-1.9499990940093994,0.19700077176094055,-0.43451887369155884,0.0,0.6,0.0
1759839022.5351377,2,-1.9499990940093994,0.19700077176094055,-0.4345187493181264,0.0,True,0.010123491287231445,-1.9499990940093994,0.19700077176094055,-0.43451887369155884,0.0,0.6,0.0
1759839022.546011,2,-1.9499990940093994,0.19700077176094055,-0.4345187536152313,0.0,True,0.01087331771850586,-1.9499990940093994,0.19700077176094055,-0.43451887369155884,0.0,0.6,0.0
1759839022.5568898,2,-1.9499990940093994,0.19700077176094055,-0.43451875759953396,0.0,True,0.010878801345825195,-1.9499990940093994,0.19700077176094055,-0.43451887369155884,0.0,0.6,0.0
1759839022.5670917,2,-1.9499990940093994,0.19700077176094055,-0.4345187630682048,0.0,True,0.01020193099975586,-1.9499990940093994,0.19700077176094055,-0.43451887369155884,0.0,0.6,0.0
1759839022.5782363,2,-1.9499990940093994,0.19700077176094055,-0.43451876577213966,0.0,True,0.011144638061523438,-1.9499990940093994,0.19700077176094055,-0.43451887369155884,0.0,0.6,0.0
1759839022.5888324,2,-1.9499990940093994,0.19700077176094055,-0.4345187697736037,0.0,True,0.010596036911010742,-1.9499990940093994,0.19700077176094055,-0.43451887369155884,0.0,0.6,0.0
1759839022.5997121,2,-1.9499990940093994,0.19700077176094055,-0.43451877298522845,0.0,True,0.010879755020141602,-1.9499990940093994,0.19700077176094055,-0.43451887369155884,0.0,0.6,0.0
1759839022.6104577,2,-1.9499990940093994,0.19700077176094055,-0.434518776415997,0.0,True,0.010745525360107422,-1.9499990940093994,0.19700077176094055,-0.43451887369155884,0.0,0.6,0.0
1759839022.6252773,2,-1.9499990940093994,0.19700077176094055,-0.43451877167801634,0.0,True,0.014819622039794922,-1.9499990940093994,0.19700077176094055,-0.43451887369155884,0.0,0.6,0.0
1759839022.6332722,2,-1.9499990940093994,0.19700077176094055,-0.43451878237760333,0.0,True,0.007994890213012695,-1.9499990940093994,0.19700077176094055,-0.43451887369155884,0.0,0.6,0.0
1759839022.644231,2,-1.9499990940093994,0.19700077176094055,-0.4345187857991437,0.0,True,0.01095890998840332,-1.9499990940093994,0.19700077176094055,-0.43451887369155884,0.0,0.6,0.0
1759839022.6550424,2,-1.9499990940093994,0.19700077176094055,-0.4345187888813786,0.0,True,0.010811328887939453,-1.9499990940093994,0.19700077176094055,-0.43451887369155884,0.0,0.6,0.0
1759839022.6652973,2,-1.9499990940093994,0.19700077176094055,-0.4345187927747034,0.0,True,0.010254859924316406,-1.9499990940093994,0.19700077176094055,-0.43451887369155884,0.0,0.6,0.0
1759839022.6756883,2,-1.9499990940093994,0.19700077176094055,-0.43451879601989596,0.0,True,0.010390996932983398,-1.9499990940093994,0.19700077176094055,-0.43451887369155884,0.0,0.6,0.0
1759839022.6859045,2,-1.9499990940093994,0.19700077176094055,-0.43451879922512404,0.0,True,0.010216236114501953,-1.9499990940093994,0.19700077176094055,-0.43451887369155884,0.0,0.6,0.0
1759839022.6985052,2,-1.9499990940093994,0.19700077176094055,-0.434518798367872,0.0,True,0.01260066032409668,-1.9499990940093994,0.19700077176094055,-0.43451887369155884,0.0,0.6,0.0
1759839022.7094927,2,-1.9499990940093994,0.19700077176094055,-0.43451880084743166,0.0,True,0.010987520217895508,-1.9499990940093994,0.19700077176094055,-0.43451887369155884,0.0,0.6,0.0
1759839022.7204258,2,-1.9499990940093994,0.19700077176094055,-0.4345188035500911,0.0,True,0.010933160781860352,-1.9499990940093994,0.19700077176094055,-0.43451887369155884,0.0,0.6,0.0
1759839022.730583,2,-1.9499990940093994,0.19700077176094055,-0.43451880721352154,0.0,True,0.010157108306884766,-1.9499990940093994,0.19700077176094055,-0.43451887369155884,0.0,0.6,0.0
1759839022.7407086,2,-1.9499990940093994,0.19700077176094055,-0.43451881044632046,0.0,True,0.01012563705444336,-1.9499990940093994,0.19700077176094055,-0.43451887369155884,0.0,0.6,0.0
1759839022.752136,2,-1.9499990940093994,0.19700077176094055,-0.4345188115058676,0.0,True,0.01142740249633789,-1.9499990940093994,0.19700077176094055,-0.43451887369155884,0.0,0.6,0.0
1759839022.7636619,2,-1.9499990940093994,0.19700077176094055,-0.4345188126288466,0.0,True,0.011525869369506836,-1.9499990940093994,0.19700077176094055,-0.43451887369155884,0.0,0.6,0.0
1759839022.7739716,2,-1.9499990940093994,0.19700077176094055,-0.434518815536002,0.0,True,0.010309696197509766,-1.9499990940093994,0.19700077176094055,-0.43451887369155884,0.0,0.6,0.0
1759839022.7852852,2,-1.9499990940093994,0.19700077176094055,-0.4345188169906642,0.0,True,0.011313676834106445,-1.9499990940093994,0.19700077176094055,-0.43451887369155884,0.0,0.6,0.0
1759839022.7964525,2,-1.9499990940093994,0.19700077176094055,-0.43451881866081266,0.0,True,0.011167287826538086,-1.9499990940093994,0.19700077176094055,-0.43451887369155884,0.0,0.6,0.0
1759839022.8071556,2,-1.9499990940093994,0.19700077176094055,-0.434518820893965,0.0,True,0.010703086853027344,-1.9499990940093994,0.19700077176094055,-0.43451887369155884,0.0,0.6,0.0
1759839022.8175724,2,-1.9499990940093994,0.19700077176094055,-0.4345188232818309,0.0,True,0.010416746139526367,-1.9499990940093994,0.19700077176094055,-0.43451887369155884,0.0,0.6,0.0
1759839022.834556,2,-1.9499990940093994,0.19700077176094055,-0.4345188187364748,0.0,True,0.016983747482299805,-1.9499990940093994,0.19700077176094055,-0.43451887369155884,0.0,0.6,0.0
1759839022.8458357,2,-1.9499990940093994,0.19700077176094055,-0.4345188217024294,0.0,True,0.011279582977294922,-1.9499990940093994,0.19700077176094055,-0.43451887369155884,0.0,0.6,0.0
1759839022.8563066,2,-1.9499990940093994,0.19700077176094055,-0.4345188254559673,0.0,True,0.010470867156982422,-1.9499990940093994,0.19700077176094055,-0.43451887369155884,0.0,0.6,0.0
1759839022.866712,2,-1.9499990940093994,0.19700077176094055,-0.4345188286053734,0.0,True,0.010405540466308594,-1.9499990940093994,0.19700077176094055,-0.43451887369155884,0.0,0.6,0.0
1759839022.878004,2,-1.9499990940093994,0.19700077176094055,-0.4345188303958878,0.0,True,0.011291980743408203,-1.9499990940093994,0.19700077176094055,-0.43451887369155884,0.0,0.6,0.0
1759839022.8895888,2,-1.9499990940093994,0.19700077176094055,-0.434518831753012,0.0,True,0.011584758758544922,-1.9499990940093994,0.19700077176094055,-0.43451887369155884,0.0,0.6,0.0
1759839022.9004505,2,-1.9499990940093994,0.19700077176094055,-0.43451883369160704,0.0,True,0.010861635208129883,-1.9499990940093994,0.19700077176094055,-0.43451887369155884,0.0,0.6,0.0
1759839022.9111617,2,-1.9499990940093994,0.19700077176094055,-0.4345188355706462,0.0,True,0.010711193084716797,-1.9499990940093994,0.19700077176094055,-0.43451887369155884,0.0,0.6,0.0
1759839022.9220426,2,-1.9499990940093994,0.19700077176094055,-0.4345188371012245,0.0,True,0.01088094711303711,-1.9499990940093994,0.19700077176094055,-0.43451887369155884,0.0,0.6,0.0
1759839022.9326136,2,-1.9499990940093994,0.19700077176094055,-0.43451883872036134,0.0,True,0.010571002960205078,-1.9499990940093994,0.19700077176094055,-0.43451887369155884,0.0,0.6,0.0
1759839022.94289,2,-1.9499990940093994,0.19700077176094055,-0.43451884038076827,0.0,True,0.010276317596435547,-1.9499990940093994,0.19700077176094055,-0.43451887369155884,0.0,0.6,0.0
1759839022.9537778,2,-1.9499990940093994,0.19700077176094055,-0.4345188414119594,0.0,True,0.010887861251831055,-1.9499990940093994,0.19700077176094055,-0.43451887369155884,0.0,0.6,0.0
1759839022.9644876,2,-1.9499990940093994,0.19700077176094055,-0.4345188425166846,0.0,True,0.010709762573242188,-1.9499990940093994,0.19700077176094055,-0.43451887369155884,0.0,0.6,0.0
1759839022.9753683,2,-1.9499990940093994,0.19700077176094055,-0.4345188434683962,0.0,True,0.010880708694458008,-1.9499990940093994,0.19700077176094055,-0.43451887369155884,0.0,0.6,0.0
1759839022.9862864,2,-1.9499990940093994,0.19700077176094055,-0.43451884438444566,0.0,True,0.010918140411376953,-1.9499990940093994,0.19700077176094055,-0.43451887369155884,0.0,0.6,0.0
1759839022.9974597,2,-1.9499990940093994,0.19700077176094055,-0.4345188451458242,0.0,True,0.011173248291015625,-1.9499990940093994,0.19700077176094055,-0.43451887369155884,0.0,0.6,0.0
1759839023.009396,2,-1.9499990940093994,0.19700077176094055,-0.43451884550751174,0.0,True,0.011936426162719727,-1.9499990940093994,0.19700077176094055,-0.43451887369155884,0.0,0.6,0.0
1759839023.020954,2,-1.9499990940093994,0.19700077176094055,-0.43451884625130077,0.0,True,0.011557817459106445,-1.9499990940093994,0.19700077176094055,-0.43451887369155884,0.0,0.6,0.0
1759839023.0390751,2,-1.9499990940093994,0.19700077176094055,-0.4345188436424259,0.0,True,0.01812124252319336,-1.9499990940093994,0.19700077176094055,-0.43451887369155884,0.0,0.6,0.0
1759839023.049178,2,-1.9499990940093994,0.19700077176094055,-0.43451884623553383,0.0,True,0.01010274887084961,-1.9499990940093994,0.19700077176094055,-0.43451887369155884,0.0,0.6,0.0
1759839023.0601196,2,-1.9499990940093994,0.19700077176094055,-0.43451884815154074,0.0,True,0.010941743850708008,-1.9499990940093994,0.19700077176094055,-0.43451887369155884,0.0,0.6,0.0
1759839023.071216,2,-1.9499990940093994,0.19700077176094055,-0.4345188496157384,0.0,True,0.011096477508544922,-1.9499990940093994,0.19700077176094055,-0.43451887369155884,0.0,0.0,0.0
1759839023.0845122,2,-1.9499990940093994,0.19700077176094055,-0.43451884986029654,0.0,True,0.013296127319335938,-1.9499990940093994,0.19700077176094055,-0.43451887369155884,0.0,0.0,0.0
1759839023.09528,2,-1.9499990940093994,0.19700077176094055,-0.434518851342812,0.0,True,0.010767698287963867,-1.9499990940093994,0.19700077176094055,-0.43451887369155884,0.0,0.0,0.0
1759839023.1063597,2,-1.9499990940093994,0.19700077176094055,-0.43451885252115474,0.0,True,0.011079788208007812,-1.9499990940093994,0.19700077176094055,-0.43451887369155884,0.0,0.6,0.0
1759839023.1172574,2,-1.9499990940093994,0.19700077176094055,-0.4345188536006983,0.0,True,0.010897636413574219,-1.9499990940093994,0.19700077176094055,-0.43451887369155884,0.0,0.6,0.0
1759839023.1295507,2,-1.9499990940093994,0.19700077176094055,-0.43451885399629475,0.0,True,0.012293338775634766,-1.9499990940093994,0.19700077176094055,-0.43451887369155884,0.0,0.0,0.0
1759839023.140204,2,-1.9499990940093994,0.19700077176094055,-0.43451885506064514,0.0,True,0.010653257369995117,-1.9499990940093994,0.19700077176094055,-0.43451887369155884,0.0,0.0,0.0
1759839023.1520889,2,-1.9499990940093994,0.19700077176094055,-0.43451885556639525,0.0,True,0.011884927749633789,-1.9499990940093994,0.19700077176094055,-0.43451887369155884,0.0,0.0,0.0
1759839023.1633346,2,-1.9499990940093994,0.19700077176094055,-0.43451885629929166,0.0,True,0.0112457275390625,-1.9499990940093994,0.19700077176094055,-0.43451887369155884,0.0,0.0,0.0
1759839023.1746867,2,-1.9499990940093994,0.19700077176094055,-0.43451885695701087,0.0,True,0.011352062225341797,-1.9499990940093994,0.19700077176094055,-0.43451887369155884,0.0,0.0,0.0
1759839023.1859803,2,-1.9499990940093994,0.19700077176094055,-0.434518857595247,0.0,True,0.011293649673461914,-1.9499990940093994,0.19700077176094055,-0.43451887369155884,0.0,0.0,0.0
1759839023.196869,2,-1.9499990940093994,0.19700077176094055,-0.43451885832284454,0.0,True,0.01088857650756836,-1.9499990940093994,0.19700077176094055,-0.43451887369155884,0.0,0.0,0.0
1759839023.207723,2,-1.9499990940093994,0.19700077176094055,-0.43451885898886466,0.0,True,0.010854005813598633,-1.9499990940093994,0.19700077176094055,-0.43451887369155884,0.0,0.0,0.0
1759839023.2190878,2,-1.9499990940093994,0.19700077176094055,-0.4345188594373912,0.0,True,0.011364936828613281,-1.9499990940093994,0.19700077176094055,-0.43451887369155884,0.0,0.0,0.0
1759839023.2368736,2,-1.9499990940093994,0.19700077176094055,-0.43451885810927315,0.0,True,0.01778578758239746,-1.9499990940093994,0.19700077176094055,-0.43451887369155884,0.0,0.0,0.0
1759839023.2455974,2,-1.9499990940093994,0.19700077176094055,-0.43451885976127436,0.0,True,0.008723735809326172,-1.9499990940093994,0.19700077176094055,-0.43451887369155884,0.0,0.0,0.0
1759839023.2563117,2,-1.9499990940093994,0.19700077176094055,-0.43451886066301526,0.0,True,0.010714292526245117,-1.9499990940093994,0.19700077176094055,-0.43451887369155884,0.0,0.0,0.0
1759839023.2683551,2,-1.9499990940093994,0.19700077176094055,-0.4345188610389705,0.0,True,0.012043476104736328,-1.9499990940093994,0.19700077176094055,-0.43451887369155884,0.0,0.0,0.0
1759839023.2785099,2,-1.9499990940093994,0.19700077176094055,-0.4345188618566418,0.0,True,0.01015472412109375,-1.9499990940093994,0.19700077176094055,-0.43451887369155884,0.0,0.0,0.0
1759839023.2895396,2,-1.9499990940093994,0.19700077176094055,-0.4345188623495968,0.0,True,0.011029720306396484,-1.9499990940093994,0.19700077176094055,-0.43451887369155884,0.0,0.0,0.0
1759839023.2999034,2,-1.9499990940093994,0.19700077176094055,-0.43451886293106057,0.0,True,0.01036381721496582,-1.9499990940093994,0.19700077176094055,-0.43451887369155884,0.0,0.0,0.0
1759839023.3104315,2,-1.9499990940093994,0.19700077176094055,-0.4345188633996795,0.0,True,0.010528087615966797,-1.9499990940093994,0.19700077176094055,-0.43451887369155884,0.0,0.0,0.0
1759839023.3214412,2,-1.9499990940093994,0.19700077176094055,-0.4345188637100339,0.0,True,0.011009693145751953,-1.9499990940093994,0.19700077176094055,-0.43451887369155884,0.0,0.0,0.0
1759839023.3328056,2,-1.9499990940093994,0.19700077176094055,-0.4345188639390791,0.0,True,0.011364459991455078,-1.9499990940093994,0.19700077176094055,-0.43451887369155884,0.0,0.0,0.0
1759839023.3430593,2,-1.9499990940093994,0.19700077176094055,-0.434518864407897,0.0,True,0.010253667831420898,-1.9499990940093994,0.19700077176094055,-0.43451887369155884,0.0,0.0,0.0
1759839023.3541806,2,-1.9499990940093994,0.19700077176094055,-0.43451886466339573,0.0,True,0.011121273040771484,-1.9499990940093994,0.19700077176094055,-0.43451887369155884,0.0,0.0,0.0
1759839023.3649018,2,-1.9499990940093994,0.19700077176094055,-0.43451886498921155,0.0,True,0.010721206665039062,-1.9499990940093994,0.19700077176094055,-0.43451887369155884,0.0,0.0,0.0
1759839023.3763602,2,-1.9499990940093994,0.19700077176094055,-0.4345188651689007,0.0,True,0.011458396911621094,-1.9499990940093994,0.19700077176094055,-0.43451887369155884,0.0,0.0,0.0
1759839023.386611,2,-1.9499990940093994,0.19700077176094055,-0.4345188655781733,0.0,True,0.01025080680847168,-1.9499990940093994,0.19700077176094055,-0.43451887369155884,0.0,0.0,0.0
1759839023.39786,2,-1.9499990940093994,0.19700077176094055,-0.43451886578089827,0.0,True,0.011249065399169922,-1.9499990940093994,0.19700077176094055,-0.43451887369155884,0.0,0.0,0.0
1759839023.4092758,2,-1.9499990940093994,0.19700077176094055,-0.43451886596110256,0.0,True,0.011415719985961914,-1.9499990940093994,0.19700077176094055,-0.43451887369155884,0.0,0.0,0.0
1759839023.420122,2,-1.9499990940093994,0.19700077176094055,-0.4345188662507855,0.0,True,0.010846138000488281,-1.9499990940093994,0.19700077176094055,-0.43451887369155884,0.0,0.0,0.0
1759839023.4382854,2,-1.9499990940093994,0.19700077176094055,-0.43451886545618557,0.0,True,0.018163442611694336,-1.9499990940093994,0.19700077176094055,-0.43451887369155884,0.0,0.0,0.0
1759839023.4460313,2,-1.9499990940093994,0.19700077176094055,-0.434518866458804,0.0,True,0.007745981216430664,-1.9499990940093994,0.19700077176094055,-0.43451887369155884,0.0,0.0,0.0
1759839023.4564486,2,-1.9499990940093994,0.19700077176094055,-0.43451886693527264,0.0,True,0.01041722297668457,-1.9499990940093994,0.19700077176094055,-0.43451887369155884,0.0,0.0,0.0
1759839023.4667032,2,-1.9499990940093994,0.19700077176094055,-0.43451886731918066,0.0,True,0.010254621505737305,-1.9499990940093994,0.19700077176094055,-0.43451887369155884,0.0,0.0,0.0
1759839023.4780622,2,-1.9499990940093994,0.19700077176094055,-0.4345188674951572,0.0,True,0.011358976364135742,-1.9499990940093994,0.19700077176094055,-0.43451887369155884,0.0,0.0,0.0
1759839023.4891503,2,-1.9499990940093994,0.19700077176094055,-0.43451886770081494,0.0,True,0.011088132858276367,-1.9499990940093994,0.19700077176094055,-0.43451887369155884,0.0,0.0,0.0
1759839023.5010355,2,-1.9499990940093994,0.19700077176094055,-0.43451886780835025,0.0,True,0.01188516616821289,-1.9499990940093994,0.19700077176094055,-0.43451887369155884,0.0,0.0,0.0
1759839023.5114937,2,-1.9499990940093994,0.19700077176094055,-0.43451886810400353,0.0,True,0.010458230972290039,-1.9499990940093994,0.19700077176094055,-0.43451887369155884,0.0,0.0,0.0
1759839023.5221775,2,-1.9499990940093994,0.19700077176094055,-0.43451886834545306,0.0,True,0.010683774948120117,-1.9499990940093994,0.19700077176094055,-0.43451887369155884,0.0,0.0,0.0
1759839023.5334501,2,-1.9499990940093994,0.19700077176094055,-0.4345188684962018,0.0,True,0.011272668838500977,-1.9499990940093994,0.19700077176094055,-0.43451887369155884,0.0,0.0,0.0
1759839023.5447679,2,-1.9499990940093994,0.19700077176094055,-0.4345188686425203,0.0,True,0.011317729949951172,-1.9499990940093994,0.19700077176094055,-0.43451887369155884,0.0,0.0,0.0
1759839023.555704,2,-1.9499990940093994,0.19700077176094055,-0.4345188688324839,0.0,True,0.010936260223388672,-1.9499990940093994,0.19700077176094055,-0.43451887369155884,0.0,0.0,0.0
1759839023.5658505,2,-1.9499990940093994,0.19700077176094055,-0.43451886909006987,0.0,True,0.010146379470825195,-1.9499990940093994,0.19700077176094055,-0.43451887369155884,0.0,0.0,0.0
1759839023.5761797,2,-1.9499990940093994,0.19700077176094055,-0.4345188692958679,0.0,True,0.010329246520996094,-1.9499990940093994,0.19700077176094055,-0.43451887369155884,0.0,0.0,0.0
1759839023.5876608,2,-1.9499990940093994,0.19700077176094055,-0.43451886936994555,0.0,True,0.011481046676635742,-1.9499990940093994,0.19700077176094055,-0.43451887369155884,0.0,0.0,0.0
1759839023.5985315,2,-1.9499990940093994,0.19700077176094055,-0.43451886951118013,0.0,True,0.010870695114135742,-1.9499990940093994,0.19700077176094055,-0.43451887369155884,0.0,0.0,0.0
1759839023.6097503,2,-1.9499990940093994,0.19700077176094055,-0.4345188696231581,0.0,True,0.011218786239624023,-1.9499990940093994,0.19700077176094055,-0.43451887369155884,0.0,0.0,0.0
1759839023.620054,2,-1.9499990940093994,0.19700077176094055,-0.43451886981453214,0.0,True,0.010303735733032227,-1.9499990940093994,0.19700077176094055,-0.43451887369155884,0.0,0.0,0.0
1759839023.6309378,2,-1.9499990940093994,0.19700077176094055,-0.4345188699404119,0.0,True,0.010883808135986328,-1.9499990940093994,0.19700077176094055,-0.43451887369155884,0.0,0.0,0.0
1759839023.6470628,2,-1.9499990940093994,0.19700077176094055,-0.43451886966301956,0.0,True,0.016124963760375977,-1.9499990940093994,0.19700077176094055,-0.43451887369155884,0.0,0.0,0.0
1759839023.657855,2,-1.9499990940093994,0.19700077176094055,-0.4345188698995557,0.0,True,0.010792255401611328,-1.9499990940093994,0.19700077176094055,-0.43451887369155884,0.0,0.0,0.0
1759839023.6688802,2,-1.9499990940093994,0.19700077176094055,-0.43451887011217316,0.0,True,0.011025190353393555,-1.9499990940093994,0.19700077176094055,-0.43451887369155884,0.0,0.0,0.0
