timestamp,vehicle_id,x,y,theta,velocity,gps_available,dt,gps_x,gps_y,gps_theta,gps_velocity,control_steering,control_acceleration
1759839019.327564,0,-1.205,-0.83,-0.7801621756414647,0.0,False,0.01,nan,nan,nan,nan,0.0,0.0
1759839019.338976,0,-1.205,-0.83,-0.7801621756414647,0.0,False,0.011411905288696289,nan,nan,nan,nan,0.0,0.0
1759839019.3495252,0,-1.205,-0.83,-0.7801621756414647,0.0,False,0.010549306869506836,nan,nan,nan,nan,0.0,0.0
1759839019.360325,0,-1.205,-0.83,-0.7801621756414647,0.0,False,0.010799884796142578,nan,nan,nan,nan,0.0,0.0
1759839019.370518,0,-1.205,-0.83,-0.7801621756414647,0.0,False,0.01019287109375,nan,nan,nan,nan,0.0,0.0
1759839019.380972,0,-1.205,-0.83,-0.7801621756414647,0.0,False,0.010453939437866211,nan,nan,nan,nan,0.0,0.0
1759839019.3911815,0,-1.205,-0.83,-0.7801621756414647,0.0,False,0.01020956039428711,nan,nan,nan,nan,0.0,0.0
1759839019.4016125,0,-1.205,-0.83,-0.7801621756414647,0.0,False,0.010431051254272461,nan,nan,nan,nan,0.0,0.0
1759839019.412132,0,-1.205,-0.83,-0.7801621756414647,0.0,False,0.01051950454711914,nan,nan,nan,nan,0.0,0.0
1759839019.4227371,0,-1.205,-0.83,-0.7801621756414647,0.0,False,0.010605096817016602,nan,nan,nan,nan,0.0,0.0
1759839019.433218,0,-1.205,-0.83,-0.7801621756414647,0.0,False,0.010480880737304688,nan,nan,nan,nan,0.0,0.0
1759839019.4435694,0,-1.205,-0.83,-0.7801621756414647,0.0,False,0.010351419448852539,nan,nan,nan,nan,0.0,0.0
1759839019.4544752,0,-1.205,-0.83,-0.7801621756414647,0.0,False,0.010905742645263672,nan,nan,nan,nan,0.0,0.0
1759839019.4648614,0,-1.205,-0.83,-0.7801621756414647,0.0,False,0.010386228561401367,nan,nan,nan,nan,0.0,0.0
1759839019.475088,0,-1.205,-0.83,-0.7801621756414647,0.0,False,0.01022648811340332,nan,nan,nan,nan,0.0,0.0
1759839019.4857426,0,-1.205,-0.83,-0.7801621756414647,0.0,False,0.010654687881469727,nan,nan,nan,nan,0.0,0.0
1759839019.496408,0,-1.205,-0.83,-0.7801621756414647,0.0,False,0.010665416717529297,nan,nan,nan,nan,0.0,0.0
1759839019.5076177,0,-1.205,-0.83,-0.7801621756414647,0.0,False,0.011209726333618164,nan,nan,nan,nan,0.0,0.0
1759839019.5250864,0,-1.2050001607735952,-0.8299997470180194,-0.7229993176682541,0.0,True,0.017468690872192383,-1.2050001621246338,-0.8299997448921204,-0.7177030444145203,0.0,0.0,0.0
1759839019.5358565,0,-1.205000161673033,-0.8299997456027273,-0.7181165243417382,0.0,True,0.010770082473754883,-1.2050001621246338,-0.8299997448921204,-0.7177030444145203,0.0,0.0,0.0
1759839019.5469036,0,-1.2050001619552244,-0.8299997451586908,-0.7176554124057475,0.0,True,0.011047124862670898,-1.2050001621246338,-0.8299997448921204,-0.7177030444145203,0.0,0.0,0.0
1759839019.5578966,0,-1.2050001620600936,-0.829999744993676,-0.7175952355241613,0.0,True,0.010993003845214844,-1.2050001621246338,-0.8299997448921204,-0.7177030444145203,0.0,0.0,0.0
1759839019.5694423,0,-1.205000162099991,-0.8299997449308965,-0.7175874921692547,0.0,True,0.011545658111572266,-1.2050001621246338,-0.8299997448921204,-0.7177030444145203,0.0,0.0,0.0
1759839019.5796125,0,-1.2050001621152215,-0.8299997449069307,-0.7175981232323956,0.0,True,0.010170221328735352,-1.2050001621246338,-0.8299997448921204,-0.7177030444145203,0.0,0.0,0.0
1759839019.5901897,0,-1.2050001621210387,-0.8299997448977774,-0.7176097493598448,0.0,True,0.010577201843261719,-1.2050001621246338,-0.8299997448921204,-0.7177030444145203,0.0,0.0,0.0
1759839019.6002502,0,-1.2050001621232607,-0.8299997448942812,-0.7176218580307641,0.0,True,0.010060548782348633,-1.2050001621246338,-0.8299997448921204,-0.7177030444145203,0.0,0.0,0.0
1759839019.6111872,0,-1.2050001621241093,-0.8299997448929457,-0.7176309713491271,0.0,True,0.010936975479125977,-1.2050001621246338,-0.8299997448921204,-0.7177030444145203,0.0,0.0,0.0
1759839019.6216345,0,-1.2050001621244335,-0.8299997448924357,-0.7176397680624476,0.0,True,0.010447263717651367,-1.2050001621246338,-0.8299997448921204,-0.7177030444145203,0.0,0.0,0.0
1759839019.632091,0,-1.2050001621245572,-0.8299997448922408,-0.7176471457866391,0.0,True,0.010456562042236328,-1.2050001621246338,-0.8299997448921204,-0.7177030444145203,0.0,0.0,0.0
1759839019.6424155,0,-1.2050001621246045,-0.8299997448921663,-0.7176534111068396,0.0,True,0.010324478149414062,-1.2050001621246338,-0.8299997448921204,-0.7177030444145203,0.0,0.0,0.0
1759839019.6531854,0,-1.2050001621246227,-0.8299997448921379,-0.7176582265666163,0.0,True,0.010769844055175781,-1.2050001621246338,-0.8299997448921204,-0.7177030444145203,0.0,0.0,0.0
1759839019.6634262,0,-1.2050001621246296,-0.829999744892127,-0.7176628103299514,0.0,True,0.010240793228149414,-1.2050001621246338,-0.8299997448921204,-0.7177030444145203,0.0,0.0,0.0
1759839019.6740794,0,-1.2050001621246322,-0.8299997448921229,-0.7176663483590069,0.0,True,0.010653257369995117,-1.2050001621246338,-0.8299997448921204,-0.7177030444145203,0.0,0.0,0.0
1759839019.68543,0,-1.2050001621246331,-0.8299997448921214,-0.7176689720542626,0.0,True,0.011350631713867188,-1.2050001621246338,-0.8299997448921204,-0.7177030444145203,0.0,0.0,0.0
1759839019.6967301,0,-1.2050001621246336,-0.8299997448921207,-0.7176714842270915,0.0,True,0.011300086975097656,-1.2050001621246338,-0.8299997448921204,-0.7177030444145203,0.0,0.0,0.0
1759839019.707819,0,-1.2050001621246338,-0.8299997448921205,-0.7176739391151195,0.0,True,0.011088848114013672,-1.2050001621246338,-0.8299997448921204,-0.7177030444145203,0.0,0.0,0.0
1759839019.7183473,0,-1.2050001621246338,-0.8299997448921204,-0.717676422827914,0.0,True,0.010528326034545898,-1.2050001621246338,-0.8299997448921204,-0.7177030444145203,0.0,0.0,0.0
1759839019.7282672,0,-1.2050001621246338,-0.8299997448921204,-0.7176788244486367,0.0,True,0.009919881820678711,-1.2050001621246338,-0.8299997448921204,-0.7177030444145203,0.0,0.0,0.0
1759839019.73875,0,-1.2050001621246338,-0.8299997448921204,-0.7176805310428254,0.0,True,0.0104827880859375,-1.2050001621246338,-0.8299997448921204,-0.7177030444145203,0.0,0.0,0.0
1759839019.7489402,0,-1.2050001621246338,-0.8299997448921204,-0.717682126468425,0.0,True,0.010190248489379883,-1.2050001621246338,-0.8299997448921204,-0.7177030444145203,0.0,0.0,0.0
1759839019.760344,0,-1.2050001621246338,-0.8299997448921204,-0.717683014589694,0.0,True,0.011403799057006836,-1.2050001621246338,-0.8299997448921204,-0.7177030444145203,0.0,0.0,0.0
1759839019.77162,0,-1.2050001621246338,-0.8299997448921204,-0.7176839734461815,0.0,True,0.011276006698608398,-1.2050001621246338,-0.8299997448921204,-0.7177030444145203,0.0,0.0,0.0
1759839019.7816615,0,-1.2050001621246338,-0.8299997448921204,-0.7176853801508116,0.0,True,0.010041475296020508,-1.2050001621246338,-0.8299997448921204,-0.7177030444145203,0.0,0.0,0.0
1759839019.7932336,0,-1.2050001621246338,-0.8299997448921204,-0.7176860669401339,0.0,True,0.011572122573852539,-1.2050001621246338,-0.8299997448921204,-0.7177030444145203,0.0,0.0,0.0
1759839019.8037424,0,-1.2050001621246338,-0.8299997448921204,-0.7176871094155199,0.0,True,0.01050877571105957,-1.2050001621246338,-0.8299997448921204,-0.7177030444145203,0.0,0.0,0.0
1759839019.8141332,0,-1.2050001621246338,-0.8299997448921204,-0.7176880864556381,0.0,True,0.010390758514404297,-1.2050001621246338,-0.8299997448921204,-0.7177030444145203,0.0,0.0,0.0
1759839019.825443,0,-1.2050001621246338,-0.8299997448921204,-0.7176886716951216,0.0,True,0.01130986213684082,-1.2050001621246338,-0.8299997448921204,-0.7177030444145203,0.0,0.0,0.0
1759839019.8365223,0,-1.2050001621246338,-0.8299997448921204,-0.7176893197436449,0.0,True,0.01107931137084961,-1.2050001621246338,-0.8299997448921204,-0.7177030444145203,0.0,0.0,0.0
1759839019.8473983,0,-1.2050001621246338,-0.8299997448921204,-0.7176900055433286,0.0,True,0.010875940322875977,-1.2050001621246338,-0.8299997448921204,-0.7177030444145203,0.0,0.0,0.0
1759839019.8580103,0,-1.2050001621246338,-0.8299997448921204,-0.7176907111403175,0.0,True,0.010612010955810547,-1.2050001621246338,-0.8299997448921204,-0.7177030444145203,0.0,0.0,0.0
1759839019.868928,0,-1.2050001621246338,-0.8299997448921204,-0.7176912717355854,0.0,True,0.01091766357421875,-1.2050001621246338,-0.8299997448921204,-0.7177030444145203,0.0,0.0,0.0
1759839019.880503,0,-1.2050001621246338,-0.8299997448921204,-0.7176916439460133,0.0,True,0.011574983596801758,-1.2050001621246338,-0.8299997448921204,-0.7177030444145203,0.0,0.0,0.0
1759839019.8909883,0,-1.2050001621246338,-0.8299997448921204,-0.7176922811384863,0.0,True,0.010485410690307617,-1.2050001621246338,-0.8299997448921204,-0.7177030444145203,0.0,0.0,0.0
1759839019.901953,0,-1.2050001621246338,-0.8299997448921204,-0.7176927546584047,0.0,True,0.010964632034301758,-1.2050001621246338,-0.8299997448921204,-0.7177030444145203,0.0,0.0,0.0
1759839019.9134147,0,-1.2050001621246338,-0.8299997448921204,-0.7176930941640087,0.0,True,0.011461734771728516,-1.2050001621246338,-0.8299997448921204,-0.7177030444145203,0.0,0.0,0.0
1759839019.9246392,0,-1.2050001621246338,-0.8299997448921204,-0.7176934914782329,0.0,True,0.011224508285522461,-1.2050001621246338,-0.8299997448921204,-0.7177030444145203,0.0,0.0,0.0
1759839019.9357214,0,-1.2050001621246338,-0.8299997448921204,-0.7176939095374095,0.0,True,0.011082172393798828,-1.2050001621246338,-0.8299997448921204,-0.7177030444145203,0.0,0.0,0.0
1759839019.9461064,0,-1.2050001621246338,-0.8299997448921204,-0.7176944286324982,0.0,True,0.01038503646850586,-1.2050001621246338,-0.8299997448921204,-0.7177030444145203,0.0,0.0,0.0
1759839019.9566808,0,-1.2050001621246338,-0.8299997448921204,-0.7176948504284635,0.0,True,0.0105743408203125,-1.2050001621246338,-0.8299997448921204,-0.7177030444145203,0.0,0.0,0.0
1759839019.9675932,0,-1.2050001621246338,-0.8299997448921204,-0.7176951679910708,0.0,True,0.010912418365478516,-1.2050001621246338,-0.8299997448921204,-0.7177030444145203,0.0,0.0,0.0
1759839019.9781358,0,-1.2050001621246338,-0.8299997448921204,-0.7176955266650946,0.0,True,0.010542631149291992,-1.2050001621246338,-0.8299997448921204,-0.7177030444145203,0.0,0.0,0.0
1759839019.988804,0,-1.2050001621246338,-0.8299997448921204,-0.717695836075869,0.0,True,0.010668277740478516,-1.2050001621246338,-0.8299997448921204,-0.7177030444145203,0.0,0.0,0.0
1759839020.0001895,0,-1.2050001621246338,-0.8299997448921204,-0.7176960182007139,0.0,True,0.011385440826416016,-1.2050001621246338,-0.8299997448921204,-0.7177030444145203,0.0,0.0,0.0
1759839020.010405,0,-1.2050001621246338,-0.8299997448921204,-0.7176963814614847,0.0,True,0.010215520858764648,-1.2050001621246338,-0.8299997448921204,-0.7177030444145203,0.0,0.0,0.0
1759839020.0207932,0,-1.2050001621246338,-0.8299997448921204,-0.7176966847332071,0.0,True,0.01038813591003418,-1.2050001621246338,-0.8299997448921204,-0.7177030444145203,0.0,0.0,0.0
1759839020.032285,0,-1.2050001621246338,-0.8299997448921204,-0.7176968101745143,0.0,True,0.011491775512695312,-1.2050001621246338,-0.8299997448921204,-0.7177030444145203,0.0,0.0,0.0
1759839020.043513,0,-1.2050001621246338,-0.8299997448921204,-0.717696990716238,0.0,True,0.011228084564208984,-1.2050001621246338,-0.8299997448921204,-0.7177030444145203,0.0,0.0,0.0
1759839020.0538096,0,-1.2050001621246338,-0.8299997448921204,-0.7176972973619584,0.0,True,0.01029658317565918,-1.2050001621246338,-0.8299997448921204,-0.7177030444145203,0.0,0.0,0.0
1759839020.0638592,0,-1.2050001621246338,-0.8299997448921204,-0.7176976013518974,0.0,True,0.010049581527709961,-1.2050001621246338,-0.8299997448921204,-0.7177030444145203,0.0,0.0,0.0
1759839020.0751157,0,-1.2050001621246338,-0.8299997448921204,-0.7176977264191411,0.0,True,0.01125645637512207,-1.2050001621246338,-0.8299997448921204,-0.7177030444145203,0.0,0.0,0.0
1759839020.0853615,0,-1.2050001621246338,-0.8299997448921204,-0.7176979698482047,0.0,True,0.010245800018310547,-1.2050001621246338,-0.8299997448921204,-0.7177030444145203,0.0,0.0,0.0
1759839020.0959814,0,-1.2050001621246338,-0.8299997448921204,-0.7176981540344016,0.0,True,0.010619878768920898,-1.2050001621246338,-0.8299997448921204,-0.7177030444145203,0.0,0.0,0.0
1759839020.106741,0,-1.2050001621246338,-0.8299997448921204,-0.71769831248168,0.0,True,0.010759592056274414,-1.2050001621246338,-0.8299997448921204,-0.7177030444145203,0.0,0.0,0.0
1759839020.1202044,0,-1.2050001621246338,-0.8299997448921204,-0.7176982061386852,0.0,True,0.013463497161865234,-1.2050001621246338,-0.8299997448921204,-0.7177030444145203,0.0,0.0,0.0
1759839020.1294892,0,-1.2050001621246338,-0.8299997448921204,-0.7176985721200921,0.0,True,0.009284734725952148,-1.2050001621246338,-0.8299997448921204,-0.7177030444145203,0.0,0.0,0.0
1759839020.1409461,0,-1.2050001621246338,-0.8299997448921204,-0.7176986934385674,0.0,True,0.011456966400146484,-1.2050001621246338,-0.8299997448921204,-0.7177030444145203,0.0,0.0,0.0
1759839020.1526139,0,-1.2050001621246338,-0.8299997448921204,-0.7176987927494629,0.0,True,0.011667728424072266,-1.2050001621246338,-0.8299997448921204,-0.7177030444145203,0.0,0.0,0.0
1759839020.1630268,0,-1.2050001621246338,-0.8299997448921204,-0.717699011964342,0.0,True,0.010412931442260742,-1.2050001621246338,-0.8299997448921204,-0.7177030444145203,0.0,0.0,0.0
1759839020.173279,0,-1.2050001621246338,-0.8299997448921204,-0.7176992219891218,0.0,True,0.010252237319946289,-1.2050001621246338,-0.8299997448921204,-0.7177030444145203,0.0,0.0,0.0
1759839020.1835356,0,-1.2050001621246338,-0.8299997448921204,-0.717699402292137,0.0,True,0.010256528854370117,-1.2050001621246338,-0.8299997448921204,-0.7177030444145203,0.0,0.0,0.0
1759839020.193858,0,-1.2050001621246338,-0.8299997448921204,-0.7176995543687426,0.0,True,0.010322332382202148,-1.2050001621246338,-0.8299997448921204,-0.7177030444145203,0.0,0.0,0.0
1759839020.2052262,0,-1.2050001621246338,-0.8299997448921204,-0.7176996142322274,0.0,True,0.011368274688720703,-1.2050001621246338,-0.8299997448921204,-0.7177030444145203,0.0,0.0,0.0
1759839020.2152588,0,-1.2050001621246338,-0.8299997448921204,-0.7176997803893173,0.0,True,0.01003265380859375,-1.2050001621246338,-0.8299997448921204,-0.7177030444145203,0.0,0.0,0.0
1759839020.2268262,0,-1.2050001621246338,-0.8299997448921204,-0.7176998263541545,0.0,True,0.011567354202270508,-1.2050001621246338,-0.8299997448921204,-0.7177030444145203,0.0,0.0,0.0
1759839020.2377477,0,-1.2050001621246338,-0.8299997448921204,-0.7176999281315162,0.0,True,0.010921478271484375,-1.2050001621246338,-0.8299997448921204,-0.7177030444145203,0.0,0.0,0.0
1759839020.2485259,0,-1.2050001621246338,-0.8299997448921204,-0.7177000419145649,0.0,True,0.010778188705444336,-1.2050001621246338,-0.8299997448921204,-0.7177030444145203,0.0,0.0,0.0
1759839020.2589176,0,-1.2050001621246338,-0.8299997448921204,-0.7177001744596936,0.0,True,0.010391712188720703,-1.2050001621246338,-0.8299997448921204,-0.7177030444145203,0.0,0.0,0.0
1759839020.269771,0,-1.2050001621246338,-0.8299997448921204,-0.7177002669064123,0.0,True,0.01085352897644043,-1.2050001621246338,-0.8299997448921204,-0.7177030444145203,0.0,0.0,0.0
1759839020.279941,0,-1.2050001621246338,-0.8299997448921204,-0.7177003950242451,0.0,True,0.01016998291015625,-1.2050001621246338,-0.8299997448921204,-0.7177030444145203,0.0,0.0,0.0
1759839020.2906182,0,-1.2050001621246338,-0.8299997448921204,-0.7177004818363333,0.0,True,0.010677099227905273,-1.2050001621246338,-0.8299997448921204,-0.7177030444145203,0.0,0.0,0.0
1759839020.3020365,0,-1.2050001621246338,-0.8299997448921204,-0.7177005246850108,0.0,True,0.011418342590332031,-1.2050001621246338,-0.8299997448921204,-0.7177030444145203,0.0,0.0,0.0
1759839020.3135872,0,-1.2050001621246338,-0.8299997448921204,-0.7177005714531273,0.0,True,0.011550664901733398,-1.2050001621246338,-0.8299997448921204,-0.7177030444145203,0.0,0.0,0.0
1759839020.3280108,0,-1.2050001621246338,-0.8299997448921204,-0.7177004902840682,0.0,True,0.014423608779907227,-1.2050001621246338,-0.8299997448921204,-0.7177030444145203,0.0,0.0,0.0
1759839020.3390453,0,-1.2050001621246338,-0.8299997448921204,-0.7177006227446832,0.0,True,0.011034488677978516,-1.2050001621246338,-0.8299997448921204,-0.7177030444145203,0.0,0.0,0.0
1759839020.350153,0,-1.2050001621246338,-0.8299997448921204,-0.7177007475359858,0.0,True,0.011107683181762695,-1.2050001621246338,-0.8299997448921204,-0.7177030444145203,0.0,0.0,0.0
1759839020.3612092,0,-1.2050001621246338,-0.8299997448921204,-0.7177008590654097,0.0,True,0.011056184768676758,-1.2050001621246338,-0.8299997448921204,-0.7177030444145203,0.0,0.0,0.0
1759839020.371371,0,-1.2050001621246338,-0.8299997448921204,-0.7177009950776636,0.0,True,0.010161876678466797,-1.2050001621246338,-0.8299997448921204,-0.7177030444145203,0.0,0.0,0.0
1759839020.3816087,0,-1.2050001621246338,-0.8299997448921204,-0.7177011061488301,0.0,True,0.010237693786621094,-1.2050001621246338,-0.8299997448921204,-0.7177030444145203,0.0,0.0,0.0
1759839020.3927064,0,-1.2050001621246338,-0.8299997448921204,-0.7177011653934251,0.0,True,0.01109766960144043,-1.2050001621246338,-0.8299997448921204,-0.7177030444145203,0.0,0.0,0.0
1759839020.403406,0,-1.2050001621246338,-0.8299997448921204,-0.7177012373269029,0.0,True,0.01069951057434082,-1.2050001621246338,-0.8299997448921204,-0.7177030444145203,0.0,0.0,0.0
1759839020.4142063,0,-1.2050001621246338,-0.8299997448921204,-0.717701301361128,0.0,True,0.010800361633300781,-1.2050001621246338,-0.8299997448921204,-0.7177030444145203,0.0,0.0,0.0
1759839020.4251678,0,-1.2050001621246338,-0.8299997448921204,-0.7177013563023671,0.0,True,0.010961532592773438,-1.2050001621246338,-0.8299997448921204,-0.7177030444145203,0.0,0.0,0.0
1759839020.4357216,0,-1.2050001621246338,-0.8299997448921204,-0.7177014243584772,0.0,True,0.010553836822509766,-1.2050001621246338,-0.8299997448921204,-0.7177030444145203,0.0,0.0,0.0
1759839020.4470942,0,-1.2050001621246338,-0.8299997448921204,-0.7177014602359684,0.0,True,0.011372566223144531,-1.2050001621246338,-0.8299997448921204,-0.7177030444145203,0.0,0.0,0.0
1759839020.4575217,0,-1.2050001621246338,-0.8299997448921204,-0.7177015297203262,0.0,True,0.010427474975585938,-1.2050001621246338,-0.8299997448921204,-0.7177030444145203,0.0,0.0,0.0
1759839020.4688413,0,-1.2050001621246338,-0.8299997448921204,-0.7177015661214696,0.0,True,0.011319637298583984,-1.2050001621246338,-0.8299997448921204,-0.7177030444145203,0.0,0.0,0.0
1759839020.4795241,0,-1.2050001621246338,-0.8299997448921204,-0.7177016235185967,0.0,True,0.010682821273803711,-1.2050001621246338,-0.8299997448921204,-0.7177030444145203,0.0,0.0,0.0
1759839020.4896348,0,-1.2050001621246338,-0.8299997448921204,-0.7177016945198673,0.0,True,0.010110616683959961,-1.2050001621246338,-0.8299997448921204,-0.7177030444145203,0.0,0.0,0.0
1759839020.5010238,0,-1.2050001621246338,-0.8299997448921204,-0.7177017207196208,0.0,True,0.011389017105102539,-1.2050001621246338,-0.8299997448921204,-0.7177030444145203,0.0,0.0,0.0
1759839020.5121925,0,-1.2050001621246338,-0.8299997448921204,-0.7177017557969538,0.0,True,0.011168718338012695,-1.2050001621246338,-0.8299997448921204,-0.7177030444145203,0.0,0.0,0.0
1759839020.5230641,0,-1.2050001621246338,-0.8299997448921204,-0.7177018012283831,0.0,True,0.010871648788452148,-1.2050001621246338,-0.8299997448921204,-0.7177030444145203,0.0,0.0,0.0
1759839020.5333138,0,-1.2050001621246338,-0.8299997448921204,-0.7177018610064358,0.0,True,0.010249614715576172,-1.2050001621246338,-0.8299997448921204,-0.7177030444145203,0.0,0.0,0.0
1759839020.544751,0,-1.2050001621246338,-0.8299997448921204,-0.7177018850395704,0.0,True,0.011437177658081055,-1.2050001621246338,-0.8299997448921204,-0.7177030444145203,0.0,0.0,0.0
1759839020.5551174,0,-1.2050001621246338,-0.8299997448921204,-0.7177019367223991,0.0,True,0.010366439819335938,-1.2050001621246338,-0.8299997448921204,-0.7177030444145203,0.0,0.0,0.0
1759839020.5656648,0,-1.2050001621246338,-0.8299997448921204,-0.7177019801315794,0.0,True,0.010547399520874023,-1.2050001621246338,-0.8299997448921204,-0.7177030444145203,0.0,0.0,0.0
1759839020.5773416,0,-1.2050001621246338,-0.8299997448921204,-0.7177019948743997,0.0,True,0.011676788330078125,-1.2050001621246338,-0.8299997448921204,-0.7177030444145203,0.0,0.0,0.0
1759839020.5882018,0,-1.2050001621246338,-0.8299997448921204,-0.7177020318151914,0.0,True,0.010860204696655273,-1.2050001621246338,-0.8299997448921204,-0.7177030444145203,0.0,0.0,0.0
1759839020.5993643,0,-1.2050001621246338,-0.8299997448921204,-0.7177020623126609,0.0,True,0.011162519454956055,-1.2050001621246338,-0.8299997448921204,-0.7177030444145203,0.0,0.0,0.0
1759839020.6103437,0,-1.2050001621246338,-0.8299997448921204,-0.7177020965385861,0.0,True,0.010979413986206055,-1.2050001621246338,-0.8299997448921204,-0.7177030444145203,0.0,0.0,0.0
1759839020.6208863,0,-1.2050001621246338,-0.8299997448921204,-0.7177021380935393,0.0,True,0.010542631149291992,-1.2050001621246338,-0.8299997448921204,-0.7177030444145203,0.0,0.0,0.0
1759839020.6324482,0,-1.2050001621246338,-0.8299997448921204,-0.7177021570466309,0.0,True,0.011561870574951172,-1.2050001621246338,-0.8299997448921204,-0.7177030444145203,0.0,0.0,0.0
1759839020.6427486,0,-1.2050001621246338,-0.8299997448921204,-0.7177022005400087,0.0,True,0.010300397872924805,-1.2050001621246338,-0.8299997448921204,-0.7177030444145203,0.0,0.0,0.0
1759839020.6537735,0,-1.2050001621246338,-0.8299997448921204,-0.7177022273093208,0.0,True,0.011024951934814453,-1.2050001621246338,-0.8299997448921204,-0.7177030444145203,0.0,0.0,0.0
1759839020.665202,0,-1.2050001621246338,-0.8299997448921204,-0.7177022462854445,0.0,True,0.011428356170654297,-1.2050001621246338,-0.8299997448921204,-0.7177030444145203,0.0,0.0,0.0
1759839020.67541,0,-1.2050001621246338,-0.8299997448921204,-0.7177022867016163,0.0,True,0.0102081298828125,-1.2050001621246338,-0.8299997448921204,-0.7177030444145203,0.0,0.0,0.0
1759839020.686646,0,-1.2050001621246338,-0.8299997448921204,-0.717702306845311,0.0,True,0.011235952377319336,-1.2050001621246338,-0.8299997448921204,-0.7177030444145203,0.0,0.0,0.0
1759839020.6972053,0,-1.2050001621246338,-0.8299997448921204,-0.7177023371729234,0.0,True,0.010559320449829102,-1.2050001621246338,-0.8299997448921204,-0.7177030444145203,0.0,0.0,0.0
1759839020.707379,0,-1.2050001621246338,-0.8299997448921204,-0.7177023709522032,0.0,True,0.010173797607421875,-1.2050001621246338,-0.8299997448921204,-0.7177030444145203,0.0,0.0,0.0
1759839020.7181294,0,-1.2050001621246338,-0.8299997448921204,-0.717702392502531,0.0,True,0.010750293731689453,-1.2050001621246338,-0.8299997448921204,-0.7177030444145203,0.0,0.0,0.0
1759839020.7301037,0,-1.2050001621246338,-0.8299997448921204,-0.7177023964108606,0.0,True,0.011974334716796875,-1.2050001621246338,-0.8299997448921204,-0.7177030444145203,0.0,0.0,0.0
1759839020.7408621,0,-1.2050001621246338,-0.8299997448921204,-0.7177024209724294,0.0,True,0.010758399963378906,-1.2050001621246338,-0.8299997448921204,-0.7177030444145203,0.0,0.0,0.0
1759839020.7515712,0,-1.2050001621246338,-0.8299997448921204,-0.7177024457523249,0.0,True,0.010709047317504883,-1.2050001621246338,-0.8299997448921204,-0.7177030444145203,0.0,0.0,0.0
1759839020.76252,0,-1.2050001621246338,-0.8299997448921204,-0.717702465724674,0.0,True,0.010948896408081055,-1.2050001621246338,-0.8299997448921204,-0.7177030444145203,0.0,0.0,0.0
1759839020.7727504,0,-1.2050001621246338,-0.8299997448921204,-0.7177024933801945,0.0,True,0.010230302810668945,-1.2050001621246338,-0.8299997448921204,-0.7177030444145203,0.0,0.0,0.0
1759839020.782868,0,-1.2050001621246338,-0.8299997448921204,-0.7177025192382089,0.0,True,0.010117530822753906,-1.2050001621246338,-0.8299997448921204,-0.7177030444145203,0.0,0.0,0.0
1759839020.7942739,0,-1.2050001621246338,-0.8299997448921204,-0.7177025275144047,0.0,True,0.01140594482421875,-1.2050001621246338,-0.8299997448921204,-0.7177030444145203,0.0,0.0,0.0
1759839020.805356,0,-1.2050001621246338,-0.8299997448921204,-0.7177025409561235,0.0,True,0.011082172393798828,-1.2050001621246338,-0.8299997448921204,-0.7177030444145203,0.0,0.0,0.0
1759839020.8165681,0,-1.2050001621246338,-0.8299997448921204,-0.7177025542148243,0.0,True,0.01121211051940918,-1.2050001621246338,-0.8299997448921204,-0.7177030444145203,0.0,0.0,0.0
1759839020.827419,0,-1.2050001621246338,-0.8299997448921204,-0.7177025718954457,0.0,True,0.010850906372070312,-1.2050001621246338,-0.8299997448921204,-0.7177030444145203,0.0,0.0,0.0
1759839020.83879,0,-1.2050001621246338,-0.8299997448921204,-0.7177025840180473,0.0,True,0.01137089729309082,-1.2050001621246338,-0.8299997448921204,-0.7177030444145203,0.0,0.0,0.0
1759839020.8495307,0,-1.2050001621246338,-0.8299997448921204,-0.717702602623369,0.0,True,0.01074075698852539,-1.2050001621246338,-0.8299997448921204,-0.7177030444145203,0.0,0.0,0.0
1759839020.859825,0,-1.2050001621246338,-0.8299997448921204,-0.7177026240871314,0.0,True,0.010294198989868164,-1.2050001621246338,-0.8299997448921204,-0.7177030444145203,0.0,0.0,0.0
1759839020.8709433,0,-1.2050001621246338,-0.8299997448921204,-0.7177026358461234,0.0,True,0.011118412017822266,-1.2050001621246338,-0.8299997448921204,-0.7177030444145203,0.0,0.0,0.0
1759839020.881053,0,-1.2050001621246338,-0.8299997448921204,-0.7177026558948931,0.0,True,0.010109663009643555,-1.2050001621246338,-0.8299997448921204,-0.7177030444145203,0.0,0.0,0.0
1759839020.8914118,0,-1.2050001621246338,-0.8299997448921204,-0.7177026717032717,0.0,True,0.010358810424804688,-1.2050001621246338,-0.8299997448921204,-0.7177030444145203,0.0,0.0,0.0
1759839020.901805,0,-1.2050001621246338,-0.8299997448921204,-0.7177026855425819,0.0,True,0.010393142700195312,-1.2050001621246338,-0.8299997448921204,-0.7177030444145203,0.0,0.0,0.0
1759839020.9131076,0,-1.2050001621246338,-0.8299997448921204,-0.7177026914155178,0.0,True,0.011302709579467773,-1.2050001621246338,-0.8299997448921204,-0.7177030444145203,0.0,0.0,0.0
1759839020.9233932,0,-1.2050001621246338,-0.8299997448921204,-0.7177027060051238,0.0,True,0.010285615921020508,-1.2050001621246338,-0.8299997448921204,-0.7177030444145203,0.0,0.0,0.0
1759839020.9345934,0,-1.2050001621246338,-0.8299997448921204,-0.7177027132138214,0.0,True,0.011200189590454102,-1.2050001621246338,-0.8299997448921204,-0.7177030444145203,0.0,0.0,0.0
1759839020.945497,0,-1.2050001621246338,-0.8299997448921204,-0.7177027231238711,0.0,True,0.010903596878051758,-1.2050001621246338,-0.8299997448921204,-0.7177030444145203,0.0,0.0,0.0
1759839020.9563897,0,-1.2050001621246338,-0.8299997448921204,-0.7177027333385215,0.0,True,0.010892629623413086,-1.2050001621246338,-0.8299997448921204,-0.7177030444145203,0.0,0.0,0.0
1759839020.967746,0,-1.2050001621246338,-0.8299997448921204,-0.7177027405187051,0.0,True,0.011356353759765625,-1.2050001621246338,-0.8299997448921204,-0.7177030444145203,0.0,0.0,0.0
1759839020.9789996,0,-1.2050001621246338,-0.8299997448921204,-0.717702749069737,0.0,True,0.011253595352172852,-1.2050001621246338,-0.8299997448921204,-0.7177030444145203,0.0,0.0,0.0
1759839020.9898305,0,-1.2050001621246338,-0.8299997448921204,-0.7177027605659809,0.0,True,0.010830879211425781,-1.2050001621246338,-0.8299997448921204,-0.7177030444145203,0.0,0.0,0.0
1759839021.0003042,0,-1.2050001621246338,-0.8299997448921204,-0.7177027734865487,0.0,True,0.01047372817993164,-1.2050001621246338,-0.8299997448921204,-0.7177030444145203,0.0,0.0,0.0
1759839021.0117059,0,-1.2050001621246338,-0.8299997448921204,-0.7177027799287643,0.0,True,0.011401653289794922,-1.2050001621246338,-0.8299997448921204,-0.7177030444145203,0.0,0.0,0.0
1759839021.0225053,0,-1.2050001621246338,-0.8299997448921204,-0.7177027899459834,0.0,True,0.010799407958984375,-1.2050001621246338,-0.8299997448921204,-0.7177030444145203,0.0,0.0,0.0
1759839021.0328941,0,-1.2050001621246338,-0.8299997448921204,-0.7177028016507947,0.0,True,0.010388851165771484,-1.2050001621246338,-0.8299997448921204,-0.7177030444145203,0.0,0.0,0.0
1759839021.0429013,0,-1.2050001621246338,-0.8299997448921204,-0.7177028139940571,0.0,True,0.010007143020629883,-1.2050001621246338,-0.8299997448921204,-0.7177030444145203,0.0,0.0,0.0
1759839021.0542393,0,-1.2050001621246338,-0.8299997448921204,-0.717702818191821,0.0,True,0.011337995529174805,-1.2050001621246338,-0.8299997448921204,-0.7177030444145203,0.0,0.0,0.0
1759839021.0645704,0,-1.2050001621246338,-0.8299997448921204,-0.7177028276117756,0.0,True,0.010331153869628906,-1.2050001621246338,-0.8299997448921204,-0.7177030444145203,0.0,0.0,0.0
1759839021.0754921,0,-1.2050001621246338,-0.8299997448921204,-0.7177028337483549,0.0,True,0.010921716690063477,-1.2050001621246338,-0.8299997448921204,-0.7177030444145203,0.0,0.0,0.0
1759839021.0859513,0,-1.2050001621246338,-0.8299997448921204,-0.7177028418707465,0.0,True,0.010459184646606445,-1.2050001621246338,-0.8299997448921204,-0.7177030444145203,0.0,0.0,0.0
1759839021.0967157,0,-1.2050001621246338,-0.8299997448921204,-0.7177028481960868,0.0,True,0.010764360427856445,-1.2050001621246338,-0.8299997448921204,-0.7177030444145203,0.0,0.0,0.0
1759839021.1070259,0,-1.2050001621246338,-0.8299997448921204,-0.7177028561987981,0.0,True,0.010310173034667969,-1.2050001621246338,-0.8299997448921204,-0.7177030444145203,0.0,0.0,0.0
1759839021.1176069,0,-1.2050001621246338,-0.8299997448921204,-0.7177028624796904,0.0,True,0.010581016540527344,-1.2050001621246338,-0.8299997448921204,-0.7177030444145203,0.0,0.0,0.0
1759839021.1276593,0,-1.2050001621246338,-0.8299997448921204,-0.7177028704525235,0.0,True,0.01005244255065918,-1.2050001621246338,-0.8299997448921204,-0.7177030444145203,0.0,0.0,0.0
1759839021.1378465,0,-1.2050001621246338,-0.8299997448921204,-0.7177028771086214,0.0,True,0.010187149047851562,-1.2050001621246338,-0.8299997448921204,-0.7177030444145203,0.0,0.0,0.0
1759839021.148074,0,-1.2050001621246338,-0.8299997448921204,-0.7177028829932475,0.0,True,0.010227441787719727,-1.2050001621246338,-0.8299997448921204,-0.7177030444145203,0.0,0.0,0.0
1759839021.1582127,0,-1.2050001621246338,-0.8299997448921204,-0.717702888778792,0.0,True,0.010138750076293945,-1.2050001621246338,-0.8299997448921204,-0.7177030444145203,0.0,0.0,0.0
1759839021.1711385,0,-1.2050001621246338,-0.8299997448921204,-0.717702884808606,0.0,True,0.012925863265991211,-1.2050001621246338,-0.8299997448921204,-0.7177030444145203,0.0,0.0,0.0
1759839021.182534,0,-1.2050001621246338,-0.8299997448921204,-0.7177028883561185,0.0,True,0.011395454406738281,-1.2050001621246338,-0.8299997448921204,-0.7177030444145203,0.0,0.0,0.0
1759839021.1925447,0,-1.2050001621246338,-0.8299997448921204,-0.7177028971539947,0.0,True,0.010010719299316406,-1.2050001621246338,-0.8299997448921204,-0.7177030444145203,0.0,0.0,0.0
1759839021.2033608,0,-1.2050001621246338,-0.8299997448921204,-0.7177029024344481,0.0,True,0.010816097259521484,-1.2050001621246338,-0.8299997448921204,-0.7177030444145203,0.0,0.0,0.0
1759839021.2139647,0,-1.2050001621246338,-0.8299997448921204,-0.7177029078865758,0.0,True,0.010603904724121094,-1.2050001621246338,-0.8299997448921204,-0.7177030444145203,0.0,0.0,0.0
1759839021.2250612,0,-1.2050001621246338,-0.8299997448921204,-0.7177029115820872,0.0,True,0.011096477508544922,-1.2050001621246338,-0.8299997448921204,-0.7177030444145203,0.0,0.0,0.0
1759839021.2353117,0,-1.2050001621246338,-0.8299997448921204,-0.7177029176605583,0.0,True,0.010250568389892578,-1.2050001621246338,-0.8299997448921204,-0.7177030444145203,0.0,0.0,0.0
1759839021.2469692,0,-1.2050001621246338,-0.8299997448921204,-0.7177029194725044,0.0,True,0.011657476425170898,-1.2050001621246338,-0.8299997448921204,-0.7177030444145203,0.0,0.0,0.0
1759839021.257411,0,-1.2050001621246338,-0.8299997448921204,-0.717702924879152,0.0,True,0.010441780090332031,-1.2050001621246338,-0.8299997448921204,-0.7177030444145203,0.0,0.0,0.0
1759839021.267528,0,-1.2050001621246338,-0.8299997448921204,-0.7177029307348448,0.0,True,0.010117053985595703,-1.2050001621246338,-0.8299997448921204,-0.7177030444145203,0.0,0.0,0.0
1759839021.27804,0,-1.2050001621246338,-0.8299997448921204,-0.7177029348994317,0.0,True,0.01051187515258789,-1.2050001621246338,-0.8299997448921204,-0.7177030444145203,0.0,0.0,0.0
1759839021.2887661,0,-1.2050001621246338,-0.8299997448921204,-0.7177029382165312,0.0,True,0.010726213455200195,-1.2050001621246338,-0.8299997448921204,-0.7177030444145203,0.0,0.0,0.0
1759839021.299647,0,-1.2050001621246338,-0.8299997448921204,-0.7177029411345881,0.0,True,0.01088094711303711,-1.2050001621246338,-0.8299997448921204,-0.7177030444145203,0.0,0.0,0.0
1759839021.3106601,0,-1.2050001621246338,-0.8299997448921204,-0.7177029438530234,0.0,True,0.011013031005859375,-1.2050001621246338,-0.8299997448921204,-0.7177030444145203,0.0,0.0,0.0
1759839021.3216856,0,-1.2050001621246338,-0.8299997448921204,-0.7177029466920999,0.0,True,0.011025428771972656,-1.2050001621246338,-0.8299997448921204,-0.7177030444145203,0.0,0.0,0.0
1759839021.3390036,0,-1.2050001621246338,-0.8299997448921204,-0.7177029373436117,0.0,True,0.017318010330200195,-1.2050001621246338,-0.8299997448921204,-0.7177030444145203,0.0,0.0,0.0
1759839021.346379,0,-1.2050001621246338,-0.8299997448921204,-0.7177029507204509,0.0,True,0.007375478744506836,-1.2050001621246338,-0.8299997448921204,-0.7177030444145203,0.0,0.0,0.0
1759839021.3564532,0,-1.2050001621246338,-0.8299997448921204,-0.7177029569112037,0.0,True,0.010074138641357422,-1.2050001621246338,-0.8299997448921204,-0.7177030444145203,0.0,0.0,0.0
1759839021.3678172,0,-1.2050001621246338,-0.8299997448921204,-0.7177029592947548,0.0,True,0.011363983154296875,-1.2050001621246338,-0.8299997448921204,-0.7177030444145203,0.0,0.0,0.0
1759839021.3779166,0,-1.2050001621246338,-0.8299997448921204,-0.7177029637615977,0.0,True,0.010099411010742188,-1.2050001621246338,-0.8299997448921204,-0.7177030444145203,0.0,0.0,0.0
1759839021.387932,0,-1.2050001621246338,-0.8299997448921204,-0.717702967833084,0.0,True,0.010015487670898438,-1.2050001621246338,-0.8299997448921204,-0.7177030444145203,0.0,0.0,0.0
1759839021.3979359,0,-1.2050001621246338,-0.8299997448921204,-0.7177029713253305,0.0,True,0.010003805160522461,-1.2050001621246338,-0.8299997448921204,-0.7177030444145203,0.0,0.0,0.0
1759839021.4086933,0,-1.2050001621246338,-0.8299997448921204,-0.7177029731740951,0.0,True,0.0107574462890625,-1.2050001621246338,-0.8299997448921204,-0.7177030444145203,0.0,0.0,0.0
1759839021.4193954,0,-1.2050001621246338,-0.8299997448921204,-0.7177029751162571,0.0,True,0.010702133178710938,-1.2050001621246338,-0.8299997448921204,-0.7177030444145203,0.0,0.0,0.0
1759839021.43062,0,-1.2050001621246338,-0.8299997448921204,-0.717702976358197,0.0,True,0.011224508285522461,-1.2050001621246338,-0.8299997448921204,-0.7177030444145203,0.0,0.0,0.0
1759839021.4414427,0,-1.2050001621246338,-0.8299997448921204,-0.7177029784241888,0.0,True,0.010822772979736328,-1.2050001621246338,-0.8299997448921204,-0.7177030444145203,0.0,0.0,0.0
1759839021.4529347,0,-1.2050001621246338,-0.8299997448921204,-0.7177029796307188,0.0,True,0.011492013931274414,-1.2050001621246338,-0.8299997448921204,-0.7177030444145203,0.0,0.0,0.0
1759839021.4632602,0,-1.2050001621246338,-0.8299997448921204,-0.7177029826162986,0.0,True,0.010325431823730469,-1.2050001621246338,-0.8299997448921204,-0.7177030444145203,0.0,0.0,0.0
1759839021.4743264,0,-1.2050001621246338,-0.8299997448921204,-0.7177029844134317,0.0,True,0.011066198348999023,-1.2050001621246338,-0.8299997448921204,-0.7177030444145203,0.0,0.0,0.0
1759839021.4847505,0,-1.2050001621246338,-0.8299997448921204,-0.7177029869707781,0.0,True,0.010424137115478516,-1.2050001621246338,-0.8299997448921204,-0.7177030444145203,0.0,0.0,0.0
1759839021.4959583,0,-1.2050001621246338,-0.8299997448921204,-0.717702988389906,0.0,True,0.011207818984985352,-1.2050001621246338,-0.8299997448921204,-0.7177030444145203,0.0,0.0,0.0
1759839021.5064597,0,-1.2050001621246338,-0.8299997448921204,-0.7177029906777772,0.0,True,0.010501384735107422,-1.2050001621246338,-0.8299997448921204,-0.7177030444145203,0.0,0.0,0.0
1759839021.51685,0,-1.2050001621246338,-0.8299997448921204,-0.7177029929355427,0.0,True,0.010390281677246094,-1.2050001621246338,-0.8299997448921204,-0.7177030444145203,0.0,0.0,0.0
1759839021.5273178,0,-1.2050001621246338,-0.8299997448921204,-0.7177029948883309,0.0,True,0.010467767715454102,-1.2050001621246338,-0.8299997448921204,-0.7177030444145203,0.0,0.0,0.0
1759839021.5417078,0,-1.2050001621246338,-0.8299997448921204,-0.7177029926614509,0.0,True,0.014389991760253906,-1.2050001621246338,-0.8299997448921204,-0.7177030444145203,0.0,0.0,0.0
1759839021.5530753,0,-1.2050001621246338,-0.8299997448921204,-0.7177029945784632,0.0,True,0.011367559432983398,-1.2050001621246338,-0.8299997448921204,-0.7177030444145203,0.0,0.0,0.0
1759839021.5645726,0,-1.2050001621246338,-0.8299997448921204,-0.717702996535488,0.0,True,0.011497259140014648,-1.2050001621246338,-0.8299997448921204,-0.7177030444145203,0.0,0.0,0.0
1759839021.5750217,0,-1.2050001621246338,-0.8299997448921204,-0.7177029993489867,0.0,True,0.01044917106628418,-1.2050001621246338,-0.8299997448921204,-0.7177030444145203,0.0,0.0,0.0
1759839021.5862765,0,-1.2050001621246338,-0.8299997448921204,-0.7177030010576129,0.0,True,0.01125478744506836,-1.2050001621246338,-0.8299997448921204,-0.7177030444145203,0.0,0.0,0.0
1759839021.5976944,0,-1.2050001621246338,-0.8299997448921204,-0.7177030024819668,0.0,True,0.011417865753173828,-1.2050001621246338,-0.8299997448921204,-0.7177030444145203,0.0,0.0,0.0
1759839021.6078296,0,-1.2050001621246338,-0.8299997448921204,-0.7177030049341884,0.0,True,0.010135173797607422,-1.2050001621246338,-0.8299997448921204,-0.7177030444145203,0.0,0.0,0.0
1759839021.6180525,0,-1.2050001621246338,-0.8299997448921204,-0.7177030069752366,0.0,True,0.010222911834716797,-1.2050001621246338,-0.8299997448921204,-0.7177030444145203,0.0,0.0,0.0
1759839021.629496,0,-1.2050001621246338,-0.8299997448921204,-0.7177030077657669,0.0,True,0.011443614959716797,-1.2050001621246338,-0.8299997448921204,-0.7177030444145203,0.0,0.0,0.0
1759839021.6407971,0,-1.2050001621246338,-0.8299997448921204,-0.7177030087233707,0.0,True,0.011301040649414062,-1.2050001621246338,-0.8299997448921204,-0.7177030444145203,0.0,0.0,0.0
1759839021.652218,0,-1.2050001621246338,-0.8299997448921204,-0.7177030096723431,0.0,True,0.011420965194702148,-1.2050001621246338,-0.8299997448921204,-0.7177030444145203,0.0,0.0,0.0
1759839021.6624186,0,-1.2050001621246338,-0.8299997448921204,-0.717703011525785,0.0,True,0.01020050048828125,-1.2050001621246338,-0.8299997448921204,-0.7177030444145203,0.0,0.0,0.0
1759839021.6736386,0,-1.2050001621246338,-0.8299997448921204,-0.7177030124772887,0.0,True,0.011219978332519531,-1.2050001621246338,-0.8299997448921204,-0.7177030444145203,0.0,0.0,0.0
1759839021.684766,0,-1.2050001621246338,-0.8299997448921204,-0.7177030134649094,0.0,True,0.011127471923828125,-1.2050001621246338,-0.8299997448921204,-0.7177030444145203,0.0,0.0,0.0
1759839021.695235,0,-1.2050001621246338,-0.8299997448921204,-0.717703014866963,0.0,True,0.01046895980834961,-1.2050001621246338,-0.8299997448921204,-0.7177030444145203,0.0,0.0,0.0
1759839021.7056653,0,-1.2050001621246338,-0.8299997448921204,-0.7177030161580245,0.0,True,0.010430335998535156,-1.2050001621246338,-0.8299997448921204,-0.7177030444145203,0.0,0.0,0.0
1759839021.7158124,0,-1.2050001621246338,-0.8299997448921204,-0.717703017470761,0.0,True,0.0101470947265625,-1.2050001621246338,-0.8299997448921204,-0.7177030444145203,0.0,0.0,0.0
1759839021.7263565,0,-1.2050001621246338,-0.8299997448921204,-0.7177030183963797,0.0,True,0.010544061660766602,-1.2050001621246338,-0.8299997448921204,-0.7177030444145203,0.0,0.0,0.0
1759839021.7441838,0,-1.2050001621246338,-0.8299997448921204,-0.7177030153507946,0.0,True,0.017827272415161133,-1.2050001621246338,-0.8299997448921204,-0.7177030444145203,0.0,0.0,0.0
1759839021.7552798,0,-1.2050001621246338,-0.8299997448921204,-0.7177030170029042,0.0,True,0.011096000671386719,-1.2050001621246338,-0.8299997448921204,-0.7177030444145203,0.0,0.0,0.0
1759839021.766302,0,-1.2050001621246338,-0.8299997448921204,-0.7177030187173159,0.0,True,0.011022329330444336,-1.2050001621246338,-0.8299997448921204,-0.7177030444145203,0.0,0.0,0.0
1759839021.7766252,0,-1.2050001621246338,-0.8299997448921204,-0.7177030204923049,0.0,True,0.010323047637939453,-1.2050001621246338,-0.8299997448921204,-0.7177030444145203,0.0,0.0,0.0
1759839021.7880788,0,-1.2050001621246338,-0.8299997448921204,-0.7177030214250255,0.0,True,0.011453628540039062,-1.2050001621246338,-0.8299997448921204,-0.7177030444145203,0.0,0.0,0.0
1759839021.7984529,0,-1.2050001621246338,-0.8299997448921204,-0.7177030227372931,0.0,True,0.010374069213867188,-1.2050001621246338,-0.8299997448921204,-0.7177030444145203,0.0,0.0,0.0
1759839021.809479,0,-1.2050001621246338,-0.8299997448921204,-0.7177030235863562,0.0,True,0.011026144027709961,-1.2050001621246338,-0.8299997448921204,-0.7177030444145203,0.0,0.0,0.0
1759839021.8208766,0,-1.2050001621246338,-0.8299997448921204,-0.7177030241983484,0.0,True,0.011397600173950195,-1.2050001621246338,-0.8299997448921204,-0.7177030444145203,0.0,0.0,0.0
1759839021.8334088,0,-1.2050001621246338,-0.8299997448921204,-0.7177030243648144,0.0,True,0.012532234191894531,-1.2050001621246338,-0.8299997448921204,-0.7177030444145203,0.0,0.0,0.0
1759839021.8442805,0,-1.2050001621246338,-0.8299997448921204,-0.7177030253197199,0.0,True,0.010871648788452148,-1.2050001621246338,-0.8299997448921204,-0.7177030444145203,0.0,0.0,0.0
1759839021.85441,0,-1.2050001621246338,-0.8299997448921204,-0.7177030264841431,0.0,True,0.010129451751708984,-1.2050001621246338,-0.8299997448921204,-0.7177030444145203,0.0,0.0,0.0
1759839021.8654506,0,-1.2050001621246338,-0.8299997448921204,-0.7177030271352436,0.0,True,0.011040687561035156,-1.2050001621246338,-0.8299997448921204,-0.7177030444145203,0.0,0.0,0.0
1759839021.8759704,0,-1.2050001621246338,-0.8299997448921204,-0.7177030279059089,0.0,True,0.010519742965698242,-1.2050001621246338,-0.8299997448921204,-0.7177030444145203,0.0,0.0,0.0
1759839021.8864923,0,-1.2050001621246338,-0.8299997448921204,-0.717703028597759,0.0,True,0.010521888732910156,-1.2050001621246338,-0.8299997448921204,-0.7177030444145203,0.0,0.0,0.0
1759839021.8968644,0,-1.2050001621246338,-0.8299997448921204,-0.7177030292665147,0.0,True,0.010372161865234375,-1.2050001621246338,-0.8299997448921204,-0.7177030444145203,0.0,0.0,0.0
1759839021.9083097,0,-1.2050001621246338,-0.8299997448921204,-0.7177030295276197,0.0,True,0.011445283889770508,-1.2050001621246338,-0.8299997448921204,-0.7177030444145203,0.0,0.0,0.0
1759839021.9193904,0,-1.2050001621246338,-0.8299997448921204,-0.7177030299462146,0.0,True,0.011080741882324219,-1.2050001621246338,-0.8299997448921204,-0.7177030444145203,0.0,0.0,0.0
1759839021.9308035,0,-1.2050001621246338,-0.8299997448921204,-0.7177030302894458,0.0,True,0.011413097381591797,-1.2050001621246338,-0.8299997448921204,-0.7177030444145203,0.0,0.0,0.0
1759839021.941103,0,-1.2050001621246338,-0.8299997448921204,-0.7177030309809407,0.0,True,0.010299444198608398,-1.2050001621246338,-0.8299997448921204,-0.7177030444145203,0.0,0.0,0.0
1759839021.951873,0,-1.2050001621246338,-0.8299997448921204,-0.7177030314721655,0.0,True,0.010770082473754883,-1.2050001621246338,-0.8299997448921204,-0.7177030444145203,0.0,0.0,0.0
1759839021.9622235,0,-1.2050001621246338,-0.8299997448921204,-0.7177030320348052,0.0,True,0.010350465774536133,-1.2050001621246338,-0.8299997448921204,-0.7177030444145203,0.0,0.0,0.0
1759839021.972225,0,-1.2050001621246338,-0.8299997448921204,-0.7177030326304106,0.0,True,0.010001420974731445,-1.2050001621246338,-0.8299997448921204,-0.7177030444145203,0.0,0.0,0.0
1759839021.9832315,0,-1.2050001621246338,-0.8299997448921204,-0.7177030328970346,0.0,True,0.011006593704223633,-1.2050001621246338,-0.8299997448921204,-0.7177030444145203,0.0,0.0,0.0
1759839022.0121844,0,-1.2050001621246338,-0.8299997448921204,-0.717703029089888,0.0,True,0.028952836990356445,-1.2050001621246338,-0.8299997448921204,-0.7177030444145203,0.0,0,0
1759839022.0226793,0,-1.2050001621246338,-0.8299997448921204,-0.7177030307438717,0.0,True,0.01049494743347168,-1.2050001621246338,-0.8299997448921204,-0.7177030444145203,0.0,0,0
1759839022.0329683,0,-1.2050001621246338,-0.8299997448921204,-0.7177030323296751,0.0,True,0.01028895378112793,-1.2050001621246338,-0.8299997448921204,-0.7177030444145203,0.0,0,0
1759839022.0444424,0,-1.2050001621246338,-0.8299997448921204,-0.7177030332887959,0.0,True,0.011474132537841797,-1.2050001621246338,-0.8299997448921204,-0.7177030444145203,0.0,0,0
1759839022.055162,0,-1.2050001621246338,-0.8299997448921204,-0.7177030341712314,0.0,True,0.010719537734985352,-1.2050001621246338,-0.8299997448921204,-0.7177030444145203,0.0,0,0
1759839022.065867,0,-1.2050001621246338,-0.8299997448921204,-0.7177030348753295,0.0,True,0.010704994201660156,-1.2050001621246338,-0.8299997448921204,-0.7177030444145203,0.0,0,0
1759839022.0763254,0,-1.2050001621246338,-0.8299997448921204,-0.717703035485421,0.0,True,0.01045846939086914,-1.2050001621246338,-0.8299997448921204,-0.7177030444145203,0.0,0,0
1759839022.087723,0,-1.2050001621246338,-0.8299997448921204,-0.7177030358218772,0.0,True,0.011397600173950195,-1.2050001621246338,-0.8299997448921204,-0.7177030444145203,0.0,0,0
1759839022.0986078,0,-1.2050001621246338,-0.8299997448921204,-0.7177030362099508,0.0,True,0.010884761810302734,-1.2050001621246338,-0.8299997448921204,-0.7177030444145203,0.0,0,0
1759839022.1086674,0,-1.2050001621246338,-0.8299997448921204,-0.7177030366919226,0.0,True,0.010059595108032227,-1.2050001621246338,-0.8299997448921204,-0.7177030444145203,0.0,0,0
1759839022.1188176,0,-1.2050001621246338,-0.8299997448921204,-0.7177030370838704,0.0,True,0.01015019416809082,-1.2050001621246338,-0.8299997448921204,-0.7177030444145203,0.0,0,0
1759839022.1296418,0,-1.2050001621246338,-0.8299997448921204,-0.7177030373114093,0.0,True,0.010824203491210938,-1.2050001621246338,-0.8299997448921204,-0.7177030444145203,0.0,0,0
1759839022.140885,0,-1.2050001621246338,-0.8299997448921204,-0.7177030374635365,0.0,True,0.011243343353271484,-1.2050001621246338,-0.8299997448921204,-0.7177030444145203,0.0,0,0
1759839022.1519916,0,-1.2050001621246338,-0.8299997448921204,-0.7177030376511162,0.0,True,0.011106491088867188,-1.2050001621246338,-0.8299997448921204,-0.7177030444145203,0.0,0,0
1759839022.1636164,0,-1.2050001621246338,-0.8299997448921204,-0.7177030377769711,0.0,True,0.011624813079833984,-1.2050001621246338,-0.8299997448921204,-0.7177030444145203,0.0,0,0
1759839022.1736262,0,-1.2050001621246338,-0.8299997448921204,-0.7177030381418206,0.0,True,0.010009765625,-1.2050001621246338,-0.8299997448921204,-0.7177030444145203,0.0,0,0
1759839022.1844983,0,-1.2050001621246338,-0.8299997448921204,-0.7177030383514875,0.0,True,0.010872125625610352,-1.2050001621246338,-0.8299997448921204,-0.7177030444145203,0.0,0,0
1759839022.1960073,0,-1.2050001621246338,-0.8299997448921204,-0.7177030384659524,0.0,True,0.011508941650390625,-1.2050001621246338,-0.8299997448921204,-0.7177030444145203,0.0,0,0
1759839022.2069983,0,-1.2050001621246338,-0.8299997448921204,-0.7177030386617052,0.0,True,0.010991096496582031,-1.2050001621246338,-0.8299997448921204,-0.7177030444145203,0.0,0,0
1759839022.2184246,0,-1.2050001621246338,-0.8299997448921204,-0.7177030388068406,0.0,True,0.011426210403442383,-1.2050001621246338,-0.8299997448921204,-0.7177030444145203,0.0,0,0
1759839022.229283,0,-1.2050001621246338,-0.8299997448921204,-0.7177030390242827,0.0,True,0.010858535766601562,-1.2050001621246338,-0.8299997448921204,-0.7177030444145203,0.0,0,0
1759839022.2404923,0,-1.2050001621246338,-0.8299997448921204,-0.7177030391924362,0.0,True,0.011209249496459961,-1.2050001621246338,-0.8299997448921204,-0.7177030444145203,0.0,0,0
1759839022.250723,0,-1.2050001621246338,-0.8299997448921204,-0.7177030394596358,0.0,True,0.010230541229248047,-1.2050001621246338,-0.8299997448921204,-0.7177030444145203,0.0,0,0
1759839022.2621028,0,-1.2050001621246338,-0.8299997448921204,-0.7177030395783888,0.0,True,0.01137995719909668,-1.2050001621246338,-0.8299997448921204,-0.7177030444145203,0.0,0,0
1759839022.2728572,0,-1.2050001621246338,-0.8299997448921204,-0.7177030397616093,0.0,True,0.01075434684753418,-1.2050001621246338,-0.8299997448921204,-0.7177030444145203,0.0,0,0
1759839022.2832973,0,-1.2050001621246338,-0.8299997448921204,-0.71770303996556,0.0,True,0.01044011116027832,-1.2050001621246338,-0.8299997448921204,-0.7177030444145203,0.0,0,0
1759839022.2936404,0,-1.2050001621246338,-0.8299997448921204,-0.7177030401573568,0.0,True,0.010343074798583984,-1.2050001621246338,-0.8299997448921204,-0.7177030444145203,0.0,0,0
1759839022.3048646,0,-1.2050001621246338,-0.8299997448921204,-0.717703040249777,0.0,True,0.01122426986694336,-1.2050001621246338,-0.8299997448921204,-0.7177030444145203,0.0,0,0
1759839022.3156197,0,-1.2050001621246338,-0.8299997448921204,-0.7177030403891855,0.0,True,0.010755062103271484,-1.2050001621246338,-0.8299997448921204,-0.7177030444145203,0.0,0,0
1759839022.3260577,0,-1.2050001621246338,-0.8299997448921204,-0.7177030405524754,0.0,True,0.010437965393066406,-1.2050001621246338,-0.8299997448921204,-0.7177030444145203,0.0,0,0
1759839022.3364763,0,-1.2050001621246338,-0.8299997448921204,-0.7177030407036433,0.0,True,0.01041865348815918,-1.2050001621246338,-0.8299997448921204,-0.7177030444145203,0.0,0,0
1759839022.3482554,0,-1.2050001621246338,-0.8299997448921204,-0.7177030407360334,0.0,True,0.011779069900512695,-1.2050001621246338,-0.8299997448921204,-0.7177030444145203,0.0,0,0
1759839022.3594246,0,-1.2050001621246338,-0.8299997448921204,-0.7177030408358256,0.0,True,0.011169195175170898,-1.2050001621246338,-0.8299997448921204,-0.7177030444145203,0.0,0,0
1759839022.3705335,0,-1.2050001621246338,-0.8299997448921204,-0.7177030409486136,0.0,True,0.011108875274658203,-1.2050001621246338,-0.8299997448921204,-0.7177030444145203,0.0,0,0
1759839022.3807664,0,-1.2050001621246338,-0.8299997448921204,-0.7177030411225971,0.0,True,0.010232925415039062,-1.2050001621246338,-0.8299997448921204,-0.7177030444145203,0.0,0,0
1759839022.391129,0,-1.2050001621246338,-0.8299997448921204,-0.7177030412674412,0.0,True,0.010362625122070312,-1.2050001621246338,-0.8299997448921204,-0.7177030444145203,0.0,0,0
1759839022.4021516,0,-1.2050001621246338,-0.8299997448921204,-0.7177030413516334,0.0,True,0.011022567749023438,-1.2050001621246338,-0.8299997448921204,-0.7177030444145203,0.0,0,0
1759839022.4128413,0,-1.2050001621246338,-0.8299997448921204,-0.717703041457245,0.0,True,0.010689735412597656,-1.2050001621246338,-0.8299997448921204,-0.7177030444145203,0.0,0,0
1759839022.4234648,0,-1.2050001621246338,-0.8299997448921204,-0.7177030415634462,0.0,True,0.010623455047607422,-1.2050001621246338,-0.8299997448921204,-0.7177030444145203,0.0,0,0
1759839022.4342422,0,-1.2050001621246338,-0.8299997448921204,-0.7177030416545822,0.0,True,0.010777473449707031,-1.2050001621246338,-0.8299997448921204,-0.7177030444145203,0.0,0,0
1759839022.4446182,0,-1.2050001621246338,-0.8299997448921204,-0.7177030417659616,0.0,True,0.0103759765625,-1.2050001621246338,-0.8299997448921204,-0.7177030444145203,0.0,0,0
1759839022.4551702,0,-1.2050001621246338,-0.8299997448921204,-0.7177030418586376,0.0,True,0.010551929473876953,-1.2050001621246338,-0.8299997448921204,-0.7177030444145203,0.0,0,0
1759839022.4664283,0,-1.2050001621246338,-0.8299997448921204,-0.7177030419077202,0.0,True,0.011258125305175781,-1.2050001621246338,-0.8299997448921204,-0.7177030444145203,0.0,0,0
1759839022.4767199,0,-1.2050001621246338,-0.8299997448921204,-0.717703042014147,0.0,True,0.010291576385498047,-1.2050001621246338,-0.8299997448921204,-0.7177030444145203,0.0,0,0
1759839022.4880233,0,-1.2050001621246338,-0.8299997448921204,-0.7177030420623325,0.0,True,0.011303424835205078,-1.2050001621246338,-0.8299997448921204,-0.7177030444145203,0.0,0,0
1759839022.4992163,0,-1.2050001621246338,-0.8299997448921204,-0.7177030421214745,0.0,True,0.011193037033081055,-1.2050001621246338,-0.8299997448921204,-0.7177030444145203,0.0,0,0
1759839022.5104315,0,-1.2050001621246338,-0.8299997448921204,-0.7177030421850255,0.0,True,0.0112152099609375,-1.2050001621246338,-0.8299997448921204,-0.7177030444145203,0.0,0,0
1759839022.520711,0,-1.2050001621246338,-0.8299997448921204,-0.7177030422936532,0.0,True,0.010279417037963867,-1.2050001621246338,-0.8299997448921204,-0.7177030444145203,0.0,0,0
1759839022.5319757,0,-1.2050001621246338,-0.8299997448921204,-0.7177030423480204,0.0,True,0.011264801025390625,-1.2050001621246338,-0.8299997448921204,-0.7177030444145203,0.0,0,0
1759839022.5429015,0,-1.2050001621246338,-0.8299997448921204,-0.7177030424176571,0.0,True,0.010925769805908203,-1.2050001621246338,-0.8299997448921204,-0.7177030444145203,0.0,0,0
1759839022.553144,0,-1.2050001621246338,-0.8299997448921204,-0.7177030425138398,0.0,True,0.010242462158203125,-1.2050001621246338,-0.8299997448921204,-0.7177030444145203,0.0,0,0
1759839022.564394,0,-1.2050001621246338,-0.8299997448921204,-0.7177030425597426,0.0,True,0.011250019073486328,-1.2050001621246338,-0.8299997448921204,-0.7177030444145203,0.0,0,0
1759839022.5756469,0,-1.2050001621246338,-0.8299997448921204,-0.7177030426072761,0.0,True,0.011252880096435547,-1.2050001621246338,-0.8299997448921204,-0.7177030444145203,0.0,0,0
1759839022.5867069,0,-1.2050001621246338,-0.8299997448921204,-0.7177030426655726,0.0,True,0.011059999465942383,-1.2050001621246338,-0.8299997448921204,-0.7177030444145203,0.0,0,0
1759839022.5969515,0,-1.2050001621246338,-0.8299997448921204,-0.7177030427525377,0.0,True,0.010244607925415039,-1.2050001621246338,-0.8299997448921204,-0.7177030444145203,0.0,0,0
1759839022.60769,0,-1.2050001621246338,-0.8299997448921204,-0.7177030428126407,0.0,True,0.010738611221313477,-1.2050001621246338,-0.8299997448921204,-0.7177030444145203,0.0,0,0
1759839022.6179228,0,-1.2050001621246338,-0.8299997448921204,-0.717703042884672,0.0,True,0.010232686996459961,-1.2050001621246338,-0.8299997448921204,-0.7177030444145203,0.0,0,0
1759839022.6291363,0,-1.2050001621246338,-0.8299997448921204,-0.7177030429177567,0.0,True,0.011213541030883789,-1.2050001621246338,-0.8299997448921204,-0.7177030444145203,0.0,0,0
1759839022.640445,0,-1.2050001621246338,-0.8299997448921204,-0.7177030429505216,0.0,True,0.011308670043945312,-1.2050001621246338,-0.8299997448921204,-0.7177030444145203,0.0,0,0
1759839022.650784,0,-1.2050001621246338,-0.8299997448921204,-0.7177030430167868,0.0,True,0.010339021682739258,-1.2050001621246338,-0.8299997448921204,-0.7177030444145203,0.0,0,0
1759839022.6616912,0,-1.2050001621246338,-0.8299997448921204,-0.7177030430610607,0.0,True,0.010907173156738281,-1.2050001621246338,-0.8299997448921204,-0.7177030444145203,0.0,0,0
1759839022.6721196,0,-1.2050001621246338,-0.8299997448921204,-0.7177030431169023,0.0,True,0.010428428649902344,-1.2050001621246338,-0.8299997448921204,-0.7177030444145203,0.0,0,0
1759839022.6821585,0,-1.2050001621246338,-0.8299997448921204,-0.7177030431786839,0.0,True,0.01003885269165039,-1.2050001621246338,-0.8299997448921204,-0.7177030444145203,0.0,0,0
1759839022.6922038,0,-1.2050001621246338,-0.8299997448921204,-0.7177030432325662,0.0,True,0.010045289993286133,-1.2050001621246338,-0.8299997448921204,-0.7177030444145203,0.0,0,0
1759839022.7026467,0,-1.2050001621246338,-0.8299997448921204,-0.7177030432697649,0.0,True,0.010442972183227539,-1.2050001621246338,-0.8299997448921204,-0.7177030444145203,0.0,0,0
1759839022.7141218,0,-1.2050001621246338,-0.8299997448921204,-0.7177030432798119,0.0,True,0.011475086212158203,-1.2050001621246338,-0.8299997448921204,-0.7177030444145203,0.0,0,0
1759839022.7242362,0,-1.2050001621246338,-0.8299997448921204,-0.7177030433289211,0.0,True,0.010114431381225586,-1.2050001621246338,-0.8299997448921204,-0.7177030444145203,0.0,0,0
1759839022.7343624,0,-1.2050001621246338,-0.8299997448921204,-0.7177030433745628,0.0,True,0.010126113891601562,-1.2050001621246338,-0.8299997448921204,-0.7177030444145203,0.0,0,0
1759839022.7511601,0,-1.2050001621246338,-0.8299997448921204,-0.7177030432696743,0.0,True,0.016797780990600586,-1.2050001621246338,-0.8299997448921204,-0.7177030444145203,0.0,0,0
1759839022.7623117,0,-1.2050001621246338,-0.8299997448921204,-0.717703043325951,0.0,True,0.011151552200317383,-1.2050001621246338,-0.8299997448921204,-0.7177030444145203,0.0,0,0
1759839022.772858,0,-1.2050001621246338,-0.8299997448921204,-0.717703043397032,0.0,True,0.010546207427978516,-1.2050001621246338,-0.8299997448921204,-0.7177030444145203,0.0,0,0
1759839022.7831132,0,-1.2050001621246338,-0.8299997448921204,-0.7177030434623077,0.0,True,0.01025533676147461,-1.2050001621246338,-0.8299997448921204,-0.7177030444145203,0.0,0,0
1759839022.7937605,0,-1.2050001621246338,-0.8299997448921204,-0.7177030435085321,0.0,True,0.010647296905517578,-1.2050001621246338,-0.8299997448921204,-0.7177030444145203,0.0,0,0
1759839022.8039262,0,-1.2050001621246338,-0.8299997448921204,-0.717703043556801,0.0,True,0.010165691375732422,-1.2050001621246338,-0.8299997448921204,-0.7177030444145203,0.0,0,0
1759839022.8140357,0,-1.2050001621246338,-0.8299997448921204,-0.7177030435990446,0.0,True,0.010109424591064453,-1.2050001621246338,-0.8299997448921204,-0.7177030444145203,0.0,0,0
1759839022.8251548,0,-1.2050001621246338,-0.8299997448921204,-0.7177030436180019,0.0,True,0.01111912727355957,-1.2050001621246338,-0.8299997448921204,-0.7177030444145203,0.0,0,0
1759839022.8384812,0,-1.2050001621246338,-0.8299997448921204,-0.7177030436016612,0.0,True,0.013326406478881836,-1.2050001621246338,-0.8299997448921204,-0.7177030444145203,0.0,0,0
1759839022.849961,0,-1.2050001621246338,-0.8299997448921204,-0.7177030436275231,0.0,True,0.011479854583740234,-1.2050001621246338,-0.8299997448921204,-0.7177030444145203,0.0,0,0
1759839022.8613918,0,-1.2050001621246338,-0.8299997448921204,-0.7177030436567833,0.0,True,0.011430740356445312,-1.2050001621246338,-0.8299997448921204,-0.7177030444145203,0.0,0,0
1759839022.8722274,0,-1.2050001621246338,-0.8299997448921204,-0.7177030436937493,0.0,True,0.010835647583007812,-1.2050001621246338,-0.8299997448921204,-0.7177030444145203,0.0,0,0
1759839022.8822343,0,-1.2050001621246338,-0.8299997448921204,-0.7177030437384246,0.0,True,0.010006904602050781,-1.2050001621246338,-0.8299997448921204,-0.7177030444145203,0.0,0,0
1759839022.892408,0,-1.2050001621246338,-0.8299997448921204,-0.7177030437735077,0.0,True,0.010173559188842773,-1.2050001621246338,-0.8299997448921204,-0.7177030444145203,0.0,0,0
1759839022.9038072,0,-1.2050001621246338,-0.8299997448921204,-0.7177030437867984,0.0,True,0.011399269104003906,-1.2050001621246338,-0.8299997448921204,-0.7177030444145203,0.0,0,0
1759839022.914688,0,-1.2050001621246338,-0.8299997448921204,-0.7177030438077381,0.0,True,0.01088094711303711,-1.2050001621246338,-0.8299997448921204,-0.7177030444145203,0.0,0,0
1759839022.925259,0,-1.2050001621246338,-0.8299997448921204,-0.7177030438323335,0.0,True,0.010571002960205078,-1.2050001621246338,-0.8299997448921204,-0.7177030444145203,0.0,0,0
1759839022.9355354,0,-1.2050001621246338,-0.8299997448921204,-0.7177030438585241,0.0,True,0.010276317596435547,-1.2050001621246338,-0.8299997448921204,-0.7177030444145203,0.0,0,0
1759839022.9494328,0,-1.2050001621246338,-0.8299997448921204,-0.717703043840233,0.0,True,0.013897418975830078,-1.2050001621246338,-0.8299997448921204,-0.7177030444145203,0.0,0,0
1759839022.960726,0,-1.2050001621246338,-0.8299997448921204,-0.7177030438612757,0.0,True,0.011293172836303711,-1.2050001621246338,-0.8299997448921204,-0.7177030444145203,0.0,0,0
1759839022.9721603,0,-1.2050001621246338,-0.8299997448921204,-0.7177030438822243,0.0,True,0.011434316635131836,-1.2050001621246338,-0.8299997448921204,-0.7177030444145203,0.0,0,0
1759839022.9824777,0,-1.2050001621246338,-0.8299997448921204,-0.7177030439136303,0.0,True,0.010317325592041016,-1.2050001621246338,-0.8299997448921204,-0.7177030444145203,0.0,0,0
1759839022.9938076,0,-1.2050001621246338,-0.8299997448921204,-0.7177030439305483,0.0,True,0.011329889297485352,-1.2050001621246338,-0.8299997448921204,-0.7177030444145203,0.0,0,0
1759839023.0052607,0,-1.2050001621246338,-0.8299997448921204,-0.7177030439451997,0.0,True,0.01145315170288086,-1.2050001621246338,-0.8299997448921204,-0.7177030444145203,0.0,0.5235987755982988,0.030600147618992955
