timestamp,vehicle_id,x,y,theta,velocity,gps_available,dt,gps_x,gps_y,gps_theta,gps_velocity,control_steering,control_acceleration
1759839019.47259,1,-1.735,-0.35,-0.7801621756414647,0.0,False,0.01,nan,nan,nan,nan,0.0,0.0
1759839019.483631,1,-1.735,-0.35,-0.7801621756414647,0.0,False,0.011040925979614258,nan,nan,nan,nan,0.0,0.0
1759839019.494806,1,-1.735,-0.35,-0.7801621756414647,0.0,False,0.011175155639648438,nan,nan,nan,nan,0.0,0.0
1759839019.5061228,1,-1.735,-0.35,-0.7801621756414647,0.0,False,0.011316776275634766,nan,nan,nan,nan,0.0,0.0
1759839019.5171728,1,-1.735,-0.35,-0.7801621756414647,0.0,False,0.011049985885620117,nan,nan,nan,nan,0.0,0.0
1759839019.5285988,1,-1.735,-0.35,-0.7801621756414647,0.0,False,0.011425971984863281,nan,nan,nan,nan,0.0,0.0
1759839019.5389218,1,-1.735,-0.35,-0.7801621756414647,0.0,False,0.010323047637939453,nan,nan,nan,nan,0.0,0.0
1759839019.5491161,1,-1.735,-0.35,-0.7801621756414647,0.0,False,0.01019430160522461,nan,nan,nan,nan,0.0,0.0
1759839019.5594735,1,-1.735,-0.35,-0.7801621756414647,0.0,False,0.010357379913330078,nan,nan,nan,nan,0.0,0.0
1759839019.5709674,1,-1.735,-0.35,-0.7801621756414647,0.0,False,0.011493921279907227,nan,nan,nan,nan,0.0,0.0
1759839019.5813444,1,-1.735,-0.35,-0.7801621756414647,0.0,False,0.010376930236816406,nan,nan,nan,nan,0.0,0.0
1759839019.5914695,1,-1.735,-0.35,-0.7801621756414647,0.0,False,0.010125160217285156,nan,nan,nan,nan,0.0,0.0
1759839019.6018887,1,-1.735,-0.35,-0.7801621756414647,0.0,False,0.010419130325317383,nan,nan,nan,nan,0.0,0.0
1759839019.6128004,1,-1.735,-0.35,-0.7801621756414647,0.0,False,0.010911703109741211,nan,nan,nan,nan,0.0,0.0
1759839019.623112,1,-1.735,-0.35,-0.7801621756414647,0.0,False,0.010311603546142578,nan,nan,nan,nan,0.0,0.0
1759839019.6336255,1,-1.735,-0.35,-0.7801621756414647,0.0,False,0.010513544082641602,nan,nan,nan,nan,0.0,0.0
1759839019.6443958,1,-1.735,-0.35,-0.7801621756414647,0.0,False,0.010770320892333984,nan,nan,nan,nan,0.0,0.0
1759839019.654659,1,-1.735,-0.35,-0.7801621756414647,0.0,False,0.010263204574584961,nan,nan,nan,nan,0.0,0.0
1759839019.6688623,1,-1.7350000141859054,-0.34999987587332726,-0.722999563501542,0.0,True,0.014203310012817383,-1.7350000143051147,-0.34999987483024597,-0.7177032828330994,0.0,0.0,0.0
1759839019.6792064,1,-1.7350000142652677,-0.34999987517890824,-0.7181191700623053,0.0,True,0.01034402847290039,-1.7350000143051147,-0.34999987483024597,-0.7177032828330994,0.0,0.0,0.0
1759839019.689412,1,-1.735000014290167,-0.34999987496103985,-0.7176610863365553,0.0,True,0.010205745697021484,-1.7350000143051147,-0.34999987483024597,-0.7177032828330994,0.0,0.0,0.0
1759839019.7003374,1,-1.73500001429942,-0.34999987488007467,-0.7175974919092152,0.0,True,0.01092529296875,-1.7350000143051147,-0.34999987483024597,-0.7177032828330994,0.0,0.0,0.0
1759839019.711608,1,-1.7350000143029403,-0.3499998748492716,-0.7175881852008033,0.0,True,0.011270523071289062,-1.7350000143051147,-0.34999987483024597,-0.7177032828330994,0.0,0.0,0.0
1759839019.722035,1,-1.7350000143042843,-0.3499998748375127,-0.7175969999558767,0.0,True,0.010426998138427734,-1.7350000143051147,-0.34999987483024597,-0.7177032828330994,0.0,0.0,0.0
1759839019.73249,1,-1.7350000143047974,-0.3499998748330216,-0.717608928794883,0.0,True,0.010455131530761719,-1.7350000143051147,-0.34999987483024597,-0.7177032828330994,0.0,0.0,0.0
1759839019.7427125,1,-1.7350000143049935,-0.3499998748313062,-0.7176209314054347,0.0,True,0.010222434997558594,-1.7350000143051147,-0.34999987483024597,-0.7177032828330994,0.0,0.0,0.0
1759839019.7530274,1,-1.7350000143050683,-0.3499998748306509,-0.7176311881410271,0.0,True,0.01031494140625,-1.7350000143051147,-0.34999987483024597,-0.7177032828330994,0.0,0.0,0.0
1759839019.7643118,1,-1.735000014305097,-0.3499998748304006,-0.7176387697276283,0.0,True,0.011284351348876953,-1.7350000143051147,-0.34999987483024597,-0.7177032828330994,0.0,0.0,0.0
1759839019.7754316,1,-1.7350000143051079,-0.34999987483030504,-0.7176459326195843,0.0,True,0.011119842529296875,-1.7350000143051147,-0.34999987483024597,-0.7177032828330994,0.0,0.0,0.0
1759839019.786371,1,-1.735000014305112,-0.3499998748302685,-0.7176523830915382,0.0,True,0.010939359664916992,-1.7350000143051147,-0.34999987483024597,-0.7177032828330994,0.0,0.0,0.0
1759839019.7964272,1,-1.7350000143051136,-0.3499998748302546,-0.7176585597077256,0.0,True,0.010056257247924805,-1.7350000143051147,-0.34999987483024597,-0.7177032828330994,0.0,0.0,0.0
1759839019.8068724,1,-1.7350000143051143,-0.34999987483024925,-0.7176631646274707,0.0,True,0.010445117950439453,-1.7350000143051147,-0.34999987483024597,-0.7177032828330994,0.0,0.0,0.0
1759839019.8181882,1,-1.7350000143051145,-0.34999987483024725,-0.7176663614826531,0.0,True,0.01131582260131836,-1.7350000143051147,-0.34999987483024597,-0.7177032828330994,0.0,0.0,0.0
1759839019.8282678,1,-1.7350000143051147,-0.34999987483024647,-0.7176700685204604,0.0,True,0.010079622268676758,-1.7350000143051147,-0.34999987483024597,-0.7177032828330994,0.0,0.0,0.0
1759839019.8389404,1,-1.7350000143051147,-0.34999987483024614,-0.7176727839232981,0.0,True,0.010672569274902344,-1.7350000143051147,-0.34999987483024597,-0.7177032828330994,0.0,0.0,0.0
1759839019.849514,1,-1.7350000143051147,-0.349999874830246,-0.7176751823948919,0.0,True,0.010573625564575195,-1.7350000143051147,-0.34999987483024597,-0.7177032828330994,0.0,0.0,0.0
1759839019.860151,1,-1.7350000143051147,-0.34999987483024597,-0.7176772446433066,0.0,True,0.010637044906616211,-1.7350000143051147,-0.34999987483024597,-0.7177032828330994,0.0,0.0,0.0
1759839019.870644,1,-1.7350000143051147,-0.34999987483024597,-0.7176791368819408,0.0,True,0.010493040084838867,-1.7350000143051147,-0.34999987483024597,-0.7177032828330994,0.0,0.0,0.0
1759839019.8817096,1,-1.7350000143051147,-0.34999987483024597,-0.7176805403452597,0.0,True,0.011065483093261719,-1.7350000143051147,-0.34999987483024597,-0.7177032828330994,0.0,0.0,0.0
1759839019.8920858,1,-1.7350000143051147,-0.34999987483024597,-0.717682151662391,0.0,True,0.010376214981079102,-1.7350000143051147,-0.34999987483024597,-0.7177032828330994,0.0,0.0,0.0
1759839019.9030397,1,-1.7350000143051147,-0.34999987483024597,-0.7176833372992988,0.0,True,0.010953903198242188,-1.7350000143051147,-0.34999987483024597,-0.7177032828330994,0.0,0.0,0.0
1759839019.9133434,1,-1.7350000143051147,-0.34999987483024597,-0.717684683145789,0.0,True,0.010303735733032227,-1.7350000143051147,-0.34999987483024597,-0.7177032828330994,0.0,0.0,0.0
1759839019.9236615,1,-1.7350000143051147,-0.34999987483024597,-0.7176858596503202,0.0,True,0.01031804084777832,-1.7350000143051147,-0.34999987483024597,-0.7177032828330994,0.0,0.0,0.0
1759839019.9346805,1,-1.7350000143051147,-0.34999987483024597,-0.7176866493985958,0.0,True,0.011018991470336914,-1.7350000143051147,-0.34999987483024597,-0.7177032828330994,0.0,0.0,0.0
1759839019.9451685,1,-1.7350000143051147,-0.34999987483024597,-0.7176875854791582,0.0,True,0.010488033294677734,-1.7350000143051147,-0.34999987483024597,-0.7177032828330994,0.0,0.0,0.0
1759839019.9566345,1,-1.7350000143051147,-0.34999987483024597,-0.7176881408081925,0.0,True,0.011466026306152344,-1.7350000143051147,-0.34999987483024597,-0.7177032828330994,0.0,0.0,0.0
1759839019.9682136,1,-1.7350000143051147,-0.34999987483024597,-0.7176886952154682,0.0,True,0.011579036712646484,-1.7350000143051147,-0.34999987483024597,-0.7177032828330994,0.0,0.0,0.0
1759839019.9783616,1,-1.7350000143051147,-0.34999987483024597,-0.7176896860046824,0.0,True,0.010148048400878906,-1.7350000143051147,-0.34999987483024597,-0.7177032828330994,0.0,0.0,0.0
1759839019.9883645,1,-1.7350000143051147,-0.34999987483024597,-0.7176905860886755,0.0,True,0.010002851486206055,-1.7350000143051147,-0.34999987483024597,-0.7177032828330994,0.0,0.0,0.0
1759839019.9995422,1,-1.7350000143051147,-0.34999987483024597,-0.7176910434009898,0.0,True,0.011177778244018555,-1.7350000143051147,-0.34999987483024597,-0.7177032828330994,0.0,0.0,0.0
1759839020.010414,1,-1.7350000143051147,-0.34999987483024597,-0.7176915685810563,0.0,True,0.010871648788452148,-1.7350000143051147,-0.34999987483024597,-0.7177032828330994,0.0,0.0,0.0
1759839020.0213444,1,-1.7350000143051147,-0.34999987483024597,-0.7176920650103611,0.0,True,0.010930538177490234,-1.7350000143051147,-0.34999987483024597,-0.7177032828330994,0.0,0.0,0.0
1759839020.032668,1,-1.7350000143051147,-0.34999987483024597,-0.7176924561722764,0.0,True,0.011323690414428711,-1.7350000143051147,-0.34999987483024597,-0.7177032828330994,0.0,0.0,0.0
1759839020.042946,1,-1.7350000143051147,-0.34999987483024597,-0.7176930786383213,0.0,True,0.010277986526489258,-1.7350000143051147,-0.34999987483024597,-0.7177032828330994,0.0,0.0,0.0
1759839020.054022,1,-1.7350000143051147,-0.34999987483024597,-0.7176934691876333,0.0,True,0.011075973510742188,-1.7350000143051147,-0.34999987483024597,-0.7177032828330994,0.0,0.0,0.0
1759839020.064028,1,-1.7350000143051147,-0.34999987483024597,-0.7176940513758492,0.0,True,0.010005950927734375,-1.7350000143051147,-0.34999987483024597,-0.7177032828330994,0.0,0.0,0.0
1759839020.078122,1,-1.7350000143051147,-0.34999987483024597,-0.7176937989903234,0.0,True,0.014093875885009766,-1.7350000143051147,-0.34999987483024597,-0.7177032828330994,0.0,0.0,0.0
1759839020.089111,1,-1.7350000143051147,-0.34999987483024597,-0.7176942851071075,0.0,True,0.010989189147949219,-1.7350000143051147,-0.34999987483024597,-0.7177032828330994,0.0,0.0,0.0
1759839020.1005137,1,-1.7350000143051147,-0.34999987483024597,-0.7176946939725646,0.0,True,0.011402606964111328,-1.7350000143051147,-0.34999987483024597,-0.7177032828330994,0.0,0.0,0.0
1759839020.1118982,1,-1.7350000143051147,-0.34999987483024597,-0.717695076866999,0.0,True,0.01138448715209961,-1.7350000143051147,-0.34999987483024597,-0.7177032828330994,0.0,0.0,0.0
1759839020.1232607,1,-1.7350000143051147,-0.34999987483024597,-0.7176954393599928,0.0,True,0.011362552642822266,-1.7350000143051147,-0.34999987483024597,-0.7177032828330994,0.0,0.0,0.0
1759839020.1341271,1,-1.7350000143051147,-0.34999987483024597,-0.71769585276156,0.0,True,0.010866403579711914,-1.7350000143051147,-0.34999987483024597,-0.7177032828330994,0.0,0.0,0.0
1759839020.145656,1,-1.7350000143051147,-0.34999987483024597,-0.7176961266592059,0.0,True,0.011528968811035156,-1.7350000143051147,-0.34999987483024597,-0.7177032828330994,0.0,0.0,0.0
1759839020.1567082,1,-1.7350000143051147,-0.34999987483024597,-0.7176964563020576,0.0,True,0.011052131652832031,-1.7350000143051147,-0.34999987483024597,-0.7177032828330994,0.0,0.0,0.0
1759839020.167055,1,-1.7350000143051147,-0.34999987483024597,-0.7176968540703701,0.0,True,0.010346651077270508,-1.7350000143051147,-0.34999987483024597,-0.7177032828330994,0.0,0.0,0.0
1759839020.1778114,1,-1.7350000143051147,-0.34999987483024597,-0.7176971441003701,0.0,True,0.010756492614746094,-1.7350000143051147,-0.34999987483024597,-0.7177032828330994,0.0,0.0,0.0
1759839020.1886408,1,-1.7350000143051147,-0.34999987483024597,-0.7176973929019841,0.0,True,0.010829448699951172,-1.7350000143051147,-0.34999987483024597,-0.7177032828330994,0.0,0.0,0.0
1759839020.1995041,1,-1.7350000143051147,-0.34999987483024597,-0.7176976195006812,0.0,True,0.010863304138183594,-1.7350000143051147,-0.34999987483024597,-0.7177032828330994,0.0,0.0,0.0
1759839020.210646,1,-1.7350000143051147,-0.34999987483024597,-0.7176978017866187,0.0,True,0.011141777038574219,-1.7350000143051147,-0.34999987483024597,-0.7177032828330994,0.0,0.0,0.0
1759839020.221609,1,-1.7350000143051147,-0.34999987483024597,-0.7176980031606348,0.0,True,0.010963201522827148,-1.7350000143051147,-0.34999987483024597,-0.7177032828330994,0.0,0.0,0.0
1759839020.2330427,1,-1.7350000143051147,-0.34999987483024597,-0.7176981487618477,0.0,True,0.011433601379394531,-1.7350000143051147,-0.34999987483024597,-0.7177032828330994,0.0,0.0,0.0
1759839020.2433088,1,-1.7350000143051147,-0.34999987483024597,-0.7176984208002253,0.0,True,0.01026606559753418,-1.7350000143051147,-0.34999987483024597,-0.7177032828330994,0.0,0.0,0.0
1759839020.2537005,1,-1.7350000143051147,-0.34999987483024597,-0.7176986499090727,0.0,True,0.010391712188720703,-1.7350000143051147,-0.34999987483024597,-0.7177032828330994,0.0,0.0,0.0
1759839020.2640455,1,-1.7350000143051147,-0.34999987483024597,-0.7176988548336318,0.0,True,0.010344982147216797,-1.7350000143051147,-0.34999987483024597,-0.7177032828330994,0.0,0.0,0.0
1759839020.2983513,1,-1.7350000143051147,-0.34999987483024597,-0.7176969983906858,0.0,True,0.03430581092834473,-1.7350000143051147,-0.34999987483024597,-0.7177032828330994,0.0,0.0,0.0
1759839020.30837,1,-1.7350000143051147,-0.34999987483024597,-0.717697832015098,0.0,True,0.01001882553100586,-1.7350000143051147,-0.34999987483024597,-0.7177032828330994,0.0,0.0,0.0
1759839020.3191967,1,-1.7350000143051147,-0.34999987483024597,-0.7176985205086659,0.0,True,0.010826587677001953,-1.7350000143051147,-0.34999987483024597,-0.7177032828330994,0.0,0.0,0.0
1759839020.330175,1,-1.7350000143051147,-0.34999987483024597,-0.7176990154083285,0.0,True,0.010978221893310547,-1.7350000143051147,-0.34999987483024597,-0.7177032828330994,0.0,0.0,0.0
1759839020.3402884,1,-1.7350000143051147,-0.34999987483024597,-0.7176994457103056,0.0,True,0.01011347770690918,-1.7350000143051147,-0.34999987483024597,-0.7177032828330994,0.0,0.0,0.0
1759839020.3511856,1,-1.7350000143051147,-0.34999987483024597,-0.717699720119839,0.0,True,0.010897159576416016,-1.7350000143051147,-0.34999987483024597,-0.7177032828330994,0.0,0.0,0.0
1759839020.3615851,1,-1.7350000143051147,-0.34999987483024597,-0.7176999678324059,0.0,True,0.010399580001831055,-1.7350000143051147,-0.34999987483024597,-0.7177032828330994,0.0,0.0,0.0
1759839020.372253,1,-1.7350000143051147,-0.34999987483024597,-0.7177001510632319,0.0,True,0.010667800903320312,-1.7350000143051147,-0.34999987483024597,-0.7177032828330994,0.0,0.0,0.0
1759839020.383811,1,-1.7350000143051147,-0.34999987483024597,-0.7177002491706226,0.0,True,0.011558055877685547,-1.7350000143051147,-0.34999987483024597,-0.7177032828330994,0.0,0.0,0.0
1759839020.3951447,1,-1.7350000143051147,-0.34999987483024597,-0.7177003563765894,0.0,True,0.011333703994750977,-1.7350000143051147,-0.34999987483024597,-0.7177032828330994,0.0,0.0,0.0
1759839020.4058099,1,-1.7350000143051147,-0.34999987483024597,-0.7177004982462876,0.0,True,0.010665178298950195,-1.7350000143051147,-0.34999987483024597,-0.7177032828330994,0.0,0.0,0.0
1759839020.4174237,1,-1.7350000143051147,-0.34999987483024597,-0.7177005721593517,0.0,True,0.011613845825195312,-1.7350000143051147,-0.34999987483024597,-0.7177032828330994,0.0,0.0,0.0
1759839020.4284558,1,-1.7350000143051147,-0.34999987483024597,-0.7177006780531592,0.0,True,0.0110321044921875,-1.7350000143051147,-0.34999987483024597,-0.7177032828330994,0.0,0.0,0.0
1759839020.43934,1,-1.7350000143051147,-0.34999987483024597,-0.7177007858789395,0.0,True,0.010884284973144531,-1.7350000143051147,-0.34999987483024597,-0.7177032828330994,0.0,0.0,0.0
1759839020.4497168,1,-1.7350000143051147,-0.34999987483024597,-0.7177009095507909,0.0,True,0.010376691818237305,-1.7350000143051147,-0.34999987483024597,-0.7177032828330994,0.0,0.0,0.0
1759839020.4606667,1,-1.7350000143051147,-0.34999987483024597,-0.7177009898472466,0.0,True,0.010949850082397461,-1.7350000143051147,-0.34999987483024597,-0.7177032828330994,0.0,0.0,0.0
1759839020.4772754,1,-1.7350000143051147,-0.34999987483024597,-0.7177008056793106,0.0,True,0.016608715057373047,-1.7350000143051147,-0.34999987483024597,-0.7177032828330994,0.0,0.0,0.0
1759839020.4885814,1,-1.7350000143051147,-0.34999987483024597,-0.7177009363628457,0.0,True,0.011306047439575195,-1.7350000143051147,-0.34999987483024597,-0.7177032828330994,0.0,0.0,0.0
1759839020.499034,1,-1.7350000143051147,-0.34999987483024597,-0.7177011038765286,0.0,True,0.010452508926391602,-1.7350000143051147,-0.34999987483024597,-0.7177032828330994,0.0,0.0,0.0
1759839020.5101478,1,-1.7350000143051147,-0.34999987483024597,-0.7177012148419113,0.0,True,0.011113882064819336,-1.7350000143051147,-0.34999987483024597,-0.7177032828330994,0.0,0.0,0.0
1759839020.5214255,1,-1.7350000143051147,-0.34999987483024597,-0.7177013023033805,0.0,True,0.01127767562866211,-1.7350000143051147,-0.34999987483024597,-0.7177032828330994,0.0,0.0,0.0
1759839020.5322266,1,-1.7350000143051147,-0.34999987483024597,-0.7177013993364767,0.0,True,0.010801076889038086,-1.7350000143051147,-0.34999987483024597,-0.7177032828330994,0.0,0.0,0.0
1759839020.5432465,1,-1.7350000143051147,-0.34999987483024597,-0.7177014767823611,0.0,True,0.01101994514465332,-1.7350000143051147,-0.34999987483024597,-0.7177032828330994,0.0,0.0,0.0
1759839020.5547805,1,-1.7350000143051147,-0.34999987483024597,-0.7177015284475559,0.0,True,0.011533975601196289,-1.7350000143051147,-0.34999987483024597,-0.7177032828330994,0.0,0.0,0.0
1759839020.5653536,1,-1.7350000143051147,-0.34999987483024597,-0.7177016135343681,0.0,True,0.010573148727416992,-1.7350000143051147,-0.34999987483024597,-0.7177032828330994,0.0,0.0,0.0
1759839020.5763845,1,-1.7350000143051147,-0.34999987483024597,-0.7177016744879783,0.0,True,0.011030912399291992,-1.7350000143051147,-0.34999987483024597,-0.7177032828330994,0.0,0.0,0.0
1759839020.5872223,1,-1.7350000143051147,-0.34999987483024597,-0.7177017370082766,0.0,True,0.010837793350219727,-1.7350000143051147,-0.34999987483024597,-0.7177032828330994,0.0,0.0,0.0
1759839020.5973852,1,-1.7350000143051147,-0.34999987483024597,-0.7177018159696278,0.0,True,0.010162830352783203,-1.7350000143051147,-0.34999987483024597,-0.7177032828330994,0.0,0.0,0.0
1759839020.6074789,1,-1.7350000143051147,-0.34999987483024597,-0.7177018865905165,0.0,True,0.01009368896484375,-1.7350000143051147,-0.34999987483024597,-0.7177032828330994,0.0,0.0,0.0
1759839020.6189563,1,-1.7350000143051147,-0.34999987483024597,-0.7177019066454342,0.0,True,0.011477470397949219,-1.7350000143051147,-0.34999987483024597,-0.7177032828330994,0.0,0.0,0.0
1759839020.6298096,1,-1.7350000143051147,-0.34999987483024597,-0.717701949002894,0.0,True,0.010853290557861328,-1.7350000143051147,-0.34999987483024597,-0.7177032828330994,0.0,0.0,0.0
1759839020.6400716,1,-1.7350000143051147,-0.34999987483024597,-0.717702008334669,0.0,True,0.010262012481689453,-1.7350000143051147,-0.34999987483024597,-0.7177032828330994,0.0,0.0,0.0
1759839020.6505926,1,-1.7350000143051147,-0.34999987483024597,-0.717702054849827,0.0,True,0.01052093505859375,-1.7350000143051147,-0.34999987483024597,-0.7177032828330994,0.0,0.0,0.0
1759839020.661785,1,-1.7350000143051147,-0.34999987483024597,-0.7177020802935115,0.0,True,0.01119232177734375,-1.7350000143051147,-0.34999987483024597,-0.7177032828330994,0.0,0.0,0.0
1759839020.6804142,1,-1.7350000143051147,-0.34999987483024597,-0.7177019284729198,0.0,True,0.01862931251525879,-1.7350000143051147,-0.34999987483024597,-0.7177032828330994,0.0,0.0,0.0
1759839020.6919882,1,-1.7350000143051147,-0.34999987483024597,-0.7177020031298227,0.0,True,0.011574029922485352,-1.7350000143051147,-0.34999987483024597,-0.7177032828330994,0.0,0.0,0.0
1759839020.7031753,1,-1.7350000143051147,-0.34999987483024597,-0.717702089196921,0.0,True,0.011187076568603516,-1.7350000143051147,-0.34999987483024597,-0.7177032828330994,0.0,0.0,0.0
1759839020.7139254,1,-1.7350000143051147,-0.34999987483024597,-0.7177021705377502,0.0,True,0.010750055313110352,-1.7350000143051147,-0.34999987483024597,-0.7177032828330994,0.0,0.0,0.0
1759839020.7248867,1,-1.7350000143051147,-0.34999987483024597,-0.7177022327489055,0.0,True,0.010961294174194336,-1.7350000143051147,-0.34999987483024597,-0.7177032828330994,0.0,0.0,0.0
1759839020.735645,1,-1.7350000143051147,-0.34999987483024597,-0.7177022889463558,0.0,True,0.010758399963378906,-1.7350000143051147,-0.34999987483024597,-0.7177032828330994,0.0,0.0,0.0
1759839020.7468677,1,-1.7350000143051147,-0.34999987483024597,-0.7177023279607617,0.0,True,0.011222600936889648,-1.7350000143051147,-0.34999987483024597,-0.7177032828330994,0.0,0.0,0.0
1759839020.7578244,1,-1.7350000143051147,-0.34999987483024597,-0.7177023683936703,0.0,True,0.010956764221191406,-1.7350000143051147,-0.34999987483024597,-0.7177032828330994,0.0,0.0,0.0
1759839020.7685797,1,-1.7350000143051147,-0.34999987483024597,-0.7177024088800614,0.0,True,0.010755300521850586,-1.7350000143051147,-0.34999987483024597,-0.7177032828330994,0.0,0.0,0.0
1759839020.779244,1,-1.7350000143051147,-0.34999987483024597,-0.7177024467128668,0.0,True,0.010664224624633789,-1.7350000143051147,-0.34999987483024597,-0.7177032828330994,0.0,0.0,0.0
1759839020.7895684,1,-1.7350000143051147,-0.34999987483024597,-0.7177024862611674,0.0,True,0.010324478149414062,-1.7350000143051147,-0.34999987483024597,-0.7177032828330994,0.0,0.0,0.0
1759839020.8006651,1,-1.7350000143051147,-0.34999987483024597,-0.7177025082372293,0.0,True,0.011096715927124023,-1.7350000143051147,-0.34999987483024597,-0.7177032828330994,0.0,0.0,0.0
1759839020.8118584,1,-1.7350000143051147,-0.34999987483024597,-0.7177025284132785,0.0,True,0.011193275451660156,-1.7350000143051147,-0.34999987483024597,-0.7177032828330994,0.0,0.0,0.0
1759839020.822823,1,-1.7350000143051147,-0.34999987483024597,-0.7177025531521064,0.0,True,0.010964632034301758,-1.7350000143051147,-0.34999987483024597,-0.7177032828330994,0.0,0.0,0.0
1759839020.8330479,1,-1.7350000143051147,-0.34999987483024597,-0.7177025884572803,0.0,True,0.01022481918334961,-1.7350000143051147,-0.34999987483024597,-0.7177032828330994,0.0,0.0,0.0
1759839020.8437638,1,-1.7350000143051147,-0.34999987483024597,-0.7177026126463364,0.0,True,0.010715961456298828,-1.7350000143051147,-0.34999987483024597,-0.7177032828330994,0.0,0.0,0.0
1759839020.8540945,1,-1.7350000143051147,-0.34999987483024597,-0.7177026403474223,0.0,True,0.010330677032470703,-1.7350000143051147,-0.34999987483024597,-0.7177032828330994,0.0,0.0,0.0
1759839020.8642004,1,-1.7350000143051147,-0.34999987483024597,-0.7177026685069627,0.0,True,0.01010584831237793,-1.7350000143051147,-0.34999987483024597,-0.7177032828330994,0.0,0.0,0.0
1759839020.87533,1,-1.7350000143051147,-0.34999987483024597,-0.7177026800596096,0.0,True,0.011129617691040039,-1.7350000143051147,-0.34999987483024597,-0.7177032828330994,0.0,0.0,0.0
1759839020.8861947,1,-1.7350000143051147,-0.34999987483024597,-0.7177026962799467,0.0,True,0.010864734649658203,-1.7350000143051147,-0.34999987483024597,-0.7177032828330994,0.0,0.0,0.0
1759839020.897095,1,-1.7350000143051147,-0.34999987483024597,-0.7177027129066254,0.0,True,0.010900259017944336,-1.7350000143051147,-0.34999987483024597,-0.7177032828330994,0.0,0.0,0.0
1759839020.9084003,1,-1.7350000143051147,-0.34999987483024597,-0.7177027251428498,0.0,True,0.01130533218383789,-1.7350000143051147,-0.34999987483024597,-0.7177032828330994,0.0,0.0,0.0
1759839020.9186993,1,-1.7350000143051147,-0.34999987483024597,-0.7177027503563984,0.0,True,0.010298967361450195,-1.7350000143051147,-0.34999987483024597,-0.7177032828330994,0.0,0.0,0.0
1759839020.9288666,1,-1.7350000143051147,-0.34999987483024597,-0.7177027748109879,0.0,True,0.010167360305786133,-1.7350000143051147,-0.34999987483024597,-0.7177032828330994,0.0,0.0,0.0
1759839020.94028,1,-1.7350000143051147,-0.34999987483024597,-0.7177027829586891,0.0,True,0.011413335800170898,-1.7350000143051147,-0.34999987483024597,-0.7177032828330994,0.0,0.0,0.0
1759839020.9506488,1,-1.7350000143051147,-0.34999987483024597,-0.7177028034486188,0.0,True,0.010368824005126953,-1.7350000143051147,-0.34999987483024597,-0.7177032828330994,0.0,0.0,0.0
1759839020.96099,1,-1.7350000143051147,-0.34999987483024597,-0.7177028229730933,0.0,True,0.010341167449951172,-1.7350000143051147,-0.34999987483024597,-0.7177032828330994,0.0,0.0,0.0
1759839020.971678,1,-1.7350000143051147,-0.34999987483024597,-0.7177028372604966,0.0,True,0.010688066482543945,-1.7350000143051147,-0.34999987483024597,-0.7177032828330994,0.0,0.0,0.0
1759839020.9829788,1,-1.7350000143051147,-0.34999987483024597,-0.7177028453349887,0.0,True,0.011300802230834961,-1.7350000143051147,-0.34999987483024597,-0.7177032828330994,0.0,0.0,0.0
1759839020.9945576,1,-1.7350000143051147,-0.34999987483024597,-0.717702852488026,0.0,True,0.011578798294067383,-1.7350000143051147,-0.34999987483024597,-0.7177032828330994,0.0,0.0,0.0
1759839021.0059814,1,-1.7350000143051147,-0.34999987483024597,-0.7177028632259166,0.0,True,0.011423826217651367,-1.7350000143051147,-0.34999987483024597,-0.7177032828330994,0.0,0.0,0.0
1759839021.0167782,1,-1.7350000143051147,-0.34999987483024597,-0.7177028804101013,0.0,True,0.010796785354614258,-1.7350000143051147,-0.34999987483024597,-0.7177032828330994,0.0,0.0,0.0
1759839021.027677,1,-1.7350000143051147,-0.34999987483024597,-0.7177028957329803,0.0,True,0.010898828506469727,-1.7350000143051147,-0.34999987483024597,-0.7177032828330994,0.0,0.0,0.0
1759839021.0381913,1,-1.7350000143051147,-0.34999987483024597,-0.7177029129956978,0.0,True,0.010514259338378906,-1.7350000143051147,-0.34999987483024597,-0.7177032828330994,0.0,0.0,0.0
1759839021.0495434,1,-1.7350000143051147,-0.34999987483024597,-0.7177029222112647,0.0,True,0.011352062225341797,-1.7350000143051147,-0.34999987483024597,-0.7177032828330994,0.0,0.0,0.0
1759839021.059868,1,-1.7350000143051147,-0.34999987483024597,-0.7177029392601568,0.0,True,0.010324716567993164,-1.7350000143051147,-0.34999987483024597,-0.7177032828330994,0.0,0.0,0.0
1759839021.070275,1,-1.7350000143051147,-0.34999987483024597,-0.7177029540668514,0.0,True,0.010406970977783203,-1.7350000143051147,-0.34999987483024597,-0.7177032828330994,0.0,0.0,0.0
1759839021.085806,1,-1.7350000143051147,-0.34999987483024597,-0.7177029327757793,0.0,True,0.015530824661254883,-1.7350000143051147,-0.34999987483024597,-0.7177032828330994,0.0,0.0,0.0
1759839021.0972226,1,-1.7350000143051147,-0.34999987483024597,-0.7177029478723327,0.0,True,0.01141667366027832,-1.7350000143051147,-0.34999987483024597,-0.7177032828330994,0.0,0.0,0.0
1759839021.1087294,1,-1.7350000143051147,-0.34999987483024597,-0.7177029632952117,0.0,True,0.011506795883178711,-1.7350000143051147,-0.34999987483024597,-0.7177032828330994,0.0,0.0,0.0
1759839021.1193974,1,-1.7350000143051147,-0.34999987483024597,-0.7177029823179168,0.0,True,0.010668039321899414,-1.7350000143051147,-0.34999987483024597,-0.7177032828330994,0.0,0.0,0.0
1759839021.130094,1,-1.7350000143051147,-0.34999987483024597,-0.7177029983827232,0.0,True,0.010696649551391602,-1.7350000143051147,-0.34999987483024597,-0.7177032828330994,0.0,0.0,0.0
1759839021.1413343,1,-1.7350000143051147,-0.34999987483024597,-0.7177030090270122,0.0,True,0.011240243911743164,-1.7350000143051147,-0.34999987483024597,-0.7177032828330994,0.0,0.0,0.0
1759839021.1514626,1,-1.7350000143051147,-0.34999987483024597,-0.7177030248123408,0.0,True,0.010128259658813477,-1.7350000143051147,-0.34999987483024597,-0.7177032828330994,0.0,0.0,0.0
1759839021.161866,1,-1.7350000143051147,-0.34999987483024597,-0.7177030369007831,0.0,True,0.01040339469909668,-1.7350000143051147,-0.34999987483024597,-0.7177032828330994,0.0,0.0,0.0
1759839021.1725469,1,-1.7350000143051147,-0.34999987483024597,-0.7177030459073546,0.0,True,0.010680913925170898,-1.7350000143051147,-0.34999987483024597,-0.7177032828330994,0.0,0.0,0.0
1759839021.1833172,1,-1.7350000143051147,-0.34999987483024597,-0.7177030537503395,0.0,True,0.010770320892333984,-1.7350000143051147,-0.34999987483024597,-0.7177032828330994,0.0,0.0,0.0
1759839021.1934767,1,-1.7350000143051147,-0.34999987483024597,-0.7177030641645441,0.0,True,0.010159492492675781,-1.7350000143051147,-0.34999987483024597,-0.7177032828330994,0.0,0.0,0.0
1759839021.204274,1,-1.7350000143051147,-0.34999987483024597,-0.7177030705390237,0.0,True,0.010797262191772461,-1.7350000143051147,-0.34999987483024597,-0.7177032828330994,0.0,0.0,0.0
1759839021.2150621,1,-1.7350000143051147,-0.34999987483024597,-0.7177030767684354,0.0,True,0.010788202285766602,-1.7350000143051147,-0.34999987483024597,-0.7177032828330994,0.0,0.0,0.0
1759839021.2256067,1,-1.7350000143051147,-0.34999987483024597,-0.7177030840650342,0.0,True,0.010544538497924805,-1.7350000143051147,-0.34999987483024597,-0.7177032828330994,0.0,0.0,0.0
1759839021.235959,1,-1.7350000143051147,-0.34999987483024597,-0.7177030918109377,0.0,True,0.010352373123168945,-1.7350000143051147,-0.34999987483024597,-0.7177032828330994,0.0,0.0,0.0
1759839021.247786,1,-1.7350000143051147,-0.34999987483024597,-0.7177030930229442,0.0,True,0.01182699203491211,-1.7350000143051147,-0.34999987483024597,-0.7177032828330994,0.0,0.0,0.0
1759839021.2583501,1,-1.7350000143051147,-0.34999987483024597,-0.7177031003756582,0.0,True,0.010564088821411133,-1.7350000143051147,-0.34999987483024597,-0.7177032828330994,0.0,0.0,0.0
1759839021.2685502,1,-1.7350000143051147,-0.34999987483024597,-0.7177031088789612,0.0,True,0.010200023651123047,-1.7350000143051147,-0.34999987483024597,-0.7177032828330994,0.0,0.0,0.0
1759839021.2840595,1,-1.7350000143051147,-0.34999987483024597,-0.7177030973954839,0.0,True,0.015509366989135742,-1.7350000143051147,-0.34999987483024597,-0.7177032828330994,0.0,0.0,0.0
1759839021.29443,1,-1.7350000143051147,-0.34999987483024597,-0.7177031087449119,0.0,True,0.010370492935180664,-1.7350000143051147,-0.34999987483024597,-0.7177032828330994,0.0,0.0,0.0
1759839021.305443,1,-1.7350000143051147,-0.34999987483024597,-0.7177031173634489,0.0,True,0.011013031005859375,-1.7350000143051147,-0.34999987483024597,-0.7177032828330994,0.0,0.0,0.0
1759839021.3164685,1,-1.7350000143051147,-0.34999987483024597,-0.7177031247771914,0.0,True,0.011025428771972656,-1.7350000143051147,-0.34999987483024597,-0.7177032828330994,0.0,0.0,0.0
1759839021.327571,1,-1.7350000143051147,-0.34999987483024597,-0.7177031311687188,0.0,True,0.011102437973022461,-1.7350000143051147,-0.34999987483024597,-0.7177032828330994,0.0,0.0,0.0
1759839021.3385735,1,-1.7350000143051147,-0.34999987483024597,-0.7177031373417861,0.0,True,0.011002540588378906,-1.7350000143051147,-0.34999987483024597,-0.7177032828330994,0.0,0.0,0.0
1759839021.3494377,1,-1.7350000143051147,-0.34999987483024597,-0.717703143429075,0.0,True,0.0108642578125,-1.7350000143051147,-0.34999987483024597,-0.7177032828330994,0.0,0.0,0.0
1759839021.3595014,1,-1.7350000143051147,-0.34999987483024597,-0.7177031512088572,0.0,True,0.010063648223876953,-1.7350000143051147,-0.34999987483024597,-0.7177032828330994,0.0,0.0,0.0
1759839021.369843,1,-1.7350000143051147,-0.34999987483024597,-0.7177031571081649,0.0,True,0.010341644287109375,-1.7350000143051147,-0.34999987483024597,-0.7177032828330994,0.0,0.0,0.0
1759839021.380098,1,-1.7350000143051147,-0.34999987483024597,-0.7177031624525405,0.0,True,0.010255098342895508,-1.7350000143051147,-0.34999987483024597,-0.7177032828330994,0.0,0.0,0.0
1759839021.3911452,1,-1.7350000143051147,-0.34999987483024597,-0.7177031651947736,0.0,True,0.011047124862670898,-1.7350000143051147,-0.34999987483024597,-0.7177032828330994,0.0,0.0,0.0
1759839021.401912,1,-1.7350000143051147,-0.34999987483024597,-0.7177031687712265,0.0,True,0.010766744613647461,-1.7350000143051147,-0.34999987483024597,-0.7177032828330994,0.0,0.0,0.0
1759839021.412509,1,-1.7350000143051147,-0.34999987483024597,-0.71770317277457,0.0,True,0.010596990585327148,-1.7350000143051147,-0.34999987483024597,-0.7177032828330994,0.0,0.0,0.0
1759839021.423852,1,-1.7350000143051147,-0.34999987483024597,-0.7177031748925806,0.0,True,0.011343002319335938,-1.7350000143051147,-0.34999987483024597,-0.7177032828330994,0.0,0.0,0.0
1759839021.4352086,1,-1.7350000143051147,-0.34999987483024597,-0.7177031773141387,0.0,True,0.011356592178344727,-1.7350000143051147,-0.34999987483024597,-0.7177032828330994,0.0,0.0,0.0
1759839021.4460452,1,-1.7350000143051147,-0.34999987483024597,-0.7177031811847332,0.0,True,0.010836601257324219,-1.7350000143051147,-0.34999987483024597,-0.7177032828330994,0.0,0.0,0.0
1759839021.4569411,1,-1.7350000143051147,-0.34999987483024597,-0.7177031848053623,0.0,True,0.010895967483520508,-1.7350000143051147,-0.34999987483024597,-0.7177032828330994,0.0,0.0,0.0
1759839021.468098,1,-1.7350000143051147,-0.34999987483024597,-0.7177031877334645,0.0,True,0.011156797409057617,-1.7350000143051147,-0.34999987483024597,-0.7177032828330994,0.0,0.0,0.0
1759839021.4829202,1,-1.7350000143051147,-0.34999987483024597,-0.7177031837526382,0.0,True,0.014822244644165039,-1.7350000143051147,-0.34999987483024597,-0.7177032828330994,0.0,0.0,0.0
1759839021.4938064,1,-1.7350000143051147,-0.34999987483024597,-0.7177031891809804,0.0,True,0.010886192321777344,-1.7350000143051147,-0.34999987483024597,-0.7177032828330994,0.0,0.0,0.0
1759839021.5038567,1,-1.7350000143051147,-0.34999987483024597,-0.7177031958406754,0.0,True,0.010050296783447266,-1.7350000143051147,-0.34999987483024597,-0.7177032828330994,0.0,0.0,0.0
1759839021.514925,1,-1.7350000143051147,-0.34999987483024597,-0.7177031995694012,0.0,True,0.011068344116210938,-1.7350000143051147,-0.34999987483024597,-0.7177032828330994,0.0,0.0,0.0
1759839021.5262294,1,-1.7350000143051147,-0.34999987483024597,-0.7177032024254295,0.0,True,0.011304378509521484,-1.7350000143051147,-0.34999987483024597,-0.7177032828330994,0.0,0.0,0.0
1759839021.5364907,1,-1.7350000143051147,-0.34999987483024597,-0.7177032068138924,0.0,True,0.010261297225952148,-1.7350000143051147,-0.34999987483024597,-0.7177032828330994,0.0,0.0,0.0
1759839021.5468454,1,-1.7350000143051147,-0.34999987483024597,-0.717703210484256,0.0,True,0.010354757308959961,-1.7350000143051147,-0.34999987483024597,-0.7177032828330994,0.0,0.0,0.0
1759839021.5577261,1,-1.7350000143051147,-0.34999987483024597,-0.7177032128639578,0.0,True,0.010880708694458008,-1.7350000143051147,-0.34999987483024597,-0.7177032828330994,0.0,0.0,0.0
1759839021.568283,1,-1.7350000143051147,-0.34999987483024597,-0.7177032155726373,0.0,True,0.010556936264038086,-1.7350000143051147,-0.34999987483024597,-0.7177032828330994,0.0,0.0,0.0
1759839021.5789878,1,-1.7350000143051147,-0.34999987483024597,-0.7177032178845764,0.0,True,0.010704755783081055,-1.7350000143051147,-0.34999987483024597,-0.7177032828330994,0.0,0.0,0.0
1759839021.5901923,1,-1.7350000143051147,-0.34999987483024597,-0.7177032194037682,0.0,True,0.01120448112487793,-1.7350000143051147,-0.34999987483024597,-0.7177032828330994,0.0,0.0,0.0
1759839021.601546,1,-1.7350000143051147,-0.34999987483024597,-0.717703220848195,0.0,True,0.011353731155395508,-1.7350000143051147,-0.34999987483024597,-0.7177032828330994,0.0,0.0,0.0
1759839021.611785,1,-1.7350000143051147,-0.34999987483024597,-0.7177032238629462,0.0,True,0.010238885879516602,-1.7350000143051147,-0.34999987483024597,-0.7177032828330994,0.0,0.0,0.0
1759839021.6232312,1,-1.7350000143051147,-0.34999987483024597,-0.7177032251123094,0.0,True,0.011446237564086914,-1.7350000143051147,-0.34999987483024597,-0.7177032828330994,0.0,0.0,0.0
1759839021.6345685,1,-1.7350000143051147,-0.34999987483024597,-0.7177032265958339,0.0,True,0.0113372802734375,-1.7350000143051147,-0.34999987483024597,-0.7177032828330994,0.0,0.0,0.0
1759839021.6454184,1,-1.7350000143051147,-0.34999987483024597,-0.7177032287543526,0.0,True,0.010849952697753906,-1.7350000143051147,-0.34999987483024597,-0.7177032828330994,0.0,0.0,0.0
1759839021.6556797,1,-1.7350000143051147,-0.34999987483024597,-0.7177032314482634,0.0,True,0.010261297225952148,-1.7350000143051147,-0.34999987483024597,-0.7177032828330994,0.0,0.0,0.0
1759839021.666901,1,-1.7350000143051147,-0.34999987483024597,-0.7177032327995079,0.0,True,0.01122140884399414,-1.7350000143051147,-0.34999987483024597,-0.7177032828330994,0.0,0.0,0.0
1759839021.6773624,1,-1.7350000143051147,-0.34999987483024597,-0.7177032349301804,0.0,True,0.01046133041381836,-1.7350000143051147,-0.34999987483024597,-0.7177032828330994,0.0,0.0,0.0
1759839021.6910276,1,-1.7350000143051147,-0.34999987483024597,-0.7177032337667892,0.0,True,0.013665199279785156,-1.7350000143051147,-0.34999987483024597,-0.7177032828330994,0.0,0.0,0.0
1759839021.70146,1,-1.7350000143051147,-0.34999987483024597,-0.7177032364351668,0.0,True,0.010432243347167969,-1.7350000143051147,-0.34999987483024597,-0.7177032828330994,0.0,0.0,0.0
1759839021.7127273,1,-1.7350000143051147,-0.34999987483024597,-0.7177032381728363,0.0,True,0.011267423629760742,-1.7350000143051147,-0.34999987483024597,-0.7177032828330994,0.0,0.0,0.0
1759839021.7233791,1,-1.7350000143051147,-0.34999987483024597,-0.7177032403139982,0.0,True,0.010651826858520508,-1.7350000143051147,-0.34999987483024597,-0.7177032828330994,0.0,0.0,0.0
1759839021.7348692,1,-1.7350000143051147,-0.34999987483024597,-0.7177032415151441,0.0,True,0.011490106582641602,-1.7350000143051147,-0.34999987483024597,-0.7177032828330994,0.0,0.0,0.0
1759839021.745784,1,-1.7350000143051147,-0.34999987483024597,-0.7177032431889678,0.0,True,0.010914802551269531,-1.7350000143051147,-0.34999987483024597,-0.7177032828330994,0.0,0.0,0.0
1759839021.7564476,1,-1.7350000143051147,-0.34999987483024597,-0.7177032449575265,0.0,True,0.010663509368896484,-1.7350000143051147,-0.34999987483024597,-0.7177032828330994,0.0,0.0,0.0
1759839021.767307,1,-1.7350000143051147,-0.34999987483024597,-0.7177032463963062,0.0,True,0.010859489440917969,-1.7350000143051147,-0.34999987483024597,-0.7177032828330994,0.0,0.0,0.0
1759839021.7776513,1,-1.7350000143051147,-0.34999987483024597,-0.7177032481034633,0.0,True,0.010344266891479492,-1.7350000143051147,-0.34999987483024597,-0.7177032828330994,0.0,0.0,0.0
1759839021.7891293,1,-1.7350000143051147,-0.34999987483024597,-0.7177032488102206,0.0,True,0.011477947235107422,-1.7350000143051147,-0.34999987483024597,-0.7177032828330994,0.0,0.0,0.0
1759839021.7994206,1,-1.7350000143051147,-0.34999987483024597,-0.717703250405588,0.0,True,0.010291337966918945,-1.7350000143051147,-0.34999987483024597,-0.7177032828330994,0.0,0.0,0.0
1759839021.8094454,1,-1.7350000143051147,-0.34999987483024597,-0.7177032520319582,0.0,True,0.010024785995483398,-1.7350000143051147,-0.34999987483024597,-0.7177032828330994,0.0,0.0,0.0
1759839021.8198316,1,-1.7350000143051147,-0.34999987483024597,-0.7177032531967917,0.0,True,0.010386228561401367,-1.7350000143051147,-0.34999987483024597,-0.7177032828330994,0.0,0.0,0.0
1759839021.8307724,1,-1.7350000143051147,-0.34999987483024597,-0.7177032538988044,0.0,True,0.010940790176391602,-1.7350000143051147,-0.34999987483024597,-0.7177032828330994,0.0,0.0,0.0
1759839021.841598,1,-1.7350000143051147,-0.34999987483024597,-0.7177032547058566,0.0,True,0.010825634002685547,-1.7350000143051147,-0.34999987483024597,-0.7177032828330994,0.0,0.0,0.0
1759839021.8524108,1,-1.7350000143051147,-0.34999987483024597,-0.7177032555460787,0.0,True,0.010812759399414062,-1.7350000143051147,-0.34999987483024597,-0.7177032828330994,0.0,0.0,0.0
1759839021.8627882,1,-1.7350000143051147,-0.34999987483024597,-0.7177032566359713,0.0,True,0.01037740707397461,-1.7350000143051147,-0.34999987483024597,-0.7177032828330994,0.0,0.0,0.0
1759839021.8738792,1,-1.7350000143051147,-0.34999987483024597,-0.7177032572538522,0.0,True,0.011090993881225586,-1.7350000143051147,-0.34999987483024597,-0.7177032828330994,0.0,0.0,0.0
1759839021.889607,1,-1.7350000143051147,-0.34999987483024597,-0.7177032554970388,0.0,True,0.015727758407592773,-1.7350000143051147,-0.34999987483024597,-0.7177032828330994,0.0,0.0,0.0
1759839021.9010026,1,-1.7350000143051147,-0.34999987483024597,-0.7177032567370301,0.0,True,0.011395692825317383,-1.7350000143051147,-0.34999987483024597,-0.7177032828330994,0.0,0.0,0.0
1759839021.9114757,1,-1.7350000143051147,-0.34999987483024597,-0.7177032584744687,0.0,True,0.010473012924194336,-1.7350000143051147,-0.34999987483024597,-0.7177032828330994,0.0,0.0,0.0
1759839021.9218526,1,-1.7350000143051147,-0.34999987483024597,-0.7177032599767585,0.0,True,0.010376930236816406,-1.7350000143051147,-0.34999987483024597,-0.7177032828330994,0.0,0.0,0.0
1759839021.9328465,1,-1.7350000143051147,-0.34999987483024597,-0.7177032609377729,0.0,True,0.01099395751953125,-1.7350000143051147,-0.34999987483024597,-0.7177032828330994,0.0,0.0,0.0
1759839021.9441316,1,-1.7350000143051147,-0.34999987483024597,-0.7177032616617556,0.0,True,0.011285066604614258,-1.7350000143051147,-0.34999987483024597,-0.7177032828330994,0.0,0.0,0.0
1759839021.95511,1,-1.7350000143051147,-0.34999987483024597,-0.717703262491554,0.0,True,0.010978460311889648,-1.7350000143051147,-0.34999987483024597,-0.7177032828330994,0.0,0.0,0.0
1759839021.9652936,1,-1.7350000143051147,-0.34999987483024597,-0.7177032635916873,0.0,True,0.010183572769165039,-1.7350000143051147,-0.34999987483024597,-0.7177032828330994,0.0,0.0,0.0
1759839021.9764357,1,-1.7350000143051147,-0.34999987483024597,-0.7177032641665093,0.0,True,0.01114201545715332,-1.7350000143051147,-0.34999987483024597,-0.7177032828330994,0.0,0.0,0.0
1759839021.987236,1,-1.7350000143051147,-0.34999987483024597,-0.7177032648481614,0.0,True,0.010800361633300781,-1.7350000143051147,-0.34999987483024597,-0.7177032828330994,0.0,0.0,0.0
1759839021.9975293,1,-1.7350000143051147,-0.34999987483024597,-0.7177032656829194,0.0,True,0.010293245315551758,-1.7350000143051147,-0.34999987483024597,-0.7177032828330994,0.0,0.12114522821944718,0.0
1759839022.0080194,1,-1.7350000143051147,-0.34999987483024597,-0.7177032663548388,0.0,True,0.010490179061889648,-1.7350000143051147,-0.34999987483024597,-0.7177032828330994,0.0,0.12114522821944718,0.0
1759839022.0194988,1,-1.7350000143051147,-0.34999987483024597,-0.7177032666239036,0.0,True,0.011479377746582031,-1.7350000143051147,-0.34999987483024597,-0.7177032828330994,0.0,0.12114522821944718,0.0
1759839022.0298686,1,-1.7350000143051147,-0.34999987483024597,-0.7177032673189334,0.0,True,0.01036977767944336,-1.7350000143051147,-0.34999987483024597,-0.7177032828330994,0.0,0.12114522821944718,0.0
1759839022.0412872,1,-1.7350000143051147,-0.34999987483024597,-0.717703267630716,0.0,True,0.011418581008911133,-1.7350000143051147,-0.34999987483024597,-0.7177032828330994,0.0,0.12114522821944718,0.0
1759839022.0534942,1,-1.7350000143051147,-0.34999987483024597,-0.7177032677386599,0.0,True,0.01220703125,-1.7350000143051147,-0.34999987483024597,-0.7177032828330994,0.0,0.12114522821944718,0.0
1759839022.0636935,1,-1.7350000143051147,-0.34999987483024597,-0.7177032685637244,0.0,True,0.010199308395385742,-1.7350000143051147,-0.34999987483024597,-0.7177032828330994,0.0,0.12114522821944718,0.0
1759839022.0747786,1,-1.7350000143051147,-0.34999987483024597,-0.7177032690503893,0.0,True,0.011085033416748047,-1.7350000143051147,-0.34999987483024597,-0.7177032828330994,0.0,0.12114522821944718,0.0
1759839022.0882585,1,-1.7350000143051147,-0.34999987483024597,-0.7177032688479308,0.0,True,0.013479948043823242,-1.7350000143051147,-0.34999987483024597,-0.7177032828330994,0.0,0.12114522821944718,0.0
1759839022.0987563,1,-1.7350000143051147,-0.34999987483024597,-0.7177032696335672,0.0,True,0.010497808456420898,-1.7350000143051147,-0.34999987483024597,-0.7177032828330994,0.0,0.12114522821944718,0.0
1759839022.108773,1,-1.7350000143051147,-0.34999987483024597,-0.7177032704792641,0.0,True,0.010016679763793945,-1.7350000143051147,-0.34999987483024597,-0.7177032828330994,0.0,0.12114522821944718,0.0
1759839022.1192136,1,-1.7350000143051147,-0.34999987483024597,-0.7177032710725513,0.0,True,0.010440587997436523,-1.7350000143051147,-0.34999987483024597,-0.7177032828330994,0.0,0.12114522821944718,0.0
1759839022.130013,1,-1.7350000143051147,-0.34999987483024597,-0.7177032714912492,0.0,True,0.010799407958984375,-1.7350000143051147,-0.34999987483024597,-0.7177032828330994,0.0,0.12114522821944718,0.0
1759839022.140317,1,-1.7350000143051147,-0.34999987483024597,-0.7177032719942602,0.0,True,0.010303974151611328,-1.7350000143051147,-0.34999987483024597,-0.7177032828330994,0.0,0.12114522821944718,0.0
1759839022.1508465,1,-1.7350000143051147,-0.34999987483024597,-0.7177032723944716,0.0,True,0.010529518127441406,-1.7350000143051147,-0.34999987483024597,-0.7177032828330994,0.0,0.12114522821944718,0.0
1759839022.1615024,1,-1.7350000143051147,-0.34999987483024597,-0.7177032727344734,0.0,True,0.010655879974365234,-1.7350000143051147,-0.34999987483024597,-0.7177032828330994,0.0,0.12114522821944718,0.0
1759839022.1715093,1,-1.7350000143051147,-0.34999987483024597,-0.7177032731976656,0.0,True,0.010006904602050781,-1.7350000143051147,-0.34999987483024597,-0.7177032828330994,0.0,0.12114522821944718,0.0
1759839022.182322,1,-1.7350000143051147,-0.34999987483024597,-0.7177032734446733,0.0,True,0.010812759399414062,-1.7350000143051147,-0.34999987483024597,-0.7177032828330994,0.0,0.12114522821944718,0.0
1759839022.19238,1,-1.7350000143051147,-0.34999987483024597,-0.7177032738415932,0.0,True,0.010057926177978516,-1.7350000143051147,-0.34999987483024597,-0.7177032828330994,0.0,0.12114522821944718,0.0
1759839022.203863,1,-1.7350000143051147,-0.34999987483024597,-0.7177032739307769,0.0,True,0.011482954025268555,-1.7350000143051147,-0.34999987483024597,-0.7177032828330994,0.0,0.12114522821944718,0.0
1759839022.215324,1,-1.7350000143051147,-0.34999987483024597,-0.7177032740700682,0.0,True,0.011461019515991211,-1.7350000143051147,-0.34999987483024597,-0.7177032828330994,0.0,0.12114522821944718,0.0
1759839022.2266748,1,-1.7350000143051147,-0.34999987483024597,-0.717703274279188,0.0,True,0.011350870132446289,-1.7350000143051147,-0.34999987483024597,-0.7177032828330994,0.0,0.12114522821944718,0.0
1759839022.2370188,1,-1.7350000143051147,-0.34999987483024597,-0.7177032746879082,0.0,True,0.01034402847290039,-1.7350000143051147,-0.34999987483024597,-0.7177032828330994,0.0,0.12114522821944718,0.0
1759839022.2470987,1,-1.7350000143051147,-0.34999987483024597,-0.71770327510092,0.0,True,0.01007986068725586,-1.7350000143051147,-0.34999987483024597,-0.7177032828330994,0.0,0.12114522821944718,0.0
1759839022.257896,1,-1.7350000143051147,-0.34999987483024597,-0.7177032753403747,0.0,True,0.010797262191772461,-1.7350000143051147,-0.34999987483024597,-0.7177032828330994,0.0,0.12114522821944718,0.0
1759839022.2691748,1,-1.7350000143051147,-0.34999987483024597,-0.7177032754931201,0.0,True,0.011278867721557617,-1.7350000143051147,-0.34999987483024597,-0.7177032828330994,0.0,0.12114522821944718,0.0
1759839022.2802052,1,-1.7350000143051147,-0.34999987483024597,-0.7177032757052579,0.0,True,0.011030435562133789,-1.7350000143051147,-0.34999987483024597,-0.7177032828330994,0.0,0.12114522821944718,0.0
1759839022.2940578,1,-1.7350000143051147,-0.34999987483024597,-0.7177032755212576,0.0,True,0.013852596282958984,-1.7350000143051147,-0.34999987483024597,-0.7177032828330994,0.0,0.12114522821944718,0.0
1759839022.304806,1,-1.7350000143051147,-0.34999987483024597,-0.7177032758965467,0.0,True,0.010748147964477539,-1.7350000143051147,-0.34999987483024597,-0.7177032828330994,0.0,0.12114522821944718,0.0
1759839022.3156173,1,-1.7350000143051147,-0.34999987483024597,-0.717703276246354,0.0,True,0.010811328887939453,-1.7350000143051147,-0.34999987483024597,-0.7177032828330994,0.0,0.12114522821944718,0.0
1759839022.3260944,1,-1.7350000143051147,-0.34999987483024597,-0.7177032765940226,0.0,True,0.010477066040039062,-1.7350000143051147,-0.34999987483024597,-0.7177032828330994,0.0,0.12114522821944718,0.0
1759839022.336851,1,-1.7350000143051147,-0.34999987483024597,-0.7177032768580602,0.0,True,0.010756492614746094,-1.7350000143051147,-0.34999987483024597,-0.7177032828330994,0.0,0.12114522821944718,0.0
1759839022.347917,1,-1.7350000143051147,-0.34999987483024597,-0.7177032770561631,0.0,True,0.011066198348999023,-1.7350000143051147,-0.34999987483024597,-0.7177032828330994,0.0,0.12114522821944718,0.0
1759839022.3589265,1,-1.7350000143051147,-0.34999987483024597,-0.7177032772532854,0.0,True,0.011009454727172852,-1.7350000143051147,-0.34999987483024597,-0.7177032828330994,0.0,0.12114522821944718,0.0
1759839022.3689523,1,-1.7350000143051147,-0.34999987483024597,-0.7177032775548895,0.0,True,0.010025739669799805,-1.7350000143051147,-0.34999987483024597,-0.7177032828330994,0.0,0.12114522821944718,0.0
1759839022.3791354,1,-1.7350000143051147,-0.34999987483024597,-0.7177032777991901,0.0,True,0.010183095932006836,-1.7350000143051147,-0.34999987483024597,-0.7177032828330994,0.0,0.12114522821944718,0.0
1759839022.3900545,1,-1.7350000143051147,-0.34999987483024597,-0.7177032779324328,0.0,True,0.01091909408569336,-1.7350000143051147,-0.34999987483024597,-0.7177032828330994,0.0,0.12114522821944718,0.0
1759839022.400099,1,-1.7350000143051147,-0.34999987483024597,-0.7177032781547439,0.0,True,0.010044574737548828,-1.7350000143051147,-0.34999987483024597,-0.7177032828330994,0.0,0.12114522821944718,0.0
1759839022.4101985,1,-1.7350000143051147,-0.34999987483024597,-0.7177032783494699,0.0,True,0.010099411010742188,-1.7350000143051147,-0.34999987483024597,-0.7177032828330994,0.0,0.12114522821944718,0.0
1759839022.4208179,1,-1.7350000143051147,-0.34999987483024597,-0.7177032784723067,0.0,True,0.010619401931762695,-1.7350000143051147,-0.34999987483024597,-0.7177032828330994,0.0,0.12114522821944718,0.0
1759839022.432154,1,-1.7350000143051147,-0.34999987483024597,-0.717703278527285,0.0,True,0.011336088180541992,-1.7350000143051147,-0.34999987483024597,-0.7177032828330994,0.0,0.12114522821944718,0.0
1759839022.443125,1,-1.7350000143051147,-0.34999987483024597,-0.7177032786374724,0.0,True,0.0109710693359375,-1.7350000143051147,-0.34999987483024597,-0.7177032828330994,0.0,0.12114522821944718,0.0
1759839022.4531322,1,-1.7350000143051147,-0.34999987483024597,-0.7177032788411672,0.0,True,0.010007143020629883,-1.7350000143051147,-0.34999987483024597,-0.7177032828330994,0.0,0.12114522821944718,0.0
1759839022.463953,1,-1.7350000143051147,-0.34999987483024597,-0.7177032789544988,0.0,True,0.010820865631103516,-1.7350000143051147,-0.34999987483024597,-0.7177032828330994,0.0,0.12114522821944718,0.0
1759839022.4766734,1,-1.7350000143051147,-0.34999987483024597,-0.7177032789121434,0.0,True,0.012720346450805664,-1.7350000143051147,-0.34999987483024597,-0.7177032828330994,0.0,0.12114522821944718,0.0
1759839022.486848,1,-1.7350000143051147,-0.34999987483024597,-0.7177032791174831,0.0,True,0.010174751281738281,-1.7350000143051147,-0.34999987483024597,-0.7177032828330994,0.0,0.12114522821944718,0.0
1759839022.501658,1,-1.7350000143051147,-0.34999987483024597,-0.7177032789629081,0.0,True,0.014809846878051758,-1.7350000143051147,-0.34999987483024597,-0.7177032828330994,0.0,0.12114522821944718,0.0
1759839022.5088022,1,-1.7350000143051147,-0.34999987483024597,-0.7177032794390943,0.0,True,0.00714421272277832,-1.7350000143051147,-0.34999987483024597,-0.7177032828330994,0.0,0.12114522821944718,0.0
1759839022.5198705,1,-1.7350000143051147,-0.34999987483024597,-0.7177032795516105,0.0,True,0.011068344116210938,-1.7350000143051147,-0.34999987483024597,-0.7177032828330994,0.0,0.12114522821944718,0.0
1759839022.5313344,1,-1.7350000143051147,-0.34999987483024597,-0.7177032796147724,0.0,True,0.01146388053894043,-1.7350000143051147,-0.34999987483024597,-0.7177032828330994,0.0,0.12114522821944718,0.0
1759839022.5427723,1,-1.7350000143051147,-0.34999987483024597,-0.7177032796906389,0.0,True,0.01143789291381836,-1.7350000143051147,-0.34999987483024597,-0.7177032828330994,0.0,0.12114522821944718,0.0
1759839022.5530038,1,-1.7350000143051147,-0.34999987483024597,-0.7177032798518468,0.0,True,0.010231494903564453,-1.7350000143051147,-0.34999987483024597,-0.7177032828330994,0.0,0.12114522821944718,0.0
1759839022.5636268,1,-1.7350000143051147,-0.34999987483024597,-0.7177032799715857,0.0,True,0.010622978210449219,-1.7350000143051147,-0.34999987483024597,-0.7177032828330994,0.0,0.12114522821944718,0.0
1759839022.5746944,1,-1.7350000143051147,-0.34999987483024597,-0.7177032800530583,0.0,True,0.011067628860473633,-1.7350000143051147,-0.34999987483024597,-0.7177032828330994,0.0,0.12114522821944718,0.0
1759839022.5861254,1,-1.7350000143051147,-0.34999987483024597,-0.7177032801142609,0.0,True,0.011430978775024414,-1.7350000143051147,-0.34999987483024597,-0.7177032828330994,0.0,0.12114522821944718,0.0
1759839022.5963054,1,-1.7350000143051147,-0.34999987483024597,-0.7177032802517331,0.0,True,0.010179996490478516,-1.7350000143051147,-0.34999987483024597,-0.7177032828330994,0.0,0.12114522821944718,0.0
1759839022.6078928,1,-1.7350000143051147,-0.34999987483024597,-0.7177032803001708,0.0,True,0.011587381362915039,-1.7350000143051147,-0.34999987483024597,-0.7177032828330994,0.0,0.12114522821944718,0.0
1759839022.618679,1,-1.7350000143051147,-0.34999987483024597,-0.7177032803959218,0.0,True,0.010786294937133789,-1.7350000143051147,-0.34999987483024597,-0.7177032828330994,0.0,0.12114522821944718,0.0
1759839022.6296036,1,-1.7350000143051147,-0.34999987483024597,-0.717703280481544,0.0,True,0.010924577713012695,-1.7350000143051147,-0.34999987483024597,-0.7177032828330994,0.0,0.12114522821944718,0.0
1759839022.640841,1,-1.7350000143051147,-0.34999987483024597,-0.717703280548383,0.0,True,0.011237382888793945,-1.7350000143051147,-0.34999987483024597,-0.7177032828330994,0.0,0.12114522821944718,0.0
1759839022.6522107,1,-1.7350000143051147,-0.34999987483024597,-0.717703280610662,0.0,True,0.011369705200195312,-1.7350000143051147,-0.34999987483024597,-0.7177032828330994,0.0,0.12114522821944718,0.0
1759839022.6631167,1,-1.7350000143051147,-0.34999987483024597,-0.7177032806967887,0.0,True,0.010905981063842773,-1.7350000143051147,-0.34999987483024597,-0.7177032828330994,0.0,0.12114522821944718,0.0
1759839022.673333,1,-1.7350000143051147,-0.34999987483024597,-0.7177032808080455,0.0,True,0.010216236114501953,-1.7350000143051147,-0.34999987483024597,-0.7177032828330994,0.0,0.12114522821944718,0.0
1759839022.6859336,1,-1.7350000143051147,-0.34999987483024597,-0.7177032808066883,0.0,True,0.01260066032409668,-1.7350000143051147,-0.34999987483024597,-0.7177032828330994,0.0,0.12114522821944718,0.0
1759839022.696921,1,-1.7350000143051147,-0.34999987483024597,-0.717703280886802,0.0,True,0.010987520217895508,-1.7350000143051147,-0.34999987483024597,-0.7177032828330994,0.0,0.12114522821944718,0.0
1759839022.712935,1,-1.7350000143051147,-0.34999987483024597,-0.7177032807771546,0.0,True,0.01601386070251465,-1.7350000143051147,-0.34999987483024597,-0.7177032828330994,0.0,0.12114522821944718,0.0
1759839022.7235494,1,-1.7350000143051147,-0.34999987483024597,-0.7177032809183626,0.0,True,0.010614395141601562,-1.7350000143051147,-0.34999987483024597,-0.7177032828330994,0.0,0.12114522821944718,0.0
1759839022.734231,1,-1.7350000143051147,-0.34999987483024597,-0.7177032810457362,0.0,True,0.010681629180908203,-1.7350000143051147,-0.34999987483024597,-0.7177032828330994,0.0,0.12114522821944718,0.0
1759839022.7454073,1,-1.7350000143051147,-0.34999987483024597,-0.7177032811335451,0.0,True,0.011176347732543945,-1.7350000143051147,-0.34999987483024597,-0.7177032828330994,0.0,0.12114522821944718,0.0
1759839022.7570946,1,-1.7350000143051147,-0.34999987483024597,-0.7177032811926836,0.0,True,0.011687278747558594,-1.7350000143051147,-0.34999987483024597,-0.7177032828330994,0.0,0.12114522821944718,0.0
1759839022.7676408,1,-1.7350000143051147,-0.34999987483024597,-0.7177032812848854,0.0,True,0.010546207427978516,-1.7350000143051147,-0.34999987483024597,-0.7177032828330994,0.0,0.12114522821944718,0.0
1759839022.780485,1,-1.7350000143051147,-0.34999987483024597,-0.7177032812960515,0.0,True,0.012844085693359375,-1.7350000143051147,-0.34999987483024597,-0.7177032828330994,0.0,0.12114522821944718,0.0
1759839022.7925324,1,-1.7350000143051147,-0.34999987483024597,-0.7177032813405866,0.0,True,0.012047529220581055,-1.7350000143051147,-0.34999987483024597,-0.7177032828330994,0.0,0.12114522821944718,0.0
1759839022.8034737,1,-1.7350000143051147,-0.34999987483024597,-0.7177032814203272,0.0,True,0.010941267013549805,-1.7350000143051147,-0.34999987483024597,-0.7177032828330994,0.0,0.12114522821944718,0.0
1759839022.8135583,1,-1.7350000143051147,-0.34999987483024597,-0.7177032815142255,0.0,True,0.01008462905883789,-1.7350000143051147,-0.34999987483024597,-0.7177032828330994,0.0,0.12114522821944718,0.0
1759839022.824545,1,-1.7350000143051147,-0.34999987483024597,-0.7177032815682551,0.0,True,0.010986566543579102,-1.7350000143051147,-0.34999987483024597,-0.7177032828330994,0.0,0.12114522821944718,0.0
1759839022.8358068,1,-1.7350000143051147,-0.34999987483024597,-0.7177032816087525,0.0,True,0.011261940002441406,-1.7350000143051147,-0.34999987483024597,-0.7177032828330994,0.0,0.12114522821944718,0.0
1759839022.846265,1,-1.7350000143051147,-0.34999987483024597,-0.7177032816677045,0.0,True,0.010458230972290039,-1.7350000143051147,-0.34999987483024597,-0.7177032828330994,0.0,0.12114522821944718,0.0
1759839022.8571885,1,-1.7350000143051147,-0.34999987483024597,-0.7177032817092979,0.0,True,0.010923385620117188,-1.7350000143051147,-0.34999987483024597,-0.7177032828330994,0.0,0.12114522821944718,0.0
1759839022.868535,1,-1.7350000143051147,-0.34999987483024597,-0.7177032817382809,0.0,True,0.011346578598022461,-1.7350000143051147,-0.34999987483024597,-0.7177032828330994,0.0,0.12114522821944718,0.0
1759839022.8785431,1,-1.7350000143051147,-0.34999987483024597,-0.7177032817979558,0.0,True,0.010008096694946289,-1.7350000143051147,-0.34999987483024597,-0.7177032828330994,0.0,0.12114522821944718,0.0
1759839022.8894997,1,-1.7350000143051147,-0.34999987483024597,-0.7177032818298592,0.0,True,0.010956525802612305,-1.7350000143051147,-0.34999987483024597,-0.7177032828330994,0.0,0.12114522821944718,0.0
1759839022.9001272,1,-1.7350000143051147,-0.34999987483024597,-0.7177032818667541,0.0,True,0.010627508163452148,-1.7350000143051147,-0.34999987483024597,-0.7177032828330994,0.0,0.12114522821944718,0.0
1759839022.91248,1,-1.7350000143051147,-0.34999987483024597,-0.7177032818673297,0.0,True,0.012352943420410156,-1.7350000143051147,-0.34999987483024597,-0.7177032828330994,0.0,0.12114522821944718,0.0
1759839022.9237087,1,-1.7350000143051147,-0.34999987483024597,-0.7177032818979043,0.0,True,0.011228561401367188,-1.7350000143051147,-0.34999987483024597,-0.7177032828330994,0.0,0.12114522821944718,0.0
1759839022.9344313,1,-1.7350000143051147,-0.34999987483024597,-0.7177032819394285,0.0,True,0.010722637176513672,-1.7350000143051147,-0.34999987483024597,-0.7177032828330994,0.0,0.12114522821944718,0.0
1759839022.9458447,1,-1.7350000143051147,-0.34999987483024597,-0.7177032819649849,0.0,True,0.011413335800170898,-1.7350000143051147,-0.34999987483024597,-0.7177032828330994,0.0,0.12114522821944718,0.0
1759839022.9565196,1,-1.7350000143051147,-0.34999987483024597,-0.7177032820032956,0.0,True,0.01067495346069336,-1.7350000143051147,-0.34999987483024597,-0.7177032828330994,0.0,0.12114522821944718,0.0
1759839022.9674497,1,-1.7350000143051147,-0.34999987483024597,-0.7177032820341154,0.0,True,0.010930061340332031,-1.7350000143051147,-0.34999987483024597,-0.7177032828330994,0.0,0.12114522821944718,0.0
1759839022.9788156,1,-1.7350000143051147,-0.34999987483024597,-0.7177032820557709,0.0,True,0.011365890502929688,-1.7350000143051147,-0.34999987483024597,-0.7177032828330994,0.0,0.12114522821944718,0.0
1759839022.9891248,1,-1.7350000143051147,-0.34999987483024597,-0.7177032820944689,0.0,True,0.010309219360351562,-1.7350000143051147,-0.34999987483024597,-0.7177032828330994,0.0,0.12114522821944718,0.0
1759839023.0000436,1,-1.7350000143051147,-0.34999987483024597,-0.7177032821197677,0.0,True,0.010918855667114258,-1.7350000143051147,-0.34999987483024597,-0.7177032828330994,0.0,0.12114522821944718,0.0
1759839023.0109246,1,-1.7350000143051147,-0.34999987483024597,-0.7177032821439404,0.0,True,0.01088094711303711,-1.7350000143051147,-0.34999987483024597,-0.7177032828330994,0.0,0.12114522821944718,0.0
1759839023.0212533,1,-1.7350000143051147,-0.34999987483024597,-0.7177032821749592,0.0,True,0.01032876968383789,-1.7350000143051147,-0.34999987483024597,-0.7177032828330994,0.0,0.12114522821944718,0.0
1759839023.0312898,1,-1.7350000143051147,-0.34999987483024597,-0.717703282206763,0.0,True,0.010036468505859375,-1.7350000143051147,-0.34999987483024597,-0.7177032828330994,0.0,0.12114522821944718,0.0
1759839023.0416596,1,-1.7350000143051147,-0.34999987483024597,-0.7177032822299125,0.0,True,0.01036977767944336,-1.7350000143051147,-0.34999987483024597,-0.7177032828330994,0.0,0.12114522821944718,0.0
