timestamp,observer_vehicle_id,vehicle_0_x,vehicle_0_y,vehicle_0_theta,vehicle_0_velocity,vehicle_1_x,vehicle_1_y,vehicle_1_theta,vehicle_1_velocity
1759182067.6330779,0,-1.205,-0.83,-0.7177028497428992,0.0,-0.23390746092796327,-0.04718594312667847,1.7881970611543798,0.0
1759182067.6445432,0,-1.205,-0.83,-0.7177028497428992,0.0,-0.4328381257143068,-0.08731604841498984,-2.942124328559824,0.0
1759182067.6560547,0,-1.205,-0.83,-0.7177028497428992,0.0,-0.6024077353454228,-0.12152317427717463,-0.7675010005685994,0.0
1759182067.667414,0,-1.205,-0.83,-0.7177028497428992,0.0,-0.7473226464410369,-0.15075672982960397,1.1238262531486136,0.0
1759182067.6782873,0,-1.205,-0.83,-0.7177028497428992,0.0,-0.8715478631680891,-0.17581657182065197,2.77716334044202,0.0
1759182067.6889021,0,-1.205,-0.83,-0.7177028497428992,0.0,-0.9783155542093116,-0.19735472275115792,-2.053214003510941,0.0
1759182067.6990662,0,-1.205,-0.83,-0.7177028497428992,0.0,-1.0703430018972178,-0.21591933755851647,-0.00583445309586914,0.0
1759182067.7093692,0,-1.205,-0.83,-0.7177028497428992,0.0,-1.1498085390513701,-0.23194984937635707,1.7940110677218233,0.0
1759182067.7209594,0,-1.205,-0.83,-0.7177028497428992,0.0,-1.2184167764564944,-0.2457901278154311,-2.8986936631625033,0.0
1759182067.7323055,0,-1.205,-0.83,-0.7177028497428992,0.0,-1.2778090971585492,-0.2577712876112347,-0.7629864013157693,0.0
1759182067.743882,0,-1.205,-0.83,-0.7177028497428992,0.0,-1.3293144705657713,-0.2681614205752277,1.1270706620582687,0.0
1759182067.755233,0,-1.205,-0.83,-0.7177028497428992,0.0,-1.3740964500743904,-0.2771952492945456,2.8083891914883767,0.0
1759182067.7667217,0,-1.205,-0.83,-0.7177028497428992,0.0,-1.4137958405662077,-0.2852037718721456,-1.9777106480727737,0.0
1759182067.7770455,0,-1.205,-0.83,-0.7177028497428992,0.0,-1.4491282981039249,-0.2923313569662096,0.04584580189738776,0.0
1759182067.788085,0,-1.205,-0.83,-0.7177028497428992,0.0,-1.480574185312493,-0.29867490769992655,1.8468110423708322,0.0
1759182067.798135,0,-1.205,-0.83,-0.7177028497428992,0.0,-1.5085610249281187,-0.30432066785293466,-2.833515200787389,0.0
1759182067.8091807,0,-1.205,-0.83,-0.7177028497428992,0.0,-1.5085610249281187,-0.30432066785293466,-2.833515200787389,0.0
1759182067.820354,0,-1.205,-0.83,-0.7177028497428992,0.0,-1.5085610249281187,-0.30432066785293466,-2.833515200787389,0.0
1759182067.8333583,0,-1.2049999243418377,-0.8299995105862618,-0.71770493717408,0.0,-1.5085610249281187,-0.30432066785293466,-2.833515200787389,0.0
1759182067.8448238,0,-1.2049999239185727,-0.8299995078482668,-0.7177051156273606,0.0,-1.5085610249281187,-0.30432066785293466,-2.833515200787389,0.0
1759182067.8549433,0,-1.2049999237857767,-0.8299995069892429,-0.7177051322514103,0.0,-1.5085610249281187,-0.30432066785293466,-2.833515200787389,0.0
1759182067.8654163,0,-1.2049999237364264,-0.8299995066700088,-0.7177051344545351,0.0,-1.5085610249281187,-0.30432066785293466,-2.833515200787389,0.0
1759182067.8758943,0,-1.2049999237176512,-0.8299995065485567,-0.7177051347404095,0.0,-1.5085610249281187,-0.30432066785293466,-2.833515200787389,0.0
1759182067.8862772,0,-1.2049999237104838,-0.829999506502193,-0.7177051344974394,0.0,-1.5085610249281187,-0.30432066785293466,-2.833515200787389,0.0
1759182067.897682,0,-1.2049999237077464,-0.8299995064844852,-0.7177051341626246,0.0,-1.5085610249281187,-0.30432066785293466,-2.833515200787389,0.0
1759182067.9084404,0,-1.2049999237067008,-0.8299995064777215,-0.7177051337136718,0.0,-1.5085610249281187,-0.30432066785293466,-2.833515200787389,0.0
1759182067.9195058,0,-1.2049999237063016,-0.829999506475138,-0.717705133323145,0.0,-1.5085610249281187,-0.30432066785293466,-2.833515200787389,0.0
1759182067.930675,0,-1.204999923706149,-0.8299995064741511,-0.7177051329870618,0.0,-1.5085610249281187,-0.30432066785293466,-2.833515200787389,0.0
1759182067.9417446,0,-1.2049999237060907,-0.8299995064737742,-0.7177051326959933,0.0,-1.5085610249281187,-0.30432066785293466,-2.833515200787389,0.0
1759182067.9527307,0,-1.2049999237060685,-0.8299995064736302,-0.717705132449785,0.0,-1.5085610249281187,-0.30432066785293466,-2.833515200787389,0.0
1759182067.9634933,0,-1.20499992370606,-0.8299995064735752,-0.7177051322389333,0.0,-1.5085610249281187,-0.30432066785293466,-2.833515200787389,0.0
1759182067.9734952,0,-1.2049999237060567,-0.8299995064735542,-0.7177051320451113,0.0,-1.5085610249281187,-0.30432066785293466,-2.833515200787389,0.0
1759182067.9842362,0,-1.2049999237060554,-0.8299995064735463,-0.7177051319105932,0.0,-1.5085610249281187,-0.30432066785293466,-2.833515200787389,0.0
1759182067.9944537,0,-1.204999923706055,-0.8299995064735431,-0.7177051317844789,0.0,-1.5085610249281187,-0.30432066785293466,-2.833515200787389,0.0
1759182068.004911,0,-1.2049999237060547,-0.8299995064735419,-0.7177051316845748,0.0,-1.5085610249281187,-0.30432066785293466,-2.833515200787389,0.0
1759182068.0166473,0,-1.2049999237060547,-0.8299995064735415,-0.7177051316246902,0.0,-1.5085610249281187,-0.30432066785293466,-2.833515200787389,0.0
1759182068.0282447,0,-1.2049999237060547,-0.8299995064735414,-0.7177051315610079,0.0,-1.5085610249281187,-0.30432066785293466,-2.833515200787389,0.0
1759182068.0394623,0,-1.2049999237060547,-0.8299995064735413,-0.7177051314917424,0.0,-1.5085610249281187,-0.30432066785293466,-2.833515200787389,0.0
1759182068.0505106,0,-1.2049999237060547,-0.8299995064735413,-0.7177051314258271,0.0,-1.5085610249281187,-0.30432066785293466,-2.833515200787389,0.0
1759182068.0606492,0,-1.2049999237060547,-0.8299995064735413,-0.7177051313536253,0.0,-1.5085610249281187,-0.30432066785293466,-2.833515200787389,0.0
1759182068.0710363,0,-1.2049999237060547,-0.8299995064735413,-0.7177051312973646,0.0,-1.5085610249281187,-0.30432066785293466,-2.833515200787389,0.0
1759182068.0821924,0,-1.2049999237060547,-0.8299995064735413,-0.7177051312603703,0.0,-1.5085610249281187,-0.30432066785293466,-2.833515200787389,0.0
1759182068.0922039,0,-1.2049999237060547,-0.8299995064735413,-0.7177051312107672,0.0,-1.5085610249281187,-0.30432066785293466,-2.833515200787389,0.0
1759182068.1038063,0,-1.2049999237060547,-0.8299995064735413,-0.7177051311878895,0.0,-1.5085610249281187,-0.30432066785293466,-2.833515200787389,0.0
1759182068.115318,0,-1.2049999237060547,-0.8299995064735413,-0.7177051311629832,0.0,-1.5085610249281187,-0.30432066785293466,-2.833515200787389,0.0
1759182068.1258485,0,-1.2049999237060547,-0.8299995064735413,-0.7177051311262002,0.0,-1.5085610249281187,-0.30432066785293466,-2.833515200787389,0.0
1759182068.1365724,0,-1.2049999237060547,-0.8299995064735413,-0.7177051310954656,0.0,-1.5085610249281187,-0.30432066785293466,-2.833515200787389,0.0
1759182068.1473773,0,-1.2049999237060547,-0.8299995064735413,-0.7177051310689144,0.0,-1.5085610249281187,-0.30432066785293466,-2.833515200787389,0.0
1759182068.1581914,0,-1.2049999237060547,-0.8299995064735413,-0.7177051310447595,0.0,-1.5085610249281187,-0.30432066785293466,-2.833515200787389,0.0
1759182068.168306,0,-1.2049999237060547,-0.8299995064735413,-0.71770513101605,0.0,-1.5085610249281187,-0.30432066785293466,-2.833515200787389,0.0
1759182068.1785407,0,-1.2049999237060547,-0.8299995064735413,-0.7177051309922433,0.0,-1.5085610249281187,-0.30432066785293466,-2.833515200787389,0.0
1759182068.18946,0,-1.2049999237060547,-0.8299995064735413,-0.7177051309772793,0.0,-1.5085610249281187,-0.30432066785293466,-2.833515200787389,0.0
1759182068.2008755,0,-1.2049999237060547,-0.8299995064735413,-0.7177051309666069,0.0,-1.5085610249281187,-0.30432066785293466,-2.833515200787389,0.0
1759182068.2114985,0,-1.2049999237060547,-0.8299995064735413,-0.7177051309484064,0.0,-1.5085610249281187,-0.30432066785293466,-2.833515200787389,0.0
1759182068.2231145,0,-1.2049999237060547,-0.8299995064735413,-0.7177051309385689,0.0,-1.5085610249281187,-0.30432066785293466,-2.833515200787389,0.0
1759182068.234439,0,-1.2049999237060547,-0.8299995064735413,-0.717705130925566,0.0,-1.5085610249281187,-0.30432066785293466,-2.833515200787389,0.0
1759182068.2456815,0,-1.2049999237060547,-0.8299995064735413,-0.7177051309116429,0.0,-1.5085610249281187,-0.30432066785293466,-2.833515200787389,0.0
1759182068.2566779,0,-1.2049999237060547,-0.8299995064735413,-0.7177051308964302,0.0,-1.5085610249281187,-0.30432066785293466,-2.833515200787389,0.0
1759182068.2673519,0,-1.2049999237060547,-0.8299995064735413,-0.717705130880244,0.0,-1.5085610249281187,-0.30432066785293466,-2.833515200787389,0.0
1759182068.278134,0,-1.2049999237060547,-0.8299995064735413,-0.7177051308663991,0.0,-1.5085610249281187,-0.30432066785293466,-2.833515200787389,0.0
1759182068.2887065,0,-1.2049999237060547,-0.8299995064735413,-0.7177051308526341,0.0,-1.5085610249281187,-0.30432066785293466,-2.833515200787389,0.0
1759182068.2991545,0,-1.2049999237060547,-0.8299995064735413,-0.7177051308395619,0.0,-1.5085610249281187,-0.30432066785293466,-2.833515200787389,0.0
1759182068.3099809,0,-1.2049999237060547,-0.8299995064735413,-0.717705130829909,0.0,-1.5085610249281187,-0.30432066785293466,-2.833515200787389,0.0
1759182068.320235,0,-1.2049999237060547,-0.8299995064735413,-0.717705130817805,0.0,-1.5085610249281187,-0.30432066785293466,-2.833515200787389,0.0
1759182068.3304784,0,-1.2049999237060547,-0.8299995064735413,-0.7177051308068769,0.0,-1.5085610249281187,-0.30432066785293466,-2.833515200787389,0.0
1759182068.341367,0,-1.2049999237060547,-0.8299995064735413,-0.717705130800237,0.0,-1.5085610249281187,-0.30432066785293466,-2.833515200787389,0.0
1759182068.3514252,0,-1.2049999237060547,-0.8299995064735413,-0.717705130789712,0.0,-1.5085610249281187,-0.30432066785293466,-2.833515200787389,0.0
1759182068.361857,0,-1.2049999237060547,-0.8299995064735413,-0.7177051307818729,0.0,-1.5085610249281187,-0.30432066785293466,-2.833515200787389,0.0
1759182068.373395,0,-1.2049999237060547,-0.8299995064735413,-0.717705130779347,0.0,-1.5085610249281187,-0.30432066785293466,-2.833515200787389,0.0
1759182068.3837104,0,-1.2049999237060547,-0.8299995064735413,-0.7177051307705842,0.0,-1.5085610249281187,-0.30432066785293466,-2.833515200787389,0.0
1759182068.394881,0,-1.2049999237060547,-0.8299995064735413,-0.717705130765717,0.0,-1.5085610249281187,-0.30432066785293466,-2.833515200787389,0.0
1759182068.4050846,0,-1.2049999237060547,-0.8299995064735413,-0.7177051307568387,0.0,-1.5085610249281187,-0.30432066785293466,-2.833515200787389,0.0
1759182068.4159267,0,-1.2049999237060547,-0.8299995064735413,-0.717705130751142,0.0,-1.5085610249281187,-0.30432066785293466,-2.833515200787389,0.0
1759182068.4314408,0,-1.2049999237060547,-0.8299995064735413,-0.7177051307621198,0.0,-1.5085610249281187,-0.30432066785293466,-2.833515200787389,0.0
1759182068.4375052,0,-1.2049999237060547,-0.8299995064735413,-0.7177051307355118,0.0,-1.5085610249281187,-0.30432066785293466,-2.833515200787389,0.0
1759182068.4486845,0,-1.2049999237060547,-0.8299995064735413,-0.7177051307311757,0.0,-1.5085610249281187,-0.30432066785293466,-2.833515200787389,0.0
1759182068.4598732,0,-1.2049999237060547,-0.8299995064735413,-0.7177051307278575,0.0,-1.5085610249281187,-0.30432066785293466,-2.833515200787389,0.0
1759182068.4699886,0,-1.2049999237060547,-0.8299995064735413,-0.7177051307207307,0.0,-1.5085610249281187,-0.30432066785293466,-2.833515200787389,0.0
1759182068.4808226,0,-1.2049999237060547,-0.8299995064735413,-0.7177051307164088,0.0,-1.5085610249281187,-0.30432066785293466,-2.833515200787389,0.0
1759182068.4908247,0,-1.2049999237060547,-0.8299995064735413,-0.7177051307097847,0.0,-1.5085610249281187,-0.30432066785293466,-2.833515200787389,0.0
1759182068.5020196,0,-1.2049999237060547,-0.8299995064735413,-0.7177051307072073,0.0,-1.5085610249281187,-0.30432066785293466,-2.833515200787389,0.0
1759182068.5123768,0,-1.2049999237060547,-0.8299995064735413,-0.7177051307020506,0.0,-1.5085610249281187,-0.30432066785293466,-2.833515200787389,0.0
1759182068.522415,0,-1.2049999237060547,-0.8299995064735413,-0.7177051306963254,0.0,-1.5085610249281187,-0.30432066785293466,-2.833515200787389,0.0
1759182068.53406,0,-1.2049999237060547,-0.8299995064735413,-0.7177051306953075,0.0,-1.5085610249281187,-0.30432066785293466,-2.833515200787389,0.0
1759182068.5452504,0,-1.2049999237060547,-0.8299995064735413,-0.7177051306924901,0.0,-1.5085610249281187,-0.30432066785293466,-2.833515200787389,0.0
1759182068.5564723,0,-1.2049999237060547,-0.8299995064735413,-0.7177051306893141,0.0,-1.553340608313009,-0.31335401145496317,-2.415101449941137,0.0
1759182068.5666077,0,-1.2049999237060547,-0.8299995064735413,-0.7177051306834822,0.0,-1.5888965387015046,-0.32052667613851776,-2.082872137515274,0.0
1759182068.5781112,0,-1.2049999237060547,-0.8299995064735413,-0.7177051306812992,0.0,-1.6171570196920397,-0.3262276366175793,-1.8188104165668175,0.0
1759182068.5881999,0,-1.2049999237060547,-0.8299995064735413,-0.7177051306759168,0.0,-1.6397133605342398,-0.3307779062232768,-1.6080473307196193,0.0
1759182068.5989196,0,-1.2049999237060547,-0.8299995064735413,-0.7177051306723925,0.0,-1.6577478993211614,-0.33441599691666507,-1.4395352891099549,0.0
1759182068.6097307,0,-1.2049999237060547,-0.8299995064735413,-0.7177051306693141,0.0,-1.672202074335097,-0.33733182416459767,-1.3044776327895184,0.0
1759182068.6207314,0,-1.2049999237060547,-0.8299995064735413,-0.717705130666662,0.0,-1.68381365284695,-0.33967421707071155,-1.1959807743745838,0.0
1759182068.6894536,0,-1.2049999237060547,-0.8299995064735413,-0.7177051307482767,0.0,-1.6925746778578201,-0.34144157047703777,-1.1141190628765518,0.0
1759182068.7005172,0,-1.2049999237060547,-0.8299995064735413,-0.7177051307136075,0.0,-1.6997422962257611,-0.34288748744703956,-1.0471459054849925,0.0
1759182068.7116144,0,-1.2049999237060547,-0.8299995064735413,-0.717705130685605,0.0,-1.7056207171600557,-0.3440733358208491,-0.9922188167036972,0.0
1759182068.7223995,0,-1.2049999237060547,-0.8299995064735413,-0.7177051306665074,0.0,-1.710455673629872,-0.3450486870812058,-0.9470417043057119,0.0
1759182068.733282,0,-1.2049999237060547,-0.8299995064735413,-0.71770513065354,0.0,-1.7153438637496383,-0.34603477711612984,-0.9013671846193321,0.0
1759182068.7443054,0,-1.2049999237060547,-0.8299995064735413,-0.7177051306445179,0.0,-1.719215198965707,-0.34681573795948556,-0.865194005547615,0.0
1759182068.7550802,0,-1.2049999237060547,-0.8299995064735413,-0.7177051306376683,0.0,-1.722290047803706,-0.34743602434846776,-0.8364630764423997,0.0
1759182068.7663105,0,-1.2049999237060547,-0.8299995064735413,-0.7177051306329716,0.0,-1.7247373753831647,-0.3479297214590897,-0.8135956124182403,0.0
1759182068.7773044,0,-1.2049999237060547,-0.8299995064735413,-0.7177051306290992,0.0,-1.726690900103259,-0.3483238041793328,-0.7953421686896562,0.0
1759182068.7884347,0,-1.2049999237060547,-0.8299995064735413,-0.7177051306261255,0.0,-1.728254068774038,-0.34863914073773045,-0.7807361536866992,0.0
1759182068.7996686,0,-1.2049999237060547,-0.8299995064735413,-0.7177051306237646,0.0,-1.7295080066934512,-0.34889209646499375,-0.7690195447205,0.0
1759182068.8100328,0,-1.2049999237060547,-0.8299995064735413,-0.7177051306209741,0.0,-1.7305174781853043,-0.34909573620777523,-0.7595871936052987,0.0
1759182068.8209748,0,-1.2049999237060547,-0.8299995064735413,-0.7177051306191409,0.0,-1.7313315918079255,-0.3492599665897558,-0.7519802372938003,0.0
1759182068.8498974,0,-1.2049999237060547,-0.8299995064735413,-0.7177051306318827,0.0,-1.7319766269152113,-0.349390088920493,-0.7459531254212498,0.0
1759182068.86084,0,-1.2049999237060547,-0.8299995064735413,-0.717705130626296,0.0,-1.7325016258167423,-0.3494959964593697,-0.741047613958769,0.0
1759182068.8715296,0,-1.2049999237060547,-0.8299995064735413,-0.717705130620848,0.0,-1.7329301194948716,-0.3495824360895147,-0.7370438329155427,0.0
1759182068.8822958,0,-1.2049999237060547,-0.8299995064735413,-0.7177051306167712,0.0,-1.7332806660596995,-0.3496531515211744,-0.733768378077671,0.0
1759182068.893949,0,-1.2049999237060547,-0.8299995064735413,-0.7177051306142754,0.0,-1.7336233790656281,-0.34972228669630157,-0.730566118846229,0.0
1759182068.9045498,0,-1.2049999237060547,-0.8299995064735413,-0.7177051306115878,0.0,-1.733894861332479,-0.3497770525608529,-0.7280294290207573,0.0
1759182068.9157517,0,-1.2049999237060547,-0.8299995064735413,-0.7177051306097972,0.0,-1.734110329410697,-0.3498205187353611,-0.7260161274225724,0.0
1759182068.92703,0,-1.2049999237060547,-0.8299995064735413,-0.7177051306083548,0.0,-1.7342817815361717,-0.3498551056127645,-0.7244141043243709,0.0
1759182068.9385035,0,-1.2049999237060547,-0.8299995064735413,-0.7177051306072038,0.0,-1.7344185448227198,-0.3498826947430365,-0.7231362085652526,0.0
1759182068.9486122,0,-1.2049999237060547,-0.8299995064735413,-0.7177051306053492,0.0,-1.7345280905576175,-0.3499047933019928,-0.7221126295508206,0.0
1759182068.9594078,0,-1.2049999237060547,-0.8299995064735413,-0.7177051306041733,0.0,-1.7346159795236544,-0.3499225230611604,-0.7212914081557614,0.0
1759182068.9699974,0,-1.2049999237060547,-0.8299995064735413,-0.7177051306030505,0.0,-1.7346866870872015,-0.3499367868320243,-0.7206307272239483,0.0
1759182068.9812403,0,-1.2049999237060547,-0.8299995064735413,-0.7177051306023969,0.0,-1.7347436716043956,-0.3499482822655433,-0.7200982723912535,0.0
1759182068.9919202,0,-1.2049999237060547,-0.8299995064735413,-0.7177051306014501,0.0,-1.7347897448567517,-0.34995757657978066,-0.7196677707904157,0.0
1759182069.0030587,0,-1.2049999237060547,-0.8299995064735413,-0.7177051306007911,0.0,-1.7348270688088017,-0.3499651059058253,-0.7193190213471862,0.0
1759182069.0143673,0,-1.2049999237060547,-0.8299995064735413,-0.7177051306002157,0.0,-1.7348573764029644,-0.3499712198285358,-0.7190358317059649,0.0
1759182069.0248365,0,-1.2049999237060547,-0.8299995064735413,-0.7177051305992173,0.0,-1.7348820741238362,-0.3499762020767382,-0.7188050598843841,0.0
1759182069.0422757,0,-1.2049999237060547,-0.8299995064735413,-0.7177051306014075,0.0,-1.7349055461349359,-0.3499809370636511,-0.7185857409121708,0.0
1759182069.0523846,0,-1.2049999237060547,-0.8299995064735413,-0.7177051305995867,0.0,-1.7349241558399464,-0.3499846911820904,-0.7184118546031223,0.0
1759182069.062586,0,-1.2049999237060547,-0.8299995064735413,-0.7177051305979454,0.0,-1.7349389447630652,-0.3499876745377614,-0.7182736691104186,0.0
1759182069.073497,0,-1.2049999237060547,-0.8299995064735413,-0.7177051305969222,0.0,-1.73495071725834,-0.3499900493922561,-0.7181636686697626,0.0
1759182069.0835857,0,-1.2049999237060547,-0.8299995064735413,-0.7177051305957463,0.0,-1.7349601208781875,-0.3499919463757196,-0.7180758026479188,0.0
1759182069.0946221,0,-1.2049999237060547,-0.8299995064735413,-0.7177051305951174,0.0,-1.734967642661907,-0.3499934637381357,-0.7180055202222857,0.0
1759182069.1056323,0,-1.2049999237060547,-0.8299995064735413,-0.7177051305945383,0.0,-1.7349736749528364,-0.34999468062656014,-0.7179491553952109,0.0
1759182069.1165864,0,-1.2049999237060547,-0.8299995064735413,-0.7177051305939557,0.0,-1.7349785254520584,-0.3499956591132454,-0.7179038330536531,0.0
1759182069.1272922,0,-1.2049999237060547,-0.8299995064735413,-0.7177051305933109,0.0,-1.7349824367013689,-0.3499964481259218,-0.7178672869232358,0.0
1759182069.138262,0,-1.2049999237060547,-0.8299995064735413,-0.717705130592801,0.0,-1.734985597487864,-0.34999708574843424,-0.717837753005473,0.0
1759182069.1491532,0,-1.2049999237060547,-0.8299995064735413,-0.7177051305922824,0.0,-1.7349881585017208,-0.3499976023793716,-0.7178138232738226,0.0
1759182069.1596713,0,-1.2049999237060547,-0.8299995064735413,-0.7177051305916677,0.0,-1.734990239635178,-0.3499980222044834,-0.717794377473081,0.0
1759182069.1706545,0,-1.2049999237060547,-0.8299995064735413,-0.717705130591245,0.0,-1.7349919339809967,-0.34999836400328554,-0.7177785457583645,0.0
1759182069.1814773,0,-1.2049999237060547,-0.8299995064735413,-0.7177051305907831,0.0,-1.7349935445225466,-0.3499986888963307,-0.7177634970982422,0.0
1759182069.1930783,0,-1.2049999237060547,-0.8299995064735413,-0.7177051305905522,0.0,-1.7349948190455136,-0.34999894600466036,-0.7177515881456608,0.0
1759182069.203617,0,-1.2049999237060547,-0.8299995064735413,-0.7177051305899802,0.0,-1.7349958315418454,-0.3499991502546013,-0.7177421275308892,0.0
1759182069.2141867,0,-1.2049999237060547,-0.8299995064735413,-0.7177051305894561,0.0,-1.7349966378722859,-0.3499993129148892,-0.7177345932994714,0.0
1759182069.2247274,0,-1.2049999237060547,-0.8299995064735413,-0.7177051305889766,0.0,-1.7349972816447037,-0.3499994427824988,-0.7177285779859818,0.0
1759182069.235948,0,-1.2049999237060547,-0.8299995064735413,-0.7177051305887066,0.0,-1.7349977965388592,-0.34999954665161664,-0.7177237668917599,0.0
1759182069.2460642,0,-1.2049999237060547,-0.8299995064735413,-0.7177051305881541,0.0,-1.7349982099284453,-0.3499996300443124,-0.7177199042411009,0.0
1759182069.2573023,0,-1.2049999237060547,-0.8299995064735413,-0.7177051305879196,0.0,-1.7349985422070413,-0.34999969707456374,-0.717716799479442,0.0
1759182069.2686327,0,-1.2049999237060547,-0.8299995064735413,-0.7177051305876886,0.0,-1.734998809960167,-0.3499997510881521,-0.717714297634156,0.0
1759182069.2792974,0,-1.2049999237060547,-0.8299995064735413,-0.7177051305872801,0.0,-1.7349990264441162,-0.34999979475925735,-0.7177122748404098,0.0
1759182069.289775,0,-1.2049999237060547,-0.8299995064735413,-0.7177051305868538,0.0,-1.734999201944475,-0.34999983016278113,-0.7177106349912223,0.0
1759182069.3013709,0,-1.2049999237060547,-0.8299995064735413,-0.7177051305866939,0.0,-1.7349993443819567,-0.3499998588965615,-0.7177093040766296,0.0
1759182069.3120499,0,-1.2049999237060547,-0.8299995064735413,-0.7177051305863209,0.0,-1.7349994776890472,-0.3499998857884765,-0.7177080584750523,0.0
1759182069.3233373,0,-1.2049999237060547,-0.8299995064735413,-0.7177051305860758,0.0,-1.7349995832581369,-0.3499999070848306,-0.7177070720532166,0.0
1759182069.3333688,0,-1.2049999237060547,-0.8299995064735413,-0.7177051305855997,0.0,-1.7349996671936931,-0.34999992401707214,-0.7177062877718922,0.0
1759182069.3439102,0,-1.2049999237060547,-0.8299995064735413,-0.7177051305852711,0.0,-1.7349997340531005,-0.34999993750455805,-0.7177056630475586,0.0
1759182069.3546379,0,-1.2049999237060547,-0.8299995064735413,-0.7177051305850064,0.0,-1.73499978743299,-0.34999994827283337,-0.7177051642738285,0.0
1759182069.36579,0,-1.2049999237060547,-0.8299995064735413,-0.7177051305848252,0.0,-1.7349998301395404,-0.3499999568879859,-0.7177047652301907,0.0
1759182069.377263,0,-1.2049999237060547,-0.8299995064735413,-0.7177051305846759,0.0,-1.73499986438439,-0.3499999637961675,-0.7177044452514212,0.0
1759182069.3888295,0,-1.2049999237060547,-0.8299995064735413,-0.7177051305845126,0.0,-1.7349998919147387,-0.349999969349839,-0.717704188011948,0.0
1759182069.3991306,0,-1.2049999237060547,-0.8299995064735413,-0.7177051305841359,0.0,-1.7349999141374635,-0.34999997383280856,-0.7177039803661213,0.0
1759182069.410221,0,-1.2049999237060547,-0.8299995064735413,-0.7177051305839122,0.0,-1.7349999321029708,-0.3499999774569736,-0.7177038124991008,0.0
1759182069.4208128,0,-1.2049999237060547,-0.8299995064735413,-0.717705130583628,0.0,-1.7349999466721528,-0.34999998039600105,-0.7177036763668371,0.0
1759182069.4356754,0,-1.2049999237060547,-0.8299995064735413,-0.7177051305839299,0.0,-1.7349999601369415,-0.34999998311224034,-0.7177035505538585,0.0
1759182069.4469857,0,-1.2049999237060547,-0.8299995064735413,-0.7177051305836244,0.0,-1.7349999707985446,-0.34999998526299564,-0.7177034509334279,0.0
1759182069.4585156,0,-1.2049999237060547,-0.8299995064735413,-0.7177051305833384,0.0,-1.7349999792613615,-0.34999998697019186,-0.7177033718581274,0.0
1759182069.469249,0,-1.2049999237060547,-0.8299995064735413,-0.7177051305829814,0.0,-1.7349999860027796,-0.34999998833013185,-0.7177033088673214,0.0
1759182069.47926,0,-1.2049999237060547,-0.8299995064735413,-0.7177051305825941,0.0,-1.7349999913906746,-0.34999998941702687,-0.7177032585236341,0.0
1759182069.4896457,0,-1.2049999237060547,-0.8299995064735413,-0.717705130582317,0.0,-1.734999995705283,-0.3499999902874088,-0.7177032182085746,0.0
1759182069.50048,0,-1.2049999237060547,-0.8299995064735413,-0.7177051305821323,0.0,-1.734999999167182,-0.34999999098577445,-0.7177031858611078,0.0
1759182069.5111718,0,-1.2049999237060547,-0.8299995064735413,-0.717705130581944,0.0,-1.7350000019523635,-0.3499999915476265,-0.7177031598367882,0.0
1759182069.5217774,0,-1.2049999237060547,-0.8299995064735413,-0.7177051305817628,0.0,-1.7350000041989064,-0.3499999920008195,-0.7177031388454266,0.0
1759182069.5332754,0,-1.2049999237060547,-0.8299995064735413,-0.7177051305816775,0.0,-1.73500000601364,-0.34999999236690393,-0.7177031218888282,0.0
1759182069.5433142,0,-1.2049999237060547,-0.8299995064735413,-0.717705130581443,0.0,-1.735000007485861,-0.34999999266389376,-0.7177031081326124,0.0
1759182069.5538757,0,-1.2049999237060547,-0.8299995064735413,-0.7177051305812796,0.0,-1.7350000086822726,-0.3499999929052448,-0.7177030969535199,0.0
1759182069.5646744,0,-1.2049999237060547,-0.8299995064735413,-0.7177051305811517,0.0,-1.7350000097964222,-0.3499999931300012,-0.7177030865430716,0.0
1759182069.575429,0,-1.2049999237060547,-0.8299995064735413,-0.7177051305810238,0.0,-1.7350000106801087,-0.34999999330826637,-0.7177030782860381,0.0
1759182069.587023,0,-1.2049999237060547,-0.8299995064735413,-0.7177051305809687,0.0,-1.7350000113821902,-0.34999999344989663,-0.717703071725893,0.0
1759182069.5970674,0,-1.2049999237060547,-0.8299995064735413,-0.7177051305807716,0.0,-1.7350000119424225,-0.3499999935629118,-0.7177030664911641,0.0
1759182069.6072936,0,-1.2049999237060547,-0.8299995064735413,-0.7177051305806081,0.0,-1.7350000123904439,-0.3499999936532907,-0.71770306230492,0.0
1759182069.6175523,0,-1.2049999237060547,-0.8299995064735413,-0.7177051305804678,0.0,-1.7350000127495815,-0.34999999372573926,-0.7177030589491912,0.0
1759182069.653849,0,-1.2049999237060547,-0.8299995064735413,-0.7177051305820648,0.0,-1.7350000130300631,-0.34999999378232055,-0.7177030563284132,0.0
1759182069.6593728,0,-1.2049999237060547,-0.8299995064735413,-0.7177051305811305,0.0,-1.7350000132585617,-0.34999999382841535,-0.7177030541933558,0.0
1759182069.6698592,0,-1.2049999237060547,-0.8299995064735413,-0.7177051305806401,0.0,-1.735000013443917,-0.3499999938658068,-0.7177030524614253,0.0
1759182069.6807964,0,-1.2049999237060547,-0.8299995064735413,-0.7177051305803239,0.0,-1.73500001359456,-0.3499999938961959,-0.7177030510538392,0.0
1759182069.6915731,0,-1.2049999237060547,-0.8299995064735413,-0.7177051305800735,0.0,-1.735008941073791,-0.3499922002488243,-0.7177030497458945,-0.0071850686073303225
1759182069.703239,0,-1.2049999237060547,-0.8299995064735413,-0.7177051305799242,0.0,-1.7350256691270176,-0.3499091428338888,-0.7177030487087228,-0.012953768966317399
1759182069.7144954,0,-1.2049999237060547,-0.8299995064735413,-0.7177051305797768,0.0,-1.735047054425952,-0.34978026644968274,-0.717703047883652,-0.017612199326530242
1759182069.7252064,0,-1.2049999237060547,-0.8299995064735413,-0.7177051305796205,0.0,-1.7350709366709263,-0.34962570743449845,-0.7177030472251912,-0.02139676833827494
1759182069.7360244,0,-1.2049999237060547,-0.8299995064735413,-0.7177051305794927,0.0,-1.7350958743167169,-0.34945900451281986,-0.7177030466984359,-0.024492611615110904
1759182069.7461705,0,-1.2049999237060547,-0.8299995064735413,-0.7177051305793521,0.0,-1.7351208955846973,-0.34928914308836184,-0.7177030462756724,-0.027042038986827978
1759182069.7566397,0,-1.2049999237060547,-0.8299995064735413,-0.7177051305792509,0.0,-1.735145421499441,-0.34912177659626864,-0.71770304593569,-0.02915982236637945
1759182069.766774,0,-1.2049999237060547,-0.8299995064735413,-0.717705130579148,0.0,-1.7351690850214692,-0.3489603921107556,-0.717703045661517,-0.030933820042779434
1759182069.7782664,0,-1.2049999237060547,-0.8299995064735413,-0.717705130579116,0.0,-1.7351918029991087,-0.34880656000774873,-0.7177030454402389,-0.03244142444006766
1759182069.788446,0,-1.2049999237060547,-0.8299995064735413,-0.7177051305790236,0.0,-1.7352134187146318,-0.3486613810521551,-0.7177030452609173,-0.03373123176616375
1759182069.7987037,0,-1.2049999237060547,-0.8299995064735413,-0.7177051305789437,0.0,-1.7352339478600411,-0.34852499853710717,-0.717703045115276,-0.034848168695496534
1759182069.8101437,0,-1.2049999237060547,-0.8299995064735413,-0.717705130578917,0.0,-1.7352535551231079,-0.34839673112732944,-0.7177030449968834,-0.03583443425124387
1759182069.8213778,0,-1.2049999237060547,-0.8299995064735413,-0.717705130578878,0.0,-1.7352672730714125,-0.348304203272481,-0.7177030448910774,-0.0362770266235312
1759182069.8316739,0,-1.2049999237060547,-0.8299995064735413,-0.7177051305787963,0.0,-1.7352798805704632,-0.34822136231991563,-0.7177030448071977,-0.03669435251396264
1759182069.8563044,0,-1.2049999237060547,-0.8299995064735413,-0.7177051305792119,0.0,-1.7352930941548212,-0.3481405302363533,-0.7177030447416841,-0.03718112956571928
1759182069.860505,0,-1.2049999237060547,-0.8299995064735413,-0.7177051305788087,0.0,-1.7353048970108018,-0.3480681784093095,-0.7177030446889564,-0.037601143233458846
1759182069.8716574,0,-1.2049999237060547,-0.8299995064735413,-0.7177051305787003,0.0,-1.735316246781173,-0.34800030256105224,-0.717703044646866,-0.03801178458475713
1759182069.8818793,0,-1.2049999237060547,-0.8299995064735413,-0.7177051305785974,0.0,-1.7353271773910997,-0.3479362486668977,-0.7177030446131594,-0.038410711238812845
1759182069.893381,0,-1.2049999237060547,-0.8299995064735413,-0.7177051305785476,0.0,-1.735337954445968,-0.34787456904798447,-0.7177030445861741,-0.038810051552655864
1759182069.9047663,0,-1.2049999237060547,-0.8299995064735413,-0.7177051305785014,0.0,-1.7353486568487497,-0.3478145767191148,-0.7177030445645332,-0.03921080085368052
1759182069.9153175,0,-1.2049999237060547,-0.8299995064735413,-0.7177051305784339,0.0,-1.7353592629229364,-0.34775606252763536,-0.7177030445471316,-0.0396089860771635
1759182069.9265893,0,-1.2049999237060547,-0.8299995064735413,-0.7177051305783912,0.0,-1.7353699320931064,-0.34769817297690303,-0.7177030445331469,-0.04001159562960674
1759182069.9369493,0,-1.2049999237060547,-0.8299995064735413,-0.7177051305783273,0.0,-1.7353676144252805,-0.3476929739928155,-0.7177030445128656,-0.03964825971130131
1759182069.9485154,0,-1.2049999237060547,-0.8299995064735413,-0.7177051305782989,0.0,-1.73536671590662,-0.34768683870242584,-0.7177030444968425,-0.039434969004894654
1759182069.9587376,0,-1.2049999237060547,-0.8299995064735413,-0.7177051305782403,0.0,-1.7353669741021065,-0.3476790102531075,-0.7177030444841351,-0.03933192982473774
1759182069.9689107,0,-1.2049999237060547,-0.8299995064735413,-0.7177051305781852,0.0,-1.7353683006297473,-0.3476686382008035,-0.7177030444740393,-0.03931673721637852
1759182069.97985,0,-1.2049999237060547,-0.8299995064735413,-0.7177051305781533,0.0,-1.7353707061566277,-0.34765484392255275,-0.7177030444660157,-0.039377359608424534
1759182069.9902833,0,-1.2049999237060547,-0.8299995064735413,-0.7177051305781124,0.0,-1.7353740361110497,-0.34763767059577017,-0.7177030444596254,-0.03949610063892135
1759182070.0018675,0,-1.2049999237060547,-0.8299995064735413,-0.7177051305780981,0.0,-1.7353783567746157,-0.3476164675249239,-0.7177030444545414,-0.039670115453637085
1759182070.0128138,0,-1.2049999237060547,-0.8299995064735413,-0.717705130578068,0.0,-1.7353835044586476,-0.34759162744990574,-0.7177030444504893,-0.039885518571297005
1759182070.0241857,0,-1.2049999237060547,-0.8299995064735413,-0.7177051305780431,0.0,-1.7353894680681825,-0.3475630416398636,-0.7177030444472629,-0.040138449224375136
1759182070.0356386,0,-1.2049999237060547,-0.8299995064735413,-0.71770513057802,0.0,-1.7353961977811678,-0.3475308125458285,-0.7177030444446963,-0.04042372261940113
1759182070.0709946,0,-1.2049999237060547,-0.8299995064735413,-0.7177051305784019,0.0,-1.7353927409546723,-0.34753949394855205,-0.7177030444407172,-0.040149547462627985
1759182070.0824373,0,-1.2049999237060547,-0.8299995064735413,-0.717705130578242,0.0,-1.7353910712218663,-0.3475432827312369,-0.7177030444375697,-0.04000669358012926
1759182070.0932589,0,-1.2049999237060547,-0.8299995064735413,-0.7177051305780875,0.0,-1.7353909266452268,-0.3475420761096847,-0.7177030444350753,-0.0399648166959845
1759182070.1046593,0,-1.2049999237060547,-0.8299995064735413,-0.7177051305779826,0.0,-1.7353922261343424,-0.3475354341552526,-0.7177030444331003,-0.04000831715622476
1759182070.1148932,0,-1.2049999237060547,-0.8299995064735413,-0.7177051305778868,0.0,-1.735394670539015,-0.3475240656108868,-0.7177030444315331,-0.04011328215367379
1759182070.1250162,0,-1.2049999237060547,-0.8299995064735413,-0.7177051305778139,0.0,-1.7353981305729902,-0.34750820488616985,-0.7177030444302904,-0.040267879411817455
1759182070.1362479,0,-1.2049999237060547,-0.8299995064735413,-0.7177051305777731,0.0,-1.735402652838484,-0.34748747854818524,-0.7177030444293108,-0.04047114402757338
1759182070.1474369,0,-1.2049999237060547,-0.8299995064735413,-0.7177051305777375,0.0,-1.7354081341382686,-0.3474621772623707,-0.7177030444285414,-0.04071478306239256
1759182070.1575215,0,-1.2049999237060547,-0.8299995064735413,-0.7177051305776949,0.0,-1.735414344421303,-0.3474331832710407,-0.7177030444279378,-0.04098491683222641
1759182070.1687908,0,-1.2049999237060547,-0.8299995064735413,-0.7177051305776736,0.0,-1.7354056720078863,-0.347464963091258,-0.7177030444266136,-0.04046683771714238
1759182070.179451,0,-1.2049999237060547,-0.8299995064735413,-0.7177051305776486,0.0,-1.7353994498474088,-0.3474900978538526,-0.7177030444255774,-0.04012479629020237
1759182070.1908426,0,-1.2049999237060547,-0.8299995064735413,-0.7177051305776327,0.0,-1.7353954841567854,-0.3475077393795074,-0.7177030444247693,-0.039927479831491
1759182070.2023544,0,-1.2049999237060547,-0.8299995064735413,-0.7177051305776186,0.0,-1.735393517532097,-0.34751782812853754,-0.7177030444241412,-0.03984646500872059
1759182070.2138011,0,-1.2049999237060547,-0.8299995064735413,-0.7177051305776025,0.0,-1.735393300381792,-0.3475206643443951,-0.7177030444236553,-0.039858429317289355
1759182070.2252417,0,-1.2049999237060547,-0.8299995064735413,-0.7177051305775866,0.0,-1.7353946243759624,-0.34751665370465296,-0.7177030444232821,-0.03994560458444354
1759182070.2368221,0,-1.2049999237060547,-0.8299995064735413,-0.7177051305775723,0.0,-1.7353973301149581,-0.34750618536039574,-0.7177030444229989,-0.04009512901624796
1759182070.254553,0,-1.2049999237060547,-0.8299995064735413,-0.7177051305776149,0.0,-1.7354020698433112,-0.34748639760202454,-0.717703044422798,-0.040337997529491056
1759182070.2654777,0,-1.2049999237060547,-0.8299995064735413,-0.7177051305775777,0.0,-1.735407748733614,-0.34746158043986636,-0.7177030444226514,-0.040611981894897564
1759182070.2769158,0,-1.2049999237060547,-0.8299995064735413,-0.7177051305775493,0.0,-1.7354143446381245,-0.3474319068810541,-0.7177030444225496,-0.040916208763030634
1759182070.2871346,0,-1.2049999237060547,-0.8299995064735413,-0.7177051305775137,0.0,-1.735405159925474,-0.34746646653823,-0.7177030444219349,-0.04038725548480757
1759182070.2986157,0,-1.2049999237060547,-0.8299995064735413,-0.7177051305774942,0.0,-1.735398629164022,-0.34749346941592424,-0.7177030444214594,-0.040042369569793373
1759182070.3096201,0,-1.2049999237060547,-0.8299995064735413,-0.7177051305774746,0.0,-1.735394362911097,-0.3475128466248657,-0.7177030444210926,-0.03984014666698206
1759182070.3197832,0,-1.2049999237060547,-0.8299995064735413,-0.7177051305774516,0.0,-1.7353919718999637,-0.3475251177855194,-0.7177030444208103,-0.03974598151908702
1759182070.331439,0,-1.2049999237060547,-0.8299995064735413,-0.7177051305774427,0.0,-1.735391418141914,-0.34752975338652364,-0.7177030444205971,-0.039748580161408
1759182070.3418806,0,-1.2049999237060547,-0.8299995064735413,-0.7177051305774267,0.0,-1.735392321398341,-0.3475278589152176,-0.717703044420437,-0.03982116290126681
1759182070.352577,0,-1.2049999237060547,-0.8299995064735413,-0.7177051305774125,0.0,-1.735394540889783,-0.34751977557378744,-0.7177030444203195,-0.039952470634839574
1759182070.3640816,0,-1.2049999237060547,-0.8299995064735413,-0.7177051305774036,0.0,-1.7353980304709653,-0.34750555888196655,-0.7177030444202372,-0.04013752740205028
1759182070.3755314,0,-1.2049999237060547,-0.8299995064735413,-0.7177051305773965,0.0,-1.7354026457247926,-0.34748572763296404,-0.7177030444201832,-0.04036683356518596
1759182070.3870475,0,-1.2049999237060547,-0.8299995064735413,-0.7177051305773858,0.0,-1.735408281486915,-0.34746070011955466,-0.7177030444201519,-0.040633783179669425
1759182070.3971567,0,-1.2049999237060547,-0.8299995064735413,-0.7177051305773698,0.0,-1.7354146545108744,-0.34743166596774006,-0.7177030444201375,-0.04092304609558833
1759182070.4075618,0,-1.2049999237060547,-0.8299995064735413,-0.7177051305773574,0.0,-1.735405186413274,-0.347467167147052,-0.7177030444197412,-0.04038069611627805
1759182070.4190416,0,-1.2049999237060547,-0.8299995064735413,-0.7177051305773504,0.0,-1.735398415431551,-0.3474950563092395,-0.7177030444194359,-0.040025240278934116
1759182070.4295166,0,-1.2049999237060547,-0.8299995064735413,-0.7177051305773396,0.0,-1.7353938752296196,-0.3475155409739863,-0.7177030444192007,-0.03981100565313823
1759182070.440417,0,-1.2049999237060547,-0.8299995064735413,-0.7177051305773325,0.0,-1.7353913442589728,-0.34752842984364163,-0.7177030444190217,-0.03971218599970921
1759182070.4504673,0,-1.2049999237060547,-0.8299995064735413,-0.7177051305773183,0.0,-1.7353904628224268,-0.3475344832582091,-0.7177030444188862,-0.03970015096298612
1759182070.4620652,0,-1.2049999237060547,-0.8299995064735413,-0.7177051305773148,0.0,-1.7353912272313512,-0.3475332797764559,-0.7177030444187866,-0.03976857828331537
1759182070.4733875,0,-1.2049999237060547,-0.8299995064735413,-0.7177051305773112,0.0,-1.7353934052480964,-0.3475254787834731,-0.7177030444187154,-0.03990059808417718
1759182070.4842587,0,-1.2049999237060547,-0.8299995064735413,-0.7177051305773041,0.0,-1.7353967754954878,-0.34751184237244803,-0.7177030444186666,-0.04008178468914379
1759182070.4950073,0,-1.2049999237060547,-0.8299995064735413,-0.717705130577297,0.0,-1.7354011903887698,-0.34749292821546957,-0.7177030444186356,-0.04030295108438108
1759182070.5064259,0,-1.2049999237060547,-0.8299995064735413,-0.7177051305772917,0.0,-1.7354066296740758,-0.34746882140644286,-0.7177030444186197,-0.04056229957689308
1759182070.516789,0,-1.2049999237060547,-0.8299995064735413,-0.7177051305772829,0.0,-1.735412855516478,-0.3474405172061686,-0.7177030444186151,-0.0408467862288646
1759182070.5279543,0,-1.2049999237060547,-0.8299995064735413,-0.7177051305772756,0.0,-1.7354038025392697,-0.3474743982087429,-0.7177030444183223,-0.0403284859365779
1759182070.5392106,0,-1.2049999237060547,-0.8299995064735413,-0.7177051305772704,0.0,-1.7353973583503572,-0.34750088374880794,-0.7177030444180962,-0.03999049402977712
1759182070.5495563,0,-1.2049999237060547,-0.8299995064735413,-0.7177051305772615,0.0,-1.7353930821528465,-0.3475201439954662,-0.7177030444179222,-0.039789257587989325
1759182070.5611737,0,-1.2049999237060547,-0.8299995064735413,-0.7177051305772579,0.0,-1.7353908708785444,-0.3475315348258779,-0.7177030444177898,-0.03970566188221774
1759182070.5725029,0,-1.2049999237060547,-0.8299995064735413,-0.7177051305772526,0.0,-1.735390431227967,-0.34753553781857677,-0.7177030444176902,-0.03971449921162951
1759182070.5834699,0,-1.2049999237060547,-0.8299995064735413,-0.7177051305772473,0.0,-1.7353915006905727,-0.34753279402695225,-0.7177030444176165,-0.039795608105893304
1759182070.594367,0,-1.2049999237060547,-0.8299995064735413,-0.7177051305772402,0.0,-1.7353938910203013,-0.34752383185211977,-0.7177030444175634,-0.03993515013859585
1759182070.6050432,0,-1.2049999237060547,-0.8299995064735413,-0.7177051305772331,0.0,-1.735397422384512,-0.3475092664889752,-0.7177030444175266,-0.04012126710315281
1759182070.6165075,0,-1.2049999237060547,-0.8299995064735413,-0.7177051305772295,0.0,-1.735402073304251,-0.3474891405588126,-0.7177030444175035,-0.04035149333142945
1759182070.627992,0,-1.2049999237060547,-0.8299995064735413,-0.717705130577226,0.0,-1.7354077335850355,-0.3474638880724738,-0.7177030444174913,-0.04061893429741004
1759182070.638816,0,-1.2049999237060547,-0.8299995064735413,-0.7174030617676938,0.005235987755982988,-1.7353993273869321,-0.3474957618076154,-0.7177030444172672,-0.040144372079112915
1759182070.6583884,0,-1.2049946286589435,-0.8300045714262244,-0.7174030585872978,0.005287198804847533,-1.7353945374557944,-0.3475156851547109,-0.7177030444170983,-0.03989778886120013
1759182070.6699653,0,-1.204992778974322,-0.8300061688093451,-0.7174018525653916,0.005287198804847533,-1.7353918537791468,-0.3475280971779596,-0.7177030444169683,-0.03977773671861912
1759182070.6799836,0,-1.2049920954236348,-0.8300067589057596,-0.7174099390258507,0.005287198804847533,-1.7353908181313566,-0.34753400818491975,-0.7177030444168683,-0.03974847729049177
1759182070.6914542,0,-1.2049918129314199,-0.8300070029842499,-0.7174018416105874,0.005287198804847533,-1.7353914192689,-0.3475329405437963,-0.7177030444167927,-0.039802215229168
1759182070.7028732,0,-1.2049917057878552,-0.8300070955514433,-0.7174033866843135,0.005287198804847533,-1.7353934576709653,-0.34752535445458443,-0.7177030444167365,-0.03992303600482608
1759182070.713315,0,-1.2049916792633835,-0.8300071183369147,-0.7173693916865477,0.005287198804847533,-1.7353966430151577,-0.3475122450661323,-0.7177030444166954,-0.040092234081784354
1759182070.724621,0,-1.2049916563964778,-0.8300071381584342,-0.7173603351819958,0.005287198804847533,-1.735400961940409,-0.347493590684969,-0.7177030444166668,-0.04030741357294557
1759182070.7360716,0,-1.2049916455330814,-0.8300071475882447,-0.717385025795371,0.005287198804847533,-1.7354063176142822,-0.3474697456851946,-0.7177030444166485,-0.04056208495873055
1759182070.747222,0,-1.2025380383487174,-0.8283245695969121,-0.7158892918651101,0.005906648274912949,-1.735398353770641,-0.347499950820278,-0.7177030444164764,-0.040113871522769726
1759182070.7580912,0,-1.202538042170713,-0.8283245662531807,-0.7158812997253838,0.005906648274912949,-1.7353928016157336,-0.34752303259877865,-0.7177030444163427,-0.03982866656513517
1759182070.7697098,0,-1.2025380336926692,-0.828324573651851,-0.7158641514634227,0.005906648274912949,-1.7353894618038168,-0.34753836619218387,-0.7177030444162393,-0.03967798661296405
1759182070.781336,0,-1.2025380303531756,-0.8283245765662363,-0.715866681150237,0.005906648274912949,-1.7353880605291838,-0.3475461038845021,-0.7177030444161601,-0.03963480814665333
1759182070.7915933,0,-1.2025380472333418,-0.8283245618293444,-0.715889793854377,0.005906648274912949,-1.7353881841091976,-0.3475473357640161,-0.7177030444160993,-0.03966889449298002
1759182070.8022873,0,-1.202538047888333,-0.828324561257341,-0.7158638365982817,0.005906648274912949,-1.7353897042494786,-0.34754224902018654,-0.7177030444160534,-0.03976853756257992
1759182070.8136435,0,-1.2025380393578742,-0.8283245687044297,-0.7158822883230245,0.005906648274912949,-1.7353925424096175,-0.347530956773231,-0.7177030444160196,-0.03992622151386048
1759182070.8246386,0,-1.202538040886686,-0.8283245673697647,-0.7158551374505587,0.005906648274912949,-1.7353965047525273,-0.3475141351070395,-0.7177030444159953,-0.04012934706548468
1759182070.8346696,0,-1.2025380542574347,-0.828324555696995,-0.715887538118883,0.005906648274912949,-1.7354013460098392,-0.34749276018867836,-0.7177030444159784,-0.04036382202493006
1759182070.8449626,0,-1.2025380558896404,-0.8283245542720316,-0.7158735654439363,0.005906648274912949,-1.7353933520818188,-0.3475236417575038,-0.7177030444159375,-0.0399156678061302
1759182070.873259,0,-1.1982916595291928,-0.8331151301916664,-0.7120603167572523,0.04781287450806658,-1.735390048550575,-0.3475378566224241,-0.7177030444158258,-0.03974936639386624
1759182070.884541,0,-1.1967391383991661,-0.8344464394489389,-0.7093117149976451,0.04781287450806658,-1.735388613543539,-0.3475450424523836,-0.7177030444157386,-0.03969143174186322
1759182070.8949301,0,-1.1961556228222763,-0.8349448616847682,-0.7072679037076428,0.04781287450806658,-1.735388708654431,-0.34754591246042826,-0.7177030444156707,-0.039714593780118435
1759182070.9063346,0,-1.1959196581188725,-0.8351450729359683,-0.7057430545103821,0.04781287450806658,-1.7353902837418567,-0.3475402657426115,-0.7177030444156182,-0.039810269109954825
1759182070.9176567,0,-1.195829895207471,-0.835220239078808,-0.7046671296429048,0.04781287450806658,-1.7353931589023068,-0.34752857343140553,-0.717703044415578,-0.039964603810947845
1759182070.9295373,0,-1.1957884106393635,-0.8352543430926471,-0.7039068566128065,0.04781287450806658,-1.7353972640299018,-0.3475109772861034,-0.7177030444155476,-0.0401711163581071
1759182070.9408405,0,-1.1957792175390045,-0.8352612150438818,-0.7033602364108712,0.04781287450806658,-1.7354023972114214,-0.3474882300447124,-0.7177030444155252,-0.04041719746568102
1759182070.95177,0,-1.1957800011551851,-0.8352598538466951,-0.7029887231516627,0.04781287450806658,-1.7354084099469813,-0.3474609393210877,-0.7177030444155091,-0.040694168453391334
1759182070.962229,0,-1.1959931631545098,-0.8356709501169373,-0.702688154530599,0.049084557068823594,-1.7354006642845277,-0.34748964429920176,-0.7177030444154144,-0.040243026439059096
1759182070.9738247,0,-1.1959815329806853,-0.8356804120371246,-0.7024657452706394,0.049084557068823594,-1.7353953789067376,-0.3475111530952925,-0.7177030444153406,-0.03996044133832102
1759182070.985165,0,-1.1959801018320895,-0.8356813562002138,-0.7023400995359979,0.049084557068823594,-1.7353922233155845,-0.3475253337092859,-0.717703044415283,-0.03981006249124759
1759182070.9965868,0,-1.1959785204442606,-0.8356825088879658,-0.7022424183266006,0.049084557068823594,-1.7353909501244806,-0.34753222763471997,-0.7177030444152382,-0.03976594112965635
1759182071.0079718,0,-1.1959783294017676,-0.8356825494904984,-0.7022037410448839,0.049084557068823594,-1.735391328373296,-0.34753215539090443,-0.7177030444152036,-0.0398071194487862
1759182071.0182438,0,-1.1959917144399033,-0.8356711848367959,-0.7021938237962226,0.049084557068823594,-1.7353930198524485,-0.34752612764206053,-0.7177030444151768,-0.0399099914774928
1759182071.0292692,0,-1.1959877060105009,-0.8356745388081268,-0.7021827687507722,0.049084557068823594,-1.7353959709103504,-0.34751416992753165,-0.7177030444151566,-0.04006846365544003
1759182071.0399218,0,-1.1959906896464134,-0.8356720101337726,-0.702182896697222,0.049084557068823594,-1.7353999947285912,-0.34749693418556715,-0.7177030444151415,-0.040270330840066614
1759182071.0545492,0,-1.185938054435838,-0.8443941260963633,-0.6898351914187708,0.11350999455168494,-1.7354055024275055,-0.3474726769409241,-0.7177030444151309,-0.040535704824220385
1759182071.064971,0,-1.1824448710566176,-0.8476530839250817,-0.6802134458295834,0.11454692250262401,-1.735397520219204,-0.3475031584995289,-0.7177030444150665,-0.040085611262015215
1759182071.075008,0,-1.181048915434107,-0.8487452006866514,-0.6732127163131839,0.11454692250262401,-1.7353918418890637,-0.34752693578477106,-0.717703044415016,-0.0397932512452892
1759182071.0851405,0,-1.180505601589905,-0.8491590983140906,-0.6681525018914626,0.11454692250262401,-1.7353881989604572,-0.34754370643614885,-0.7177030444149762,-0.03962679867445797
1759182071.0967185,0,-1.1802466365045772,-0.8493489148768879,-0.6643202094612667,0.11454692250262401,-1.7353865251550975,-0.34755279890942586,-0.7177030444149453,-0.039570570014812234
1759182071.1079648,0,-1.1801544579485372,-0.8494099455349078,-0.6616481805995247,0.11454692250262401,-1.7353865342025314,-0.3475547467802697,-0.7177030444149212,-0.0396006498812918
1759182071.1183076,0,-1.1801456113210185,-0.8494087580753249,-0.659786909818084,0.11454692250262401,-1.7353879062756001,-0.3475504867282244,-0.7177030444149025,-0.039694524961281966
1759182071.1301792,0,-1.1800910426683247,-0.8494442477484501,-0.6582883946201055,0.11454692250262401,-1.7353906756796598,-0.34753967550167486,-0.7177030444148882,-0.03985077556434716
1759182071.141733,0,-1.1800790025110337,-0.8494487715074245,-0.6572791100206005,0.11454692250262401,-1.7353946450006108,-0.3475229870259341,-0.7177030444148773,-0.040056280457659355
1759182071.152938,0,-1.1800847054015047,-0.8494411426039782,-0.6566316349411516,0.11454692250262401,-1.7353996416385766,-0.3475010857346039,-0.7177030444148692,-0.040300482577022616
1759182071.163792,0,-1.1800976141877748,-0.8494291292799171,-0.6562152661674612,0.11454692250262401,-1.7354055174650054,-0.3474745947092724,-0.7177030444148633,-0.04057498440890859
1759182071.174933,0,-1.1798741920277855,-0.8500233766606757,-0.6549346579472599,0.11673653680916479,-1.7353978853828214,-0.3475030724930088,-0.7177030444148222,-0.040132989668926124
1759182071.1864371,0,-1.1798603790340523,-0.8500328020560636,-0.6547082602069902,0.11673653680916479,-1.7353926870954197,-0.3475243718965653,-0.7177030444147902,-0.03985703342079913
1759182071.1980104,0,-1.1798527051239969,-0.8500379377808249,-0.6545485174534649,0.11673653680916479,-1.7353896357074503,-0.34753820963251164,-0.7177030444147648,-0.03971344243739044
1759182071.208252,0,-1.1798928094536336,-0.8500073641482294,-0.6546164793158025,0.11673653680916479,-1.7353882978160096,-0.34754541315595355,-0.7177030444147449,-0.03966667150714837
1759182071.2197099,0,-1.1798688367680576,-0.8500253995422367,-0.6545673136843402,0.11673653680916479,-1.7353886226795054,-0.3475456079182306,-0.7177030444147292,-0.03970599840902348
1759182071.230356,0,-1.179885972893838,-0.8500125003551533,-0.6546377875897299,0.11673653680916479,-1.7353903088428322,-0.34753964557992567,-0.717703044414717,-0.039809659253987884
1759182071.240534,0,-1.179907761485073,-0.8499962402787904,-0.6547342820150409,0.11673653680916479,-1.7353931385012404,-0.34752822182300686,-0.7177030444147074,-0.039962770376712364
1759182071.2537594,0,-1.1705064463682264,-0.8566229405322151,-0.6419062726598282,0.10317103006314285,-1.7353973791666368,-0.3475101324024662,-0.7177030444147001,-0.040177411782341715
1759182071.2644408,0,-1.1669559240364673,-0.8591502140951996,-0.6318486455364242,0.10317103006314285,-1.7354025552377226,-0.3474872249794473,-0.7177030444146946,-0.04042595579112214
1759182071.2757506,0,-1.1655728296839267,-0.8601203494285726,-0.624344250795232,0.10317103006314285,-1.735408658421132,-0.3474595626538295,-0.7177030444146905,-0.040707614066538875
1759182071.287047,0,-1.1650384872147939,-0.8604845700387097,-0.6189205998063816,0.10317103006314285,-1.7353998480582293,-0.34749262319934027,-0.7177030444146834,-0.04020146102444568
1759182071.2983863,0,-1.1643434595380036,-0.8613329811803222,-0.6133968746156556,0.10466113659369171,-1.7353937692891062,-0.34751783980566253,-0.7177030444146589,-0.03987770290411812
1759182071.3091328,0,-1.1642772901130374,-0.8613697798127783,-0.610684502538737,0.10466113659369171,-1.7353898508256624,-0.3475357406626929,-0.7177030444146396,-0.039690473461066245
1759182071.3201246,0,-1.1642426084700401,-0.8613865549019364,-0.60869430579735,0.10466113659369171,-1.7353878578649273,-0.3475462566252695,-0.7177030444146243,-0.039613752156739665
1759182071.3314452,0,-1.1642181291833331,-0.8613979078678475,-0.6072555263855453,0.10466113659369171,-1.7353875952927347,-0.34754951496512054,-0.7177030444146121,-0.039627901525181745
1759182071.3414893,0,-1.1642450967492914,-0.8613759510919089,-0.6064575850771244,0.10466113659369171,-1.7353886896557997,-0.3475466349194284,-0.7177030444146024,-0.03970691224288412
1759182071.353017,0,-1.1642112186102638,-0.8613961819416421,-0.6056987721844116,0.10466113659369171,-1.7353911698883064,-0.34753728038154325,-0.7177030444145948,-0.039848767953105636
1759182071.3646102,0,-1.1641958008816897,-0.8614046297373319,-0.6051816218536872,0.10466113659369171,-1.7353948877101046,-0.34752191188797393,-0.7177030444145887,-0.0400427389049666
1759182071.3756366,0,-1.164206209635152,-0.8613963541102994,-0.6049219215148063,0.10466113659369171,-1.7353996369149645,-0.34750131554407404,-0.7177030444145839,-0.04027617920151409
1759182071.38692,0,-1.1642024993058202,-0.8613980997324815,-0.6047686494228712,0.10466113659369171,-1.7354053471623363,-0.34747578798639883,-0.7177030444145801,-0.040544635554295404
1759182071.3978899,0,-1.163800673793036,-0.8619932364569315,-0.6032072887797455,0.10587473866379737,-1.7353975871255802,-0.3475049590309433,-0.7177030444145643,-0.0400999110145622
1759182071.409169,0,-1.1637945775827738,-0.8619972066804098,-0.6031876238497488,0.10587473866379737,-1.7353922554840935,-0.34752696046285736,-0.7177030444145518,-0.03982029826366671
1759182071.4204824,0,-1.1637912947021265,-0.8619994361280032,-0.6031975527163917,0.10587473866379737,-1.7353890594131767,-0.3475415398282265,-0.7177030444145418,-0.03967202649167478
1759182071.4317713,0,-1.163790851983244,-0.8619998789948021,-0.6032591160128359,0.10587473866379737,-1.7353877330894754,-0.34754883118362273,-0.7177030444145338,-0.03962851081659363
1759182071.4431486,0,-1.1637882074207613,-0.8620018930215441,-0.6033229651334493,0.10587473866379737,-1.735388059838346,-0.3475491119399822,-0.7177030444145274,-0.03966984995094085
1759182071.4737267,0,-1.149014456426345,-0.8714858170561007,-0.5811854503852414,0.13370752954825682,-1.7353923064267434,-0.3475325527655974,-0.7177030444145223,-0.03990927801601483
1759182071.4845867,0,-1.1441490673901227,-0.8744601324459129,-0.5669522046464975,0.13370752954825682,-1.7353975254544636,-0.3475106017268415,-0.717703044414518,-0.04017850992548738
1759182071.4954188,0,-1.1422775181876992,-0.8755796491308178,-0.5567229957271409,0.13370752954825682,-1.7354036093913991,-0.34748383709215336,-0.7177030444145146,-0.04047306650745694
1759182071.5068564,0,-1.1415287371680707,-0.8760101139637027,-0.5493439028045248,0.13370752954825682,-1.735410554753697,-0.347452400030697,-0.7177030444145117,-0.04079381654062221
1759182071.5176866,0,-1.140454779378883,-0.876938442848923,-0.5417673288887447,0.13525872749815857,-1.7354018849281891,-0.34748450093044164,-0.7177030444145032,-0.04028688616586622
1759182071.528303,0,-1.1403557039054921,-0.8769820378563251,-0.5381919478326626,0.13525872749815857,-1.7353956726850162,-0.3475098143835382,-0.7177030444144962,-0.039953502329884205
1759182071.5398514,0,-1.1402771361943658,-0.8770158640688029,-0.5354731177087719,0.13505408245923073,-1.7353917424116638,-0.34752744740542774,-0.7177030444144905,-0.039764089348234756
1759182071.5511906,0,-1.1402529133680714,-0.8770209227628468,-0.53356645567901,0.13525872749815857,-1.7353897854155442,-0.3475375710442334,-0.717703044414486,-0.03968805181335687
1759182071.562034,0,-1.1402619716145492,-0.8770097063684151,-0.5324581499023877,0.13454861628642645,-1.7353894959670275,-0.3475407450853672,-0.7177030444144822,-0.03969967412180333
1759182071.5730832,0,-1.1402559983893985,-0.8770086968104178,-0.5315303551142595,0.13525872749815857,-1.735390699251774,-0.34753726736841617,-0.717703044414479,-0.03978356107836371
1759182071.5845885,0,-1.1402347084966946,-0.8770176973627557,-0.5309069765852559,0.1351011417349786,-1.7353932787410873,-0.34752736241045284,-0.7177030444144763,-0.03992944432518231
1759182071.595253,0,-1.1402599482310036,-0.8770017110191352,-0.5307014359769537,0.1347930745026364,-1.7353969707441432,-0.34751197332045514,-0.7177030444144741,-0.04012065479922633
1759182071.606398,0,-1.1402501091351906,-0.8770061875187052,-0.5304763999588101,0.1349685431057374,-1.735401718030993,-0.3474912969617395,-0.7177030444144722,-0.04035288642818071
1759182071.6178453,0,-1.1402341456751255,-0.8770145626993311,-0.5303369512164028,0.13488961149697193,-1.7354074548926077,-0.34746559576473024,-0.7177030444144704,-0.04062173384269712
1759182071.629199,0,-1.1402318861026788,-0.8770157080395036,-0.5303792290456271,0.13424750428584709,-1.7354140783521554,-0.34743530986879967,-0.7177030444144689,-0.04092115359630587
1759182071.6394207,0,-1.1396118382186002,-0.8776426618145419,-0.5284995727781856,0.13507678783741334,-1.7354053489489076,-0.34746741501859063,-0.7177030444144658,-0.040414531064496176
1759182071.65086,0,-1.139580302464311,-0.8776608433508822,-0.5284900899235059,0.1353300911221832,-1.7353991983431591,-0.34749226414163265,-0.7177030444144631,-0.040086933118616726
1759182071.6622577,0,-1.1258821948423272,-0.8849399885112729,-0.5112367069841713,0.1472783773324876,-1.7353953077956534,-0.3475095277553154,-0.7177030444144609,-0.03990113738623217
1759182071.6733568,0,-1.1206682991164103,-0.8876416046743788,-0.49733824569414875,0.1474975342624024,-1.7353933620186728,-0.3475194196038391,-0.717703044414459,-0.03982652679291258
1759182071.6846879,0,-1.1186523726849928,-0.8886599083446206,-0.48716935417287505,0.14698968653546965,-1.735393154659597,-0.3475220950444894,-0.7177030444144573,-0.039842837616818026
1759182071.6961308,0,-1.1178672417811009,-0.889037386859831,-0.47974713114294676,0.14709630195330337,-1.7353944923388187,-0.34751790965878837,-0.7177030444144558,-0.039933519328942006
1759182071.7074413,0,-1.1175663286149484,-0.8891686326768637,-0.47453101016401267,0.14635361262084454,-1.7353971786252247,-0.347507410373795,-0.7177030444144543,-0.04008404013463119
1759182071.7183762,0,-1.1174635229152592,-0.8892034254374686,-0.4708434821121283,0.146400421103725,-1.7354010142072884,-0.34749128400957086,-0.7177030444144531,-0.0402813528330012
1759182071.7290716,0,-1.1174318480007746,-0.8892067146226584,-0.468314626060882,0.14617771326682716,-1.7354058455783414,-0.3474701186282203,-0.7177030444144519,-0.040516053097962086
1759182071.7397735,0,-1.1174171150975785,-0.8892047453320818,-0.4664757975024272,0.1467159464885444,-1.7354115743028862,-0.3474443282280759,-0.7177030444144508,-0.04078237876811405
1759182071.751087,0,-1.1163779871199593,-0.8899881692798871,-0.46202349458502273,0.14820905864588935,-1.7354029635626476,-0.3474769671648275,-0.7177030444144507,-0.04029146103435574
1759182071.7615795,0,-1.1164010849593675,-0.8899728715695522,-0.46134938298175054,0.14754577032387045,-1.735396800831031,-0.34750260701988495,-0.7177030444144503,-0.03996987305240952
1759182071.7729394,0,-1.116369634156274,-0.8899846969870829,-0.46072436614863604,0.1473075264052913,-1.7353929011123972,-0.3475204722640428,-0.7177030444144499,-0.03978857309237149
1759182071.7839618,0,-1.1163725873676322,-0.8899812764893996,-0.4603746696288676,0.1475312382249646,-1.7353909399314358,-0.3475308575807946,-0.7177030444144494,-0.0397169255747637
1759182071.7953434,0,-1.116357066410719,-0.889987314567943,-0.460107807397932,0.14781036387506186,-1.735390724833352,-0.34753389424664816,-0.7177030444144489,-0.039735768243438656
1759182071.8054354,0,-1.1164102439582515,-0.8899621480114055,-0.46034522219189444,0.14692159084952106,-1.735391878168751,-0.3475307277855796,-0.7177030444144483,-0.03981913284648231
1759182071.8167765,0,-1.1163735765798337,-0.8899794561588662,-0.4602595576529656,0.14713631200251848,-1.7353943987722154,-0.3475211534336559,-0.7177030444144475,-0.039963578250526134
1759182071.827056,0,-1.1164081929383098,-0.8899634499604541,-0.46042363737664405,0.1476146864828183,-1.73539799419258,-0.3475062418790301,-0.7177030444144469,-0.04015109720247857
1759182071.8383453,0,-1.11637564905971,-0.8899794631600538,-0.46055698250447386,0.14650363705959804,-1.7354026793937247,-0.34748590243198024,-0.7177030444144461,-0.04038138153931468
1759182071.8498695,0,-1.1163525786883761,-0.8899907517119605,-0.4605753986482277,0.14683508069394352,-1.735394416042261,-0.34751825480588644,-0.717703044414447,-0.03992386075188779
1759182071.8729327,0,-1.09752128331074,-0.8985500125747095,-0.43688791309886865,0.16532486752406844,-1.7353900525215398,-0.3475370207401268,-0.7177030444144481,-0.039710167119198045
1759182071.8829765,0,-1.0913442159454572,-0.901166316535023,-0.42287514142302296,0.16445795114105183,-1.7353875466711914,-0.3475490197026696,-0.7177030444144488,-0.03960587461335023
1759182071.894156,0,-1.0889117493910554,-0.9021686235032929,-0.4124500490953058,0.1649920576310289,-1.7353868154043142,-0.34755384520898985,-0.7177030444144491,-0.039596855905061394
