timestamp,vehicle_id,x,y,theta,velocity,gps_available,dt,gps_x,gps_y,gps_theta,gps_velocity,control_steering,control_acceleration
1759182067.3071628,1,-1.735,-0.35,-0.7177028497428992,0.0,False,0.01,nan,nan,nan,nan,0.0,0.0
1759182068.5430608,1,-1.73500001416623,-0.3499999940974041,-0.7177030280144443,0.0,True,0.1,-1.7350000143051147,-0.3499999940395355,-0.7177030444145203,0.0,0.0,0.0
1759182068.727545,1,-1.7350000142586695,-0.3499999940588877,-0.7177030431848408,0.0,True,0.1,-1.7350000143051147,-0.3499999940395355,-0.7177030444145203,0.0,0.0,0.0
1759182068.887897,1,-1.7350000142876907,-0.34999999404679555,-0.7177030444282178,0.0,True,0.1,-1.7350000143051147,-0.3499999940395355,-0.7177030444145203,0.0,0.0,0.0
1759182069.0353417,1,-1.7350000142984767,-0.3499999940423014,-0.7177030445047201,0.0,True,0.1,-1.7350000143051147,-0.3499999940395355,-0.7177030444145203,0.0,0.0,0.0
1759182069.1780596,1,-1.73500001430258,-0.3499999940405916,-0.7177030444920565,0.0,True,0.1,-1.7350000143051147,-0.3499999940395355,-0.7177030444145203,0.0,0.0,0.0
1759182069.3054469,1,-1.7350000143041466,-0.3499999940399389,-0.7177030444773003,0.0,True,0.1,-1.7350000143051147,-0.3499999940395355,-0.7177030444145203,0.0,0.0,0.0
1759182069.4300883,1,-1.735000014304745,-0.3499999940396896,-0.7177030444656083,0.0,True,0.1,-1.7350000143051147,-0.3499999940395355,-0.7177030444145203,0.0,0.0,0.0
1759182069.5538757,1,-1.7350000143049735,-0.34999999403959436,-0.717703044456238,0.0,True,0.1,-1.7350000143051147,-0.3499999940395355,-0.7177030444145203,0.0,0.0,0.0
1759182069.6774356,1,-1.7350000143050608,-0.349999994039558,-0.7177030444484878,0.0,True,0.1,-1.7350000143051147,-0.3499999940395355,-0.7177030444145203,0.0,-0.6,0.0
1759182069.8101437,1,-1.735000014305094,-0.3499999940395441,-0.7177030444419472,0.0,True,0.1,-1.7350000143051147,-0.3499999940395355,-0.7177030444145203,0.0,-0.6,0.0
1759182069.929632,1,-1.7350000143051068,-0.3499999940395388,-0.7177030444363908,0.0,True,0.1,-1.7350000143051147,-0.3499999940395355,-0.7177030444145203,0.0,-0.6,0.0
1759182070.0406108,1,-1.7350000143051116,-0.3499999940395368,-0.7177030444316905,0.0,True,0.1,-1.7350000143051147,-0.3499999940395355,-0.7177030444145203,0.0,-0.6,0.0
1759182070.1575215,1,-1.7350000143051136,-0.349999994039536,-0.7177030444277612,0.0,True,0.1,-1.7350000143051147,-0.3499999940395355,-0.7177030444145203,0.0,-0.6,0.0
1759182070.2806726,1,-1.7350000143051143,-0.3499999940395357,-0.7177030444245265,0.0,True,0.1,-1.7350000143051147,-0.3499999940395355,-0.7177030444145203,0.0,-0.6,0.0
1759182070.402833,1,-1.7350000143051145,-0.3499999940395356,-0.717703044421917,0.0,True,0.1,-1.7350000143051147,-0.3499999940395355,-0.7177030444145203,0.0,-0.6,0.0
1759182070.5208352,1,-1.7350000143051147,-0.3499999940395355,-0.7177030444198564,0.0,True,0.1,-1.7350000143051147,-0.3499999940395355,-0.7177030444145203,0.0,-0.6,0.0
1759182070.6326005,1,-1.7350000143051147,-0.3499999940395355,-0.7177030444182613,0.0,True,0.1,-1.7350000143051147,-0.3499999940395355,-0.7177030444145203,0.0,-0.6,0.0
1759182070.7375946,1,-1.7350000143051147,-0.3499999940395355,-0.7177030444170569,0.0,True,0.1,-1.7350000143051147,-0.3499999940395355,-0.7177030444145203,0.0,-0.6,0.0
1759182070.841829,1,-1.7350000143051147,-0.3499999940395355,-0.717703044416167,0.0,True,0.1,-1.7350000143051147,-0.3499999940395355,-0.7177030444145203,0.0,-0.6,0.0
1759182070.9496858,1,-1.7350000143051147,-0.3499999940395355,-0.7177030444155275,0.0,True,0.1,-1.7350000143051147,-0.3499999940395355,-0.7177030444145203,0.0,-0.6,0.0
1759182071.056103,1,-1.7350000143051147,-0.3499999940395355,-0.7177030444150798,0.0,True,0.1,-1.7350000143051147,-0.3499999940395355,-0.7177030444145203,0.0,-0.6,0.0
1759182071.163792,1,-1.7350000143051147,-0.3499999940395355,-0.7177030444147796,0.0,True,0.1,-1.7350000143051147,-0.3499999940395355,-0.7177030444145203,0.0,-0.6,0.0
1759182071.2807915,1,-1.7350000143051147,-0.3499999940395355,-0.717703044414586,0.0,True,0.1,-1.7350000143051147,-0.3499999940395355,-0.7177030444145203,0.0,-0.6,0.0
1759182071.3893855,1,-1.7350000143051147,-0.3499999940395355,-0.7177030444144705,0.0,True,0.1,-1.7350000143051147,-0.3499999940395355,-0.7177030444145203,0.0,-0.6,0.0
1759182071.5113788,1,-1.7350000143051147,-0.3499999940395355,-0.7177030444144066,0.0,True,0.1,-1.7350000143051147,-0.3499999940395355,-0.7177030444145203,0.0,-0.6,0.0
1759182071.6286762,1,-1.7350000143051147,-0.3499999940395355,-0.7177030444143782,0.0,True,0.1,-1.7350000143051147,-0.3499999940395355,-0.7177030444145203,0.0,-0.6,0.0
1759182071.7416735,1,-1.7350000143051147,-0.3499999940395355,-0.7177030444143728,0.0,True,0.1,-1.7350000143051147,-0.3499999940395355,-0.7177030444145203,0.0,-0.6,0.0
1759182071.8466904,1,-1.7350000143051147,-0.3499999940395355,-0.7177030444143817,0.0,True,0.1,-1.7350000143051147,-0.3499999940395355,-0.7177030444145203,0.0,-0.6,0.0
1759182071.9531095,1,-1.7350000143051147,-0.3499999940395355,-0.7177030444143959,0.0,True,0.1,-1.7350000143051147,-0.3499999940395355,-0.7177030444145203,0.0,-0.6,0.0
1759182072.063824,1,-1.7350000143051147,-0.3499999940395355,-0.7177030444144137,0.0,True,0.1,-1.7350000143051147,-0.3499999940395355,-0.7177030444145203,0.0,-0.6,0.0
1759182072.177497,1,-1.7350000143051147,-0.3499999940395355,-0.7177030444144332,0.0,True,0.1,-1.7350000143051147,-0.3499999940395355,-0.7177030444145203,0.0,-0.6,0.0
1759182072.2749705,1,-1.7350000143051147,-0.3499999940395355,-0.717703044414451,0.0,True,0.0974736213684082,-1.7350000143051147,-0.3499999940395355,-0.7177030444145203,0.0,-0.6,0.0
1759182072.3813868,1,-1.7350000143051147,-0.3499999940395355,-0.7177030444144652,0.0,True,0.1,-1.7350000143051147,-0.3499999940395355,-0.7177030444145203,0.0,-0.6,0.0
1759182072.4932864,1,-1.7350000143051147,-0.3499999940395355,-0.7177030444144776,0.0,True,0.1,-1.7350000143051147,-0.3499999940395355,-0.7177030444145203,0.0,-0.6,0.0
1759182072.6053545,1,-1.7350000143051147,-0.3499999940395355,-0.7177030444144883,0.0,True,0.1,-1.7350000143051147,-0.3499999940395355,-0.7177030444145203,0.0,-0.6,0.0
1759182072.713527,1,-1.7350000143051147,-0.3499999940395355,-0.717703044414499,0.0,True,0.1,-1.7350000143051147,-0.3499999940395355,-0.7177030444145203,0.0,-0.6,0.0
1759182072.8187466,1,-1.7350000143051147,-0.3499999940395355,-0.717703044414506,0.0,True,0.1,-1.7350000143051147,-0.3499999940395355,-0.7177030444145203,0.0,-0.6,0.0
1759182072.9445646,1,-1.7350000143051147,-0.3499999940395355,-0.7177030444145096,0.0,True,0.1,-1.7350000143051147,-0.3499999940395355,-0.7177030444145203,0.0,-0.6,0.0
1759182073.0532198,1,-1.7350000143051147,-0.3499999940395355,-0.7177030444145132,0.0,True,0.1,-1.7350000143051147,-0.3499999940395355,-0.7177030444145203,0.0,-0.6,0.0
1759182073.1677823,1,-1.7350000143051147,-0.3499999940395355,-0.7177030444145167,0.0,True,0.1,-1.7350000143051147,-0.3499999940395355,-0.7177030444145203,0.0,-0.6,0.0
1759182073.2811787,1,-1.7350000143051147,-0.3499999940395355,-0.7177030444145185,0.0,True,0.1,-1.7350000143051147,-0.3499999940395355,-0.7177030444145203,0.0,-0.6,0.0
1759182073.4017925,1,-1.7350000143051147,-0.3499999940395355,-0.7177030444145203,0.0,True,0.1,-1.7350000143051147,-0.3499999940395355,-0.7177030444145203,0.0,-0.6,0.0
1759182073.5041444,1,-1.7350000143051147,-0.3499999940395355,-0.7177030444145203,0.0,True,0.1,-1.7350000143051147,-0.3499999940395355,-0.7177030444145203,0.0,-0.6,0.0
1759182073.6088526,1,-1.7350000143051147,-0.3499999940395355,-0.7177030444145203,0.0,True,0.1,-1.7350000143051147,-0.3499999940395355,-0.7177030444145203,0.0,-0.6,0.0
1759182073.7161703,1,-1.7350000143051147,-0.3499999940395355,-0.7177030444145203,0.0,True,0.1,-1.7350000143051147,-0.3499999940395355,-0.7177030444145203,0.0,-0.6,0.0
1759182073.8283474,1,-1.7350000143051147,-0.3499999940395355,-0.7177030444145203,0.0,True,0.1,-1.7350000143051147,-0.3499999940395355,-0.7177030444145203,0.0,-0.6,0.012775471051983817
1759182073.9305258,1,-1.733829225904081,-0.35101622446881164,-0.7156921259749929,0.008933156977769838,True,0.1,-1.7335216999053955,-0.35128137469291687,-0.7118340730667114,0.008933156977769838,-0.6,0.15310854988214295
1759182074.0310924,1,-1.7333815766663583,-0.35140387547760743,-0.7139757745943811,0.008933156977769838,True,0.1,-1.7335216999053955,-0.35128137469291687,-0.7118340730667114,0.008933156977769838,-0.6,0.1371415069225051
1759182074.1370792,1,-1.7144626230892541,-0.36646930832409286,-0.681871761185656,0.14850345978406249,True,0.1,-1.709748387336731,-0.36981844902038574,-0.6213599443435669,0.14850345978406249,-0.6,0.15508918825845075
1759182074.2665896,1,-1.7071209264909655,-0.37208443978759603,-0.6546925610789991,0.14850345978406249,True,0.1,-1.709748387336731,-0.36981844902038574,-0.6213599443435669,0.14850345978406249,-0.6,0.0
1759182074.3780267,1,-1.696483913172443,-0.379050252174338,-0.6120496677805676,0.0770490923974017,True,0.1,-1.6937050819396973,-0.38047900795936584,-0.5635669231414795,0.0770490923974017,-0.6,0.0
1759182074.5036645,1,-1.6923496353872003,-0.38161267856887837,-0.5833796073123274,0.0770490923974017,True,0.1,-1.6937050819396973,-0.38047900795936584,-0.5635669231414795,0.0770490923974017,-0.6,0.21150680301960983
1759182074.6217663,1,-1.6763594706990297,-0.39079309475973006,-0.5372885608507012,0.1064116711283703,True,0.1,-1.6719915866851807,-0.3928830921649933,-0.4885300397872925,0.1064116711283703,-0.6,0.21150680301960983
1759182074.7469761,1,-1.670155652722764,-0.3941442319461148,-0.5048008070045871,0.1064116711283703,True,0.1,-1.6719915866851807,-0.3928830921649933,-0.4885300397872925,0.1064116711283703,-0.6,0.13973502412434297
1759182074.8676178,1,-1.6410943014972494,-0.40732342064635596,-0.43665734669281164,0.17270455208698485,True,0.1,-1.6325321197509766,-0.4104081988334656,-0.35891053080558777,0.17270455208698485,-0.6,0.13973502412434297
1759182074.9807918,1,-1.6297985103139483,-0.4119636963972872,-0.3874049183382198,0.17270455208698485,True,0.1,-1.6325321197509766,-0.4104081988334656,-0.35891053080558777,0.17270455208698485,-0.6,0.2295124585144046
1759182075.0900881,1,-1.6004260433321207,-0.4209356280874474,-0.3095549131416533,0.18869562301499532,True,0.1,-1.5931251049041748,-0.42220771312713623,-0.23542243242263794,0.18869562301499532,-0.6,0.2295124585144046
1759182075.2089741,1,-1.5890261815116098,-0.42384718262566556,-0.25587209401257205,0.18869562301499532,True,0.1,-1.5931251049041748,-0.42220771312713623,-0.23542243242263794,0.18869562301499532,-0.6,0.1982478734200965
1759182075.3149784,1,-1.5544446832660876,-0.4293713743561116,-0.16787998234742396,0.20556655982752087,True,0.1,-1.5454075336456299,-0.429738312959671,-0.09037726372480392,0.20556655982752087,-0.6,0.1982478734200965
1759182075.4281883,1,-1.5411027526112953,-0.4308225223852609,-0.10754833124225271,0.20556655982752087,True,0.1,-1.5454075336456299,-0.429738312959671,-0.09037726372480392,0.20556655982752087,-0.6,0.1369333061881448
1759182075.539212,1,-1.5141652392954685,-0.4314394967453505,-0.027139137626953413,0.1707708677066321,True,0.1,-1.5080242156982422,-0.4308150112628937,0.021874671801924706,0.1707708677066321,-0.6,0.1369333061881448
1759182075.6667943,1,-1.5038475474965705,-0.43116797080368696,0.025130674340225312,0.1707708677066321,True,0.1,-1.5080242156982422,-0.4308150112628937,0.021874671801924706,0.1707708677066321,-0.6,0.2563811957180987
1759182075.7853687,1,-1.4692328631698146,-0.4276628751609129,0.11045947747399243,0.19382813134045787,True,0.1,-1.4598115682601929,-0.4259544909000397,0.16737937927246094,0.19382813134045787,-0.6,0.31473571937703837
1759182075.8960602,1,-1.4560602563821858,-0.4257120101074329,0.16780760847455323,0.19382813134045787,True,0.1,-1.4598115682601929,-0.4259544909000397,0.16737937927246094,0.19382813134045787,-0.6,0.2533757240375067
1759182076.003565,1,-1.410783731556915,-0.41368648871192576,0.27014751816631666,0.2842549288978964,True,0.1,-1.4000725746154785,-0.4094853401184082,0.3535394072532654,0.2842549288978964,-0.6,0.3481494039566961
1759182076.110602,1,-1.393739318448898,-0.4080489370916345,0.34209991989299926,0.2842549288978964,True,0.1,-1.4000725746154785,-0.4094853401184082,0.3535394072532654,0.2842549288978964,-0.544948765898975,0.26414423894831945
1759182076.22165,1,-1.350390654223452,-0.3868413262950969,0.45671482871425084,0.3008677748435024,True,0.1,-1.3410063982009888,-0.3802845776081085,0.542771577835083,0.3008677748435024,-0.544948765898975,0.26414423894831945
1759182076.3307877,1,-1.334343507703776,-0.3775835446648228,0.5354275272839617,0.3008677748435024,True,0.1,-1.3410063982009888,-0.3802845776081085,0.542771577835083,0.3008677748435024,-0.46104167019129905,0.3327103565466224
1759182076.4412405,1,-1.2961146630393603,-0.3492433516457645,0.6437409746712124,0.2992362417260696,True,0.1,-1.2882447242736816,-0.34141626954078674,0.7058026194572449,0.2992362417260696,-0.46104167019129905,0.3327103565466224
1759182076.5465553,1,-1.2821891636176979,-0.3374376730096003,0.715626905661404,0.2992362417260696,True,0.1,-1.2882447242736816,-0.34141626954078674,0.7058026194572449,0.2992362417260696,-0.40575126750201457,0.5453044267149266
1759182076.6637878,1,-1.2315939988185136,-0.28337156817835146,0.8346286116830353,0.45209473089964175,True,0.1,-1.2210716009140015,-0.2686804234981537,0.9166326522827148,0.45209473089964175,-0.40575126750201457,0.5453044267149266
1759182076.771678,1,-1.213652148150062,-0.26135245107100474,0.9192480070649127,0.45209473089964175,True,0.1,-1.2210716009140015,-0.2686804234981537,0.9166326522827148,0.45209473089964175,-0.24630050834389522,0.6505743636731165
1759182076.8832407,1,-1.1633807361242148,-0.17660088322653808,1.0456216225211081,0.6065247701853946,True,0.1,-1.154523491859436,-0.15442582964897156,1.125725507736206,0.6065247701853946,-0.24630050834389522,0.6505743636731165
1759182077.0064669,1,-1.1465295874436154,-0.14271157668481912,1.132594425168822,0.6065247701853946,True,0.1,-1.154523491859436,-0.15442582964897156,1.125725507736206,0.6065247701853946,-0.1646569832993618,0.8296443360432237
1759182077.1149292,1,-1.1049084709827888,-0.02627712325313756,1.246980691382861,0.7207676693799236,True,0.1,-1.097478985786438,0.005059733986854553,1.2974107265472412,0.7207676693799236,-0.1646569832993618,0.8296443360432237
1759182077.2207227,1,-1.0918238085321375,0.019280866150078495,1.3228419868470969,0.7207676693799236,True,0.1,-1.097478985786438,0.005059733986854553,1.2974107265472412,0.7207676693799236,-0.11673167198247816,1.0
1759182077.3248324,1,-1.063685332946989,0.16272961800679323,1.4144461223047475,0.9502019450847078,True,0.1,-1.0599827766418457,0.19427117705345154,1.4305733442306519,0.9502019450847078,-0.1172240586477763,1.0
1759182077.4529366,1,-1.05605151388507,0.21812430885088058,1.473659047800326,0.9502019450847078,True,0.1,-1.0599827766418457,0.19427117705345154,1.4305733442306519,0.9502019450847078,-0.08265232743438194,1.0
1759182077.5504675,1,-1.0448115182646316,0.37933651850662,1.5457960439739287,0.9703686274189233,True,0.09753084182739258,-1.0429736375808716,0.42069947719573975,1.5415493249893188,0.9703686274189233,-0.08286645243567996,1.0
1759182077.6574218,1,-1.0429753592773068,0.4419596048205089,1.592116039226573,0.9703686274189233,True,0.1,-1.0429736375808716,0.42069947719573975,1.5415493249893188,0.9703686274189233,-0.049981074422226456,1.0
1759182077.7526367,1,-1.0454040105821973,0.5895836998951229,1.6389669542519556,0.9935407991343108,True,0.09521484375,-1.045300841331482,0.6223748326301575,1.6091049909591675,0.9935407991343108,-0.05015928501242089,1.0
1759182077.85637,1,-1.048057496365336,0.6477026327214804,1.66815443043021,0.9935407991343108,True,0.1,-1.045300841331482,0.6223748326301575,1.6091049909591675,0.9935407991343108,-0.02271953369812363,1.0
1759182077.9428725,1,-1.049597462452407,0.6647162600236001,1.6769592232546433,0.9935407991343108,True,0.0865025520324707,-1.045300841331482,0.6223748326301575,1.6091049909591675,0.9935407991343108,-0.02269821935363057,1.0
1759182078.0311372,1,-1.0621960664079837,0.8445640947412,1.6950534525097094,1.0428770965996446,True,0.08826470375061035,-1.0638166666030884,0.8991615176200867,1.654536247253418,1.0428770965996446,-0.02269821935363057,1.0
1759182078.1132064,1,-1.0672619695813672,0.9107452636665933,1.7044503504226984,1.0428770965996446,True,0.08206915855407715,-1.0638166666030884,0.8991615176200867,1.654536247253418,1.0428770965996446,0.011026994452083662,1.0
1759182078.2135715,1,-1.070438358137315,0.9430655484710627,1.709690266319221,1.0428770965996446,True,0.1,-1.0638166666030884,0.8991615176200867,1.654536247253418,1.0428770965996446,0.011266939800806388,1.0
1759182078.3021672,1,-1.085524299211974,1.115318970891694,1.7060818261614656,0.9654689906134163,True,0.08859562873840332,-1.0875701904296875,1.1694164276123047,1.6529333591461182,0.9654689906134163,0.011266939800806388,1.0
1759182078.3793492,1,-1.0905590434599388,1.1769652264430095,1.7006557899619255,0.9654689906134163,True,0.07718205451965332,-1.0875701904296875,1.1694164276123047,1.6529333591461182,0.9654689906134163,0.05976252403038947,1.0
1759182078.4716322,1,-1.0930268088538364,1.2060570825763888,1.6957816074406544,0.9654689906134163,True,0.09228301048278809,-1.0875701904296875,1.1694164276123047,1.6529333591461182,0.9654689906134163,0.05976252403038947,1.0
1759182078.583045,1,-1.1035503965844984,1.3952164197352475,1.6649864696087366,1.0021879093928399,True,0.1,-1.102660894393921,1.4506266117095947,1.5866703987121582,1.0021879093928399,0.05990157132955806,1.0
1759182078.6852367,1,-1.1063631209750169,1.467594998670133,1.6402730897741788,1.0021879093928399,True,0.1,-1.102660894393921,1.4506266117095947,1.5866703987121582,1.0021879093928399,0.09359856738404992,1.0
1759182078.769126,1,-1.1061398171705201,1.4891550410409022,1.620919380887356,1.0021879093928399,True,0.08388924598693848,-1.102660894393921,1.4506266117095947,1.5866703987121582,1.0021879093928399,0.09360194011305288,1.0
1759182078.8479083,1,-1.0994063709139437,1.6585240425211543,1.5686652001584722,0.9939433258928755,True,0.07878232002258301,-1.0931979417800903,1.714846134185791,1.4796297550201416,0.9939433258928755,0.09360194011305288,1.0
1759182078.9321752,1,-1.0952426429498028,1.7253249460772981,1.5310689770124766,0.9939433258928755,True,0.08426690101623535,-1.0931979417800903,1.714846134185791,1.4796297550201416,0.9939433258928755,0.13200943276395768,1.0
1759182079.0150895,1,-1.0925073543213688,1.7502939747017088,1.5046322663091622,0.9939433258928755,True,0.08291435241699219,-1.0931979417800903,1.714846134185791,1.4796297550201416,0.9939433258928755,0.13186649464073183,1.0
1759182079.0910966,1,-1.06643270631727,1.9061323829791408,1.43605383270868,1.0354082685825285,True,0.07600712776184082,-1.0540462732315063,1.9539474248886108,1.3354278802871704,1.0354082685825285,0.13186649464073183,1.0
1759182079.171556,1,-1.0541890465078854,1.9671743527896504,1.38579275683934,1.0354082685825285,True,0.0804593563079834,-1.0540462732315063,1.9539474248886108,1.3354278802871704,1.0354082685825285,0.15363943612528402,1.0
1759182079.245885,1,-1.048460196461117,1.9878512237024097,1.3526161341370466,1.0354082685825285,True,0.07432889938354492,-1.0540462732315063,1.9539474248886108,1.3354278802871704,1.0354082685825285,0.15363943612528402,1.0
1759182079.3242557,1,-0.9993296724851213,2.132420631773523,1.2698564820345766,0.9920354480007612,True,0.07837080955505371,-0.9799512028694153,2.174987554550171,1.1646190881729126,0.9920354480007612,0.15363943612528402,1.0
1759182079.4036126,1,-0.9781001275159326,2.187342830593836,1.210299369780718,0.9920354480007612,True,0.07935690879821777,-0.9799512028694153,2.174987554550171,1.1646190881729126,0.9920354480007612,0.19231429766949756,1.0
1759182079.4838848,1,-0.9682254896142346,2.2080602972063814,1.1706189430237197,0.9920354480007612,True,0.08027219772338867,-0.9799512028694153,2.174987554550171,1.1646190881729126,0.9920354480007612,0.19231429766949756,1.0
1759182079.5661047,1,-0.8895771227709771,2.3450283859484613,1.0663169133539467,0.9651882110494627,True,0.08221983909606934,-0.8607928156852722,2.384810209274292,0.9471250176429749,0.9651882110494627,0.19227065907833585,1.0
1759182079.6593084,1,-0.8547097218935947,2.399438558188337,0.9888322756795276,0.9651882110494627,True,0.09320378303527832,-0.8607928156852722,2.384810209274292,0.9471250176429749,0.9651882110494627,0.22435716092500835,0.6824962272689239
1759182079.7533426,1,-0.8390280722598323,2.4191060633130252,0.9389697279995692,0.9651882110494627,True,0.09403419494628906,-0.8607928156852722,2.384810209274292,0.9471250176429749,0.9651882110494627,0.22435888004590943,0.74323949529401
1759182079.847667,1,-0.7401334325274863,2.52342169628479,0.8172289733297315,0.8038014740339804,True,0.09432435035705566,-0.7073800563812256,2.550584077835083,0.7075011134147644,0.8038014740339804,0.22435888004590943,0.74323949529401
1759182079.9406922,1,-0.6999932661920532,2.5607070395889915,0.7364147218330164,0.8038014740339804,True,0.09302520751953125,-0.7073800563812256,2.550584077835083,0.7075011134147644,0.8038014740339804,0.29765664450497786,0.353586445202786
1759182080.0197835,1,-0.6863627571044771,2.570535352401956,0.6902859162429449,0.8038014740339804,True,0.07909131050109863,-0.7073800563812256,2.550584077835083,0.7075011134147644,0.8038014740339804,0.2977318812985422,0.43346889403047645
1759182080.097372,1,-0.6226101289495117,2.6143461813107147,0.6012656164302355,0.5164531560980126,True,0.07758855819702148,-0.6025150418281555,2.6259071826934814,0.5394010543823242,0.5164531560980126,0.2977318812985422,0.43346889403047645
1759182080.1920683,1,-0.5946159955542181,2.631811541607748,0.5397773890752724,0.5164531560980126,True,0.0946962833404541,-0.6025150418281555,2.6259071826934814,0.5394010543823242,0.5164531560980126,0.47187847474080197,0.5354235690172615
1759182080.2724695,1,-0.5857917102095511,2.6361468481891337,0.5046714055181631,0.5164531560980126,True,0.08040118217468262,-0.6025150418281555,2.6259071826934814,0.5394010543823242,0.5164531560980126,0.47187847474080197,0.5354235690172615
1759182080.3699124,1,-0.5016891966073411,2.6713309688772444,0.3747539919249423,0.5119050618144748,True,0.0974428653717041,-0.47702789306640625,2.6787688732147217,0.25220754742622375,0.5119050618144748,0.47201504134536215,0.6041361523097943
1759182080.4773893,1,-0.4681147765980896,2.682741198629248,0.2798677964965339,0.5119050618144748,True,0.1,-0.47702789306640625,2.6787688732147217,0.25220754742622375,0.5119050618144748,0.45026009918069576,0.2999279364184853
1759182080.561911,1,-0.4576767337686393,2.684634760884603,0.2279141036098835,0.5119050618144748,True,0.08452177047729492,-0.47702789306640625,2.6787688732147217,0.25220754742622375,0.5119050618144748,0.4502586903744039,0.322389336248836
1759182080.6763878,1,-0.3774996741575194,2.6913552733494925,0.0827929195272965,0.40166802297993554,True,0.1,-0.35224926471710205,2.6904094219207764,-0.03756288066506386,0.40166802297993554,0.4502586903744039,0.322389336248836
1759182080.7804165,1,-0.3465797695303783,2.6917602892017847,-0.016504054790772216,0.40166802297993554,True,0.1,-0.35224926471710205,2.6904094219207764,-0.03756288066506386,0.40166802297993554,0.5065415129493436,0.40991921871902526
1759182080.888769,1,-0.28798209933399344,2.683676651243003,-0.1492815060948498,0.3823739195197857,True,0.1,-0.275389164686203,2.679561138153076,-0.22520041465759277,0.3823739195197857,0.5065415129493436,0.40991921871902526
1759182080.992541,1,-0.26579068250812116,2.678725265102446,-0.2359773813402093,0.3823739195197857,True,0.1,-0.275389164686203,2.679561138153076,-0.22520041465759277,0.3823739195197857,0.4876071865668496,0.42288766477027695
1759182081.0834126,1,-0.25885518613465014,2.6759843949194986,-0.28143550758633396,0.3823739195197857,True,0.09087157249450684,-0.275389164686203,2.679561138153076,-0.22520041465759277,0.3823739195197857,0.4876071865668496,0.42288766477027695
1759182081.1887548,1,-0.18181632325148517,2.6436440788333377,-0.4247654376832024,0.4234315199545247,True,0.1,-0.15918302536010742,2.6314830780029297,-0.5370687246322632,0.4234315199545247,0.4935040720385543,0.597604205103375
1759182081.2836103,1,-0.15394841693300532,2.629585141120236,-0.5249961846175548,0.4234315199545247,True,0.09485554695129395,-0.15918302536010742,2.6314830780029297,-0.5370687246322632,0.4234315199545247,0.38426162783990125,0.6109179983071401
1759182081.3938713,1,-0.07936931316089856,2.570167601281354,-0.6863350092113567,0.5692469775158419,True,0.1,-0.06329744309186935,2.5518128871917725,-0.807295024394989,0.5692469775158419,0.3946830093824598,0.7573139997066648
1759182081.502598,1,-0.052843584114852356,2.544764511865314,-0.8004377725537815,0.5692469775158419,True,0.1,-0.06329744309186935,2.5518128871917725,-0.807295024394989,0.5692469775158419,0.2656554236439072,0.8073208865056317
1759182081.6182098,1,0.02206806049172656,2.4368518897687252,-0.9730158396619011,0.8004796233657508,True,0.1,0.03479015827178955,2.406517744064331,-1.093424916267395,0.8004796233657508,0.27865049289135296,0.9702753098001067
1759182081.7319987,1,0.046713121328491786,2.392537553146275,-1.0933399324454616,0.8004796233657508,True,0.1,0.03479015827178955,2.406517744064331,-1.093424916267395,0.8004796233657508,0.1847038992813145,1.0
1759182081.8404095,1,0.0994966957927261,2.2389433828350422,-1.2575307844174777,1.0018998407235924,True,0.1,0.10492494702339172,2.1996703147888184,-1.3473824262619019,1.0018998407235924,0.19848461290917896,1.0
1759182081.9437566,1,0.1140634916369383,2.1780728914985126,-1.3684177412685585,1.0018998407235924,True,0.1,0.10492494702339172,2.1996703147888184,-1.3473824262619019,1.0018998407235924,0.145809815559933,1.0
1759182082.0584362,1,0.13103556991412257,2.0202028856046974,-1.5013681202377747,0.995491053317752,True,0.1,0.13027532398700714,1.9831366539001465,-1.5335878133773804,0.995491053317752,0.15915567522660234,1.0
1759182082.1734858,1,0.1326923108134448,1.959324160991831,-1.5859252457669815,0.995491053317752,True,0.1,0.13027532398700714,1.9831366539001465,-1.5335878133773804,0.995491053317752,0.14163883055207427,1.0
1759182082.2827108,1,0.12214612462434524,1.7968377862913636,-1.6954270510280516,1.0224248056073828,True,0.1,0.11758548766374588,1.7595854997634888,-1.7022722959518433,1.0224248056073828,0.14163883055207427,1.0
1759182082.390459,1,0.11402762295430649,1.7351185531831181,-1.7639675744910797,1.0224248056073828,True,0.1,0.11758548766374588,1.7595854997634888,-1.7022722959518433,1.0224248056073828,0.12471044023718955,1.0
1759182082.4972506,1,0.08083878115423318,1.5844124785068465,-1.8537893887741816,0.9770160350809804,True,0.1,0.07269759476184845,1.5503804683685303,-1.8448219299316406,0.9770160350809804,0.12471044023718955,1.0
1759182082.603438,1,0.06504630869781544,1.5276431601612643,-1.9087623582146271,0.9770160350809804,True,0.1,0.07269759476184845,1.5503804683685303,-1.8448219299316406,0.9770160350809804,0.11147855483296218,1.0
1759182082.7101636,1,0.01266709942203689,1.382780787437973,-1.9838954274120368,0.9764861953022261,True,0.1,0.0009466235060244799,1.3499630689620972,-1.9705044031143188,0.9764861953022261,0.11147855483296218,1.0
1759182082.7997637,1,-0.008222088315516293,1.3319898618262387,-2.0259227124860786,0.9764861953022261,True,0.0896000862121582,0.0009466235060244799,1.3499630689620972,-1.9705044031143188,0.9764861953022261,0.10056121407330246,1.0
1759182082.921961,1,-0.07876552018289038,1.190232181276866,-2.0920831690420094,1.0397602361669631,True,0.1,-0.09352518618106842,1.1600520610809326,-2.0820205211639404,1.0397602361669631,0.10056121407330246,1.0
1759182083.026531,1,-0.10793108536507098,1.1372912915144715,-2.133181213938384,1.0397602361669631,True,0.1,-0.09352518618106842,1.1600520610809326,-2.0820205211639404,1.0397602361669631,0.09191745332435548,1.0
1759182083.1401026,1,-0.19202323514487946,1.0060638370305535,-2.193186201854079,0.9975530191435555,True,0.1,-0.21064120531082153,0.9768157601356506,-2.1864285469055176,0.9975530191435555,0.09191745332435548,1.0
1759182083.241744,1,-0.22595437412100314,0.9571801991020091,-2.229952750779244,0.9975530191435555,True,0.1,-0.21064120531082153,0.9768157601356506,-2.1864285469055176,0.9975530191435555,0.08401468439207624,1.0
1759182083.357831,1,-0.32404826206691184,0.8331477498500038,-2.284139052082759,0.9998585828319758,True,0.1,-0.34638407826423645,0.8049980998039246,-2.2826342582702637,0.9998585828319758,0.10033495162037077,1.0
1759182083.4622557,1,-0.3630289612202447,0.7870308250367797,-2.3187404843881243,0.9998585828319758,True,0.1,-0.34638407826423645,0.8049980998039246,-2.2826342582702637,0.9998585828319758,0.07880229906724809,1.0
1759182083.5609002,1,-0.46471161299417785,0.6807670206862182,-2.3701639794862057,0.9943054503217302,True,0.09864449501037598,-0.4859778583049774,0.6592085957527161,-2.3731467723846436,0.9943054503217302,0.07880229906724809,1.0
1759182083.6622474,1,-0.5052466172546125,0.6411337171739886,-2.4025240342235428,0.9943054503217302,True,0.1,-0.4859778583049774,0.6592085957527161,-2.3731467723846436,0.9943054503217302,0.07840939999969279,1.0
1759182083.7674856,1,-0.6159166704832381,0.543547643842974,-2.4505266489247184,0.9442469147373616,True,0.1,-0.6408911943435669,0.522226870059967,-2.4544332027435303,0.9442469147373616,0.07840939999969279,1.0
1759182083.8747644,1,-0.6592749826613389,0.5075410998953319,-2.480476433826226,0.9442469147373616,True,0.1,-0.6408911943435669,0.522226870059967,-2.4544332027435303,0.9442469147373616,0.0756893148750077,1.0
1759182083.9753456,1,-0.7819447792301095,0.4156870278278194,-2.525705342121581,1.0252121976992885,True,0.1,-0.8074296116828918,0.3974146544933319,-2.5349674224853516,1.0252121976992885,0.0950237962652063,1.0
1759182084.080227,1,-0.8297994187246391,0.3819689743556123,-2.55550324054693,1.0252121976992885,True,0.1,-0.8074296116828918,0.3974146544933319,-2.5349674224853516,1.0252121976992885,0.08048241059512275,1.0
1759182084.184049,1,-0.958292700386269,0.30223491529709207,-2.605460016205818,1.0265959862174843,True,0.1,-0.9845418930053711,0.287590354681015,-2.6265692710876465,1.0265959862174843,0.09714941954712729,1.0
1759182084.2824192,1,-1.007807391377217,0.27369912522215123,-2.638574142065698,1.0265959862174843,True,0.09837031364440918,-0.9845418930053711,0.287590354681015,-2.6265692710876465,1.0265959862174843,0.08515395118557677,1.0
1759182084.379418,1,-1.0268486818827853,0.2641224618578675,-2.6563288140875763,1.0265959862174843,True,0.09699869155883789,-0.9845418930053711,0.287590354681015,-2.6265692710876465,1.0265959862174843,0.08515395118557677,1.0
1759182084.4864433,1,-1.2015867420028385,0.18213361108756587,-2.7153849898741544,1.0050567306920064,True,0.1,-1.2543582916259766,0.15990924835205078,-2.760199546813965,1.0050567306920064,0.10072179003412472,1.0
1759182084.5842745,1,-1.2685220657040173,0.1531416717163538,-2.7560632355180026,1.0050567306920064,True,0.09783124923706055,-1.2543582916259766,0.15990924835205078,-2.760199546813965,1.0050567306920064,0.10241143413604618,1.0
1759182084.67959,1,-1.2937610056865108,0.14377784876482214,-2.7795654017578,1.0050567306920064,True,0.09531545639038086,-1.2543582916259766,0.15990924835205078,-2.760199546813965,1.0050567306920064,0.10241143413604618,1.0
1759182084.7776084,1,-1.4758638895152763,0.0874042207969656,-2.8488511373145826,0.9814089828652297,True,0.09801840782165527,-1.5325921773910522,0.0730438232421875,-2.908747673034668,0.9814089828652297,0.10241143413604618,1.0
1759182084.884278,1,-1.5469130011406593,0.0680319219193591,-2.8972177784637694,0.9814089828652297,True,0.1,-1.5325921773910522,0.0730438232421875,-2.908747673034668,0.9814089828652297,0.11117439034920014,1.0
1759182084.9899235,1,-1.7046396855597654,0.0397955764047634,-2.970028863608265,0.9769614761520226,True,0.1,-1.7433624267578125,0.03626805543899536,-3.0233402252197266,0.9769614761520226,0.12506201354055357,1.0
1759182085.0888488,1,-1.7650060606513118,0.03165894211287263,-3.01884275586273,0.9769614761520226,True,0.09892535209655762,-1.7433624267578125,0.03626805543899536,-3.0233402252197266,0.9769614761520226,0.1251847307451923,1.0
1759182085.2103627,1,-1.901621470394318,0.028291073261429746,-3.0944097897267167,0.8686857331099905,True,0.1,-1.9326910972595215,0.03214820474386215,3.138556957244873,0.8686857331099905,0.13855731995508516,1.0
1759182085.3164055,1,-1.9539843385319664,0.029449271922001523,3.1391560624795893,0.8686857331099905,True,0.1,-1.9326910972595215,0.03214820474386215,3.138556957244873,0.8686857331099905,0.1560677802792188,1.0
1759182085.4207208,1,-1.9497052837201756,0.06212387172309945,3.106738241435716,0.24539471117758935,True,0.1,-1.9318941831588745,0.08220238238573074,3.139502763748169,0.24539471117758935,0.17211964785450537,1.0
1759182085.5226378,1,-1.9480628711544785,0.07492236738561275,3.096378454790221,0.24539471117758935,True,0.1,-1.9318941831588745,0.08220238238573074,3.139502763748169,0.24539471117758935,0.49548433951481946,1.0
1759182085.6155984,1,-1.9467722708774404,0.07986724243268173,3.093398106795595,0.24539471117758935,True,0.09296059608459473,-1.9318941831588745,0.08220238238573074,3.139502763748169,0.24539471117758935,0.5201095872297388,1.0
1759182085.7140656,1,-1.9607410985159577,0.19705686981941806,3.0907052603578364,0.6245268371316858,True,0.09846711158752441,-1.9314407110214233,0.2670617699623108,3.105675458908081,0.6245268371316858,0.5201095872297388,1.0
1759182085.8103864,1,-1.965569012878151,0.2417046349348829,3.079257024667074,0.6245268371316858,True,0.09632086753845215,-1.9314407110214233,0.2670617699623108,3.105675458908081,0.6245268371316858,0.30285501315114943,1.0
1759182085.9184494,1,-1.961290533530197,0.3259082244869484,3.004006060656449,0.5319621240300682,True,0.1,-1.9258617162704468,0.37543854117393494,2.9163126945495605,0.5319621240300682,0.30285501315114943,1.0
1759182086.0244434,1,-1.9594814006531232,0.35960114222859696,2.952758346877422,0.5319621240300682,True,0.1,-1.9258617162704468,0.37543854117393494,2.9163126945495605,0.5319621240300682,0.4120902754639452,1.0
1759182086.1198087,1,-1.9646283271472502,0.43479809630381705,2.810533841995822,0.4956744022629171,True,0.09536528587341309,-1.939231276512146,0.47516828775405884,2.632767915725708,0.4956744022629171,0.4120902754639452,1.0
1759182086.2112136,1,-1.9651894577300435,0.46569466379855146,2.7124575856024684,0.4956744022629171,True,0.09140491485595703,-1.939231276512146,0.47516828775405884,2.632767915725708,0.4956744022629171,0.5101673481105133,1.0
1759182086.3067853,1,-1.9654725023678208,0.47936041976524624,2.64780319486176,0.4956744022629171,True,0.09557175636291504,-1.939231276512146,0.47516828775405884,2.632767915725708,0.4956744022629171,0.5101673481105133,1.0
1759182086.3925703,1,-2.046633246145736,0.6005253072922999,2.3318349394985525,0.7723729641272157,True,0.085784912109375,-2.0615737438201904,0.6544370651245117,1.8681893348693848,0.7723729641272157,0.5101673481105133,1.0
1759182086.4809725,1,-2.0732187257575965,0.6533468976390896,2.0899732858551836,0.7723729641272157,True,0.08840227127075195,-2.0615737438201904,0.6544370651245117,1.8681893348693848,0.7723729641272157,0.41429638229673715,1.0
1759182086.574836,1,-2.0790970702647242,0.6784495196221617,1.9285712551775482,0.7723729641272157,True,0.09386348724365234,-2.0615737438201904,0.6544370651245117,1.8681893348693848,0.7723729641272157,0.41429638229673715,1.0
1759182086.681403,1,-2.0702584889018887,0.874995129311972,1.5864670296184897,1.0073456972828605,True,0.1,-2.045865297317505,0.9370650053024292,1.2311527729034424,1.0073456972828605,0.4233952764131822,1.0
1759182086.7704244,1,-2.0545130914537024,0.9476387114197777,1.3485046113535963,1.0073456972828605,True,0.08902144432067871,-2.045865297317505,0.9370650053024292,1.2311527729034424,1.0073456972828605,0.35639034777431994,1.0
1759182086.8467991,1,-2.0419877682846557,0.9696156093860477,1.2145065695387842,1.0073456972828605,True,0.07637476921081543,-2.045865297317505,0.9370650053024292,1.2311527729034424,1.0073456972828605,0.3640041581357837,1.0
1759182086.962564,1,-1.9282922062216992,1.122771937275146,0.917836881074189,0.9882278264470014,True,0.1,-1.881769061088562,1.1610857248306274,0.6970321536064148,0.9882278264470014,0.3752782484391354,1.0
1759182087.0614698,1,-1.8757944029127778,1.1753078677305595,0.7130340609828005,0.9882278264470014,True,0.09890580177307129,-1.881769061088562,1.1610857248306274,0.6970321536064148,0.9882278264470014,0.3987256208075923,1.0
1759182087.1734636,1,-1.7353877276306657,1.2487983328119394,0.43229357125823586,0.9590260046309611,True,0.1,-1.6950874328613281,1.257320761680603,0.28648343682289124,0.9590260046309611,0.3987256208075923,1.0
