timestamp,vehicle_id,x,y,theta,velocity,gps_available,dt,gps_x,gps_y,gps_theta,gps_velocity,control_steering,control_acceleration
1759182067.6330779,0,-1.205,-0.83,-0.7177028497428992,0.0,False,0.01,nan,nan,nan,nan,0.0,0.0
1759182067.6445432,0,-1.205,-0.83,-0.7177028497428992,0.0,False,0.011465311050415039,nan,nan,nan,nan,0.0,0.0
1759182067.6560547,0,-1.205,-0.83,-0.7177028497428992,0.0,False,0.011511564254760742,nan,nan,nan,nan,0.0,0.0
1759182067.667414,0,-1.205,-0.83,-0.7177028497428992,0.0,False,0.011359214782714844,nan,nan,nan,nan,0.0,0.0
1759182067.6782873,0,-1.205,-0.83,-0.7177028497428992,0.0,False,0.01087331771850586,nan,nan,nan,nan,0.0,0.0
1759182067.6889021,0,-1.205,-0.83,-0.7177028497428992,0.0,False,0.010614871978759766,nan,nan,nan,nan,0.0,0.0
1759182067.6990662,0,-1.205,-0.83,-0.7177028497428992,0.0,False,0.010164022445678711,nan,nan,nan,nan,0.0,0.0
1759182067.7093692,0,-1.205,-0.83,-0.7177028497428992,0.0,False,0.010303020477294922,nan,nan,nan,nan,0.0,0.0
1759182067.7209594,0,-1.205,-0.83,-0.7177028497428992,0.0,False,0.011590242385864258,nan,nan,nan,nan,0.0,0.0
1759182067.7323055,0,-1.205,-0.83,-0.7177028497428992,0.0,False,0.011346101760864258,nan,nan,nan,nan,0.0,0.0
1759182067.743882,0,-1.205,-0.83,-0.7177028497428992,0.0,False,0.011576414108276367,nan,nan,nan,nan,0.0,0.0
1759182067.755233,0,-1.205,-0.83,-0.7177028497428992,0.0,False,0.01135110855102539,nan,nan,nan,nan,0.0,0.0
1759182067.7667217,0,-1.205,-0.83,-0.7177028497428992,0.0,False,0.011488676071166992,nan,nan,nan,nan,0.0,0.0
1759182067.7770455,0,-1.205,-0.83,-0.7177028497428992,0.0,False,0.010323762893676758,nan,nan,nan,nan,0.0,0.0
1759182067.788085,0,-1.205,-0.83,-0.7177028497428992,0.0,False,0.011039495468139648,nan,nan,nan,nan,0.0,0.0
1759182067.798135,0,-1.205,-0.83,-0.7177028497428992,0.0,False,0.010050058364868164,nan,nan,nan,nan,0.0,0.0
1759182067.8091807,0,-1.205,-0.83,-0.7177028497428992,0.0,False,0.011045694351196289,nan,nan,nan,nan,0.0,0.0
1759182067.820354,0,-1.205,-0.83,-0.7177028497428992,0.0,False,0.011173248291015625,nan,nan,nan,nan,0.0,0.0
1759182067.8333583,0,-1.2049999243418377,-0.8299995105862618,-0.71770493717408,0.0,True,0.013004302978515625,-1.2049999237060547,-0.8299995064735413,-0.7177051305770874,0.0,0.0,0.0
1759182067.8448238,0,-1.2049999239185727,-0.8299995078482668,-0.7177051156273606,0.0,True,0.01146554946899414,-1.2049999237060547,-0.8299995064735413,-0.7177051305770874,0.0,0.0,0.0
1759182067.8549433,0,-1.2049999237857767,-0.8299995069892429,-0.7177051322514103,0.0,True,0.010119438171386719,-1.2049999237060547,-0.8299995064735413,-0.7177051305770874,0.0,0.0,0.0
1759182067.8654163,0,-1.2049999237364264,-0.8299995066700088,-0.7177051344545351,0.0,True,0.010473012924194336,-1.2049999237060547,-0.8299995064735413,-0.7177051305770874,0.0,0.0,0.0
1759182067.8758943,0,-1.2049999237176512,-0.8299995065485567,-0.7177051347404095,0.0,True,0.010478019714355469,-1.2049999237060547,-0.8299995064735413,-0.7177051305770874,0.0,0.0,0.0
1759182067.8862772,0,-1.2049999237104838,-0.829999506502193,-0.7177051344974394,0.0,True,0.010382890701293945,-1.2049999237060547,-0.8299995064735413,-0.7177051305770874,0.0,0.0,0.0
1759182067.897682,0,-1.2049999237077464,-0.8299995064844852,-0.7177051341626246,0.0,True,0.011404752731323242,-1.2049999237060547,-0.8299995064735413,-0.7177051305770874,0.0,0.0,0.0
1759182067.9084404,0,-1.2049999237067008,-0.8299995064777215,-0.7177051337136717,0.0,True,0.010758399963378906,-1.2049999237060547,-0.8299995064735413,-0.7177051305770874,0.0,0.0,0.0
1759182067.9195058,0,-1.2049999237063016,-0.829999506475138,-0.717705133323145,0.0,True,0.011065483093261719,-1.2049999237060547,-0.8299995064735413,-0.7177051305770874,0.0,0.0,0.0
1759182067.930675,0,-1.204999923706149,-0.8299995064741511,-0.7177051329870618,0.0,True,0.011169195175170898,-1.2049999237060547,-0.8299995064735413,-0.7177051305770874,0.0,0.0,0.0
1759182067.9417446,0,-1.2049999237060907,-0.8299995064737742,-0.7177051326959933,0.0,True,0.011069536209106445,-1.2049999237060547,-0.8299995064735413,-0.7177051305770874,0.0,0.0,0.0
1759182067.9527307,0,-1.2049999237060685,-0.8299995064736302,-0.717705132449785,0.0,True,0.010986089706420898,-1.2049999237060547,-0.8299995064735413,-0.7177051305770874,0.0,0.0,0.0
1759182067.9634933,0,-1.20499992370606,-0.8299995064735752,-0.7177051322389332,0.0,True,0.010762691497802734,-1.2049999237060547,-0.8299995064735413,-0.7177051305770874,0.0,0.0,0.0
1759182067.9734952,0,-1.2049999237060567,-0.8299995064735542,-0.7177051320451113,0.0,True,0.010001897811889648,-1.2049999237060547,-0.8299995064735413,-0.7177051305770874,0.0,0.0,0.0
1759182067.9842362,0,-1.2049999237060554,-0.8299995064735463,-0.7177051319105932,0.0,True,0.010740995407104492,-1.2049999237060547,-0.8299995064735413,-0.7177051305770874,0.0,0.0,0.0
1759182067.9944537,0,-1.204999923706055,-0.8299995064735431,-0.7177051317844789,0.0,True,0.010217428207397461,-1.2049999237060547,-0.8299995064735413,-0.7177051305770874,0.0,0.0,0.0
1759182068.004911,0,-1.2049999237060547,-0.8299995064735419,-0.7177051316845748,0.0,True,0.010457277297973633,-1.2049999237060547,-0.8299995064735413,-0.7177051305770874,0.0,0.0,0.0
1759182068.0166473,0,-1.2049999237060547,-0.8299995064735415,-0.7177051316246903,0.0,True,0.011736392974853516,-1.2049999237060547,-0.8299995064735413,-0.7177051305770874,0.0,0.0,0.0
1759182068.0282447,0,-1.2049999237060547,-0.8299995064735414,-0.7177051315610079,0.0,True,0.011597394943237305,-1.2049999237060547,-0.8299995064735413,-0.7177051305770874,0.0,0.0,0.0
1759182068.0394623,0,-1.2049999237060547,-0.8299995064735413,-0.7177051314917424,0.0,True,0.011217594146728516,-1.2049999237060547,-0.8299995064735413,-0.7177051305770874,0.0,0.0,0.0
1759182068.0505106,0,-1.2049999237060547,-0.8299995064735413,-0.7177051314258271,0.0,True,0.011048316955566406,-1.2049999237060547,-0.8299995064735413,-0.7177051305770874,0.0,0.0,0.0
1759182068.0606492,0,-1.2049999237060547,-0.8299995064735413,-0.7177051313536253,0.0,True,0.010138511657714844,-1.2049999237060547,-0.8299995064735413,-0.7177051305770874,0.0,0.0,0.0
1759182068.0710363,0,-1.2049999237060547,-0.8299995064735413,-0.7177051312973646,0.0,True,0.010387182235717773,-1.2049999237060547,-0.8299995064735413,-0.7177051305770874,0.0,0.0,0.0
1759182068.0821924,0,-1.2049999237060547,-0.8299995064735413,-0.7177051312603702,0.0,True,0.011156082153320312,-1.2049999237060547,-0.8299995064735413,-0.7177051305770874,0.0,0.0,0.0
1759182068.0922039,0,-1.2049999237060547,-0.8299995064735413,-0.7177051312107672,0.0,True,0.010011434555053711,-1.2049999237060547,-0.8299995064735413,-0.7177051305770874,0.0,0.0,0.0
1759182068.1038063,0,-1.2049999237060547,-0.8299995064735413,-0.7177051311878895,0.0,True,0.011602401733398438,-1.2049999237060547,-0.8299995064735413,-0.7177051305770874,0.0,0.0,0.0
1759182068.115318,0,-1.2049999237060547,-0.8299995064735413,-0.7177051311629832,0.0,True,0.011511802673339844,-1.2049999237060547,-0.8299995064735413,-0.7177051305770874,0.0,0.0,0.0
1759182068.1258485,0,-1.2049999237060547,-0.8299995064735413,-0.7177051311262002,0.0,True,0.010530471801757812,-1.2049999237060547,-0.8299995064735413,-0.7177051305770874,0.0,0.0,0.0
1759182068.1365724,0,-1.2049999237060547,-0.8299995064735413,-0.7177051310954656,0.0,True,0.01072382926940918,-1.2049999237060547,-0.8299995064735413,-0.7177051305770874,0.0,0.0,0.0
1759182068.1473773,0,-1.2049999237060547,-0.8299995064735413,-0.7177051310689144,0.0,True,0.010804891586303711,-1.2049999237060547,-0.8299995064735413,-0.7177051305770874,0.0,0.0,0.0
1759182068.1581914,0,-1.2049999237060547,-0.8299995064735413,-0.7177051310447595,0.0,True,0.010814189910888672,-1.2049999237060547,-0.8299995064735413,-0.7177051305770874,0.0,0.0,0.0
1759182068.168306,0,-1.2049999237060547,-0.8299995064735413,-0.71770513101605,0.0,True,0.010114669799804688,-1.2049999237060547,-0.8299995064735413,-0.7177051305770874,0.0,0.0,0.0
1759182068.1785407,0,-1.2049999237060547,-0.8299995064735413,-0.7177051309922433,0.0,True,0.010234594345092773,-1.2049999237060547,-0.8299995064735413,-0.7177051305770874,0.0,0.0,0.0
1759182068.18946,0,-1.2049999237060547,-0.8299995064735413,-0.7177051309772793,0.0,True,0.010919332504272461,-1.2049999237060547,-0.8299995064735413,-0.7177051305770874,0.0,0.0,0.0
1759182068.2008755,0,-1.2049999237060547,-0.8299995064735413,-0.7177051309666069,0.0,True,0.011415481567382812,-1.2049999237060547,-0.8299995064735413,-0.7177051305770874,0.0,0.0,0.0
1759182068.2114985,0,-1.2049999237060547,-0.8299995064735413,-0.7177051309484064,0.0,True,0.010622978210449219,-1.2049999237060547,-0.8299995064735413,-0.7177051305770874,0.0,0.0,0.0
1759182068.2231145,0,-1.2049999237060547,-0.8299995064735413,-0.7177051309385689,0.0,True,0.011615991592407227,-1.2049999237060547,-0.8299995064735413,-0.7177051305770874,0.0,0.0,0.0
1759182068.234439,0,-1.2049999237060547,-0.8299995064735413,-0.717705130925566,0.0,True,0.011324405670166016,-1.2049999237060547,-0.8299995064735413,-0.7177051305770874,0.0,0.0,0.0
1759182068.2456815,0,-1.2049999237060547,-0.8299995064735413,-0.7177051309116429,0.0,True,0.01124262809753418,-1.2049999237060547,-0.8299995064735413,-0.7177051305770874,0.0,0.0,0.0
1759182068.2566779,0,-1.2049999237060547,-0.8299995064735413,-0.7177051308964302,0.0,True,0.010996341705322266,-1.2049999237060547,-0.8299995064735413,-0.7177051305770874,0.0,0.0,0.0
1759182068.2673519,0,-1.2049999237060547,-0.8299995064735413,-0.717705130880244,0.0,True,0.010673999786376953,-1.2049999237060547,-0.8299995064735413,-0.7177051305770874,0.0,0.0,0.0
1759182068.278134,0,-1.2049999237060547,-0.8299995064735413,-0.7177051308663991,0.0,True,0.010782241821289062,-1.2049999237060547,-0.8299995064735413,-0.7177051305770874,0.0,0.0,0.0
1759182068.2887065,0,-1.2049999237060547,-0.8299995064735413,-0.7177051308526341,0.0,True,0.010572433471679688,-1.2049999237060547,-0.8299995064735413,-0.7177051305770874,0.0,0.0,0.0
1759182068.2991545,0,-1.2049999237060547,-0.8299995064735413,-0.7177051308395619,0.0,True,0.010447978973388672,-1.2049999237060547,-0.8299995064735413,-0.7177051305770874,0.0,0.0,0.0
1759182068.3099809,0,-1.2049999237060547,-0.8299995064735413,-0.7177051308299092,0.0,True,0.010826349258422852,-1.2049999237060547,-0.8299995064735413,-0.7177051305770874,0.0,0.0,0.0
1759182068.320235,0,-1.2049999237060547,-0.8299995064735413,-0.7177051308178051,0.0,True,0.010254144668579102,-1.2049999237060547,-0.8299995064735413,-0.7177051305770874,0.0,0.0,0.0
1759182068.3304784,0,-1.2049999237060547,-0.8299995064735413,-0.7177051308068769,0.0,True,0.010243415832519531,-1.2049999237060547,-0.8299995064735413,-0.7177051305770874,0.0,0.0,0.0
1759182068.341367,0,-1.2049999237060547,-0.8299995064735413,-0.7177051308002369,0.0,True,0.01088857650756836,-1.2049999237060547,-0.8299995064735413,-0.7177051305770874,0.0,0.0,0.0
1759182068.3514252,0,-1.2049999237060547,-0.8299995064735413,-0.717705130789712,0.0,True,0.010058164596557617,-1.2049999237060547,-0.8299995064735413,-0.7177051305770874,0.0,0.0,0.0
1759182068.361857,0,-1.2049999237060547,-0.8299995064735413,-0.7177051307818729,0.0,True,0.010431766510009766,-1.2049999237060547,-0.8299995064735413,-0.7177051305770874,0.0,0.0,0.0
1759182068.373395,0,-1.2049999237060547,-0.8299995064735413,-0.717705130779347,0.0,True,0.011538028717041016,-1.2049999237060547,-0.8299995064735413,-0.7177051305770874,0.0,0.0,0.0
1759182068.3837104,0,-1.2049999237060547,-0.8299995064735413,-0.7177051307705842,0.0,True,0.010315418243408203,-1.2049999237060547,-0.8299995064735413,-0.7177051305770874,0.0,0.0,0.0
1759182068.394881,0,-1.2049999237060547,-0.8299995064735413,-0.717705130765717,0.0,True,0.011170625686645508,-1.2049999237060547,-0.8299995064735413,-0.7177051305770874,0.0,0.0,0.0
1759182068.4050846,0,-1.2049999237060547,-0.8299995064735413,-0.7177051307568387,0.0,True,0.01020359992980957,-1.2049999237060547,-0.8299995064735413,-0.7177051305770874,0.0,0.0,0.0
1759182068.4159267,0,-1.2049999237060547,-0.8299995064735413,-0.717705130751142,0.0,True,0.010842084884643555,-1.2049999237060547,-0.8299995064735413,-0.7177051305770874,0.0,0.0,0.0
1759182068.4314408,0,-1.2049999237060547,-0.8299995064735413,-0.7177051307621198,0.0,True,0.015514135360717773,-1.2049999237060547,-0.8299995064735413,-0.7177051305770874,0.0,0.0,0.0
1759182068.4375052,0,-1.2049999237060547,-0.8299995064735413,-0.7177051307355118,0.0,True,0.006064414978027344,-1.2049999237060547,-0.8299995064735413,-0.7177051305770874,0.0,0.0,0.0
1759182068.4486845,0,-1.2049999237060547,-0.8299995064735413,-0.7177051307311757,0.0,True,0.011179208755493164,-1.2049999237060547,-0.8299995064735413,-0.7177051305770874,0.0,0.0,0.0
1759182068.4598732,0,-1.2049999237060547,-0.8299995064735413,-0.7177051307278575,0.0,True,0.011188745498657227,-1.2049999237060547,-0.8299995064735413,-0.7177051305770874,0.0,0.0,0.0
1759182068.4699886,0,-1.2049999237060547,-0.8299995064735413,-0.7177051307207307,0.0,True,0.010115385055541992,-1.2049999237060547,-0.8299995064735413,-0.7177051305770874,0.0,0.0,0.0
1759182068.4808226,0,-1.2049999237060547,-0.8299995064735413,-0.7177051307164088,0.0,True,0.010833978652954102,-1.2049999237060547,-0.8299995064735413,-0.7177051305770874,0.0,0.0,0.0
1759182068.4908247,0,-1.2049999237060547,-0.8299995064735413,-0.7177051307097848,0.0,True,0.01000213623046875,-1.2049999237060547,-0.8299995064735413,-0.7177051305770874,0.0,0.0,0.0
1759182068.5020196,0,-1.2049999237060547,-0.8299995064735413,-0.7177051307072073,0.0,True,0.011194944381713867,-1.2049999237060547,-0.8299995064735413,-0.7177051305770874,0.0,0.0,0.0
1759182068.5123768,0,-1.2049999237060547,-0.8299995064735413,-0.7177051307020506,0.0,True,0.010357141494750977,-1.2049999237060547,-0.8299995064735413,-0.7177051305770874,0.0,0.0,0.0
1759182068.522415,0,-1.2049999237060547,-0.8299995064735413,-0.7177051306963254,0.0,True,0.010038137435913086,-1.2049999237060547,-0.8299995064735413,-0.7177051305770874,0.0,0.0,0.0
1759182068.53406,0,-1.2049999237060547,-0.8299995064735413,-0.7177051306953075,0.0,True,0.011645078659057617,-1.2049999237060547,-0.8299995064735413,-0.7177051305770874,0.0,0.0,0.0
1759182068.5452504,0,-1.2049999237060547,-0.8299995064735413,-0.7177051306924902,0.0,True,0.011190414428710938,-1.2049999237060547,-0.8299995064735413,-0.7177051305770874,0.0,0.0,0.0
1759182068.5564723,0,-1.2049999237060547,-0.8299995064735413,-0.7177051306893141,0.0,True,0.011221885681152344,-1.2049999237060547,-0.8299995064735413,-0.7177051305770874,0.0,0.0,0.0
1759182068.5666077,0,-1.2049999237060547,-0.8299995064735413,-0.7177051306834823,0.0,True,0.010135412216186523,-1.2049999237060547,-0.8299995064735413,-0.7177051305770874,0.0,0.0,0.0
1759182068.5781112,0,-1.2049999237060547,-0.8299995064735413,-0.7177051306812992,0.0,True,0.011503458023071289,-1.2049999237060547,-0.8299995064735413,-0.7177051305770874,0.0,0.0,0.0
1759182068.5881999,0,-1.2049999237060547,-0.8299995064735413,-0.7177051306759168,0.0,True,0.010088682174682617,-1.2049999237060547,-0.8299995064735413,-0.7177051305770874,0.0,0.0,0.0
1759182068.5989196,0,-1.2049999237060547,-0.8299995064735413,-0.7177051306723925,0.0,True,0.010719776153564453,-1.2049999237060547,-0.8299995064735413,-0.7177051305770874,0.0,0.0,0.0
1759182068.6097307,0,-1.2049999237060547,-0.8299995064735413,-0.7177051306693141,0.0,True,0.010811090469360352,-1.2049999237060547,-0.8299995064735413,-0.7177051305770874,0.0,0.0,0.0
1759182068.6207314,0,-1.2049999237060547,-0.8299995064735413,-0.717705130666662,0.0,True,0.011000633239746094,-1.2049999237060547,-0.8299995064735413,-0.7177051305770874,0.0,0.0,0.0
1759182068.6894536,0,-1.2049999237060547,-0.8299995064735413,-0.7177051307482767,0.0,True,0.06872224807739258,-1.2049999237060547,-0.8299995064735413,-0.7177051305770874,0.0,0.0,0.0
1759182068.7005172,0,-1.2049999237060547,-0.8299995064735413,-0.7177051307136075,0.0,True,0.011063575744628906,-1.2049999237060547,-0.8299995064735413,-0.7177051305770874,0.0,0.0,0.0
1759182068.7116144,0,-1.2049999237060547,-0.8299995064735413,-0.717705130685605,0.0,True,0.011097192764282227,-1.2049999237060547,-0.8299995064735413,-0.7177051305770874,0.0,0.0,0.0
1759182068.7223995,0,-1.2049999237060547,-0.8299995064735413,-0.7177051306665074,0.0,True,0.010785102844238281,-1.2049999237060547,-0.8299995064735413,-0.7177051305770874,0.0,0.0,0.0
1759182068.733282,0,-1.2049999237060547,-0.8299995064735413,-0.71770513065354,0.0,True,0.01088261604309082,-1.2049999237060547,-0.8299995064735413,-0.7177051305770874,0.0,0.0,0.0
1759182068.7443054,0,-1.2049999237060547,-0.8299995064735413,-0.7177051306445179,0.0,True,0.011023283004760742,-1.2049999237060547,-0.8299995064735413,-0.7177051305770874,0.0,0.0,0.0
1759182068.7550802,0,-1.2049999237060547,-0.8299995064735413,-0.7177051306376683,0.0,True,0.010774850845336914,-1.2049999237060547,-0.8299995064735413,-0.7177051305770874,0.0,0.0,0.0
1759182068.7663105,0,-1.2049999237060547,-0.8299995064735413,-0.7177051306329716,0.0,True,0.011230230331420898,-1.2049999237060547,-0.8299995064735413,-0.7177051305770874,0.0,0.0,0.0
1759182068.7773044,0,-1.2049999237060547,-0.8299995064735413,-0.7177051306290991,0.0,True,0.01099395751953125,-1.2049999237060547,-0.8299995064735413,-0.7177051305770874,0.0,0.0,0.0
1759182068.7884347,0,-1.2049999237060547,-0.8299995064735413,-0.7177051306261255,0.0,True,0.011130332946777344,-1.2049999237060547,-0.8299995064735413,-0.7177051305770874,0.0,0.0,0.0
1759182068.7996686,0,-1.2049999237060547,-0.8299995064735413,-0.7177051306237647,0.0,True,0.011233806610107422,-1.2049999237060547,-0.8299995064735413,-0.7177051305770874,0.0,0.0,0.0
1759182068.8100328,0,-1.2049999237060547,-0.8299995064735413,-0.7177051306209741,0.0,True,0.010364294052124023,-1.2049999237060547,-0.8299995064735413,-0.7177051305770874,0.0,0.0,0.0
1759182068.8209748,0,-1.2049999237060547,-0.8299995064735413,-0.7177051306191409,0.0,True,0.01094198226928711,-1.2049999237060547,-0.8299995064735413,-0.7177051305770874,0.0,0.0,0.0
1759182068.8498974,0,-1.2049999237060547,-0.8299995064735413,-0.7177051306318827,0.0,True,0.028922557830810547,-1.2049999237060547,-0.8299995064735413,-0.7177051305770874,0.0,0.0,0.0
1759182068.86084,0,-1.2049999237060547,-0.8299995064735413,-0.717705130626296,0.0,True,0.010942697525024414,-1.2049999237060547,-0.8299995064735413,-0.7177051305770874,0.0,0.0,0.0
1759182068.8715296,0,-1.2049999237060547,-0.8299995064735413,-0.717705130620848,0.0,True,0.010689496994018555,-1.2049999237060547,-0.8299995064735413,-0.7177051305770874,0.0,0.0,0.0
1759182068.8822958,0,-1.2049999237060547,-0.8299995064735413,-0.7177051306167712,0.0,True,0.010766267776489258,-1.2049999237060547,-0.8299995064735413,-0.7177051305770874,0.0,0.0,0.0
1759182068.893949,0,-1.2049999237060547,-0.8299995064735413,-0.7177051306142754,0.0,True,0.01165318489074707,-1.2049999237060547,-0.8299995064735413,-0.7177051305770874,0.0,0.0,0.0
1759182068.9045498,0,-1.2049999237060547,-0.8299995064735413,-0.7177051306115878,0.0,True,0.010600805282592773,-1.2049999237060547,-0.8299995064735413,-0.7177051305770874,0.0,0.0,0.0
1759182068.9157517,0,-1.2049999237060547,-0.8299995064735413,-0.7177051306097972,0.0,True,0.011201858520507812,-1.2049999237060547,-0.8299995064735413,-0.7177051305770874,0.0,0.0,0.0
1759182068.92703,0,-1.2049999237060547,-0.8299995064735413,-0.7177051306083548,0.0,True,0.011278390884399414,-1.2049999237060547,-0.8299995064735413,-0.7177051305770874,0.0,0.0,0.0
1759182068.9385035,0,-1.2049999237060547,-0.8299995064735413,-0.7177051306072038,0.0,True,0.011473417282104492,-1.2049999237060547,-0.8299995064735413,-0.7177051305770874,0.0,0.0,0.0
1759182068.9486122,0,-1.2049999237060547,-0.8299995064735413,-0.7177051306053492,0.0,True,0.010108709335327148,-1.2049999237060547,-0.8299995064735413,-0.7177051305770874,0.0,0.0,0.0
1759182068.9594078,0,-1.2049999237060547,-0.8299995064735413,-0.7177051306041733,0.0,True,0.01079559326171875,-1.2049999237060547,-0.8299995064735413,-0.7177051305770874,0.0,0.0,0.0
1759182068.9699974,0,-1.2049999237060547,-0.8299995064735413,-0.7177051306030506,0.0,True,0.010589599609375,-1.2049999237060547,-0.8299995064735413,-0.7177051305770874,0.0,0.0,0.0
1759182068.9812403,0,-1.2049999237060547,-0.8299995064735413,-0.7177051306023969,0.0,True,0.011242866516113281,-1.2049999237060547,-0.8299995064735413,-0.7177051305770874,0.0,0.0,0.0
1759182068.9919202,0,-1.2049999237060547,-0.8299995064735413,-0.7177051306014501,0.0,True,0.010679960250854492,-1.2049999237060547,-0.8299995064735413,-0.7177051305770874,0.0,0.0,0.0
1759182069.0030587,0,-1.2049999237060547,-0.8299995064735413,-0.7177051306007911,0.0,True,0.011138439178466797,-1.2049999237060547,-0.8299995064735413,-0.7177051305770874,0.0,0.0,0.0
1759182069.0143673,0,-1.2049999237060547,-0.8299995064735413,-0.7177051306002156,0.0,True,0.011308670043945312,-1.2049999237060547,-0.8299995064735413,-0.7177051305770874,0.0,0.0,0.0
1759182069.0248365,0,-1.2049999237060547,-0.8299995064735413,-0.7177051305992173,0.0,True,0.010469198226928711,-1.2049999237060547,-0.8299995064735413,-0.7177051305770874,0.0,0.0,0.0
1759182069.0422757,0,-1.2049999237060547,-0.8299995064735413,-0.7177051306014075,0.0,True,0.01743912696838379,-1.2049999237060547,-0.8299995064735413,-0.7177051305770874,0.0,0.0,0.0
1759182069.0523846,0,-1.2049999237060547,-0.8299995064735413,-0.7177051305995867,0.0,True,0.01010894775390625,-1.2049999237060547,-0.8299995064735413,-0.7177051305770874,0.0,0.0,0.0
1759182069.062586,0,-1.2049999237060547,-0.8299995064735413,-0.7177051305979454,0.0,True,0.010201454162597656,-1.2049999237060547,-0.8299995064735413,-0.7177051305770874,0.0,0.0,0.0
1759182069.073497,0,-1.2049999237060547,-0.8299995064735413,-0.7177051305969222,0.0,True,0.010910987854003906,-1.2049999237060547,-0.8299995064735413,-0.7177051305770874,0.0,0.0,0.0
1759182069.0835857,0,-1.2049999237060547,-0.8299995064735413,-0.7177051305957463,0.0,True,0.010088682174682617,-1.2049999237060547,-0.8299995064735413,-0.7177051305770874,0.0,0.0,0.0
1759182069.0946221,0,-1.2049999237060547,-0.8299995064735413,-0.7177051305951174,0.0,True,0.011036396026611328,-1.2049999237060547,-0.8299995064735413,-0.7177051305770874,0.0,0.0,0.0
1759182069.1056323,0,-1.2049999237060547,-0.8299995064735413,-0.7177051305945383,0.0,True,0.011010169982910156,-1.2049999237060547,-0.8299995064735413,-0.7177051305770874,0.0,0.0,0.0
1759182069.1165864,0,-1.2049999237060547,-0.8299995064735413,-0.7177051305939557,0.0,True,0.010954141616821289,-1.2049999237060547,-0.8299995064735413,-0.7177051305770874,0.0,0.0,0.0
1759182069.1272922,0,-1.2049999237060547,-0.8299995064735413,-0.7177051305933109,0.0,True,0.010705709457397461,-1.2049999237060547,-0.8299995064735413,-0.7177051305770874,0.0,0.0,0.0
1759182069.138262,0,-1.2049999237060547,-0.8299995064735413,-0.717705130592801,0.0,True,0.010969877243041992,-1.2049999237060547,-0.8299995064735413,-0.7177051305770874,0.0,0.0,0.0
1759182069.1491532,0,-1.2049999237060547,-0.8299995064735413,-0.7177051305922824,0.0,True,0.010891199111938477,-1.2049999237060547,-0.8299995064735413,-0.7177051305770874,0.0,0.0,0.0
1759182069.1596713,0,-1.2049999237060547,-0.8299995064735413,-0.7177051305916677,0.0,True,0.010518074035644531,-1.2049999237060547,-0.8299995064735413,-0.7177051305770874,0.0,0.0,0.0
1759182069.1706545,0,-1.2049999237060547,-0.8299995064735413,-0.717705130591245,0.0,True,0.01098322868347168,-1.2049999237060547,-0.8299995064735413,-0.7177051305770874,0.0,0.0,0.0
1759182069.1814773,0,-1.2049999237060547,-0.8299995064735413,-0.7177051305907831,0.0,True,0.010822772979736328,-1.2049999237060547,-0.8299995064735413,-0.7177051305770874,0.0,0.0,0.0
1759182069.1930783,0,-1.2049999237060547,-0.8299995064735413,-0.7177051305905522,0.0,True,0.011600971221923828,-1.2049999237060547,-0.8299995064735413,-0.7177051305770874,0.0,0.0,0.0
1759182069.203617,0,-1.2049999237060547,-0.8299995064735413,-0.7177051305899802,0.0,True,0.010538816452026367,-1.2049999237060547,-0.8299995064735413,-0.7177051305770874,0.0,0.0,0.0
1759182069.2141867,0,-1.2049999237060547,-0.8299995064735413,-0.7177051305894562,0.0,True,0.010569572448730469,-1.2049999237060547,-0.8299995064735413,-0.7177051305770874,0.0,0.0,0.0
1759182069.2247274,0,-1.2049999237060547,-0.8299995064735413,-0.7177051305889766,0.0,True,0.01054072380065918,-1.2049999237060547,-0.8299995064735413,-0.7177051305770874,0.0,0.0,0.0
1759182069.235948,0,-1.2049999237060547,-0.8299995064735413,-0.7177051305887066,0.0,True,0.011220693588256836,-1.2049999237060547,-0.8299995064735413,-0.7177051305770874,0.0,0.0,0.0
1759182069.2460642,0,-1.2049999237060547,-0.8299995064735413,-0.7177051305881541,0.0,True,0.010116100311279297,-1.2049999237060547,-0.8299995064735413,-0.7177051305770874,0.0,0.0,0.0
1759182069.2573023,0,-1.2049999237060547,-0.8299995064735413,-0.7177051305879196,0.0,True,0.01123809814453125,-1.2049999237060547,-0.8299995064735413,-0.7177051305770874,0.0,0.0,0.0
1759182069.2686327,0,-1.2049999237060547,-0.8299995064735413,-0.7177051305876887,0.0,True,0.011330366134643555,-1.2049999237060547,-0.8299995064735413,-0.7177051305770874,0.0,0.0,0.0
1759182069.2792974,0,-1.2049999237060547,-0.8299995064735413,-0.7177051305872801,0.0,True,0.010664701461791992,-1.2049999237060547,-0.8299995064735413,-0.7177051305770874,0.0,0.0,0.0
1759182069.289775,0,-1.2049999237060547,-0.8299995064735413,-0.7177051305868538,0.0,True,0.010477542877197266,-1.2049999237060547,-0.8299995064735413,-0.7177051305770874,0.0,0.0,0.0
1759182069.3013709,0,-1.2049999237060547,-0.8299995064735413,-0.7177051305866939,0.0,True,0.011595964431762695,-1.2049999237060547,-0.8299995064735413,-0.7177051305770874,0.0,0.0,0.0
1759182069.3120499,0,-1.2049999237060547,-0.8299995064735413,-0.7177051305863209,0.0,True,0.010679006576538086,-1.2049999237060547,-0.8299995064735413,-0.7177051305770874,0.0,0.0,0.0
1759182069.3233373,0,-1.2049999237060547,-0.8299995064735413,-0.7177051305860758,0.0,True,0.011287450790405273,-1.2049999237060547,-0.8299995064735413,-0.7177051305770874,0.0,0.0,0.0
1759182069.3333688,0,-1.2049999237060547,-0.8299995064735413,-0.7177051305855997,0.0,True,0.010031461715698242,-1.2049999237060547,-0.8299995064735413,-0.7177051305770874,0.0,0.0,0.0
1759182069.3439102,0,-1.2049999237060547,-0.8299995064735413,-0.7177051305852711,0.0,True,0.010541439056396484,-1.2049999237060547,-0.8299995064735413,-0.7177051305770874,0.0,0.0,0.0
1759182069.3546379,0,-1.2049999237060547,-0.8299995064735413,-0.7177051305850064,0.0,True,0.010727643966674805,-1.2049999237060547,-0.8299995064735413,-0.7177051305770874,0.0,0.0,0.0
1759182069.36579,0,-1.2049999237060547,-0.8299995064735413,-0.7177051305848252,0.0,True,0.011152029037475586,-1.2049999237060547,-0.8299995064735413,-0.7177051305770874,0.0,0.0,0.0
1759182069.377263,0,-1.2049999237060547,-0.8299995064735413,-0.717705130584676,0.0,True,0.01147317886352539,-1.2049999237060547,-0.8299995064735413,-0.7177051305770874,0.0,0.0,0.0
1759182069.3888295,0,-1.2049999237060547,-0.8299995064735413,-0.7177051305845126,0.0,True,0.011566400527954102,-1.2049999237060547,-0.8299995064735413,-0.7177051305770874,0.0,0.0,0.0
1759182069.3991306,0,-1.2049999237060547,-0.8299995064735413,-0.717705130584136,0.0,True,0.01030111312866211,-1.2049999237060547,-0.8299995064735413,-0.7177051305770874,0.0,0.0,0.0
1759182069.410221,0,-1.2049999237060547,-0.8299995064735413,-0.7177051305839122,0.0,True,0.011090517044067383,-1.2049999237060547,-0.8299995064735413,-0.7177051305770874,0.0,0.0,0.0
1759182069.4208128,0,-1.2049999237060547,-0.8299995064735413,-0.717705130583628,0.0,True,0.010591745376586914,-1.2049999237060547,-0.8299995064735413,-0.7177051305770874,0.0,0.0,0.0
1759182069.4356754,0,-1.2049999237060547,-0.8299995064735413,-0.7177051305839299,0.0,True,0.014862537384033203,-1.2049999237060547,-0.8299995064735413,-0.7177051305770874,0.0,0.0,0.0
1759182069.4469857,0,-1.2049999237060547,-0.8299995064735413,-0.7177051305836244,0.0,True,0.011310338973999023,-1.2049999237060547,-0.8299995064735413,-0.7177051305770874,0.0,0.0,0.0
1759182069.4585156,0,-1.2049999237060547,-0.8299995064735413,-0.7177051305833384,0.0,True,0.011529922485351562,-1.2049999237060547,-0.8299995064735413,-0.7177051305770874,0.0,0.0,0.0
1759182069.469249,0,-1.2049999237060547,-0.8299995064735413,-0.7177051305829814,0.0,True,0.010733366012573242,-1.2049999237060547,-0.8299995064735413,-0.7177051305770874,0.0,0.0,0.0
1759182069.47926,0,-1.2049999237060547,-0.8299995064735413,-0.7177051305825941,0.0,True,0.010010957717895508,-1.2049999237060547,-0.8299995064735413,-0.7177051305770874,0.0,0.0,0.0
1759182069.4896457,0,-1.2049999237060547,-0.8299995064735413,-0.717705130582317,0.0,True,0.010385751724243164,-1.2049999237060547,-0.8299995064735413,-0.7177051305770874,0.0,0.0,0.0
1759182069.50048,0,-1.2049999237060547,-0.8299995064735413,-0.7177051305821323,0.0,True,0.010834217071533203,-1.2049999237060547,-0.8299995064735413,-0.7177051305770874,0.0,0.0,0.0
1759182069.5111718,0,-1.2049999237060547,-0.8299995064735413,-0.717705130581944,0.0,True,0.01069188117980957,-1.2049999237060547,-0.8299995064735413,-0.7177051305770874,0.0,0.0,0.0
1759182069.5217774,0,-1.2049999237060547,-0.8299995064735413,-0.7177051305817628,0.0,True,0.010605573654174805,-1.2049999237060547,-0.8299995064735413,-0.7177051305770874,0.0,0.0,0.0
1759182069.5332754,0,-1.2049999237060547,-0.8299995064735413,-0.7177051305816775,0.0,True,0.011497974395751953,-1.2049999237060547,-0.8299995064735413,-0.7177051305770874,0.0,0.0,0.0
1759182069.5433142,0,-1.2049999237060547,-0.8299995064735413,-0.717705130581443,0.0,True,0.01003885269165039,-1.2049999237060547,-0.8299995064735413,-0.7177051305770874,0.0,0.0,0.0
1759182069.5538757,0,-1.2049999237060547,-0.8299995064735413,-0.7177051305812796,0.0,True,0.010561466217041016,-1.2049999237060547,-0.8299995064735413,-0.7177051305770874,0.0,0.0,0.0
1759182069.5646744,0,-1.2049999237060547,-0.8299995064735413,-0.7177051305811517,0.0,True,0.01079869270324707,-1.2049999237060547,-0.8299995064735413,-0.7177051305770874,0.0,0.0,0.0
1759182069.575429,0,-1.2049999237060547,-0.8299995064735413,-0.7177051305810238,0.0,True,0.010754585266113281,-1.2049999237060547,-0.8299995064735413,-0.7177051305770874,0.0,0.0,0.0
1759182069.587023,0,-1.2049999237060547,-0.8299995064735413,-0.7177051305809687,0.0,True,0.011594057083129883,-1.2049999237060547,-0.8299995064735413,-0.7177051305770874,0.0,0.0,0.0
1759182069.5970674,0,-1.2049999237060547,-0.8299995064735413,-0.7177051305807716,0.0,True,0.010044336318969727,-1.2049999237060547,-0.8299995064735413,-0.7177051305770874,0.0,0.0,0.0
1759182069.6072936,0,-1.2049999237060547,-0.8299995064735413,-0.7177051305806081,0.0,True,0.010226249694824219,-1.2049999237060547,-0.8299995064735413,-0.7177051305770874,0.0,0.0,0.0
1759182069.6175523,0,-1.2049999237060547,-0.8299995064735413,-0.7177051305804678,0.0,True,0.010258674621582031,-1.2049999237060547,-0.8299995064735413,-0.7177051305770874,0.0,0.0,0.0
1759182069.653849,0,-1.2049999237060547,-0.8299995064735413,-0.7177051305820648,0.0,True,0.03629660606384277,-1.2049999237060547,-0.8299995064735413,-0.7177051305770874,0.0,0,0
1759182069.6593728,0,-1.2049999237060547,-0.8299995064735413,-0.7177051305811304,0.0,True,0.0055239200592041016,-1.2049999237060547,-0.8299995064735413,-0.7177051305770874,0.0,0,0
1759182069.6698592,0,-1.2049999237060547,-0.8299995064735413,-0.7177051305806401,0.0,True,0.010486364364624023,-1.2049999237060547,-0.8299995064735413,-0.7177051305770874,0.0,0,0
1759182069.6807964,0,-1.2049999237060547,-0.8299995064735413,-0.7177051305803239,0.0,True,0.010937213897705078,-1.2049999237060547,-0.8299995064735413,-0.7177051305770874,0.0,0,0
1759182069.6915731,0,-1.2049999237060547,-0.8299995064735413,-0.7177051305800735,0.0,True,0.010776758193969727,-1.2049999237060547,-0.8299995064735413,-0.7177051305770874,0.0,0,0
1759182069.703239,0,-1.2049999237060547,-0.8299995064735413,-0.7177051305799242,0.0,True,0.011665821075439453,-1.2049999237060547,-0.8299995064735413,-0.7177051305770874,0.0,0,0
1759182069.7144954,0,-1.2049999237060547,-0.8299995064735413,-0.7177051305797768,0.0,True,0.01125645637512207,-1.2049999237060547,-0.8299995064735413,-0.7177051305770874,0.0,0,0
1759182069.7252064,0,-1.2049999237060547,-0.8299995064735413,-0.7177051305796205,0.0,True,0.010710954666137695,-1.2049999237060547,-0.8299995064735413,-0.7177051305770874,0.0,0,0
1759182069.7360244,0,-1.2049999237060547,-0.8299995064735413,-0.7177051305794926,0.0,True,0.010818004608154297,-1.2049999237060547,-0.8299995064735413,-0.7177051305770874,0.0,0,0
1759182069.7461705,0,-1.2049999237060547,-0.8299995064735413,-0.7177051305793523,0.0,True,0.010146141052246094,-1.2049999237060547,-0.8299995064735413,-0.7177051305770874,0.0,0,0
1759182069.7566397,0,-1.2049999237060547,-0.8299995064735413,-0.717705130579251,0.0,True,0.010469198226928711,-1.2049999237060547,-0.8299995064735413,-0.7177051305770874,0.0,0,0
1759182069.766774,0,-1.2049999237060547,-0.8299995064735413,-0.717705130579148,0.0,True,0.010134220123291016,-1.2049999237060547,-0.8299995064735413,-0.7177051305770874,0.0,0,0
1759182069.7782664,0,-1.2049999237060547,-0.8299995064735413,-0.717705130579116,0.0,True,0.011492490768432617,-1.2049999237060547,-0.8299995064735413,-0.7177051305770874,0.0,0,0
1759182069.788446,0,-1.2049999237060547,-0.8299995064735413,-0.7177051305790236,0.0,True,0.010179519653320312,-1.2049999237060547,-0.8299995064735413,-0.7177051305770874,0.0,0,0
1759182069.7987037,0,-1.2049999237060547,-0.8299995064735413,-0.7177051305789437,0.0,True,0.010257720947265625,-1.2049999237060547,-0.8299995064735413,-0.7177051305770874,0.0,0,0
1759182069.8101437,0,-1.2049999237060547,-0.8299995064735413,-0.717705130578917,0.0,True,0.011440038681030273,-1.2049999237060547,-0.8299995064735413,-0.7177051305770874,0.0,0,0
1759182069.8213778,0,-1.2049999237060547,-0.8299995064735413,-0.717705130578878,0.0,True,0.011234045028686523,-1.2049999237060547,-0.8299995064735413,-0.7177051305770874,0.0,0,0
1759182069.8316739,0,-1.2049999237060547,-0.8299995064735413,-0.7177051305787963,0.0,True,0.010296106338500977,-1.2049999237060547,-0.8299995064735413,-0.7177051305770874,0.0,0,0
1759182069.8563044,0,-1.2049999237060547,-0.8299995064735413,-0.7177051305792119,0.0,True,0.02463054656982422,-1.2049999237060547,-0.8299995064735413,-0.7177051305770874,0.0,0,0
1759182069.860505,0,-1.2049999237060547,-0.8299995064735413,-0.7177051305788087,0.0,True,0.00420069694519043,-1.2049999237060547,-0.8299995064735413,-0.7177051305770874,0.0,0,0
1759182069.8716574,0,-1.2049999237060547,-0.8299995064735413,-0.7177051305787003,0.0,True,0.011152267456054688,-1.2049999237060547,-0.8299995064735413,-0.7177051305770874,0.0,0,0
1759182069.8818793,0,-1.2049999237060547,-0.8299995064735413,-0.7177051305785973,0.0,True,0.01022195816040039,-1.2049999237060547,-0.8299995064735413,-0.7177051305770874,0.0,0,0
1759182069.893381,0,-1.2049999237060547,-0.8299995064735413,-0.7177051305785476,0.0,True,0.011501789093017578,-1.2049999237060547,-0.8299995064735413,-0.7177051305770874,0.0,0,0
1759182069.9047663,0,-1.2049999237060547,-0.8299995064735413,-0.7177051305785014,0.0,True,0.011385202407836914,-1.2049999237060547,-0.8299995064735413,-0.7177051305770874,0.0,0,0
1759182069.9153175,0,-1.2049999237060547,-0.8299995064735413,-0.7177051305784339,0.0,True,0.010551214218139648,-1.2049999237060547,-0.8299995064735413,-0.7177051305770874,0.0,0,0
1759182069.9265893,0,-1.2049999237060547,-0.8299995064735413,-0.7177051305783912,0.0,True,0.01127171516418457,-1.2049999237060547,-0.8299995064735413,-0.7177051305770874,0.0,0,0
1759182069.9369493,0,-1.2049999237060547,-0.8299995064735413,-0.7177051305783273,0.0,True,0.010360002517700195,-1.2049999237060547,-0.8299995064735413,-0.7177051305770874,0.0,0,0
1759182069.9485154,0,-1.2049999237060547,-0.8299995064735413,-0.7177051305782989,0.0,True,0.011566162109375,-1.2049999237060547,-0.8299995064735413,-0.7177051305770874,0.0,0,0
1759182069.9587376,0,-1.2049999237060547,-0.8299995064735413,-0.7177051305782403,0.0,True,0.010222196578979492,-1.2049999237060547,-0.8299995064735413,-0.7177051305770874,0.0,0,0
1759182069.9689107,0,-1.2049999237060547,-0.8299995064735413,-0.7177051305781852,0.0,True,0.01017308235168457,-1.2049999237060547,-0.8299995064735413,-0.7177051305770874,0.0,0,0
1759182069.97985,0,-1.2049999237060547,-0.8299995064735413,-0.7177051305781532,0.0,True,0.010939359664916992,-1.2049999237060547,-0.8299995064735413,-0.7177051305770874,0.0,0,0
1759182069.9902833,0,-1.2049999237060547,-0.8299995064735413,-0.7177051305781124,0.0,True,0.010433197021484375,-1.2049999237060547,-0.8299995064735413,-0.7177051305770874,0.0,0,0
1759182070.0018675,0,-1.2049999237060547,-0.8299995064735413,-0.7177051305780981,0.0,True,0.011584281921386719,-1.2049999237060547,-0.8299995064735413,-0.7177051305770874,0.0,0,0
1759182070.0128138,0,-1.2049999237060547,-0.8299995064735413,-0.717705130578068,0.0,True,0.010946273803710938,-1.2049999237060547,-0.8299995064735413,-0.7177051305770874,0.0,0,0
1759182070.0241857,0,-1.2049999237060547,-0.8299995064735413,-0.7177051305780431,0.0,True,0.011371850967407227,-1.2049999237060547,-0.8299995064735413,-0.7177051305770874,0.0,0,0
1759182070.0356386,0,-1.2049999237060547,-0.8299995064735413,-0.71770513057802,0.0,True,0.011452913284301758,-1.2049999237060547,-0.8299995064735413,-0.7177051305770874,0.0,0,0
1759182070.0709946,0,-1.2049999237060547,-0.8299995064735413,-0.7177051305784019,0.0,True,0.03535604476928711,-1.2049999237060547,-0.8299995064735413,-0.7177051305770874,0.0,0,0
1759182070.0824373,0,-1.2049999237060547,-0.8299995064735413,-0.717705130578242,0.0,True,0.01144266128540039,-1.2049999237060547,-0.8299995064735413,-0.7177051305770874,0.0,0,0
1759182070.0932589,0,-1.2049999237060547,-0.8299995064735413,-0.7177051305780875,0.0,True,0.01082158088684082,-1.2049999237060547,-0.8299995064735413,-0.7177051305770874,0.0,0,0
1759182070.1046593,0,-1.2049999237060547,-0.8299995064735413,-0.7177051305779827,0.0,True,0.011400461196899414,-1.2049999237060547,-0.8299995064735413,-0.7177051305770874,0.0,0,0
1759182070.1148932,0,-1.2049999237060547,-0.8299995064735413,-0.7177051305778868,0.0,True,0.010233879089355469,-1.2049999237060547,-0.8299995064735413,-0.7177051305770874,0.0,0,0
1759182070.1250162,0,-1.2049999237060547,-0.8299995064735413,-0.7177051305778139,0.0,True,0.010123014450073242,-1.2049999237060547,-0.8299995064735413,-0.7177051305770874,0.0,0,0
1759182070.1362479,0,-1.2049999237060547,-0.8299995064735413,-0.7177051305777731,0.0,True,0.011231660842895508,-1.2049999237060547,-0.8299995064735413,-0.7177051305770874,0.0,0,0
1759182070.1474369,0,-1.2049999237060547,-0.8299995064735413,-0.7177051305777375,0.0,True,0.011188983917236328,-1.2049999237060547,-0.8299995064735413,-0.7177051305770874,0.0,0,0
1759182070.1575215,0,-1.2049999237060547,-0.8299995064735413,-0.7177051305776949,0.0,True,0.01008462905883789,-1.2049999237060547,-0.8299995064735413,-0.7177051305770874,0.0,0,0
1759182070.1687908,0,-1.2049999237060547,-0.8299995064735413,-0.7177051305776736,0.0,True,0.011269330978393555,-1.2049999237060547,-0.8299995064735413,-0.7177051305770874,0.0,0,0
1759182070.179451,0,-1.2049999237060547,-0.8299995064735413,-0.7177051305776487,0.0,True,0.010660171508789062,-1.2049999237060547,-0.8299995064735413,-0.7177051305770874,0.0,0,0
1759182070.1908426,0,-1.2049999237060547,-0.8299995064735413,-0.7177051305776327,0.0,True,0.011391639709472656,-1.2049999237060547,-0.8299995064735413,-0.7177051305770874,0.0,0,0
1759182070.2023544,0,-1.2049999237060547,-0.8299995064735413,-0.7177051305776185,0.0,True,0.011511802673339844,-1.2049999237060547,-0.8299995064735413,-0.7177051305770874,0.0,0,0
1759182070.2138011,0,-1.2049999237060547,-0.8299995064735413,-0.7177051305776025,0.0,True,0.011446714401245117,-1.2049999237060547,-0.8299995064735413,-0.7177051305770874,0.0,0,0
1759182070.2252417,0,-1.2049999237060547,-0.8299995064735413,-0.7177051305775866,0.0,True,0.011440515518188477,-1.2049999237060547,-0.8299995064735413,-0.7177051305770874,0.0,0,0
1759182070.2368221,0,-1.2049999237060547,-0.8299995064735413,-0.7177051305775723,0.0,True,0.011580467224121094,-1.2049999237060547,-0.8299995064735413,-0.7177051305770874,0.0,0,0
1759182070.254553,0,-1.2049999237060547,-0.8299995064735413,-0.717705130577615,0.0,True,0.0177309513092041,-1.2049999237060547,-0.8299995064735413,-0.7177051305770874,0.0,0,0
1759182070.2654777,0,-1.2049999237060547,-0.8299995064735413,-0.7177051305775777,0.0,True,0.010924577713012695,-1.2049999237060547,-0.8299995064735413,-0.7177051305770874,0.0,0,0
1759182070.2769158,0,-1.2049999237060547,-0.8299995064735413,-0.7177051305775493,0.0,True,0.011438131332397461,-1.2049999237060547,-0.8299995064735413,-0.7177051305770874,0.0,0,0
1759182070.2871346,0,-1.2049999237060547,-0.8299995064735413,-0.7177051305775137,0.0,True,0.01021885871887207,-1.2049999237060547,-0.8299995064735413,-0.7177051305770874,0.0,0,0
1759182070.2986157,0,-1.2049999237060547,-0.8299995064735413,-0.7177051305774942,0.0,True,0.011481046676635742,-1.2049999237060547,-0.8299995064735413,-0.7177051305770874,0.0,0,0
1759182070.3096201,0,-1.2049999237060547,-0.8299995064735413,-0.7177051305774746,0.0,True,0.011004447937011719,-1.2049999237060547,-0.8299995064735413,-0.7177051305770874,0.0,0,0
1759182070.3197832,0,-1.2049999237060547,-0.8299995064735413,-0.7177051305774516,0.0,True,0.010163068771362305,-1.2049999237060547,-0.8299995064735413,-0.7177051305770874,0.0,0,0
1759182070.331439,0,-1.2049999237060547,-0.8299995064735413,-0.7177051305774427,0.0,True,0.011655807495117188,-1.2049999237060547,-0.8299995064735413,-0.7177051305770874,0.0,0,0
1759182070.3418806,0,-1.2049999237060547,-0.8299995064735413,-0.7177051305774267,0.0,True,0.01044154167175293,-1.2049999237060547,-0.8299995064735413,-0.7177051305770874,0.0,0,0
1759182070.352577,0,-1.2049999237060547,-0.8299995064735413,-0.7177051305774125,0.0,True,0.0106964111328125,-1.2049999237060547,-0.8299995064735413,-0.7177051305770874,0.0,0,0
1759182070.3640816,0,-1.2049999237060547,-0.8299995064735413,-0.7177051305774036,0.0,True,0.011504650115966797,-1.2049999237060547,-0.8299995064735413,-0.7177051305770874,0.0,0,0
1759182070.3755314,0,-1.2049999237060547,-0.8299995064735413,-0.7177051305773965,0.0,True,0.011449813842773438,-1.2049999237060547,-0.8299995064735413,-0.7177051305770874,0.0,0,0
1759182070.3870475,0,-1.2049999237060547,-0.8299995064735413,-0.7177051305773858,0.0,True,0.011516094207763672,-1.2049999237060547,-0.8299995064735413,-0.7177051305770874,0.0,0,0
1759182070.3971567,0,-1.2049999237060547,-0.8299995064735413,-0.7177051305773698,0.0,True,0.010109186172485352,-1.2049999237060547,-0.8299995064735413,-0.7177051305770874,0.0,0,0
1759182070.4075618,0,-1.2049999237060547,-0.8299995064735413,-0.7177051305773574,0.0,True,0.01040506362915039,-1.2049999237060547,-0.8299995064735413,-0.7177051305770874,0.0,0,0
1759182070.4190416,0,-1.2049999237060547,-0.8299995064735413,-0.7177051305773503,0.0,True,0.011479854583740234,-1.2049999237060547,-0.8299995064735413,-0.7177051305770874,0.0,0,0
1759182070.4295166,0,-1.2049999237060547,-0.8299995064735413,-0.7177051305773396,0.0,True,0.010474920272827148,-1.2049999237060547,-0.8299995064735413,-0.7177051305770874,0.0,0,0
1759182070.440417,0,-1.2049999237060547,-0.8299995064735413,-0.7177051305773325,0.0,True,0.010900497436523438,-1.2049999237060547,-0.8299995064735413,-0.7177051305770874,0.0,0,0
1759182070.4504673,0,-1.2049999237060547,-0.8299995064735413,-0.7177051305773183,0.0,True,0.010050296783447266,-1.2049999237060547,-0.8299995064735413,-0.7177051305770874,0.0,0,0
1759182070.4620652,0,-1.2049999237060547,-0.8299995064735413,-0.7177051305773148,0.0,True,0.011597871780395508,-1.2049999237060547,-0.8299995064735413,-0.7177051305770874,0.0,0,0
1759182070.4733875,0,-1.2049999237060547,-0.8299995064735413,-0.7177051305773112,0.0,True,0.011322259902954102,-1.2049999237060547,-0.8299995064735413,-0.7177051305770874,0.0,0,0
1759182070.4842587,0,-1.2049999237060547,-0.8299995064735413,-0.7177051305773041,0.0,True,0.010871171951293945,-1.2049999237060547,-0.8299995064735413,-0.7177051305770874,0.0,0,0
1759182070.4950073,0,-1.2049999237060547,-0.8299995064735413,-0.717705130577297,0.0,True,0.010748624801635742,-1.2049999237060547,-0.8299995064735413,-0.7177051305770874,0.0,0,0
1759182070.5064259,0,-1.2049999237060547,-0.8299995064735413,-0.7177051305772917,0.0,True,0.011418581008911133,-1.2049999237060547,-0.8299995064735413,-0.7177051305770874,0.0,0,0
1759182070.516789,0,-1.2049999237060547,-0.8299995064735413,-0.7177051305772828,0.0,True,0.010363101959228516,-1.2049999237060547,-0.8299995064735413,-0.7177051305770874,0.0,0,0
1759182070.5279543,0,-1.2049999237060547,-0.8299995064735413,-0.7177051305772757,0.0,True,0.011165380477905273,-1.2049999237060547,-0.8299995064735413,-0.7177051305770874,0.0,0,0
1759182070.5392106,0,-1.2049999237060547,-0.8299995064735413,-0.7177051305772704,0.0,True,0.011256217956542969,-1.2049999237060547,-0.8299995064735413,-0.7177051305770874,0.0,0,0
1759182070.5495563,0,-1.2049999237060547,-0.8299995064735413,-0.7177051305772615,0.0,True,0.010345697402954102,-1.2049999237060547,-0.8299995064735413,-0.7177051305770874,0.0,0,0
1759182070.5611737,0,-1.2049999237060547,-0.8299995064735413,-0.7177051305772579,0.0,True,0.011617422103881836,-1.2049999237060547,-0.8299995064735413,-0.7177051305770874,0.0,0,0
1759182070.5725029,0,-1.2049999237060547,-0.8299995064735413,-0.7177051305772526,0.0,True,0.011329174041748047,-1.2049999237060547,-0.8299995064735413,-0.7177051305770874,0.0,0,0
1759182070.5834699,0,-1.2049999237060547,-0.8299995064735413,-0.7177051305772473,0.0,True,0.010967016220092773,-1.2049999237060547,-0.8299995064735413,-0.7177051305770874,0.0,0,0
1759182070.594367,0,-1.2049999237060547,-0.8299995064735413,-0.7177051305772402,0.0,True,0.010897159576416016,-1.2049999237060547,-0.8299995064735413,-0.7177051305770874,0.0,0,0
1759182070.6050432,0,-1.2049999237060547,-0.8299995064735413,-0.7177051305772331,0.0,True,0.010676145553588867,-1.2049999237060547,-0.8299995064735413,-0.7177051305770874,0.0,0,0
1759182070.6165075,0,-1.2049999237060547,-0.8299995064735413,-0.7177051305772295,0.0,True,0.011464357376098633,-1.2049999237060547,-0.8299995064735413,-0.7177051305770874,0.0,0,0
1759182070.627992,0,-1.2049999237060547,-0.8299995064735413,-0.717705130577226,0.0,True,0.011484384536743164,-1.2049999237060547,-0.8299995064735413,-0.7177051305770874,0.0,0,0
1759182070.638816,0,-1.2049999237060547,-0.8299995064735413,-0.7177051305772206,0.0,True,0.010824203491210938,-1.2049999237060547,-0.8299995064735413,-0.7177051305770874,0.0,0.5235987755982988,0.030206880952688794
1759182070.6583884,0,-1.2049947727223518,-0.8300039577556071,-0.7177048877594068,5.1211048864544845e-05,True,0.01957225799560547,-1.2049920558929443,-0.8300063014030457,-0.7177051305770874,5.1211048864544845e-05,0.5235987755982988,0.03018291721089553
1759182070.6699653,0,-1.2049929230376553,-0.8300055551386861,-0.7177049665743933,5.1211048864544845e-05,True,0.01157689094543457,-1.2049920558929443,-0.8300063014030457,-0.7177051305770874,5.1211048864544845e-05,0.5235987755982988,0.03031140090017188
1759182070.6799836,0,-1.2049922394869435,-0.8300061452350868,-0.7177049925241761,5.1211048864544845e-05,True,0.010018348693847656,-1.2049920558929443,-0.8300063014030457,-0.7177051305770874,5.1211048864544845e-05,0.5235987755982988,0.0295053498325358
1759182070.6914542,0,-1.2049919569947436,-0.8300063893135854,-0.717704976685468,5.1211048864544845e-05,True,0.011470556259155273,-1.2049920558929443,-0.8300063014030457,-0.7177051305770874,5.1211048864544845e-05,0.5235987755982988,0.030313507488051422
1759182070.7028732,0,-1.2049918498511796,-0.8300064818807792,-0.7177049759951757,5.1211048864544845e-05,True,0.011419057846069336,-1.2049920558929443,-0.8300063014030457,-0.7177051305770874,5.1211048864544845e-05,0.5235987755982988,0.03015893108621689
1759182070.713315,0,-1.2049918233266963,-0.8300065046662443,-0.7177049880615662,5.1211048864544845e-05,True,0.010441780090332031,-1.2049920558929443,-0.8300063014030457,-0.7177051305770874,5.1211048864544845e-05,0.5235987755982988,0.0335596375018561
1759182070.724621,0,-1.2049918004597997,-0.8300065244877689,-0.7177049783518825,5.1211048864544845e-05,True,0.011306047439575195,-1.2049920558929443,-0.8300063014030457,-0.7177051305770874,5.1211048864544845e-05,0.5235987755982988,0.03446431698867324
1759182070.7360716,0,-1.2049917895964057,-0.8300065339175808,-0.717704975744569,5.1211048864544845e-05,True,0.011450529098510742,-1.2049920558929443,-0.8300063014030457,-0.7177051305770874,5.1211048864544845e-05,0.5235987755982988,0.03199499491980374
1759182070.747222,0,-1.2049917898701106,-0.830006533657965,-0.7177049792497225,5.1211048864544845e-05,True,0.011150360107421875,-1.2049920558929443,-0.8300063014030457,-0.7177051305770874,5.1211048864544845e-05,0.5235987755982988,0.03206480381637027
1759182070.7580912,0,-1.2049917941167514,-0.8300065299426861,-0.7177049830312079,5.1211048864544845e-05,True,0.010869264602661133,-1.2049920558929443,-0.8300063014030457,-0.7177051305770874,5.1211048864544845e-05,0.5235987755982988,0.03286435812266636
1759182070.7697098,0,-1.2049917846967526,-0.8300065381634824,-0.7177049740519479,5.1211048864544845e-05,True,0.011618614196777344,-1.2049920558929443,-0.8300063014030457,-0.7177051305770874,5.1211048864544845e-05,0.5235987755982988,0.034578376185380746
1759182070.781336,0,-1.204991780986209,-0.830006541401693,-0.7177049732037535,5.1211048864544845e-05,True,0.011626243591308594,-1.2049920558929443,-0.8300063014030457,-0.7177051305770874,5.1211048864544845e-05,0.5235987755982988,0.03432533116645627
1759182070.7915933,0,-1.2049917997418553,-0.8300065250272719,-0.7177049901166832,5.1211048864544845e-05,True,0.010257244110107422,-1.2049920558929443,-0.8300063014030457,-0.7177051305770874,5.1211048864544845e-05,0.5235987755982988,0.03201558291612302
1759182070.8022873,0,-1.2049918004696454,-0.8300065243917353,-0.7177049861171891,5.1211048864544845e-05,True,0.010694026947021484,-1.2049920558929443,-0.8300063014030457,-0.7177051305770874,5.1211048864544845e-05,0.5235987755982988,0.034610948571192256
1759182070.8136435,0,-1.2049917909914052,-0.8300065326663274,-0.7177049775675304,5.1211048864544845e-05,True,0.011356115341186523,-1.2049920558929443,-0.8300063014030457,-0.7177051305770874,5.1211048864544845e-05,0.5235987755982988,0.03276500662763378
1759182070.8246386,0,-1.204991792690064,-0.8300065311833447,-0.7177049813282608,5.1211048864544845e-05,True,0.010995149612426758,-1.2049920558929443,-0.8300063014030457,-0.7177051305770874,5.1211048864544845e-05,0.5235987755982988,0.03548043233993784
1759182070.8346696,0,-1.2049918075463835,-0.8300065182135302,-0.7177049936055049,5.1211048864544845e-05,True,0.010030984878540039,-1.2049920558929443,-0.8300063014030457,-0.7177051305770874,5.1211048864544845e-05,0.5235987755982988,0.032241470459477756
1759182070.8449626,0,-1.2049918093599576,-0.8300065166302502,-0.717704991385105,5.1211048864544845e-05,True,0.010293006896972656,-1.2049920558929443,-0.8300063014030457,-0.7177051305770874,5.1211048864544845e-05,0.5235987755982988,0.03363853811816706
1759182070.873259,0,-1.1998941488902293,-0.834399988225921,-0.7132173002066473,0.046045483361595495,True,0.028296470642089844,-1.197350263595581,-0.8365857601165771,-0.7032804489135742,0.046045483361595495,0.5235987755982988,0.03419252448551415
1759182070.884541,0,-1.1981718614557055,-0.8358806715379479,-0.7101262782647062,0.046045483361595495,True,0.011281967163085938,-1.197350263595581,-0.8365857601165771,-0.7032804489135742,0.046045483361595495,0.5235987755982988,0.030860725671527697
1759182070.8949301,0,-1.1975255228895525,-0.836435550844037,-0.7078474860325912,0.046045483361595495,True,0.010389089584350586,-1.197350263595581,-0.8365857601165771,-0.7032804489135742,0.046045483361595495,0.5235987755982988,0.03015055378141719
1759182070.9063346,0,-1.1972648113296178,-0.8366588006240927,-0.7061779161634831,0.046045483361595495,True,0.01140451431274414,-1.197350263595581,-0.8365857601165771,-0.7032804489135742,0.046045483361595495,0.5235987755982988,0.032374185287759406
1759182070.9176567,0,-1.1971661200252537,-0.8367428845195753,-0.7049903203077896,0.046045483361595495,True,0.011322021484375,-1.197350263595581,-0.8365857601165771,-0.7032804489135742,0.046045483361595495,0.5235987755982988,0.03308304502307739
1759182070.9295373,0,-1.1971207919412505,-0.8367811940130674,-0.7041193077478685,0.046045483361595495,True,0.011880636215209961,-1.197350263595581,-0.8365857601165771,-0.7032804489135742,0.046045483361595495,0.5235987755982988,0.030719217640005528
1759182070.9408405,0,-1.197111102856971,-0.8367891157468668,-0.7035212906922208,0.046045483361595495,True,0.011303186416625977,-1.197350263595581,-0.8365857601165771,-0.7032804489135742,0.046045483361595495,0.5235987755982988,0.031559702825242425
1759182070.95177,0,-1.1971123368483498,-0.8367878015450219,-0.7031076290295815,0.046045483361595495,True,0.010929584503173828,-1.197350263595581,-0.8365857601165771,-0.7032804489135742,0.046045483361595495,0.5235987755982988,0.03148147910855122
1759182070.962229,0,-1.197119071422576,-0.8367818871032612,-0.7028308316836593,0.046045483361595495,True,0.010458946228027344,-1.197350263595581,-0.8365857601165771,-0.7032804489135742,0.046045483361595495,0.5235987755982988,0.029836883288753002
1759182070.9738247,0,-1.1971063589259763,-0.8367925165043109,-0.7025941369615261,0.046045483361595495,True,0.011595726013183594,-1.197350263595581,-0.8365857601165771,-0.7032804489135742,0.046045483361595495,0.5235987755982988,0.030775284292715158
1759182070.985165,0,-1.1971048997009126,-0.8367936380755794,-0.7024464680513276,0.046045483361595495,True,0.01134037971496582,-1.197350263595581,-0.8365857601165771,-0.7032804489135742,0.046045483361595495,0.5235987755982988,0.03004965583902606
1759182070.9965868,0,-1.1971032326373716,-0.8367949687122586,-0.7023449192545055,0.046045483361595495,True,0.011421680450439453,-1.197350263595581,-0.8365857601165771,-0.7032804489135742,0.046045483361595495,0.5235987755982988,0.030678385064742054
1759182071.0079718,0,-1.1971030759586532,-0.836795044628021,-0.7022822139624676,0.046045483361595495,True,0.011384963989257812,-1.197350263595581,-0.8365857601165771,-0.7032804489135742,0.046045483361595495,0.5235987755982988,0.028902636952995893
1759182071.0182438,0,-1.1971179479087064,-0.836782417060718,-0.7022825687701868,0.046045483361595495,True,0.010272026062011719,-1.197350263595581,-0.8365857601165771,-0.7032804489135742,0.046045483361595495,0.5235987755982988,0.02992629451385767
1759182071.0292692,0,-1.1971135151028822,-0.8367861553354973,-0.7022588749829985,0.046045483361595495,True,0.011025428771972656,-1.197350263595581,-0.8365857601165771,-0.7032804489135742,0.046045483361595495,0.5235987755982988,0.02889935821195732
1759182071.0399218,0,-1.197116824743203,-0.8367833426434186,-0.7022650912466109,0.046045483361595495,True,0.010652542114257812,-1.197350263595581,-0.8365857601165771,-0.7032804489135742,0.046045483361595495,0.5235987755982988,0.029446027292086077
1759182071.0545492,0,-1.1861633014215538,-0.845602740276594,-0.6885335226032687,0.117629302786997,True,0.014627456665039062,-1.1802059412002563,-0.8503671288490295,-0.6540913581848145,0.117629302786997,0.5235987755982988,0.02837537723641677
1759182071.064971,0,-1.1821196901697122,-0.8488446008629885,-0.6779197828295285,0.117629302786997,True,0.0104217529296875,-1.1802059412002563,-0.8503671288490295,-0.6540913581848145,0.117629302786997,0.5235987755982988,0.02880750656165429
1759182071.075008,0,-1.1805855749436684,-0.850068275093105,-0.6701588486937613,0.117629302786997,True,0.010036945343017578,-1.1802059412002563,-0.8503671288490295,-0.6540913581848145,0.117629302786997,0.5235987755982988,0.030396385982572466
1759182071.0851405,0,-1.1799940973862613,-0.8505356757115183,-0.6645308634535603,0.117629302786997,True,0.010132551193237305,-1.1802059412002563,-0.8503671288490295,-0.6540913581848145,0.117629302786997,0.5235987755982988,0.02989915653662021
1759182071.0967185,0,-1.1797155046905596,-0.8507523040536062,-0.6602912666839984,0.117629302786997,True,0.011578083038330078,-1.1802059412002563,-0.8503671288490295,-0.6540913581848145,0.117629302786997,0.5235987755982988,0.03156469029561659
1759182071.1079648,0,-1.1796195430137524,-0.8508242028490344,-0.6572858191860682,0.117629302786997,True,0.011246204376220703,-1.1802059412002563,-0.8503671288490295,-0.6540913581848145,0.117629302786997,0.5235987755982988,0.028277301656109678
1759182071.1183076,0,-1.179614105670044,-0.850825685040068,-0.6552365100561346,0.117629302786997,True,0.010342836380004883,-1.1802059412002563,-0.8503671288490295,-0.6540913581848145,0.117629302786997,0.5235987755982988,0.029966558106149732
1759182071.1301792,0,-1.179557016168096,-0.850867390761846,-0.6535804507979286,0.117629302786997,True,0.011871576309204102,-1.1802059412002563,-0.8503671288490295,-0.6540913581848145,0.117629302786997,0.5235987755982988,0.03077274466546861
1759182071.141733,0,-1.1795460190985272,-0.8508739514212497,-0.6524657095972834,0.117629302786997,True,0.011553764343261719,-1.1802059412002563,-0.8503671288490295,-0.6540913581848145,0.117629302786997,0.5235987755982988,0.03137449655789737
1759182071.152938,0,-1.179553924315018,-0.8508664886774001,-0.6517305136466724,0.117629302786997,True,0.011204957962036133,-1.1802059412002563,-0.8503671288490295,-0.6540913581848145,0.117629302786997,0.5235987755982988,0.029954368947809402
1759182071.163792,0,-1.1795692569511187,-0.8508537812772395,-0.6512664397047896,0.117629302786997,True,0.010854005813598633,-1.1802059412002563,-0.8503671288490295,-0.6540913581848145,0.117629302786997,0.5235987755982988,0.029824591547375323
1759182071.174933,0,-1.1795647263618025,-0.8508565761756708,-0.6509236147614175,0.117629302786997,True,0.011141061782836914,-1.1802059412002563,-0.8503671288490295,-0.6540913581848145,0.117629302786997,0.5235987755982988,0.02806906844984513
1759182071.1864371,0,-1.1795499217041077,-0.8508674041330948,-0.6506703413124928,0.117629302786997,True,0.011504173278808594,-1.1802059412002563,-0.8503671288490295,-0.6540913581848145,0.117629302786997,0.5235987755982988,0.02791423207360328
1759182071.1980104,0,-1.1795417197693798,-0.8508733229973938,-0.6505189201543757,0.117629302786997,True,0.011573314666748047,-1.1802059412002563,-0.8503671288490295,-0.6540913581848145,0.117629302786997,0.5235987755982988,0.030260603195605574
1759182071.208252,0,-1.179586139746554,-0.8508392603837494,-0.6505844062282211,0.117629302786997,True,0.010241508483886719,-1.1802059412002563,-0.8503671288490295,-0.6540913581848145,0.117629302786997,0.5235987755982988,0.029358163607934733
1759182071.2197099,0,-1.1795596522062721,-0.850859397113244,-0.6505150073588855,0.117629302786997,True,0.01145792007446289,-1.1802059412002563,-0.8503671288490295,-0.6540913581848145,0.117629302786997,0.5235987755982988,0.02802882851395
1759182071.230356,0,-1.179578529117207,-0.850844957820012,-0.6505911471659331,0.117629302786997,True,0.01064610481262207,-1.1802059412002563,-0.8503671288490295,-0.6540913581848145,0.117629302786997,0.5235987755982988,0.027834020609273494
1759182071.240534,0,-1.1796024871620656,-0.850826726464872,-0.6507084500627318,0.117629302786997,True,0.010178089141845703,-1.1802059412002563,-0.8503671288490295,-0.6540913581848145,0.117629302786997,0.5235987755982988,0.0287418387900524
1759182071.2537594,0,-1.1691295591363307,-0.8583860573389297,-0.6364828742827271,0.10255651751363928,True,0.013225317001342773,-1.1633243560791016,-0.8625507950782776,-0.6020208597183228,0.10255651751363928,0.5235987755982988,0.031240954110884876
1759182071.2644408,0,-1.165205079145869,-0.8612084689400595,-0.625275113744939,0.10255651751363928,True,0.010681390762329102,-1.1633243560791016,-0.8625507950782776,-0.6020208597183228,0.10255651751363928,0.5235987755982988,0.028305218050373688
