timestamp,observer_vehicle_id,vehicle_0_x,vehicle_0_y,vehicle_0_theta,vehicle_0_velocity,vehicle_1_x,vehicle_1_y,vehicle_1_theta,vehicle_1_velocity
1759825535.419973,1,0.0,0.0,0.0,0.0,-1.735,-0.35,-0.7801621756414646,0.0
1759825537.4497526,1,-0.23149766600690785,-0.15945472772000358,-0.1378809877074673,0.0,-1.73500001416623,-0.3499999055584658,-0.7229649028132794,0.0
1759825537.5664153,1,-0.4166594153007595,-0.2869934490690545,-0.24816410770020572,0.0,-1.7350000142586695,-0.3499999049422029,-0.7180975797062422,0.0
1759825537.6843894,1,-0.5741195635434174,-0.39545141107734194,-0.34194803709677274,0.0,-1.7350000142876907,-0.34999990474872844,-0.7176986497855289,0.0
1759825537.8071485,1,-0.6979370901773534,-0.4807364609740843,-0.41569427895855154,0.0,-1.7350000142984767,-0.3499999046768224,-0.7176741040640096,0.0
1759825537.917105,1,-0.7975088644796321,-0.5493211272207572,-0.4749996483188351,0.0,-1.73500001430258,-0.3499999046494655,-0.7176781674668256,0.0
1759825538.0424397,1,-0.8767411860899393,-0.6038960544194543,-0.5221907537430206,0.0,-1.7350000143041466,-0.34999990463902214,-0.717682902034273,0.0
1759825538.1691215,1,-0.9393643597012509,-0.6470306625103033,-0.559489380462852,0.0,-1.735000014304745,-0.34999990463503344,-0.7176866531327857,0.0
1759825538.2796185,1,-0.9899093576977227,-0.6818458683486854,-0.5895941947689174,0.0,-1.7350000143049735,-0.34999990463350994,-0.71768965933971,0.0
1759825538.3930514,1,-1.0328222821078765,-0.7114041304060057,-0.6151533138095012,0.0,-1.7350000143050608,-0.349999904632928,-0.7176921462465664,0.0
1759825538.4915967,1,-1.0656517483763555,-0.7340169441562623,-0.6347066825889158,0.0,-1.735000014305094,-0.34999990463270575,-0.7176942614113635,0.0
1759825538.5758102,1,-1.0929326086435305,-0.7528078988164275,-0.6509552781969392,0.0,-1.7350000143051068,-0.3499999046326208,-0.7176961656024936,0.0
1759825538.6724038,1,-1.1151022934823105,-0.7680782949313518,-0.6641596361304788,0.0,-1.7350000143051116,-0.3499999046325884,-0.7176975396306347,0.0
1759825538.7705524,1,-1.1320366734997152,-0.7797426326387642,-0.6742458243987599,0.0,-1.7350000143051136,-0.349999904632576,-0.7176987175109878,0.0
1759825538.8620794,1,-1.1460785692098276,-0.7894146379585147,-0.6826092367959189,0.0,-1.7350000143051143,-0.3499999046325713,-0.7176997460104637,0.0
1759825538.9591753,1,-1.1575301903760233,-0.7973024718468872,-0.6894298707335401,0.0,-1.7350000143051145,-0.34999990463256947,-0.7177005585114351,0.0
1759825539.0524588,1,-1.1668662850220886,-0.8037331389695185,-0.6949904881399007,0.0,-1.7350000143051147,-0.3499999046325688,-0.7177012208600235,0.0
1759825539.1637032,1,-1.1744583622128668,-0.8089625333827162,-0.6995123613832561,0.0,-1.7352358398949985,-0.34982997449453485,-0.7180051771661421,0.004957169080344342
1759825539.2670503,1,-1.1802642883649284,-0.8129616336315793,-0.7029703955233455,0.0,-1.735317375668973,-0.34979263698938,-0.7181413965587776,0.005556800426601765
1759825539.3829637,1,-1.1851991546657237,-0.81636075110823,-0.7059096227367104,0.0,-1.738577215305848,-0.3474271647237961,-0.7156377111394178,0.04620250107068676
1759825539.4779773,1,-1.1889874149434603,-0.8189700906386811,-0.7081659265595391,0.0,-1.7402896467876823,-0.34607229361839087,-0.7135121823954281,0.0496793540434841
1759825539.5954478,1,-1.1920239865974804,-0.8210616698526141,-0.7099745214629896,0.0,-1.7453093084862554,-0.34191894030381265,-0.7097764705064378,0.05471322140977521
1759825539.6912372,1,-1.194515670423106,-0.822777932365462,-0.7114585788742713,0.0,-1.7477655449186764,-0.3398480867458734,-0.7068134233128106,0.055313257950090705
1759825539.78698,1,-1.1965747440087287,-0.8241962145607613,-0.7126849717992849,0.0,-1.748677147546401,-0.33906773574742477,-0.7050185824206886,0.055446577935492694
1759825539.8894043,1,-1.1982449953718712,-0.8253466774614365,-0.7136797805662249,0.0,-1.755355034060568,-0.3334073076296064,-0.700494361815556,0.05204251125534533
1759825540.0025642,1,-1.19957602178496,-0.8262634834834933,-0.714472545520045,0.0,-1.7585864987962943,-0.33066432351157554,-0.6967449055089845,0.05188479567855777
1759825540.1050444,1,-1.2006535317707099,-0.8270056683372627,-0.7151143150189021,0.0,-1.7644031276762187,-0.325802186167163,-0.6918946117610416,0.051183000634224374
1759825540.2132335,1,-1.2014647317460725,-0.827581864123139,-0.71524463347436,0.0062515664111002945,-1.767148321107649,-0.3235000395178727,-0.688195685620642,0.05121390391847234
1759825540.3179655,1,-1.2020820082761527,-0.828095709523469,-0.7153122889943497,0.011380519166623315,-1.7728263608640535,-0.31885482442950386,-0.6832083495317728,0.05196810013662848
1759825540.4197206,1,-1.201387605990707,-0.8296787010782585,-0.7134530957778019,0.022750028870875648,-1.7754957754803136,-0.31665591514114555,-0.6793799346833461,0.05249236886335245
1759825540.5195296,1,-1.2007942774890457,-0.8311080558557608,-0.7117888576680715,0.032088010042464574,-1.780787955838016,-0.3124384443663796,-0.6740050929020336,0.057215150693032304
1759825540.6249616,1,-1.1971091336954116,-0.8350601214438306,-0.7021475706028434,0.05155283789061794,-1.7832825203227873,-0.3104347473215217,-0.6696449002615781,0.05910192457033685
1759825540.7426155,1,-1.1940883277375947,-0.8384575177392036,-0.6939708734127811,0.06730861937346273,-1.7893128944745407,-0.30566665198790627,-0.6619919351809685,0.05385956201154737
1759825540.8374846,1,-1.1871344898031335,-0.8446087180956795,-0.6744944829281745,0.08679239551811443,-1.792170744723773,-0.30338795663987506,-0.6557460355373289,0.0552079133272409
1759825540.9357505,1,-1.1813741534576507,-0.8498181622544768,-0.657798112851522,0.10269439239376539,-1.7932617503884032,-0.3025128036838081,-0.6520284198972612,0.055975433466339014
1759825541.037733,1,-1.172979797859868,-0.8563556787867179,-0.6332665207032476,0.11287823082598436,-1.8000990529737275,-0.29743452674110427,-0.6379333918566851,0.05863389856404291
1759825541.1362438,1,-1.1659563502530448,-0.8618299627092771,-0.612653299673652,0.12098037797707192,-1.8034184069223338,-0.2949227387692816,-0.6261671506321238,0.05921278700611946
1759825541.2427523,1,-1.1553943105100921,-0.8688206737687567,-0.5824275667596148,0.12966572158257164,-1.809281930496182,-0.29076678213665386,-0.608392971966474,0.05993605697449668
1759825541.337896,1,-1.1465406519822203,-0.8746383456534742,-0.5568541326172929,0.1350211495050762,-1.8120708240074859,-0.2887285526145262,-0.5948882271897846,0.059956891821066755
1759825541.4563746,1,-1.134098689716023,-0.8815694208683524,-0.5234894815217964,0.14022232248398991,-1.8179571890305593,-0.2848270335541409,-0.5753184560386625,0.0624877222878799
1759825541.5577507,1,-1.1237553570835646,-0.8872555249898021,-0.4957279602359009,0.14327633196665177,-1.8207197691477697,-0.2829277752756582,-0.5604222455091954,0.062665477730346
1759825541.6676714,1,-1.1090515054034724,-0.8940837226143403,-0.4626583734043451,0.15180061531839695,-1.8268427031929555,-0.27906961898183724,-0.5407666547815916,0.057821775804406984
1759825541.7778063,1,-1.0947145626439316,-0.9003308640955118,-0.43473919191471855,0.1550201935179053,-1.8297308198099103,-0.2771998977020744,-0.52591192900913,0.05738032054759843
1759825541.9013102,1,-1.0798645062012953,-0.9063260755839604,-0.40852166560279923,0.15457172988137985,-1.8330236361923773,-0.274947873891856,-0.5165235800695497,0.021550030412778358
1759825542.01216,1,-1.0599160188206491,-0.9135331204822653,-0.38676794451840146,0.16400410517167183,-1.834476551805908,-0.27396524094952024,-0.5100790763354636,0.01824092621690583
1759825542.1329634,1,-1.0427862304814577,-0.9196589526433238,-0.3682497951479031,0.1726489502086172,-1.826430850667142,-0.279023193919851,-0.5205675608356545,0.06541954066968114
1759825542.2432435,1,-1.0222541217402639,-0.9266734042324473,-0.35662667611119103,0.17389161624965038,-1.8225664841756788,-0.2814616996095493,-0.5332011597594526,0.06918090458726159
1759825542.3558128,1,-1.0056388299995513,-0.9323221860603954,-0.34753924665308544,0.1751726729239305,-1.8102054539492811,-0.29008556253176365,-0.5633869573553866,0.10181902933295628
1759825542.470629,1,-0.9840750786596176,-0.9396767901435468,-0.3448644973151502,0.18648367206590663,-1.8044049022957274,-0.29431805476914474,-0.5905262669728542,0.10362019790635354
1759825542.583747,1,-0.9605224993918224,-0.9478410546978381,-0.34450438600210637,0.19077072034878503,-1.7921252072909521,-0.3040006085743258,-0.6290802311495406,0.10655789687208686
1759825542.6943045,1,-0.9400604889917636,-0.9549759308340454,-0.3451947309361163,0.19452834768269242,-1.7864041941209652,-0.3087655492338992,-0.6605233360595042,0.10488964225394667
1759825542.8107147,1,-0.9164218022986834,-0.9633706764997076,-0.3460522464559702,0.19541024885741154,-1.772408687206967,-0.32130392563528765,-0.6962507133196467,0.12507146989546486
1759825542.9211822,1,-0.8969298925001911,-0.9703005885018183,-0.3467335575480318,0.1965843064599345,-1.7658534657590819,-0.32743080288959153,-0.7240723713045125,0.12555394179712068
1759825543.0436974,1,-0.8727311091476104,-0.978985323685716,-0.34490042150848216,0.20884169418083157,-1.7481838628475534,-0.3446669921933961,-0.7512660182859054,0.15260165048884636
1759825543.1460946,1,-0.8527050922872303,-0.9862017719304409,-0.34324623034188856,0.21885513606051948,-1.7399026609834645,-0.3529390674310446,-0.7710694494189053,0.15412361455512438
1759825543.2542062,1,-0.8282727201104623,-0.9947989204164701,-0.3374966249881042,0.22137274642218896,-1.7231538233663555,-0.36984217542913334,-0.7853221201128057,0.1650496464803814
1759825543.3547764,1,-0.808267207706612,-1.0018173894220668,-0.3326724563238682,0.2236656396122273,-1.7153167315657907,-0.37784184540671656,-0.7941596250711929,0.1656677652963159
1759825543.4721568,1,-0.7832933977173255,-1.0101500509020749,-0.323029244096406,0.22626876718429423,-1.6983812864120735,-0.3947999622975803,-0.7971675514105218,0.16289036687615083
1759825543.5718431,1,-0.762710815818333,-1.0169751817977661,-0.3149379760478086,0.22858837802656531,-1.6903508675937917,-0.4028166923002512,-0.7975325199369692,0.1625527677127868
1759825543.6827476,1,-0.7375318331464205,-1.0247664780219763,-0.30251192697236756,0.23426646906042142,-1.6723993610463912,-0.42054831166044865,-0.7932950791966532,0.16788673402032925
1759825543.782417,1,-0.7118085240476052,-1.0322880245249977,-0.2882946235086337,0.23927511783354236,-1.6639876882776383,-0.4287610482305404,-0.7887741107353899,0.1683628453479068
1759825543.887448,1,-0.6864021416855096,-1.039381163885917,-0.27321861416899595,0.2437473822580351,-1.6441971487008193,-0.4480954195701049,-0.7805896292099473,0.19035830015171207
1759825543.9934711,1,-0.6633786367167719,-1.0454875460619177,-0.2597050681877069,0.24631847108132535,-1.6347959679372706,-0.45711386492193606,-0.7736869447219705,0.19236564104114715
1759825544.112443,1,-0.638914509115148,-1.0514983058536211,-0.24225629738094606,0.24692935694537335,-1.6132639671665325,-0.4773700376570658,-0.7638310447155027,0.197564006110035
1759825544.228373,1,-0.6085694398933914,-1.0577117449521105,-0.21793980709254115,0.2544152120369366,-1.6029281691416377,-0.4869416299580351,-0.7555662926937369,0.19808609619885187
1759825544.3534913,1,-0.5841292269977549,-1.0626164250991452,-0.1975750363019544,0.25995666506921067,-1.5771697190159737,-0.5104731296288422,-0.7448385679363089,0.20715268767744768
1759825544.4598267,1,-0.5546521735934403,-1.067288114423887,-0.1721168968047156,0.2556180341925683,-1.5648601853491493,-0.5215293201296568,-0.7365694006093536,0.20797738434912902
1759825544.5603154,1,-0.530469648953704,-1.0709834148624093,-0.1509211924117674,0.25147157191433867,-1.5405581503928618,-0.5431892977092551,-0.7271177770960511,0.2239152582844277
1759825544.6589153,1,-0.5020741150916466,-1.0741536425503955,-0.12838895057615088,0.25369766082377687,-1.529257936358764,-0.5530927646259364,-0.7202873178897333,0.22497345908601749
1759825544.7656043,1,-0.4786263158872913,-1.0766634097985888,-0.1095602449722643,0.25527961181548214,-1.506321617217564,-0.5727846659763066,-0.7110531200409999,0.215902177623132
1759825544.8713026,1,-0.4497837021471488,-1.0787948003988432,-0.09102742668544506,0.2597812686962628,-1.4955399511144267,-0.5819067704399189,-0.7044180509282354,0.21478882811090835
1759825544.9816382,1,-0.42318080670472036,-1.0804851591580984,-0.07580829204133191,0.26148393900922007,-1.4703895574289672,-0.6028229230790292,-0.6925315167572894,0.21934557963934975
1759825545.090706,1,-0.3946618341539108,-1.081861238273588,-0.06274901674271816,0.26163010927798525,-1.458265408397872,-0.6127162382800935,-0.6834156630124448,0.21940250041148018
1759825545.1931367,1,-0.36679552648846125,-1.0829779426175419,-0.052218624355125934,0.2630348139378312,-1.4329733773927569,-0.6325516071947938,-0.6674829520648681,0.21569534059345927
1759825545.287704,1,-0.3376307832252693,-1.083915469848909,-0.044001449280000125,0.2661618634229991,-1.4212606925777005,-0.6415077286976401,-0.6552600168167179,0.21511859628203264
1759825545.399549,1,-0.31080552289367974,-1.084680751952352,-0.0373468034923161,0.2697525677812295,-1.3942437933903764,-0.661407271184372,-0.6348147320962341,0.23120954452112416
1759825545.5035348,1,-0.2817115220212678,-1.085367690909064,-0.032073904749054284,0.2737675679762718,-1.3811375017083594,-0.670719526111398,-0.6184948264865046,0.23261290950666166
1759825545.599242,1,-0.24825494984752103,-1.0859917147816234,-0.026946741087407484,0.27376821026417736,-1.354668346459844,-0.6884097431251575,-0.5953687731662591,0.23108035534786117
1759825545.6979787,1,-0.2200725170323097,-1.0864808645277018,-0.022463207760918882,0.27352038653338506,-1.3416710213236895,-0.6967761004499466,-0.5770807625893165,0.23112564217166168
1759825545.8053386,1,-0.1939848006012866,-1.086842610391438,-0.01856773728187129,0.2740175160707366,-1.3126470795389498,-0.7145571366069057,-0.552325042258887,0.2399959988958114
1759825545.904594,1,-0.1665528872085552,-1.0871159780503032,-0.013935354082417908,0.2745698568751123,-1.2988523094876296,-0.7226384545007737,-0.5335632038043965,0.24098071687390146
1759825546.0172644,1,-0.13994503364645414,-1.0872746009726966,-0.009602649562602317,0.2725494979659084,-1.2677115935554577,-0.7400708772350336,-0.5097905712092986,0.25231531066877777
1759825546.1134293,1,-0.11311821614543094,-1.0873325051094627,-0.004925553970197425,0.26787037334226016,-1.2530597534512016,-0.7479052712605884,-0.49234420159919684,0.25358290362301233
1759825546.2062707,1,-0.08096389044657738,-1.0872000934295345,-0.0004328375902878344,0.269451570521842,-1.247777528804296,-0.750527375985077,-0.4829518094489965,0.2533981611662365
1759825546.3074734,1,-0.0539305862201676,-1.087056070173409,0.0034518971311786367,0.27072492947584054,-1.2069402532841749,-0.7709628469615436,-0.4590102261272203,0.255072550723269
1759825546.4027753,1,-0.027861755448480317,-1.0868523009133515,0.006276669326476999,0.2745908077717613,-1.1873574900430084,-0.7804160735084019,-0.4401358839033961,0.2561661336003677
1759825546.495832,1,0.0005477690388279626,-1.0865730179501623,0.008061422456518526,0.2809469170959482,-1.17985118769577,-0.78382427167128,-0.4299263504154861,0.25605297340040273
1759825546.5905318,1,0.024159310757148878,-1.0863316526722981,0.009531021065388874,0.28617280818187363,-1.1378178416442624,-0.8022096747147207,-0.4080362340467111,0.2665183462765788
1759825546.6886756,1,0.054113801321651785,-1.086049217457249,0.009340183524215505,0.28487144609659965,-1.11702674596381,-0.8109684478952083,-0.39039718693844117,0.26765715274406054
1759825546.780991,1,0.07763099603244597,-1.0858279631844399,0.009158160641175368,0.2839011916780191,-1.1094203282775863,-0.8139716091753473,-0.3810158565944389,0.2680286493070982
1759825546.8761675,1,0.10781587237985667,-1.0856394248312444,0.007867996021637381,0.2876726035806627,-1.0662781910728953,-0.8305113396039058,-0.3610507050551354,0.26994884934487456
1759825546.968861,1,0.13284355277723736,-1.0854904973492316,0.006759755522084162,0.29078461276158735,-1.04563917789053,-0.8381374807357743,-0.3454685765881474,0.2706974216067874
1759825547.0683422,1,0.16402437375607035,-1.0854089330392531,0.005312165661769119,0.28482069371045987,-1.0369673183898878,-0.8411550274018958,-0.33650746767550566,0.2706290459979888
1759825547.1714797,1,0.18813974032590883,-1.0853525686006937,0.004257018725598619,0.28037790311457106,-0.988736442600738,-0.8571190957099495,-0.31465159302917334,0.280031867657801
1759825547.267695,1,0.21868716545056643,-1.085353019048647,0.003399259005357468,0.280653195541106,-0.9659373284102589,-0.8643317650803092,-0.29756249649051353,0.28131612779008675
1759825547.3606853,1,0.24405726088629864,-1.0853580601842832,0.0027172670696350614,0.2809806956383674,-0.9571938480932958,-0.8668895292207732,-0.2883440227217494,0.2818173017602029
1759825547.4737856,1,0.2747846472316295,-1.0853756783711979,0.0027964923610142387,0.28304866402701484,-0.9081960361433341,-0.8808098543722658,-0.2709252345496648,0.2811345346411025
1759825547.5820389,1,0.29977601420830835,-1.0853892247520318,0.0028661452326482597,0.28476049556761657,-0.8841717362021669,-0.8873661319300364,-0.2578074854087187,0.2815891644239502
1759825547.708352,1,0.3309162344570002,-1.0853611506041194,0.003811993926985716,0.2880602001656959,-0.8403779957947332,-0.8985757348183414,-0.24382169359614214,0.27611672863451897
1759825547.8251355,1,0.36017830193609257,-1.0853084723797475,0.0046546867472020345,0.2865764188633339,-0.8199100242509055,-0.9036150777924815,-0.2343619949252768,0.2759208161354417
1759825547.9345422,1,0.3893105743022272,-1.085227351329968,0.005648767103845463,0.28131513730266594,-0.7798200606214617,-0.9131536992634122,-0.2249220042074927,0.2607283648801368
1759825548.054354,1,0.4266252604896241,-1.0850718718060297,0.0063670417666760355,0.28802175212466485,-0.7606380635976743,-0.9176068204312368,-0.21899027813242117,0.25947263710942237
1759825548.171132,1,0.45678077437680475,-1.084941873372592,0.0069367957668890964,0.293341820059695,-0.7199895685300696,-0.9268652686216533,-0.2122301192980292,0.2618518937176799
1759825548.2856772,1,0.4915648424130541,-1.0847906816815505,0.006845244015539032,0.290510613599376,-0.7007664740825386,-0.9311547642069842,-0.20786792741679183,0.2617898429246432
1759825548.4073596,1,0.5240948348495413,-1.0846662150383346,0.006610992913560387,0.29155014245305094,-0.6549253909456983,-0.940938194551076,-0.19864485042555094,0.2869114377349555
1759825548.526196,1,0.5582490015881343,-1.0845612853223694,0.005859377264329863,0.2961331251122182,-0.6330793405876552,-0.9454368048612648,-0.1916318420033657,0.2892809286151811
1759825548.6443834,1,0.5962182692102315,-1.084513867846816,0.0046995683515056305,0.2908039472550094,-0.5876807607006076,-0.9540173771984953,-0.1800279620391852,0.2898718617700986
1759825548.7613013,1,0.6269906465690082,-1.084483896671666,0.0036601363084573877,0.28663171628831213,-0.565805875137286,-0.9579611302906353,-0.1713100299955434,0.2902478566260353
1759825548.869505,1,0.6636069716907271,-1.0845253830111736,0.0026505317081512237,0.29058071699156485,-0.521195561003313,-0.9652388293368087,-0.1585224538063641,0.28523338988001795
1759825548.9883296,1,0.6931660047751356,-1.0845638222057645,0.0018289372565439693,0.29380753924867875,-0.49964072841000795,-0.9685577417712266,-0.14880074652647376,0.2851204004659192
1759825549.110026,1,0.727609475453717,-1.0846368539349223,0.0015873881584460114,0.2972028949782666,-0.4517250359579192,-0.9753901405812365,-0.13739168369696572,0.30166332577297195
1759825549.2275176,1,0.7660292389926248,-1.0847096055849217,0.0017542334344129878,0.2898570139984617,-0.42873638961698196,-0.97848592181184,-0.12945610927056,0.30343426327615786
1759825549.3518295,1,0.7974306149061194,-1.0847663549057809,0.002053810844233712,0.283999401940399,-0.38460703696794085,-0.984139942471766,-0.12206235512275758,0.2716691846938426
1759825549.4725192,1,0.8350591972129218,-1.0847892478093375,0.0027190599397991866,0.29165453340044034,-0.3634654732440879,-0.9867573272980839,-0.11699668134040536,0.26866820311466677
1759825549.587947,1,0.8656166944997611,-1.0848035031307741,0.0033005171748512582,0.2978175588075238,-0.3150552079150276,-0.9927403859397371,-0.1122758715574553,0.29993416392765393
1759825549.6957743,1,0.9020872606143311,-1.084775953046058,0.003915477509842382,0.2958671459939482,-0.2922489248938093,-0.995489447206954,-0.1095909451312453,0.3024612606866775
1759825549.817754,1,0.9421578229408252,-1.0847247479984836,0.004331346495296923,0.30317044542143945,-0.24579734828554534,-1.0009163420158809,-0.10591755837818999,0.30648634132869196
1759825549.9415972,1,0.9761318217372917,-1.0846761006305712,0.004543543357942483,0.309028436783654,-0.22367615791522838,-1.0034390118434675,-0.10358418364182416,0.30687890412208946
1759825550.0695639,1,1.01436824361831,-1.0846266080563356,0.004393043977348116,0.30047923268268883,-0.17814849521353662,-1.0083420650269412,-0.09892849161755693,0.2703778561306297
1759825550.1954253,1,1.0450567536299238,-1.0845883140917818,0.004290428305623534,0.29390143616524705,-0.15606420443559643,-1.0106565539038481,-0.09598377134257974,0.26706338825562426
1759825550.320654,1,1.0826401620310069,-1.0845644381716064,0.003981339836014087,0.3005609839685055,-0.1029925954652688,-1.01580647431221,-0.0895620175569578,0.3066570789542799
1759825550.4469674,1,1.1221011526268332,-1.0845151259410686,0.004976081435342311,0.29460636218814557,-0.0773143159893979,-1.0181746067055364,-0.08447124056349974,0.31047752184955363
1759825550.5526798,1,1.1546121287235307,-1.0844674268987888,0.00598331326614374,0.2899246589272921,-0.02634867192869047,-1.0224112141863144,-0.07827717182538531,0.3177344497722156
1759825550.6548748,1,1.1930794596666086,-1.0841249765480907,0.011428052567560163,0.2978055707290882,-0.0026049881792412515,-1.0242829869315473,-0.07325840901722523,0.31880689847909993
1759825550.7541938,1,1.223788996436408,-1.0837903459801548,0.01709566858971426,0.3042629034633336,0.039433215441730146,-1.0275221831543544,-0.07124200809090526,0.3150889528096588
1759825550.8565316,1,1.2601034388431027,-1.0827633260625704,0.028884004327661444,0.3051907249393243,0.05853095887203381,-1.0289787852929198,-0.07015389997796863,0.31519830105410596
1759825550.9621644,1,1.2905128504266963,-1.0817842813009457,0.040713129483136816,0.30587190763461436,0.09789557242160316,-1.032322577907001,-0.07468323385913854,0.27838659461216303
1759825551.0635328,1,1.3265929891917791,-1.0794521119177483,0.06137063291070526,0.31111029882023783,0.11632917551676888,-1.033979613955965,-0.07999819117485507,0.27501572370516114
1759825551.1684344,1,1.3561496862881208,-1.0774056173583173,0.07931159102950204,0.31561312240154654,0.1533857651839212,-1.037776885858474,-0.08728394522636589,0.27096827899107584
1759825551.2718785,1,1.3894372757145563,-1.073619067469931,0.1045335868217091,0.3144409740043935,0.17089254480486765,-1.0396843529941098,-0.0935200493909568,0.2707624079662581
1759825551.3748195,1,1.4169608394713493,-1.0703268875510124,0.12654957610096765,0.3135044804150357,0.21387240113694245,-1.0449716577150565,-0.10635115835098023,0.30492660126087406
1759825551.4762502,1,1.4495526853498613,-1.0648126037680659,0.15598187833043267,0.30932766145160007,0.23422996244326166,-1.0476871418188478,-0.11765464708266839,0.30762692205045594
1759825551.5792453,1,1.4763204344471543,-1.0601125674007497,0.18088682547956877,0.3058453269580859,0.2749381635842035,-1.0537407673910497,-0.13173757470403546,0.30053544224296874
1759825551.6779366,1,1.508970323522555,-1.0524947099807151,0.21257750733192288,0.30567145351461555,0.29391895712311444,-1.056775118381408,-0.1427847761964879,0.29962256622332617
1759825551.7792218,1,1.5356923072422468,-1.0460651424906082,0.23955945310365445,0.30542353878056205,0.33197727789577,-1.063061463839556,-0.15278264940968705,0.2837415372396754
1759825551.8725443,1,1.5662924747006342,-1.0368504173979913,0.2702489623847447,0.30521445178433365,0.34914888481530093,-1.0660302521341287,-0.15963247510143538,0.2820874566667499
1759825551.9805486,1,1.5913901519851386,-1.029101341107608,0.29629832393991323,0.3048380800971182,0.3882851443310772,-1.07266319032313,-0.1635677756324349,0.2834819515212971
1759825552.0719912,1,1.6221351722443362,-1.0177897107639315,0.3274021817284401,0.3092099755134819,0.40572406462342614,-1.0756451409145822,-0.1654530432020686,0.2833206392121073
1759825552.184055,1,1.647134111661027,-1.0083721596328912,0.3535111810625839,0.3125301280389447,0.446103766578494,-1.0822514753976993,-0.16340751163892053,0.28959467415645274
1759825552.2792552,1,1.677524537931915,-0.9951522203580778,0.3842408813337475,0.31181285378995716,0.4641196919610706,-1.0851391495991742,-0.1611569867274881,0.29020802157327086
1759825552.3753371,1,1.7012158857431945,-0.9845845357249866,0.4093017495326262,0.3112061862224194,0.4717168602418372,-1.0863246677489546,-0.15888171389484712,0.29016273449335483
1759825552.4764428,1,1.7299823899221647,-0.9699914635278328,0.43976177532430477,0.3112895501420854,0.5166542551518893,-1.0929062891958667,-0.15094557443350667,0.2646856468981794
1759825552.568596,1,1.7538254763347607,-0.9577048661288583,0.4660673689155158,0.31121888337768544,0.5379042359881461,-1.0959077489828226,-0.14446946823827878,0.2626142017334768
1759825552.662481,1,1.7820814817522068,-0.9413620011668812,0.49745497947152956,0.30702076937986333,0.5458081902811518,-1.096949926679088,-0.14013981635886746,0.26195612359239734
1759825552.7565997,1,1.804488505758059,-0.9280521684941492,0.5243598840722892,0.3040100302543408,0.5993369849203081,-1.1034862267285803,-0.12553558662967193,0.30438966827027775
1759825552.8544183,1,1.8310248990074534,-0.9104365868792992,0.5569883720125045,0.30544644538648774,0.6255257125034053,-1.1064278729963406,-0.1130286774908209,0.30820295874345705
1759825552.946501,1,1.852021071169446,-0.896149161320399,0.5846535487381328,0.3065873248887228,0.6350493768249786,-1.1073308384332978,-0.1053754403854769,0.30924776538840637
1759825553.0372405,1,1.8729645144128575,-0.8808166445087493,0.6109322744583613,0.31084841058424273,0.6836555379290348,-1.1114488344146412,-0.090705474156503,0.2942608516010692
1759825553.1322637,1,1.8950214802713519,-0.8633784879628227,0.6433482216663129,0.31795425249594916,0.707859509200562,-1.113292994548781,-0.07869723898431462,0.2931074339346386
1759825553.2152393,1,1.9123713100104909,-0.8492979298315064,0.6690336127273342,0.3237318991710987,0.7155271875708054,-1.113727708585881,-0.07204886679470432,0.29292629210028204
1759825553.308531,1,1.9339311172298246,-0.8296187655980212,0.7036812595493143,0.32107174538260136,0.7578773867039678,-1.1163593531551117,-0.061407893528931896,0.26778822007080916
1759825553.4021547,1,1.9516741467095382,-0.8132131142230016,0.7328086469148197,0.31896091543171856,0.7783376616943614,-1.1175076594495708,-0.05355577037298547,0.2658028672670314
1759825553.498753,1,1.9727629549353234,-0.7913234728586299,0.7695131313826616,0.3144188064067666,0.7864296468280264,-1.1178722735614117,-0.049160841403007347,0.2649052762982966
1759825553.6124861,1,1.9895576217776565,-0.7735951968510975,0.799820356620977,0.310850468903188,0.8382967085534583,-1.11979715115848,-0.03370448426708586,0.2835046121946315
1759825553.7219985,1,2.0097129604559636,-0.7492332468881537,0.8386610365470112,0.30988400501499996,0.863273356049869,-1.120484708817081,-0.02127403991328575,0.2850813508428582
1759825553.8433409,1,2.0273540959183736,-0.7266240076673731,0.8720172352768152,0.31138916965680535,0.9071278501552433,-1.1205928138435433,-0.0026179571495567643,0.26774991391372754
1759825553.9545767,1,2.045209656251117,-0.7015155493088686,0.9102601644486666,0.31484657122542453,0.9277808617030276,-1.1203689575590943,0.011607924062083195,0.2661628464283949
1759825554.075148,1,2.0638824211135693,-0.6722304011552946,0.9512577428616407,0.30694758826955626,0.9674613439575585,-1.1191407859728164,0.03050017970995033,0.2501899843182978
1759825554.1848252,1,2.078933218950807,-0.6482133890729683,0.9865514405395974,0.30042360966594395,0.9863232225617271,-1.1183157299981594,0.04493820719317222,0.24899582754373834
1759825554.30039,1,2.0950712261006,-0.6183157334103756,1.0268565265913652,0.30710399647352393,1.0279726471221409,-1.11538951132696,0.06762390230639824,0.2711644470555674
1759825554.4032495,1,2.108065025468706,-0.5936362721607799,1.0604330146028513,0.3124901823325286,1.0476111466029308,-1.1136770771674411,0.08590560440352261,0.2735648821819549
1759825554.503998,1,2.122148891301468,-0.5623839316525157,1.1001075349606273,0.31472051896459063,1.0829599761764184,-1.1096162096076672,0.10948756097861186,0.2553014607586707
1759825554.6147552,1,2.133280940555237,-0.5369761777976956,1.1329719245314769,0.316492186361827,1.099764792386366,-1.107369837834419,0.12800018524579052,0.25419152048424276
1759825554.7296827,1,2.1448599081244137,-0.5061717776777184,1.171147852529493,0.3124707394568748,1.1370209896560144,-1.10147083229632,0.1532384168264768,0.24293269796530426
1759825554.8495145,1,2.154518530339334,-0.4780992781938325,1.2035204743134607,0.3122768503029614,1.1548741794356236,-1.0983208506468118,0.17299195991398303,0.2423643399781984
1759825554.9496903,1,2.1636568977056614,-0.44751779276970033,1.240530791360112,0.3154586622278243,1.1916840824976067,-1.0908312599871055,0.1981990979057519,0.2482268310029637
1759825555.0718074,1,2.171396933116419,-0.4183275303499691,1.2737747242873518,0.3113922074033273,1.2093860600390505,-1.0868861621326598,0.21797494151796612,0.24919330043904808
1759825555.195494,1,2.178173029284558,-0.38998086861337733,1.3064529552489257,0.30129538583090126,1.246648925338366,-1.0775836105343242,0.24379866734097586,0.2332694311231458
1759825555.3084388,1,2.185088819773433,-0.3530055983050948,1.3429706473164251,0.3057808089848483,1.2642441651185303,-1.0728713719540064,0.2632528195747332,0.23141339965022814
1759825555.4303486,1,2.190301827998494,-0.32336940002047,1.3726073514101005,0.30940955321531105,1.3024022397673605,-1.0613477103550997,0.293921807291185,0.242815188855877
1759825555.5404341,1,2.1949147440602013,-0.2881544398332409,1.400557134653083,0.3125322535500729,1.3203976425771582,-1.055500453548617,0.3173345171485654,0.24386272390004218
1759825555.652315,1,2.198695204447698,-0.255087208473554,1.42363244756547,0.3123258433853231,1.3563771194294578,-1.0422984067024768,0.35017337661587333,0.2501509315181578
1759825555.748142,1,2.202080198996782,-0.22144103855603103,1.443955007103156,0.30887794423826,1.3726916069007615,-1.035881674139361,0.37431266148050585,0.2507110113702669
1759825555.8653293,1,2.2051216330702825,-0.1838919073690994,1.4609881543822585,0.3073515886379456,1.403984601880864,-1.0224659021839164,0.4063584887004751,0.22698661533228456
1759825555.9819202,1,2.20746618376661,-0.15295356263868196,1.474845101651589,0.3060581617179314,1.4186681038952946,-1.0157683653089953,0.43098925374396757,0.22524030045529003
1759825556.0975184,1,2.209761152236183,-0.11718864819208254,1.4868858789311872,0.2999546353362968,1.4558296716536525,-0.9964093158768729,0.47126201102707876,0.269868090536534
1759825556.2081826,1,2.211675771317123,-0.0878815295153136,1.49675618245114,0.2949475235952387,1.4733993917268462,-0.9866114388546678,0.504912464822752,0.2749182958740616
1759825556.308398,1,2.213485486803622,-0.052253701197844095,1.5060584655259246,0.3011663005334547,1.5038773239522165,-0.9677572470673955,0.546824374015781,0.24462029906599475
1759825556.4128122,1,2.2148550688164117,-0.023007735824784954,1.5138039650606292,0.3061434971510069,1.5181244991338012,-0.9582961873193919,0.579519066927505,0.2430700472745494
1759825556.527474,1,2.2162430750045066,0.010780832461122516,1.5212282964568153,0.29969407189179614,1.5484773454783964,-0.9365799570987232,0.6167160439029942,0.24767467508794552
1759825556.62192,1,2.2171928837910846,0.03717680012403186,1.5270560467430647,0.294621979135624,1.5620519818758207,-0.9263551292088087,0.6434262634384648,0.24875455805795538
1759825556.7205174,1,2.2181628272203695,0.07009676014750187,1.5329793033304513,0.29602036097123813,1.567424721109604,-0.9219263334776419,0.6577922079688985,0.24835320315588463
1759825556.8225875,1,2.2189343007296944,0.09720725700581266,1.5378925850683374,0.29706296090458145,1.6024962629380006,-0.8934642971585628,0.6903683563564862,0.25200322787797086
1759825556.9199944,1,2.2196766863134183,0.13109058646988944,1.5427458650561698,0.30239403077072735,1.6189078318576158,-0.8796435695042254,0.7154258316294333,0.25266428214989445
1759825557.0180957,1,2.220237290755193,0.15904013739921644,1.5467891384215189,0.3068596340932427,1.6252262877077848,-0.8739555481902194,0.7290746101829332,0.2529491705847545
1759825557.118075,1,2.2208579093655625,0.19274099570664457,1.550575833431646,0.30302614709564407,1.6594431308962443,-0.8417498136883642,0.7612334038226132,0.2581617809309966
1759825557.2168794,1,2.2211518273841575,0.21892247785538602,1.5535672402584877,0.30011112921632316,1.6755866730352629,-0.8259878275588725,0.7875889865227765,0.25959238944348345
1759825557.3096395,1,2.2215705426112162,0.25162013525418375,1.5565636564170373,0.29850380940842763,1.681195206395201,-0.8200953927842388,0.8006827044259648,0.2594778538923954
1759825557.4123461,1,2.221956463472435,0.2784428847665781,1.5590626524699553,0.29744579996820775,1.714043842957406,-0.7837924983937572,0.8361888068617905,0.26791586423585356
1759825557.5111854,1,2.2223182742939467,0.3129304082743951,1.5619753723868617,0.30121196421698626,1.729397742667445,-0.7661250543793305,0.8650193990913773,0.26926483339589535
1759825557.6124446,1,2.222286463619774,0.33967809390526543,1.564293622663586,0.3042701946758497,1.754806101341619,-0.7340626806144611,0.8977398191440793,0.2895502210248588
1759825557.71293,1,2.2222733715877294,0.37279039180506274,1.567257122351232,0.30307591767320047,1.766183803493043,-0.71900712529389,0.9211534471999273,0.29145119701279454
1759825557.808235,1,2.2223419297138625,0.4002727160676162,1.5698149911030814,0.3021887549799885,1.7700328312844662,-0.7133794795642863,0.9333816459047802,0.29197755076627935
1759825557.909666,1,2.2222962961747883,0.4336389450610908,1.5727484021543436,0.3032985433097784,1.796342138937968,-0.677260331861718,0.9573544622974456,0.2621770249929951
1759825558.0069268,1,2.222001316785775,0.45967436155066366,1.5750958995827364,0.30417687532871057,1.808589876724803,-0.6598488078215403,0.9751588835550473,0.2600057952278152
1759825558.097971,1,2.2216993814129125,0.4929619240197593,1.577288669086485,0.30508441216964316,1.812940442773085,-0.6534294578396943,0.9839880132056603,0.25869160299832933
1759825558.201598,1,2.2214313292553247,0.5202349268785003,1.579066967095143,0.30563597749196014,1.8394020187052544,-0.6124883502614035,1.0082389028848595,0.26653472650838983
1759825558.2950003,1,2.2212533375912122,0.5530343142255153,1.580115359435794,0.2993561964849855,1.8512050311646338,-0.5937547430371148,1.0264526297842043,0.2673812599029932
1759825558.385522,1,2.221282418683716,0.5808483355791128,1.580868720342854,0.2942091624290548,1.8557991079490732,-0.5860438215119445,1.0365955195202081,0.26775286349949007
1759825558.4868543,1,2.221125502218052,0.6071079809185368,1.5811098291929582,0.2900898924479775,1.8810007618129139,-0.5404206388572393,1.0645194409752403,0.2932427462012533
1759825558.5860276,1,2.2211127565919124,0.6342328293460067,1.5806019298139027,0.2864503030543548,1.8927958234384492,-0.5182375895883776,1.0875722535761805,0.29605157946366534
1759825558.6811283,1,2.2210775854893337,0.6674123304429587,1.5793027692934123,0.2914670522706741,1.896720957279145,-0.5102020113867645,1.099687709040401,0.29619093856250905
1759825558.7744486,1,2.2210770081679034,0.6953368290546231,1.5779972034441738,0.2958448546904581,1.9172401060713933,-0.46853791642787507,1.1242704595274648,0.26966785954354977
1759825558.8716958,1,2.2208260707985343,0.722151858506977,1.5767524760561569,0.29966401127649434,1.9270947627077464,-0.4476475938141293,1.144063393186632,0.2682624286676948
1759825558.9667397,1,2.220661671319456,0.7512692410972402,1.5749563247393605,0.3033638168415884,1.9304940314440862,-0.44001929785199917,1.1543654404149222,0.267640660307586
1759825559.064569,1,2.2206089748082602,0.7786835544305701,1.573413874178243,0.30402894603040664,1.94980978174732,-0.3939641213707341,1.1757746950897159,0.28726320856483906
1759825559.1635175,1,2.220729713088778,0.8089387425131228,1.571826415077202,0.30205414781614437,1.958913148737535,-0.37159050556801126,1.1924254379701411,0.2891920074494361
1759825559.2597842,1,2.2206417176564974,0.8325166576315303,1.570602414318266,0.3005437890701326,1.9621178864459294,-0.3630696169349258,1.2011418540826149,0.2897884408310232
1759825559.3632963,1,2.220722115360309,0.8628933253214905,1.569721761711926,0.2999753263258126,1.9796955599136448,-0.31641552220807806,1.2198820634427814,0.2808057259451013
1759825559.4606686,1,2.2208666100282306,0.8880719357560168,1.5690138075011628,0.29939795042940104,1.9878489081300372,-0.29404756025895573,1.234200713816906,0.28062652660186577
1759825559.5547466,1,2.221160701117651,0.9201756681151658,1.5688944568159817,0.2989614254891107,1.9907326485877253,-0.285658442307161,1.2415755112406544,0.28037887597153827
1759825559.6788888,1,2.2213107634369447,0.9505132206153745,1.5689296322550343,0.30015605693411124,2.00790362919871,-0.2332146652466875,1.2606919457408214,0.27969994565851947
1759825559.7923782,1,2.221360199539671,0.9812966897903667,1.569324454168144,0.3027224079893165,2.0160726243278524,-0.2074483429937475,1.27595063073412,0.28008447836886946
1759825559.9120579,1,2.221579468556667,1.0174343639579295,1.569821075258931,0.2973406115440634,2.0295096605762364,-0.16101380340128535,1.2927768726448636,0.28996832815005247
1759825560.03354,1,2.2217605577715154,1.046713254101919,1.5702616256232702,0.2929576582388895,2.035725320841637,-0.1385597288426285,1.3048446694632314,0.2912227315410293
1759825560.1530716,1,2.2221308963872426,1.0825527069901484,1.5705310351096482,0.29504695971852457,2.0484542510001424,-0.08971321793617738,1.3191290336388253,0.3116513146683363
1759825560.262083,1,2.2221114095049352,1.1101256053692101,1.5707634377333834,0.29666907856938174,2.0543393835543005,-0.06647357014512426,1.3292652927842394,0.313762342576726
1759825560.3906622,1,2.2222603587248506,1.145563056685364,1.570749625850947,0.3003504690470862,2.065186771463143,-0.023294303531449095,1.3404306351805455,0.28453727932036205
1759825560.5044982,1,2.2225131739490824,1.1841535501102272,1.5706799720559472,0.29354534421660944,2.0700850009359386,-0.00321368485978626,1.348141460984382,0.28200122972041736
1759825560.6217446,1,2.2227738913172708,1.2158882573256342,1.5705908581013472,0.28803906813395136,2.080539025011946,0.04377912916948429,1.359253102389525,0.2976772267687381
1759825560.7342205,1,2.2229183332805142,1.2532877576613262,1.570769701722534,0.29543759774976874,2.0853217871117673,0.06597534651794744,1.3672083899143126,0.2991306311728691
1759825560.8478765,1,2.222880009125495,1.283669009198192,1.570959485369983,0.3012172647027823,2.0944640276845243,0.11136702251672999,1.377317457883934,0.3060440879875275
1759825560.9545875,1,2.222955411963054,1.3202591722469281,1.5715447253828245,0.30085021456623073,2.0986086084471194,0.13249675194284588,1.3844480865568032,0.3067364226361882
1759825561.0813408,1,2.222894162907984,1.354193846163093,1.572076589667236,0.30231269535391325,2.1070387581832737,0.17560396371235798,1.3932945160844636,0.2816919458571076
1759825561.1862285,1,2.222794666848672,1.3884168327426583,1.5727739614807097,0.3054681683814906,2.1109038736976267,0.19580783008049332,1.3994050263320341,0.2795585876533075
1759825561.3026104,1,2.2227100777558526,1.420695964441565,1.5733386762782788,0.3019631532996567,2.1183953049414703,0.23692834715840105,1.4062465294515398,0.26649715019811243
1759825561.4179738,1,2.2227735401409023,1.452262596099399,1.5737882564457877,0.29299818533155836,2.121826085027856,0.25642443985968644,1.4107544335479119,0.26529009661115815
1759825561.5300937,1,2.222618318207052,1.4904624910878272,1.57393638332626,0.3047388715535229,2.1287220018071493,0.3004451345606193,1.4171692315292224,0.2906269413041911
1759825561.6342,1,2.222315745142629,1.5219352503006616,1.5740618680038112,0.31424545501483825,2.1319620460860755,0.3214134214043109,1.421136879290118,0.29298971502532795
1759825561.7519073,1,2.2221130179314015,1.5582291503326027,1.5737360568300305,0.3081624969878332,2.1385215114879323,0.3675886750432304,1.4291646104554163,0.3095298528715979
1759825561.8654552,1,2.2223066157415436,1.5894416206368323,1.5734177428539668,0.3028823382095365,2.141572601728172,0.3895765151157213,1.4351537252619104,0.31125710805916235
1759825561.9923837,1,2.2223684298834843,1.6251990885713339,1.5726347803890721,0.30505420139837003,2.1480195983221937,0.43760424651435215,1.4445706102159346,0.294147339460679
1759825562.1196864,1,2.222606760989961,1.664102412711138,1.5717640700514564,0.29634353837789373,2.1509395197947345,0.46032040777829425,1.4519027155721225,0.29271497884633924
1759825562.2397938,1,2.222889119183957,1.695730540943426,1.5710353911317165,0.2893289323282746,2.156543241204863,0.5141292253761464,1.461302048683843,0.33050871224048045
1759825562.3653247,1,2.223318157567745,1.7338043361955584,1.5704758600423578,0.2940400406927086,2.1591050033563097,0.5398047014530277,1.468174020994413,0.33409404638616363
1759825562.4894848,1,2.223514695603676,1.7680411583508433,1.570103803227461,0.2987813338265638,2.164450602386643,0.5877407122556928,1.474937391166828,0.2950864915879811
1759825562.6148062,1,2.2235104775166823,1.8036393110994298,1.5701945482542654,0.3033484604781236,2.1669144973321517,0.6106694021192265,1.4797066187576948,0.291541177811235
1759825562.723874,1,2.2237115768960303,1.8435741972468116,1.5708180186324951,0.2965895584347929,2.1714263156795277,0.6553244311813764,1.4841140149970418,0.28459017711431794
1759825562.8175454,1,2.224051109856642,1.8767952122043072,1.5714328745928592,0.29087138565377946,2.1734504540547688,0.6758578694710072,1.485950547063351,0.2839859193809655
1759825562.9272027,1,2.2242853732745482,1.914749526612737,1.5723112349827073,0.2917647012672886,2.177145953488886,0.7210860264569017,1.488874350355846,0.31120400558438005
1759825563.028983,1,2.224489884130059,1.946106048126031,1.5731171847526662,0.29259727414102266,2.1789277740858126,0.7423994220562455,1.4900637836382111,0.3135652486676874
1759825563.150209,1,2.2244322580705065,1.9831375923079448,1.5735523453798594,0.30081079766493485,2.1830523631952365,0.7854740191512064,1.4927465021947282,0.2820411454192468
1759825563.2574627,1,2.2242671356646464,2.013454520409454,1.5738686996643534,0.30752161826200175,2.1849638589157694,0.8058624746738643,1.4941873157138905,0.27930156953455015
1759825563.3827336,1,2.224114229378942,2.0479022302153145,1.5738219019776172,0.3023817572074194,2.1885486240812626,0.853872844389516,1.4976525764061834,0.3000232812310464
1759825563.4760277,1,2.224144959453622,2.076397593546915,1.5737602412123475,0.2981250491920307,2.1902396392830625,0.875674032552892,1.499479807742505,0.3018106698796456
1759825563.5927277,1,2.2240300051782262,2.1113433401318686,1.5734857517501355,0.30558261659161884,2.193312970369484,0.9186521319303355,1.5031908234620837,0.29986172920668225
1759825563.695769,1,2.223934152379666,2.1445532228368256,1.5732134897890715,0.30755139852705826,2.194725256782494,0.9387655762312479,1.5055370487904784,0.2997911315510139
1759825563.8057814,1,2.2239077403015175,2.1779325326412455,1.5729172573699948,0.304840430965358,2.19774579727193,0.9792118544379471,1.5093475153622982,0.2798009499027924
1759825563.9135134,1,2.2240304100419435,2.214774354748446,1.5727317400469005,0.29938061226425416,2.1990876845161957,0.9981811253374127,1.5122381496644113,0.27814111047157636
1759825564.0300293,1,2.2241920123511774,2.245338162834806,1.5726207842747948,0.2949995183554982,2.201404080350959,1.046447230440197,1.5161973751979294,0.31560271806611356
1759825564.1359026,1,2.2243188872937103,2.2823542658880096,1.5728069852825535,0.29680284270003043,2.202541887487643,1.068974956766234,1.5189602659271686,0.31878722835657575
1759825564.25243,1,2.224341567358685,2.312569875803008,1.573022786258503,0.29823164115477924,2.2049397180408135,1.1162067530781867,1.5222121350495705,0.3159646863239307
1759825564.3533084,1,2.224287785260242,2.348471895260573,1.5735988698605807,0.30264719074672086,2.2060797094869025,1.1381511418246681,1.524450846869992,0.31582590447103037
1759825564.4682987,1,2.2241323943046893,2.3776214477399176,1.5740717059232574,0.3061371692949525,2.208556168508169,1.1813870568234888,1.5265946167259745,0.2955462117929029
1759825564.5813458,1,2.22409553960375,2.412510194273855,1.5747330874876821,0.30271123541125045,2.2096800418545195,1.2018483216724571,1.5279739508757355,0.2937075685366915
1759825564.687321,1,2.224122403405895,2.440946492936254,1.575279157409914,0.29979592767228386,2.21184277965747,1.2454285806133232,1.5292822719532426,0.2954468328373324
1759825564.8046126,1,2.2239503377343346,2.475472156029508,1.575814428130512,0.30572337942847044,2.2128058014492935,1.2664714389632266,1.5300612666585045,0.29553222117996075
1759825564.9202144,1,2.223774492034523,2.5078562498116015,1.5761199288524677,0.3041725765493306,2.215035299529847,1.3105619043043757,1.5312537499651504,0.28471653685324294
1759825565.035585,1,2.223706348392474,2.53914469330267,1.5762484805683419,0.2964434661451576,2.216066586748511,1.331737496355233,1.531965610720587,0.2836948002510928
1759825565.1454968,1,2.223710417474858,2.577639013693238,1.5759129390334012,0.2991271058128728,2.2177833586038664,1.3768942645008597,1.5341973651991943,0.2997992677547359
1759825565.2555315,1,2.2236519859337434,2.6092598058840255,1.5755439479389546,0.30128583125448843,2.2186019653921236,1.3985936429619166,1.5351342350351198,0.3012281926188269
1759825565.3706114,1,2.22354202442689,2.646194253886801,1.5749398352115336,0.3053896070647791,2.2203014283986073,1.446186621805186,1.5383087787889416,0.30142268026518554
1759825565.4776878,1,2.2234012486541768,2.676469241396165,1.574423611716186,0.3087273885073111,2.2211120211643975,1.4687393057428118,1.5402917433707872,0.30155239549205265
1759825565.593865,1,2.223440386194705,2.7123234841240933,1.5737987470356836,0.30290723047428453,2.222385027340627,1.5154613783161062,1.5437848658965545,0.3100755049203138
1759825565.7117152,1,2.223412328013742,2.7458446695664027,1.5732841011470553,0.3042056618927052,2.2229566638700518,1.5377898973930717,1.545864562755554,0.31094480355660303
1759825565.8353672,1,2.223222252157168,2.779104845281838,1.5729284256317806,0.31107255790695426,2.2246537070383137,1.5829179058724439,1.5486605466261745,0.2796448040855391
1759825565.9471414,1,2.2233718553226285,2.8179729296959346,1.5729327925752565,0.30222353330632334,2.2253346084693444,1.6038698282219805,1.5507378580806805,0.27725213472437
1759825566.0756395,1,2.223534656133249,2.849315714359614,1.5730259864356062,0.2950788062342028,2.225897753276003,1.658736077047343,1.5524328088840236,0.32867885605700187
1759825566.1937213,1,2.2235935248346217,2.885398503616716,1.5734274430370303,0.2977340261591371,2.2262196181776197,1.6846067372095253,1.5530089772811748,0.33323844806915526
1759825566.332839,1,2.223782191682373,2.925120528723364,1.573868162579362,0.29476371541829866,2.227583979002648,1.736255142353482,1.553881629043578,0.3103536789337684
1759825566.448522,1,2.223932749235316,2.9573240894919035,1.5742588026518423,0.29233735050863574,2.228312114055639,1.7607269768372527,1.5535838338662455,0.3082702193192368
1759825566.566984,1,2.2238913617355305,2.9952314448483404,1.5745718654406533,0.2973116418792246,2.2296434230595694,1.8087597870566503,1.554039202300143,0.30225448594720467
1759825566.686006,1,2.224008905317588,3.027778664538455,1.5747790096858223,0.30164295852370393,2.230236964801311,1.8315471039518478,1.5536499707011497,0.30168769157132835
1759825566.81263,1,2.223960426976591,3.065243078978892,1.574762003047839,0.30285518414189616,2.2315512862802565,1.8794188619794383,1.5544529938542884,0.28783494349782496
1759825566.9512064,1,2.223895106903158,3.1051846673896364,1.5746042285941986,0.2987535845658961,2.232175890663781,1.9021546203897977,1.5550490981745666,0.2865494093182002
1759825567.0691125,1,2.223869027661884,3.137897858602571,1.5744344312065852,0.295433180229271,2.2328750508306485,1.9588302271889677,1.556507167039039,0.3134937669126919
1759825567.1890247,1,2.223975536123242,3.1774122817490427,1.5740559017002984,0.30148876709246064,2.23321199169265,1.986062188717746,1.5574295999650982,0.315997471908293
1759825567.3043258,1,2.223943155346425,3.209425528241316,1.5737755127752153,0.306321515897541,2.2341927218852065,2.0342330275264047,1.5588631251763219,0.3008833611066485
1759825567.4218645,1,2.2238991347542543,3.247436548583967,1.5735939012481541,0.3054645612568176,2.234596052930142,2.0573974707128757,1.5601382019257843,0.2995542551130985
1759825567.5370798,1,2.2240111455939933,3.287657266713519,1.5735215353714016,0.2969245661375123,2.235363893304379,2.101182060953188,1.561872702479688,0.2935861358653088
1759825567.6439471,1,2.2242422899798457,3.3206538998012327,1.573467630687129,0.28986087905224167,2.2356969062905763,2.1220939521715927,1.5623285772238604,0.2930484426615346
1759825567.7744694,1,2.2241589908647112,3.359652653554891,1.5734108934259867,0.3022622341163919,2.2363223318856,2.1705230515725273,1.5634468636455998,0.2920057013899878
1759825567.8994718,1,2.2240652632566533,3.3927453806662142,1.5733925784643468,0.31282257461549784,2.2366654893400777,2.1936432138976727,1.563447740870447,0.29191309884767797
1759825568.0253503,1,2.2239306678531525,3.429823021036515,1.5733893618529953,0.3090613788858826,2.236985657448607,2.2467259158797677,1.5642070235449204,0.3104619644704275
1759825568.143481,1,2.224048572738313,3.469828328615864,1.5735070042348707,0.2977574446409577,2.237172719658633,2.2719016246217976,1.5645195992781757,0.3121165623094101
1759825568.2705593,1,2.224206775626235,3.5019041129390254,1.5736170103191225,0.2890934568006949,2.2375386211385555,2.323825978613604,1.564830191956988,0.32106388266157265
1759825568.392853,1,2.224422322906832,3.542012924450814,1.5741324577471312,0.2978767571296343,2.237757003551036,2.3482968098412758,1.5649956495842245,0.3218903760957048
1759825568.5118291,1,2.2243910132308398,3.5742439593714717,1.5745755299058073,0.3056031783477978,2.238852877212301,2.395032884965536,1.5651151447757634,0.28519859353738775
1759825568.6273994,1,2.224089180184321,3.6110340096252465,1.5779431430741413,0.310119048537017,2.2393513265414673,2.4172833940455862,1.5653611132621374,0.28199505217361187
1759825568.7431545,1,2.2236449931541205,3.6448432307474072,1.582322206883198,0.3095002443074326,2.2399351677007795,2.463273606127435,1.564308022219393,0.28717257192794743
1759825568.854006,1,2.223090265292492,3.6779110096042014,1.5911817974502314,0.30394098736809727,2.2402170385514535,2.4853093214500963,1.5634379979800008,0.28792306050753913
1759825568.9655807,1,2.2213259935721568,3.7173885236557904,1.6103634415769923,0.308660253049133,2.2410505768643065,2.5275907589162125,1.5601259773084,0.28543380341277946
1759825569.0745325,1,2.219643055459694,3.7497581153778747,1.6283825447569251,0.31214359596393626,2.2414789235315795,2.5479870017709803,1.555614483123929,0.2853887424951377
1759825569.1885757,1,2.2161154981604563,3.786192445120462,1.6576455511924917,0.31518151510966413,2.2430969821056683,2.5952920989448978,1.541218671328801,0.31372022779583514
1759825569.2915077,1,2.213027534004436,3.8159750978410507,1.682353621288787,0.31723913148730437,2.2442280020444496,2.617765073081591,1.526427927066502,0.3157962899412001
1759825569.3997161,1,2.2075269124919976,3.8500524304110573,1.718476792579571,0.31828395410394517,2.2482977465586447,2.6596441698393876,1.5047937347975235,0.2894530483947288
1759825569.497094,1,2.2028524382645935,3.877973187494197,1.7487143985632432,0.3185573734008972,2.2504812336274687,2.6791337960342116,1.4861731004012662,0.28668796755939663
1759825569.5919824,1,2.1949959105530397,3.9095631278558334,1.7879554618117839,0.3179527391890605,2.251595939048864,2.6862285117521085,1.4761815637326101,0.2861263320629205
1759825569.6942344,1,2.1883560230038444,3.935385039731481,1.821375500197417,0.31742994698546095,2.258329021528274,2.737962028727608,1.4554476993456291,0.2936313079313049
1759825569.7977746,1,2.1782522879756074,3.9658896959034915,1.8635902657377668,0.31490013485866153,2.2619019016365347,2.763006891006605,1.4374514882877953,0.29349988070453004
1759825569.90549,1,2.1698499066249086,3.9906530267725375,1.8987949787790828,0.3128387982006072,2.2688893834584647,2.8079119384677793,1.4214481499786886,0.30689191454937303
1759825570.011454,1,2.157069040036757,4.020809447145276,1.9433180429315433,0.31048437740579665,2.272384554277793,2.8287560836312857,1.4102158017477477,0.3075305901628421
1759825570.1164925,1,2.146556317867571,4.04503034633253,1.9798624061813836,0.30874309808483863,2.2792842914491858,2.86561018191254,1.405289821491741,0.26301007358417067
1759825570.2199497,1,2.1313083186206474,4.073722932802015,2.0243391820190575,0.31381373237800286,2.2824878134891082,2.8831168165059355,1.403460383354746,0.25889015251808695
1759825570.3267088,1,2.118674258823849,4.096718109517224,2.0606642795730714,0.31797129699014737,2.2885607321422694,2.9240064361557656,1.4079768809892663,0.28975573001778543
1759825570.4311166,1,2.101651299382199,4.123348641472125,2.1044646240777958,0.31423237709801627,2.2913862960719134,2.9432525196432375,1.4128279829199502,0.29214163550923405
1759825570.542071,1,2.0812656057681194,4.151159623607381,2.1503415839621804,0.3185757288360569,2.296895976239036,2.98196670198261,1.4229235321233207,0.2702697555056052
1759825570.6490898,1,2.063135268694263,4.174714214186176,2.1930637686510153,0.321990141094409,2.2993129591286325,3.0002358188943163,1.4316496859400019,0.2683733672052106
1759825570.7499158,1,2.0452509278415634,4.195529123479493,2.2299795976471466,0.32121956774166294,2.303741377358463,3.037593837508932,1.4441473242048024,0.26859453294494373
1759825570.8392813,1,2.025730153213739,4.216772445828559,2.273277505394767,0.3169637741108394,2.305508280414825,3.054019564896108,1.4537827013552282,0.2684431520812286
1759825570.942374,1,2.0071589103180973,4.235799772584623,2.3110926654824056,0.31594275612149536,2.306188396714187,3.061467060240101,1.4602185088886157,0.26837030551802515
1759825571.0399287,1,1.9857964362988376,4.2555400482941526,2.356085398622946,0.3178845932012595,2.310380557863556,3.106265067332265,1.475261577062835,0.2593984799667108
1759825571.1418822,1,1.966137362626148,4.271941716929518,2.393033449226646,0.3181594680389535,2.312227821756017,3.12831632324901,1.4878205755868112,0.25896873424357325
1759825571.2399483,1,1.9436259745758555,4.28906447029019,2.437402276430727,0.3166833826466282,2.314430385004429,3.1675084238909856,1.505607203327318,0.26700906645405226
1759825571.3450298,1,1.9213495355119303,4.304685699859486,2.477516345861462,0.3151572190299834,2.3152319303752655,3.1861809183092773,1.5199755546985132,0.26802341155917386
1759825571.4473534,1,1.8977205604196534,4.3198840181296045,2.5222960533371954,0.31301922861176484,2.316228367018758,3.2225936891385736,1.5387624102688187,0.26236982293061184
1759825571.5486703,1,1.8686652361024214,4.335916893457705,2.571722334881773,0.31386876865113494,2.3164361024023856,3.2397589885588522,1.55322157199118,0.261486155534022
1759825571.652793,1,1.8442896373737536,4.348891937890991,2.616459002609713,0.3141390155622831,2.315931988195044,3.277567760014813,1.5766287998520905,0.27023962664546686
1759825571.7688787,1,1.8157844850542246,4.3616897235588725,2.664852382296768,0.307795643946505,2.3153449305677127,3.2954881703482015,1.5948948114703254,0.2710742415008277
1759825571.8880186,1,1.7929008951329812,4.371660136910678,2.706223021875522,0.3020929465776051,2.313210324805744,3.335442627592806,1.6221356478104172,0.2589107121678387
1759825572.0103548,1,1.7630035494059952,4.381441843950803,2.7553604668769194,0.3070771332183858,2.3118043798779433,3.3544258430604286,1.642994359928383,0.25781778408956346
1759825572.1335733,1,1.7390308635801073,4.388676365567763,2.795451235103494,0.3105212468225938,2.3081288811684657,3.393542729936638,1.6707730131337375,0.23848180446197
1759825572.24031,1,1.7091069028347394,4.395606612004862,2.8397235475642035,0.308897663168829,2.3060276542719533,3.4120567226571024,1.6913630348069146,0.23666760520986418
1759825572.3597057,1,1.6736063273781303,4.402351149134755,2.8838503378460865,0.3071619466145718,2.3006415458383755,3.44851583590408,1.7174804398864274,0.24076335172549082
1759825572.4730573,1,1.644479878273611,4.407490459483913,2.921496179880602,0.30519779028443417,2.2977704816423166,3.4657185246002338,1.7364181080550958,0.24087500484211777
1759825572.602063,1,1.6104440563476417,4.4117688432437605,2.9554998034958,0.30091260597812236,2.2913538599495573,3.5009339867718388,1.7637320479823606,0.21755366741328602
1759825572.705414,1,1.582766380035075,4.4151848093491965,2.98370102660653,0.2967727455221953,2.2880626172963625,3.517535021912373,1.785035782321609,0.21591776101840573
1759825572.8173358,1,1.5499880580490062,4.417923101826844,3.0079239684035497,0.30245720517738334,2.2787023230493326,3.5523207862576975,1.817920669790661,0.2431727510515964
1759825572.9290397,1,1.5234457597787703,4.41978409605781,3.0275329398475224,0.3067985382445005,2.273939262890915,3.568599339433861,1.8447269326222364,0.2463435222867407
1759825573.0393095,1,1.4894347949405653,4.421750977001095,3.042762150070297,0.3064104705844723,2.263733045528729,3.600677068830366,1.8817148237170844,0.21955366907861096
1759825573.154714,1,1.4585000404497177,4.423225880076107,3.054841790463139,0.3084539285481905,2.2584579836443837,3.615789148306567,1.911223288963991,0.21794717415544448
1759825573.272348,1,1.4255504172995275,4.424502317919524,3.063621620544784,0.31294264961639023,2.244582586092164,3.649498241618224,1.951291802538187,0.2254192370231857
1759825573.3847442,1,1.3886039942431823,4.426353808388102,3.0709054611442923,0.3028219351203218,2.237732975430607,3.6650279422179177,1.9820854285449696,0.22582076386048158
1759825573.4991465,1,1.3585274204204836,4.428081229380221,3.076771393114439,0.29475755965106004,2.218989290475849,3.700940746327051,2.028933707028829,0.2582482836576689
1759825573.6054354,1,1.3222870719572075,4.429729149237806,3.08287074101064,0.30203410014084586,2.209664300579624,3.717585363709726,2.0654680796809557,0.2616962798854771
1759825573.7247915,1,1.2930018977603448,4.430697544250343,3.087851227513836,0.3078986079557283,2.191137113824613,3.7489017141642647,2.110225347888413,0.23487453094575195
1759825573.8363948,1,1.258017581621002,4.431716707369767,3.0941025213185225,0.3073635611907126,2.1819511281081003,3.7634021150282906,2.143270052955472,0.23280030378959227
1759825573.9635694,1,1.2222225718975248,4.432953831425177,3.100647557253461,0.3080823532735488,2.1599719781032967,3.7948461255967136,2.1818710880520014,0.24054796284407248
1759825574.0853703,1,1.1878752094799645,4.433791514768597,3.107014724100752,0.3098262803297035,2.149034260242317,3.809631042378536,2.2099922741703684,0.2413376818916967
1759825574.207161,1,1.1496031002417197,4.434570560165507,3.11369260069424,0.3035878457907817,2.1228203678609137,3.842301254754162,2.245045787488187,0.25834318326718164
1759825574.322006,1,1.1185209101911104,4.438542451352249,2.553869898410069,0.29858946222642807,2.1099228053713595,3.8577384588847985,2.271866478561836,0.26059421099756275
1759825574.4520795,1,1.0797136368944305,4.449599254560377,1.4813714505633684,0.2999037646106264,2.080650287583803,3.8900170400444956,2.310620005924221,0.25871998656372064
1759825574.5599325,1,1.0452417422792102,4.463871987065205,0.6111146989866674,0.3047352922562606,2.0665105987351975,3.904955546766457,2.3410729887448616,0.25965245841620166
1759825574.686228,1,1.0163725717574759,4.473733244929037,-0.07993914391921297,0.31160241012518747,2.037205008732221,3.93337199804972,2.3763151911434153,0.2538293475616882
1759825574.7964802,1,0.9827851705079098,4.47737181745852,-0.6414045302080522,0.30337210754273264,2.0233353744194256,3.946342519328773,2.4019574353667172,0.25315637989704487
