timestamp,vehicle_id,x,y,theta,velocity,gps_available,dt,gps_x,gps_y,gps_theta,gps_velocity,control_steering,control_acceleration
1759825535.419973,1,-1.735,-0.35,-0.7801621756414647,0.0,False,0.01,nan,nan,nan,nan,0.0,0.0
1759825537.4497526,1,-1.73500001416623,-0.3499999055584658,-0.7229649028132794,0.0,True,0.1,-1.7350000143051147,-0.34999990463256836,-0.7177030444145203,0.0,0.0,0.0
1759825537.5664153,1,-1.7350000142586695,-0.3499999049422029,-0.7180975797062423,0.0,True,0.1,-1.7350000143051147,-0.34999990463256836,-0.7177030444145203,0.0,0.0,0.0
1759825537.6843894,1,-1.7350000142876907,-0.34999990474872844,-0.7176986497855289,0.0,True,0.1,-1.7350000143051147,-0.34999990463256836,-0.7177030444145203,0.0,0.0,0.0
1759825537.8071485,1,-1.7350000142984767,-0.3499999046768224,-0.7176741040640096,0.0,True,0.1,-1.7350000143051147,-0.34999990463256836,-0.7177030444145203,0.0,0.0,0.0
1759825537.917105,1,-1.73500001430258,-0.3499999046494655,-0.7176781674668256,0.0,True,0.1,-1.7350000143051147,-0.34999990463256836,-0.7177030444145203,0.0,0.0,0.0
1759825538.0424397,1,-1.7350000143041466,-0.34999990463902214,-0.717682902034273,0.0,True,0.1,-1.7350000143051147,-0.34999990463256836,-0.7177030444145203,0.0,0.0,0.0
1759825538.1691215,1,-1.735000014304745,-0.34999990463503344,-0.7176866531327857,0.0,True,0.1,-1.7350000143051147,-0.34999990463256836,-0.7177030444145203,0.0,0.0,0.0
1759825538.2796185,1,-1.7350000143049735,-0.34999990463350994,-0.71768965933971,0.0,True,0.1,-1.7350000143051147,-0.34999990463256836,-0.7177030444145203,0.0,0.0,0.0
1759825538.3930514,1,-1.7350000143050608,-0.349999904632928,-0.7176921462465664,0.0,True,0.1,-1.7350000143051147,-0.34999990463256836,-0.7177030444145203,0.0,0.0,0.0
1759825538.4915967,1,-1.735000014305094,-0.34999990463270575,-0.7176942614113635,0.0,True,0.09854531288146973,-1.7350000143051147,-0.34999990463256836,-0.7177030444145203,0.0,0.0,0.0
1759825538.5758102,1,-1.7350000143051068,-0.3499999046326208,-0.7176961656024936,0.0,True,0.0842134952545166,-1.7350000143051147,-0.34999990463256836,-0.7177030444145203,0.0,0.0,0.0
1759825538.6724038,1,-1.7350000143051116,-0.3499999046325884,-0.7176975396306347,0.0,True,0.09659361839294434,-1.7350000143051147,-0.34999990463256836,-0.7177030444145203,0.0,0.0,0.0
1759825538.7705524,1,-1.7350000143051136,-0.349999904632576,-0.7176987175109879,0.0,True,0.09814858436584473,-1.7350000143051147,-0.34999990463256836,-0.7177030444145203,0.0,0.0,0.0
1759825538.8620794,1,-1.7350000143051143,-0.3499999046325713,-0.7176997460104637,0.0,True,0.09152698516845703,-1.7350000143051147,-0.34999990463256836,-0.7177030444145203,0.0,0.0,0.0
1759825538.9591753,1,-1.7350000143051145,-0.34999990463256947,-0.7177005585114351,0.0,True,0.09709596633911133,-1.7350000143051147,-0.34999990463256836,-0.7177030444145203,0.0,0.0,0.0
1759825539.0524588,1,-1.7350000143051147,-0.3499999046325688,-0.7177012208600235,0.0,True,0.09328341484069824,-1.7350000143051147,-0.34999990463256836,-0.7177030444145203,0.0,0.0,0.0
1759825539.1637032,1,-1.7352463910623295,-0.34978509629234167,-0.7175051771661423,0.0037457492599261423,True,0.1,-1.7355730533599854,-0.3495000898838043,-0.7172425389289856,0.0037457492599261423,0.12114198204182003,-0.05
1759825539.2670503,1,-1.735340480650355,-0.3497030262319838,-0.7173667690252579,0.0037457492599261423,True,0.1,-1.7355730533599854,-0.3495000898838043,-0.7172425389289856,0.0037457492599261423,0.12163379958428067,-0.05
1759825539.3829637,1,-1.7390651952104774,-0.34648534704376094,-0.7145324686244265,0.04869964920213306,True,0.1,-1.7436351776123047,-0.34251803159713745,-0.7107685804367065,0.04869964920213306,0.12163379958428067,-0.05
1759825539.4779773,1,-1.7405546036921005,-0.3451916473813525,-0.7125594999228468,0.04869964920213306,True,0.09501361846923828,-1.7436351776123047,-0.34251803159713745,-0.7107685804367065,0.04869964920213306,0.12853372500999427,-0.05
1759825539.5954478,1,-1.7459989573011048,-0.34052838488024373,-0.7085859991987267,0.05325841732335099,True,0.1,-1.7518545389175415,-0.3354945182800293,-0.7039909958839417,0.05325841732335099,0.12853372500999427,-0.05
1759825539.6912372,1,-1.7481384162914402,-0.338685468192859,-0.7057866636527415,0.05325841732335099,True,0.09578943252563477,-1.7518545389175415,-0.3354945182800293,-0.7039909958839417,0.05325841732335099,0.13590954228384078,-0.05
1759825539.78698,1,-1.7489529064569924,-0.3379769029045289,-0.7039971010625585,0.05325841732335099,True,0.09574270248413086,-1.7518545389175415,-0.3354945182800293,-0.7039909958839417,0.05325841732335099,0.13590954228384078,-0.05
1759825539.8894043,1,-1.7562510814155838,-0.33182918687486823,-0.6991323391069724,0.049411679078839005,True,0.1,-1.763089656829834,-0.32605335116386414,-0.6941896080970764,0.049411679078839005,0.13590954228384078,-0.05
1759825540.0025642,1,-1.7590329833296316,-0.3294741590570191,-0.6956207230686253,0.049411679078839005,True,0.1,-1.763089656829834,-0.32605335116386414,-0.6941896080970764,0.049411679078839005,0.14701183168953236,-0.05
1759825540.1050444,1,-1.7651915862856504,-0.3243581839000841,-0.6905342391467499,0.04865414387656726,True,0.1,-1.7713063955307007,-0.3192695677280426,-0.6866591572761536,0.04865414387656726,0.14701183168953236,-0.05
1759825540.2132335,1,-1.7675381123264657,-0.3223970095685018,-0.6870561213142246,0.04865414387656726,True,0.1,-1.7713063955307007,-0.3192695677280426,-0.6866591572761536,0.04865414387656726,0.15579112120900973,-0.05
1759825540.3179655,1,-1.7736013587405717,-0.31744182651221886,-0.6818044091564275,0.04944877084789771,True,0.1,-1.7797116041183472,-0.31244125962257385,-0.6784610152244568,0.04944877084789771,0.15579112120900973,-0.05
1759825540.4197206,1,-1.775911331050152,-0.3155417845166145,-0.6781787801753882,0.04944877084789771,True,0.1,-1.7797116041183472,-0.31244125962257385,-0.6784610152244568,0.04944877084789771,0.20165726762346026,-0.05
1759825540.5195296,1,-1.781559362737496,-0.31100364187616664,-0.6725160089498132,0.05441320643020877,True,0.09980893135070801,-1.7876638174057007,-0.30609315633773804,-0.669285774230957,0.05441320643020877,0.20165726762346026,-0.05
1759825540.6249616,1,-1.783706915028298,-0.30926434240010786,-0.668384467269707,0.05441320643020877,True,0.1,-1.7876638174057007,-0.30609315633773804,-0.669285774230957,0.05441320643020877,0.3450449560163378,-0.05
1759825540.7426155,1,-1.7901752681264151,-0.30418678658405246,-0.6602317404285749,0.047546609761415226,True,0.1,-1.7964791059494019,-0.2992275357246399,-0.653688371181488,0.047546609761415226,0.3450449560163378,-0.05
1759825540.8374846,1,-1.7927110323002633,-0.3021793009244897,-0.6542859952212332,0.047546609761415226,True,0.09486913681030273,-1.7964791059494019,-0.2992275357246399,-0.653688371181488,0.047546609761415226,0.5199467437388279,-0.05
1759825540.9357505,1,-1.793624684385385,-0.3014423238271402,-0.6507299440503687,0.047546609761415226,True,0.0982658863067627,-1.7964791059494019,-0.2992275357246399,-0.653688371181488,0.047546609761415226,0.5199467437388279,-0.05
1759825541.037733,1,-1.8011491757274884,-0.2958441871915582,-0.6353474669193808,0.049370952211652816,True,0.1,-1.8082270622253418,-0.29053565859794617,-0.6195569634437561,0.049370952211652816,0.6,-0.05
1759825541.1362438,1,-1.8040288857273223,-0.2936665559002034,-0.6244466419919501,0.049370952211652816,True,0.0985107421875,-1.8082270622253418,-0.29053565859794617,-0.6195569634437561,0.049370952211652816,0.6,-0.05
1759825541.2427523,1,-1.8102660437170053,-0.28927460914779396,-0.6056690475266819,0.049988162669487954,True,0.1,-1.8166275024414062,-0.28475436568260193,-0.5889657139778137,0.049988162669487954,0.6,-0.05
1759825541.337896,1,-1.8127044512692074,-0.28751565085715824,-0.5929647795042605,0.049988162669487954,True,0.09514379501342773,-1.8166275024414062,-0.28475436568260193,-0.5889657139778137,0.049988162669487954,0.6,-0.05
1759825541.4563746,1,-1.8190210967952904,-0.2833571865834632,-0.5723422806296341,0.05270589866845455,True,0.1,-1.8256267309188843,-0.27896741032600403,-0.5568717122077942,0.05270589866845455,0.6,-0.05
1759825541.5577507,1,-1.821411625368239,-0.2817350856451251,-0.5582906434731392,0.05270589866845455,True,0.1,-1.8256267309188843,-0.27896741032600403,-0.5568717122077942,0.05270589866845455,0.6,-0.05
1759825541.6676714,1,-1.827944472959621,-0.27770795651796504,-0.5380768168558827,0.04723317307285314,True,0.1,-1.8344584703445435,-0.27367353439331055,-0.5259829759597778,0.04723317307285314,0.6,-0.01545988871805808
1759825541.7778063,1,-1.8304213360274346,-0.2761394878158562,-0.5244689635521134,0.04723317307285314,True,0.1,-1.8344584703445435,-0.27367353439331055,-0.5259829759597778,0.04723317307285314,0.6,-0.0024511293065132334
1759825541.9013102,1,-1.8336100418016592,-0.27421620899093974,-0.5156377707099988,0.0074766502054731615,True,0.1,-1.8359808921813965,-0.2727964222431183,-0.5207136869430542,0.0074766502054731615,0.6,0.030537255690299726
1759825542.01216,1,-1.8348268216652577,-0.2734794877743835,-0.5101878953279098,0.0074766502054731615,True,0.1,-1.8359808921813965,-0.2727964222431183,-0.5207136869430542,0.0074766502054731615,0.6,0.09052223557303858
1759825542.1329634,1,-1.8260323193422012,-0.27872540845819277,-0.5226726005958149,0.06055226769633029,True,0.1,-1.8238576650619507,-0.28013089299201965,-0.5632282495498657,0.06055226769633029,0.6,0.09052223557303858
1759825542.2432435,1,-1.8226874883620179,-0.28075431941850176,-0.5346944303966836,0.06055226769633029,True,0.1,-1.8238576650619507,-0.28013089299201965,-0.5632282495498657,0.06055226769633029,0.6,0.0962568120087321
1759825542.3558128,1,-1.8095976895410484,-0.2895156941153762,-0.5670704763417014,0.09548734925715138,True,0.1,-1.8065687417984009,-0.29189497232437134,-0.6259757876396179,0.09548734925715138,0.6,0.0962568120087321
1759825542.470629,1,-1.8046578230943813,-0.2929587976845689,-0.5928704425424947,0.09548734925715138,True,0.1,-1.8065687417984009,-0.29189497232437134,-0.6259757876396179,0.09548734925715138,0.4751706606173869,0.1082670657739861
1759825542.583747,1,-1.7914276186281537,-0.303219845566273,-0.6338300703761846,0.09893050841541264,True,0.1,-1.7883020639419556,-0.3061160445213318,-0.6879133582115173,0.09893050841541264,0.4751706606173869,0.1082670657739861
1759825542.6943045,1,-1.7864597349906337,-0.3072595379848836,-0.6640076401372674,0.09893050841541264,True,0.1,-1.7883020639419556,-0.3061160445213318,-0.6879133582115173,0.09893050841541264,0.2846944277485157,0.12609534159495694
1759825542.8107147,1,-1.7713771871708182,-0.3204188352243486,-0.7019950602852774,0.12298980397921637,True,0.1,-1.768020749092102,-0.32384032011032104,-0.7374177575111389,0.12298980397921637,0.2277442887266048,0.1711187140964878
1759825542.9211822,1,-1.7657248749802912,-0.3255777863468782,-0.7283026170037523,0.12298980397921637,True,0.1,-1.768020749092102,-0.32384032011032104,-0.7374177575111389,0.12298980397921637,0.13527093032414683,0.13370492108841844
1759825543.0436974,1,-1.7466175185656634,-0.3437104705553931,-0.7568389448654802,0.15377371812981575,True,0.1,-1.7418817281723022,-0.34856948256492615,-0.7703844904899597,0.15377371812981575,0.09390314080167528,0.1842653708131328
1759825543.1460946,1,-1.7394278012026279,-0.3507542988559635,-0.7755288781306469,0.15377371812981575,True,0.1,-1.7418817281723022,-0.34856948256492615,-0.7703844904899597,0.15377371812981575,0.030720894158072554,0.1350028383137784
1759825543.2542062,1,-1.7215053683712975,-0.36854238343381696,-0.7902054794483764,0.1660574406098439,True,0.1,-1.7177475690841675,-0.37234145402908325,-0.7813862562179565,0.1660574406098439,0.00490436277869577,0.18338078258202017
1759825543.3547764,1,-1.714722093098414,-0.37539950038644115,-0.7983684260576354,0.1660574406098439,True,0.1,-1.7177475690841675,-0.37234145402908325,-0.7813862562179565,0.1660574406098439,-0.01757632759373884,0.1427402808137154
1759825543.4721568,1,-1.6966369225898355,-0.3934514393906668,-0.8014321518525076,0.16314359936682565,True,0.1,-1.692496418952942,-0.3973868191242218,-0.7801657319068909,0.16314359936682565,-0.041009831904164074,0.1956589041199747
1759825543.5718431,1,-1.6897551417024526,-0.40034481679930717,-0.8014737172361457,0.16314359936682565,True,0.0996863842010498,-1.692496418952942,-0.3973868191242218,-0.7801657319068909,0.16314359936682565,-0.04056906247734382,0.1583709054960617
1759825543.6827476,1,-1.670582199073886,-0.4192185884770828,-0.7970810750147983,0.1693817118205338,True,0.1,-1.6660212278366089,-0.42336899042129517,-0.7724199295043945,0.1693817118205338,-0.061355189204737925,0.2073941647757646
1759825543.782417,1,-1.6632536769580486,-0.4263928948528633,-0.7923182077444011,0.1693817118205338,True,0.0996694564819336,-1.6660212278366089,-0.42336899042129517,-0.7724199295043945,0.1693817118205338,-0.04852927486838787,0.1655495815204047
1759825543.887448,1,-1.6422310521317853,-0.4466530484048598,-0.7839969513116287,0.19386168314863533,True,0.1,-1.637662649154663,-0.45065492391586304,-0.7612040042877197,0.19386168314863533,-0.06879512029797219,0.2185420728262709
1759825543.9934711,1,-1.6341588967557708,-0.4543496437267377,-0.7769375665147926,0.19386168314863533,True,0.1,-1.637662649154663,-0.45065492391586304,-0.7612040042877197,0.19386168314863533,-0.049303765410966705,0.16835102103984564
1759825544.112443,1,-1.6112338168442197,-0.4758390059587466,-0.7667969352879798,0.19917235159652633,True,0.1,-1.605855107307434,-0.4805024564266205,-0.7480927109718323,0.19917235159652633,-0.06299538312072883,0.2144307602895128
1759825544.228373,1,-1.602424940597109,-0.48399336125099984,-0.7590900466694812,0.19917235159652633,True,0.1,-1.605855107307434,-0.4805024564266205,-0.7480927109718323,0.19917235159652633,-0.05548672641438479,0.22366044610835953
1759825544.3534913,1,-1.574871365236033,-0.5090952935042974,-0.7479001427622158,0.2091014230158607,True,0.1,-1.5672307014465332,-0.5157284140586853,-0.7326762080192566,0.2091014230158607,-0.05548672641438479,0.22366044610835953
1759825544.4598267,1,-1.5642873797170465,-0.5186198297934074,-0.7398791349942044,0.2091014230158607,True,0.1,-1.5672307014465332,-0.5157284140586853,-0.7326762080192566,0.2091014230158607,-0.05322287106185897,0.21622342973632927
1759825544.5603154,1,-1.538439861273177,-0.541528869616838,-0.7299128330277664,0.2266075622130213,True,0.1,-1.532821774482727,-0.5462595224380493,-0.7201654314994812,0.2266075622130213,-0.05322287106185897,0.21622342973632927
1759825544.6589153,1,-1.5286001621349312,-0.5501351446151536,-0.7233414795385187,0.2266075622130213,True,0.09859991073608398,-1.532821774482727,-0.5462595224380493,-0.7201654314994812,0.2266075622130213,-0.07480125326304865,0.21550113289981035
1759825544.7656043,1,-1.504497014514909,-0.5709363466339588,-0.7137210642800405,0.2161738845843223,True,0.1,-1.4996289014816284,-0.5749645233154297,-0.7060474157333374,0.2161738845843223,-0.07480125326304865,0.21550113289981035
1759825544.8713026,1,-1.495238030622513,-0.5788215900602819,-0.7075866437352918,0.2161738845843223,True,0.1,-1.4996289014816284,-0.5749645233154297,-0.7060474157333374,0.2161738845843223,-0.11090888455427894,0.22574316747598705
1759825544.9816382,1,-1.4684557454676674,-0.6011353115041799,-0.6950081035600082,0.2216753275317204,True,0.1,-1.4623339176177979,-0.6060432195663452,-0.6832010746002197,0.2216753275317204,-0.11090888455427894,0.22574316747598705
1759825545.090706,1,-1.4581575013835555,-0.6095771464085663,-0.6866068865088888,0.2216753275317204,True,0.1,-1.4623339176177979,-0.6060432195663452,-0.6832010746002197,0.2216753275317204,-0.14365037967299799,0.22696399507692688
1759825545.1931367,1,-1.4311572010394706,-0.6308854146462187,-0.6695908140489095,0.21767047250504615,True,0.1,-1.4248987436294556,-0.6355562806129456,-0.6527187824249268,0.21767047250504615,-0.14365037967299799,0.22696399507692688
1759825545.287704,1,-1.4211121064042567,-0.6386366863607733,-0.6582315295676615,0.21767047250504615,True,0.09456729888916016,-1.4248987436294556,-0.6355562806129456,-0.6527187824249268,0.21767047250504615,-0.1695950387381231,0.23627555657505978
1759825545.399549,1,-1.392454427757388,-0.659714252186102,-0.6365985040575737,0.2357932102343164,True,0.1,-1.386303424835205,-0.6638680696487427,-0.6148414611816406,0.2357932102343164,-0.1695950387381231,0.23627555657505978
1759825545.5035348,1,-1.3813940160921314,-0.6676131290190623,-0.621422416010903,0.2357932102343164,True,0.1,-1.386303424835205,-0.6638680696487427,-0.6148414611816406,0.2357932102343164,-0.1717970595430458,0.2362296159958182
1759825545.599242,1,-1.3531313958403661,-0.686640281535559,-0.5968301729005709,0.23381870990404377,True,0.09570717811584473,-1.3469398021697998,-0.6903907060623169,-0.574329137802124,0.23381870990404377,-0.1717970595430458,0.2362296159958182
1759825545.6979787,1,-1.341995747050182,-0.6938918147536218,-0.579689690123459,0.23381870990404377,True,0.09873676300048828,-1.3469398021697998,-0.6903907060623169,-0.574329137802124,0.23381870990404377,-0.15783335835195622,0.24390778236964344
1759825545.8053386,1,-1.311219174733247,-0.7128223200158684,-0.5537483237416385,0.2436279020998875,True,0.1,-1.3048278093338013,-0.716323733329773,-0.533738911151886,0.2436279020998875,-0.15783335835195622,0.24390778236964344
1759825545.904594,1,-1.2993984691234806,-0.7198202187617933,-0.5360619039856687,0.2436279020998875,True,0.09925532341003418,-1.3048278093338013,-0.716323733329773,-0.533738911151886,0.2436279020998875,-0.13653952091007504,0.24689658558591232
1759825546.0172644,1,-1.266353662530359,-0.7383670106189616,-0.5111877611747957,0.2558984560532228,True,0.1,-1.2595574855804443,-0.7418017387390137,-0.49589255452156067,0.2558984560532228,-0.13653952091007504,0.24689658558591232
1759825546.1134293,1,-1.253943270929307,-0.7450666087344249,-0.4947932245804907,0.2558984560532228,True,0.09616494178771973,-1.2595574855804443,-0.7418017387390137,-0.49589255452156067,0.2558984560532228,-0.11294686197500248,0.2402838578768899
1759825546.2062707,1,-1.2494160782181147,-0.7473383375494876,-0.4862626887636523,0.2558984560532228,True,0.09284138679504395,-1.2595574855804443,-0.7418017387390137,-0.49589255452156067,0.2558984560532228,-0.16483531570537657,0.30001424654578923
1759825546.3074734,1,-1.204707489052674,-0.7698784360462511,-0.4607247660818654,0.25797811608461535,True,0.1,-1.191202163696289,-0.7764152884483337,-0.4418233335018158,0.25797811608461535,-0.16483531570537657,0.30001424654578923
1759825546.4027753,1,-1.187939329599999,-0.7780742014620264,-0.44240572567383296,0.25797811608461535,True,0.09530186653137207,-1.191202163696289,-0.7764152884483337,-0.4418233335018158,0.25797811608461535,-0.06724557756427352,0.21701539554461075
1759825546.495832,1,-1.1816603559824594,-0.78095642369111,-0.43301904327930885,0.25797811608461535,True,0.09305667877197266,-1.191202163696289,-0.7764152884483337,-0.4418233335018158,0.25797811608461535,-0.13193728335060761,0.2842248198786792
1759825546.5905318,1,-1.1357995725616366,-0.8011093854374481,-0.40969892738997515,0.26983722002765326,True,0.09469985961914062,-1.121814489364624,-0.8069876432418823,-0.3938475549221039,0.26983722002765326,-0.13193728335060761,0.2842248198786792
1759825546.6886756,1,-1.1178673628593667,-0.8087474454958741,-0.39309424041451635,0.26983722002765326,True,0.0981438159942627,-1.121814489364624,-0.8069876432418823,-0.3938475549221039,0.26983722002765326,-0.1023581415627568,0.2592877022211388
1759825546.780991,1,-1.1115107713387584,-0.8112877706452951,-0.3840129763230209,0.26983722002765326,True,0.0923154354095459,-1.121814489364624,-0.8069876432418823,-0.3938475549221039,0.26983722002765326,-0.1023581415627568,0.2592877022211388
1759825546.8761675,1,-1.0644096469016515,-0.8294670981640226,-0.3632026301161453,0.2724376908106575,True,0.09517645835876465,-1.0501790046691895,-0.8347511291503906,-0.34993401169776917,0.2724376908106575,-0.15243381760966557,0.320863706046878
1759825546.968861,1,-1.0465907084124544,-0.8361405138471096,-0.34809864166652993,0.2724376908106575,True,0.09269356727600098,-1.0501790046691895,-0.8347511291503906,-0.34993401169776917,0.2724376908106575,-0.07446421802544734,0.23672182175827985
1759825547.0683422,1,-1.0390696666901615,-0.8387926365521541,-0.33980543621265724,0.2724376908106575,True,0.09948110580444336,-1.0501790046691895,-0.8347511291503906,-0.34993401169776917,0.2724376908106575,-0.11745790281101698,0.2979695092143593
1759825547.1714797,1,-0.986620194993307,-0.8562572319624591,-0.31656680216426736,0.28301890768970916,True,0.1,-0.9707161784172058,-0.8612779974937439,-0.3005374073982239,0.28301890768970916,-0.11745790281101698,0.2979695092143593
1759825547.267695,1,-0.9668995978403542,-0.8625768883604107,-0.30033710691282245,0.28301890768970916,True,0.09621524810791016,-0.9707161784172058,-0.8612779974937439,-0.3005374073982239,0.28301890768970916,-0.06313713209634564,0.26509930120989805
1759825547.3606853,1,-0.9596513141570663,-0.8647337746892073,-0.29145082001374334,0.28301890768970916,True,0.09299039840698242,-0.9707161784172058,-0.8612779974937439,-0.3005374073982239,0.28301890768970916,-0.06313713209634564,0.26509930120989805
1759825547.4737856,1,-0.9063225083581571,-0.8799974448711257,-0.2735962035102837,0.282444764760759,True,0.1,-0.8900967836380005,-0.8844596743583679,-0.26591378450393677,0.282444764760759,-0.09166611461063212,0.32428142336566934
1759825547.5820389,1,-0.8859030858632261,-0.8856552584559766,-0.2608656333073043,0.282444764760759,True,0.1,-0.8900967836380005,-0.8844596743583679,-0.26591378450393677,0.282444764760759,-0.02768041419855294,0.23286464216694663
1759825547.708352,1,-0.8394279616048684,-0.897640167810659,-0.2466561689240212,0.2763384304674495,True,0.1,-0.8272141218185425,-0.9006742835044861,-0.24546951055526733,0.2763384304674495,-0.05836767376495011,0.299740833574432
1759825547.8251355,1,-0.8216409504587141,-0.9020817776544083,-0.23729474334487044,0.2763384304674495,True,0.1,-0.8272141218185425,-0.9006742835044861,-0.24546951055526733,0.2763384304674495,-0.020011406045910007,0.23072606500590423
1759825547.9345422,1,-0.7789361560785769,-0.9123525342749201,-0.22789143998596728,0.2596857632946663,True,0.1,-0.7681479454040527,-0.9149484038352966,-0.23232801258563995,0.2596857632946663,-0.04691118310437581,0.2876592431037226
1759825548.054354,1,-0.7626043169662776,-0.9161904983782652,-0.22211134208714256,0.2596857632946663,True,0.1,-0.7681479454040527,-0.9149484038352966,-0.23232801258563995,0.2596857632946663,-0.02294600841918104,0.22665799656148072
1759825548.171132,1,-0.7191760239078149,-0.9261203065578796,-0.21557722354512165,0.2628874975963828,True,0.1,-0.7081884741783142,-0.9286975860595703,-0.2207641750574112,0.2628874975963828,-0.057930341175765676,0.29732698494576926
1759825548.2856772,1,-0.7025739869434228,-0.9298502823007031,-0.21187866797494337,0.2628874975963828,True,0.1,-0.7081884741783142,-0.9286975860595703,-0.2207641750574112,0.2628874975963828,-0.06876717188038484,0.29070530976796
1759825548.4073596,1,-0.6538581100143965,-0.9402377134525736,-0.2020665695360364,0.2908568452576661,True,0.1,-0.6413304805755615,-0.9429073333740234,-0.19905349612236023,0.2908568452576661,-0.06876717188038484,0.29070530976796
1759825548.526196,1,-0.6352289474662242,-0.9441028727230499,-0.19551158600172514,0.2908568452576661,True,0.1,-0.6413304805755615,-0.9429073333740234,-0.19905349612236023,0.2908568452576661,-0.059956901738042134,0.27131164320647516
1759825548.6443834,1,-0.5866888035349002,-0.9533241266545339,-0.18376333721804627,0.29128126519884207,True,0.1,-0.5743559002876282,-0.9555630087852478,-0.17678461968898773,0.29128126519884207,-0.08541199985055137,0.3353987227947711
1759825548.7613013,1,-0.5681253485635026,-0.9567265237639211,-0.1753039041278761,0.29128126519884207,True,0.1,-0.5743559002876282,-0.9555630087852478,-0.17678461968898773,0.29128126519884207,-0.045882026212019866,0.2605668941676018
1759825548.869505,1,-0.5202775504762692,-0.9646130935264157,-0.1620968290282132,0.28571653575477707,True,0.1,-0.5080997347831726,-0.9664421081542969,-0.1537247598171234,0.28571653575477707,-0.06782404358574645,0.3289467149664356
1759825548.9883296,1,-0.501978918764758,-0.967492639338795,-0.15266322169242486,0.28571653575477707,True,0.1,-0.5080997347831726,-0.9664421081542969,-0.1537247598171234,0.28571653575477707,-0.024949319860525065,0.2571122898780428
1759825549.110026,1,-0.4507438348292389,-0.9748408128800992,-0.14105955736010856,0.30411081447663657,True,0.1,-0.43765971064567566,-0.9765526652336121,-0.13645319640636444,0.30411081447663657,-0.04067415288724341,0.3214370398449071
1759825549.2275176,1,-0.4311554764694088,-0.9775227829004078,-0.13307836833411457,0.30411081447663657,True,0.1,-0.43765971064567566,-0.9765526652336121,-0.13645319640636444,0.30411081447663657,-0.007743779406943929,0.2372201118206735
1759825549.3518295,1,-0.38388730789796954,-0.9836699123021976,-0.12568866052666294,0.2684405203157146,True,0.1,-0.37111976742744446,-0.9852822422981262,-0.127816841006279,0.2684405203157146,-0.02050091372077567,0.2946092894481368
1759825549.4725192,1,-0.3658231062579415,-0.9859454575389404,-0.12131998463917526,0.2684405203157146,True,0.1,-0.37111976742744446,-0.9852822422981262,-0.127816841006279,0.2684405203157146,-0.020578667031067255,0.30525373008803813
1759825549.587947,1,-0.3139953922385593,-0.9923579173882442,-0.11649453022623746,0.30370347195222547,True,0.1,-0.300597608089447,-0.9940622448921204,-0.1205194815993309,0.30370347195222547,-0.020578667031067255,0.30525373008803813
1759825549.6957743,1,-0.29419256198332167,-0.9947533572368749,-0.11386497713822408,0.30370347195222547,True,0.1,-0.300597608089447,-0.9940622448921204,-0.1205194815993309,0.30370347195222547,-0.023743016973293507,0.284649681140203
1759825549.817754,1,-0.24516359792513942,-1.0004913980281078,-0.10995267626439897,0.3073824380578248,True,0.1,-0.23373770713806152,-1.0018916130065918,-0.11304166167974472,0.3073824380578248,-0.023743016973293507,0.284649681140203
1759825549.9415972,1,-0.22643124917004362,-1.0026388342887271,-0.10778501975184795,0.3073824380578248,True,0.1,-0.23373770713806152,-1.0018916130065918,-0.11304166167974472,0.3073824380578248,-0.02638851523747121,0.2723274585568827
1759825550.0695639,1,-0.17717976510442393,-1.0080087344350535,-0.10348367489586785,0.2669504426388817,True,0.1,-0.16314491629600525,-1.0095669031143188,-0.10378419607877731,0.2669504426388817,-0.042372351254547524,0.3401459032415345
1759825550.1954253,1,-0.15836310844045323,-1.0100193441617953,-0.10057110462865815,0.2669504426388817,True,0.1,-0.16314491629600525,-1.0095669031143188,-0.10378419607877731,0.2669504426388817,-0.026665076586542824,0.2754786676288434
1759825550.320654,1,-0.10154992549751274,-1.0155203878217023,-0.09409476085419399,0.31160285737363014,True,0.1,-0.08560037612915039,-1.0170077085494995,-0.08994041383266449,0.31160285737363014,-0.04002975198098646,0.34187080953418086
1759825550.4469674,1,-0.0798423336293838,-1.0175503845265603,-0.0892953933957834,0.31160285737363014,True,0.1,-0.08560037612915039,-1.0170077085494995,-0.08994041383266449,0.31160285737363014,-0.016048443281254876,0.29930784473780725
1759825550.5526798,1,-0.025305649312752393,-1.0221106399353996,-0.08252624255573515,0.3189066014931788,True,0.1,-0.011232534423470497,-1.023187279701233,-0.0791124776005745,0.3189066014931788,-0.016048443281254876,0.29930784473780725
1759825550.6548748,1,-0.004468225779566428,-1.0237793345376138,-0.07752730860504897,0.3189066014931788,True,0.1,-0.011232534423470497,-1.023187279701233,-0.0791124776005745,0.3189066014931788,0.026409653920691056,0.2865180684674666
1759825550.7541938,1,0.03964617624156609,-1.0272002650363727,-0.07565063186568821,0.31430739787310796,True,0.0993189811706543,0.04767564311623573,-1.0278165340423584,-0.08076773583889008,0.31430739787310796,0.026409653920691056,0.2865180684674666
1759825550.8565316,1,0.056579154394103284,-1.0284969614131456,-0.0745388490340737,0.31430739787310796,True,0.1,0.04767564311623573,-1.0278165340423584,-0.08076773583889008,0.31430739787310796,0.058918270975397036,0.28822785122992034
1759825550.9621644,1,0.0981740063047956,-1.0320528689055564,-0.0796845937755375,0.2733251440838667,True,0.1,0.10703697055578232,-1.0329731702804565,-0.09385859221220016,0.2733251440838667,0.058918270975397036,0.28822785122992034
1759825551.0635328,1,0.11405789812936382,-1.0334612765450655,-0.08425337124457499,0.2733251440838667,True,0.1,0.10703697055578232,-1.0329731702804565,-0.09385859221220016,0.2733251440838667,0.036235462710678235,0.2362899266179618
1759825551.1684344,1,0.15358711943338263,-1.0374761458396395,-0.09239179084890736,0.2693505585783583,True,0.1,0.16143201291561127,-1.0385302305221558,-0.1076834425330162,0.2693505585783583,0.07532384623181088,0.30121049893980245
1759825551.2718785,1,0.16867848608972577,-1.0390923888852985,-0.09866837120677019,0.2693505585783583,True,0.1,0.16143201291561127,-1.0385302305221558,-0.1076834425330162,0.2693505585783583,0.08344227417396155,0.30696894319027823
1759825551.3748195,1,0.21434371405646274,-1.0446004090494754,-0.11251533661840796,0.30732673851558356,True,0.1,0.22366923093795776,-1.0460898876190186,-0.13265782594680786,0.30732673851558356,0.08344227417396155,0.30696894319027823
1759825551.4762502,1,0.2317696502485565,-1.0468581678223259,-0.12306032702355907,0.30732673851558356,True,0.1,0.22366923093795776,-1.0460898876190186,-0.13265782594680786,0.30732673851558356,0.05482735933112082,0.2857508057657438
1759825551.5792453,1,0.2751984844946464,-1.053224810372547,-0.13774153493108088,0.2989026892144718,True,0.1,0.28370997309684753,-1.0548555850982666,-0.15341083705425262,0.2989026892144718,0.05482735933112082,0.2857508057657438
1759825551.6779366,1,0.2916180349866476,-1.0557925591715582,-0.1482996420533773,0.2989026892144718,True,0.09869122505187988,0.28370997309684753,-1.0548555850982666,-0.15341083705425262,0.2989026892144718,0.01770674493116786,0.28513588694173436
1759825551.7792218,1,0.332248307752379,-1.0624512308886433,-0.1585466567957443,0.2816249653303091,True,0.1,0.3401477038860321,-1.0639756917953491,-0.16352340579032898,0.2816249653303091,0.01770674493116786,0.28513588694173436
1759825551.8725443,1,0.3470426491838715,-1.0649824761578826,-0.16518712555066628,0.2816249653303091,True,0.0933225154876709,0.3401477038860321,-1.0639756917953491,-0.16352340579032898,0.2816249653303091,-0.014190992957171744,0.2903277007996191
1759825551.9805486,1,0.3886009598011892,-1.071979944127764,-0.16900546074356626,0.28381754865040915,True,0.1,0.3969837427139282,-1.0734175443649292,-0.16345643997192383,0.28381754865040915,-0.014190992957171744,0.2903277007996191
1759825552.0719912,1,0.40355418307064117,-1.0745332165181503,-0.17080352871338178,0.28381754865040915,True,0.09144258499145508,0.3969837427139282,-1.0734175443649292,-0.16345643997192383,0.28381754865040915,-0.037678471405531155,0.2880306935356498
1759825552.184055,1,0.44647735406973954,-1.0815361511011594,-0.16837784831235858,0.2909119923258813,True,0.1,0.45528551936149597,-1.0828202962875366,-0.15529654920101166,0.2909119923258813,-0.037678471405531155,0.2880306935356498
1759825552.2792552,1,0.46235092886620294,-1.0840970256473423,-0.16550544692163527,0.2909119923258813,True,0.0952000617980957,0.45528551936149597,-1.0828202962875366,-0.15529654920101166,0.2909119923258813,-0.023490535980410954,0.2224951735565344
1759825552.3753371,1,0.46851629290846836,-1.0850583363791553,-0.16354473152974158,0.2909119923258813,True,0.09608197212219238,0.45528551936149597,-1.0828202962875366,-0.15529654920101166,0.2909119923258813,-0.05323366036442678,0.2830525964365301
1759825552.4764428,1,0.5180156692902897,-1.0924046860146133,-0.1557847314396028,0.26305945131693786,True,0.1,0.5325626134872437,-1.0943241119384766,-0.13918311893939972,0.26305945131693786,-0.08363328746407106,0.3428019323144087
1759825552.568596,1,0.5361552541137089,-1.095016870064582,-0.14923160410868874,0.26305945131693786,True,0.09215307235717773,0.5325626134872437,-1.0943241119384766,-0.13918311893939972,0.26305945131693786,-0.05737224291336673,0.26918814388179885
1759825552.662481,1,0.5432654267991099,-1.0959791117657456,-0.1452110720720654,0.26305945131693786,True,0.09388518333435059,0.5325626134872437,-1.0943241119384766,-0.13918311893939972,0.26305945131693786,-0.0891778299096444,0.328091255787647
1759825552.7565997,1,0.601235621276761,-1.1030748634191978,-0.1295872912036593,0.31054272502743413,True,0.09411859512329102,0.6191830039024353,-1.1048907041549683,-0.10512810200452805,0.31054272502743413,-0.0891778299096444,0.328091255787647
1759825552.8544183,1,0.6238361231253553,-1.1056753354114452,-0.11730927330216723,0.31054272502743413,True,0.09781861305236816,0.6191830039024353,-1.1048907041549683,-0.10512810200452805,0.31054272502743413,-0.058959491257160934,0.2739838968806902
1759825552.946501,1,0.6318096324051716,-1.1064535068910837,-0.10953374590978981,0.31054272502743413,True,0.09208273887634277,0.6191830039024353,-1.1048907041549683,-0.10512810200452805,0.31054272502743413,-0.058959491257160934,0.2739838968806902
1759825553.0372405,1,0.6849164533425013,-1.1110728303721187,-0.09377717397888041,0.29361337956894823,True,0.09073948860168457,0.7013673782348633,-1.11216139793396,-0.07599550485610962,0.29361337956894823,-0.058959491257160934,0.2739838968806902
1759825553.1322637,1,0.7056952890160596,-1.1127271017820566,-0.08228629831069867,0.29361337956894823,True,0.09502315521240234,0.7013673782348633,-1.11216139793396,-0.07599550485610962,0.29361337956894823,-0.04560879164917253,0.25180235704145965
1759825553.2152393,1,0.712295570184719,-1.113132457014406,-0.07560065872238653,0.29361337956894823,True,0.08297562599182129,0.7013673782348633,-1.11216139793396,-0.07599550485610962,0.29361337956894823,-0.04560879164917253,0.25180235704145965
1759825553.308531,1,0.7586753714791706,-1.1161183240221282,-0.06493484478146527,0.2662326963695016,True,0.0932917594909668,0.7720310091972351,-1.116833209991455,-0.057728223502635956,0.2662326963695016,-0.08928699845123766,0.3067635350646739
1759825553.4021547,1,0.7764311148006248,-1.1171655466307642,-0.057129784716893894,0.2662326963695016,True,0.09362363815307617,0.7720310091972351,-1.116833209991455,-0.057728223502635956,0.2662326963695016,-0.05806871666528046,0.24210145835569752
1759825553.498753,1,0.7835198023910378,-1.1175060609761887,-0.053181611253169336,0.2662326963695016,True,0.09659838676452637,0.7720310091972351,-1.116833209991455,-0.057728223502635956,0.2662326963695016,-0.10610082526349274,0.29350129698631383
1759825553.6124861,1,0.8400776428187219,-1.1196964980723216,-0.03661559541729886,0.2873119056165126,True,0.1,0.857297956943512,-1.1201552152633667,-0.020317381247878075,0.2873119056165126,-0.10610082526349274,0.29350129698631383
1759825553.7219985,1,0.8616882949375094,-1.1203567126469716,-0.024729426617367878,0.2873119056165126,True,0.1,0.857297956943512,-1.1201552152633667,-0.020317381247878075,0.2873119056165126,-0.1001894797734515,0.25479203981727955
1759825553.8433409,1,0.9078835040789561,-1.120557609686148,-0.004943854387459368,0.2675419863586917,True,0.1,0.9199025630950928,-1.1203206777572632,0.011970908381044865,0.2675419863586917,-0.1001894797734515,0.25479203981727955
1759825553.9545767,1,0.9255308968448789,-1.1204373603515678,0.008409310385170343,0.2675419863586917,True,0.1,0.9199025630950928,-1.1203206777572632,0.011970908381044865,0.2675419863586917,-0.10512238631648074,0.2485145878701667
1759825554.075148,1,0.9680505843780249,-1.1192244079875857,0.02784654281681398,0.25084286209057355,True,0.1,0.9788272380828857,-1.1186599731445312,0.04307876527309418,0.25084286209057355,-0.16794909639104638,0.29577861349783086
1759825554.1848252,1,0.9842879135505246,-1.1185853049805758,0.04177163627239544,0.25084286209057355,True,0.1,0.9788272380828857,-1.1186599731445312,0.04307876527309418,0.25084286209057355,-0.11399536427432189,0.2416061276106084
1759825554.30039,1,1.028603050485336,-1.1156006146129758,0.06553561041548495,0.276347148001334,True,0.1,1.038930058479309,-1.1145427227020264,0.08674506843090057,0.276347148001334,-0.18642640671583344,0.29181753926400117
1759825554.4032495,1,1.0455164223783557,-1.1142257375106404,0.08324359833140793,0.276347148001334,True,0.1,1.038930058479309,-1.1145427227020264,0.08674506843090057,0.276347148001334,-0.10756215967891869,0.22261328048085777
1759825554.503998,1,1.0832807226497492,-1.1099987076689328,0.10787036593812527,0.25609392878243775,True,0.1,1.090853214263916,-1.108769178390503,0.12642091512680054,0.25609392878243775,-0.18643199378938924,0.27396140305802463
1759825554.6147552,1,1.0976829056674988,-1.1081583662659247,0.12553382857816597,0.25609392878243775,True,0.1,1.090853214263916,-1.108769178390503,0.12642091512680054,0.25609392878243775,-0.11450616598014385,0.2280976745292341
1759825554.7296827,1,1.1376587321585434,-1.1019542759243044,0.1518023510599722,0.24443065831399638,True,0.1,1.1473854780197144,-1.1000758409500122,0.17064014077186584,0.24443065831399638,-0.18805049230321558,0.27373478934039924
1759825554.8495145,1,1.152895349868371,-1.0993558796986294,0.1705926782832652,0.24443065831399638,True,0.1,1.1473854780197144,-1.1000758409500122,0.17064014077186584,0.24443065831399638,-0.10761344406802742,0.22018546299314948
1759825554.9496903,1,1.192352337970735,-1.0914761758550828,0.19695518655590405,0.25160374769916977,True,0.1,1.201425313949585,-1.0893129110336304,0.21408334374427795,0.25160374769916977,-0.18801889772145586,0.2676262836170707
1759825555.0718074,1,1.207379071851709,-1.088232003004213,0.21574813439438056,0.25160374769916977,True,0.1,1.201425313949585,-1.0893129110336304,0.21408334374427795,0.25160374769916977,-0.10886065389395583,0.21011765573177413
1759825555.195494,1,1.2475736757908673,-1.0782996243106844,0.24288426809038643,0.23423436896237343,True,0.1,1.2582876682281494,-1.0753207206726074,0.25935494899749756,0.23423436896237343,-0.18653845341015796,0.2527022258046037
1759825555.3084388,1,1.2628717076843892,-1.0742746678772601,0.26097438976726206,0.23423436896237343,True,0.1,1.2582876682281494,-1.0753207206726074,0.25935494899749756,0.23423436896237343,-0.2066856668162007,0.25165554826276376
1759825555.4303486,1,1.3034650962923626,-1.062207312042856,0.2932968563591576,0.24752290655103623,True,0.1,1.3137933015823364,-1.058771014213562,0.31641191244125366,0.24752290655103623,-0.2066856668162007,0.25165554826276376
1759825555.5404341,1,1.3188878376204212,-1.0573128471064062,0.31515062941962135,0.24752290655103623,True,0.1,1.3137933015823364,-1.058771014213562,0.31641191244125366,0.24752290655103623,-0.2046657582550484,0.2383765933913668
1759825555.652315,1,1.3573197836737445,-1.0434326945408003,0.34989678138965363,0.2542973179054133,True,0.1,1.3661553859710693,-1.0398049354553223,0.37369513511657715,0.2542973179054133,-0.2046657582550484,0.2383765933913668
1759825555.748142,1,1.3715111901297443,-1.0379633212032637,0.372705349214578,0.2542973179054133,True,0.09582710266113281,1.3661553859710693,-1.0398049354553223,0.37369513511657715,0.2542973179054133,-0.20451266308317173,0.22989383794064103
1759825555.8653293,1,1.4048496023165824,-1.023759025714186,0.4056448884449919,0.22894176125555663,True,0.1,1.4123069047927856,-1.0202120542526245,0.4261075556278229,0.22894176125555663,-0.3080689495670743,0.2812890335264184
1759825555.9819202,1,1.4174791634913007,-1.018082343173427,0.4288572084276021,0.22894176125555663,True,0.1,1.4123069047927856,-1.0202120542526245,0.4261075556278229,0.22894176125555663,-0.21660039349411164,0.24016208302629252
1759825556.0975184,1,1.4574920405569234,-0.9977198239486089,0.47156958301128515,0.27958486934793153,True,0.1,1.4665615558624268,-0.9924402236938477,0.5081908702850342,0.27958486934793153,-0.31601432170486454,0.29197555463304936
1759825556.2081826,1,1.4725876553084567,-0.9895596458013598,0.5035782452254081,0.27958486934793153,True,0.1,1.4665615558624268,-0.9924402236938477,0.5081908702850342,0.27958486934793153,-0.166526603848844,0.21434979832209694
1759825556.308398,1,1.5053651158170003,-0.969384943404063,0.5474860962681918,0.24547585333098468,True,0.1,1.512384057044983,-0.9643270373344421,0.5773618817329407,0.24547585333098468,-0.26643747868405576,0.26970878965965844
1759825556.4128122,1,1.5176886017851752,-0.9613447682568008,0.5784433576795518,0.24547585333098468,True,0.1,1.512384057044983,-0.9643270373344421,0.5773618817329407,0.24547585333098468,-0.13888817275653054,0.22646757877359264
1759825556.527474,1,1.5502750103447887,-0.9383218480712493,0.6168082545610822,0.2514867359853174,True,0.1,1.5574498176574707,-0.9326663613319397,0.6346998810768127,0.2514867359853174,-0.2259132965228794,0.2770111948712977
1759825556.62192,1,1.5620917204579934,-0.9295529880137656,0.6424210525007128,0.2514867359853174,True,0.09444618225097656,1.5574498176574707,-0.9326663613319397,0.6346998810768127,0.2514867359853174,-0.1208792753889103,0.21866280855270334
1759825556.7205174,1,1.5667860764489443,-0.9257760168479295,0.655761218655706,0.2514867359853174,True,0.09859728813171387,1.5574498176574707,-0.9326663613319397,0.6346998810768127,0.2514867359853174,-0.2156944515183863,0.2762740442166831
1759825556.8225875,1,1.6054523141589092,-0.8947211454014395,0.6906052887132681,0.25595987652709556,True,0.1,1.6168638467788696,-0.8852424621582031,0.70804762840271,0.25595987652709556,-0.2156944515183863,0.2762740442166831
1759825556.9199944,1,1.6198221966285353,-0.8827675879332534,0.7140338678167701,0.25595987652709556,True,0.09740686416625977,1.6168638467788696,-0.8852424621582031,0.70804762840271,0.25595987652709556,-0.17570701468867256,0.2549587334232961
1759825557.0180957,1,1.625222949216102,-0.8779938264355832,0.7270205974624071,0.25595987652709556,True,0.09810137748718262,1.6168638467788696,-0.8852424621582031,0.70804762840271,0.25595987652709556,-0.17570701468867256,0.2549587334232961
1759825557.118075,1,1.6628213956630815,-0.8429534562149371,0.7610691615681198,0.2626004305279829,True,0.09997916221618652,1.6739991903305054,-0.8321542739868164,0.7830483913421631,0.2626004305279829,-0.25875762646162137,0.3113537460132948
1759825557.2168794,1,1.6768814135275378,-0.8294182243553617,0.7860889530972299,0.2626004305279829,True,0.09880447387695312,1.6739991903305054,-0.8321542739868164,0.7830483913421631,0.2626004305279829,-0.12469637575533277,0.22843127224168233
1759825557.3096395,1,1.6816530835392336,-0.8245039782489241,0.7981611090220824,0.2626004305279829,True,0.09276008605957031,1.6739991903305054,-0.8321542739868164,0.7830483913421631,0.2626004305279829,-0.20773733544686657,0.2870703508286796
1759825557.4123461,1,1.717810840637444,-0.7850313279823429,0.8362142795887308,0.27229989205700245,True,0.1,1.7284799814224243,-0.7727545499801636,0.8647774457931519,0.27229989205700245,-0.20773733544686657,0.2870703508286796
1759825557.5111854,1,1.7312647229994516,-0.7697871068093897,0.8632557919279815,0.27229989205700245,True,0.09883928298950195,1.7284799814224243,-0.7727545499801636,0.8647774457931519,0.27229989205700245,-0.1421040389016497,0.26383067272246347
1759825557.6124446,1,1.75824510316408,-0.7364120616240256,0.8972078499355431,0.2942455171607118,True,0.1,1.7631657123565674,-0.7296616435050964,0.9127348065376282,0.2942455171607118,-0.1421040389016497,0.26383067272246347
1759825557.71293,1,1.7682659075793967,-0.7234306745937943,0.9193718241770537,0.2942455171607118,True,0.1,1.7631657123565674,-0.7296616435050964,0.9127348065376282,0.2942455171607118,-0.1277195483055138,0.25944562735400795
1759825557.808235,1,1.7715864341515435,-0.7187468409074748,0.931087576383967,0.2942455171607118,True,0.09530496597290039,1.7631657123565674,-0.7296616435050964,0.9127348065376282,0.2942455171607118,-0.1277195483055138,0.25944562735400795
1759825557.909666,1,1.8005447224675561,-0.6787700225282669,0.9567450555824557,0.26101103737453646,True,0.1,1.8088598251342773,-0.667040228843689,0.9640055298805237,0.26101103737453646,-0.1277195483055138,0.25944562735400795
1759825558.0069268,1,1.811250273027744,-0.663580871361625,0.9733302485770849,0.26101103737453646,True,0.09726071357727051,1.8088598251342773,-0.667040228843689,0.9640055298805237,0.26101103737453646,-0.10399865812297193,0.24736908726910942
1759825558.097971,1,1.8148602992261458,-0.6582016559026916,0.980859270268736,0.26101103737453646,True,0.09104418754577637,1.8088598251342773,-0.667040228843689,0.9640055298805237,0.26101103737453646,-0.17725057899380658,0.31228930748147365
1759825558.201598,1,1.844017970408373,-0.6135362012355896,1.006650081245109,0.2703088297868997,True,0.1,1.8528046607971191,-0.5998538732528687,1.0209240913391113,0.2703088297868997,-0.17725057899380658,0.31228930748147365
1759825558.2950003,1,1.8545794232016826,-0.5969145757405669,1.02399656896762,0.2703088297868997,True,0.09340238571166992,1.8528046607971191,-0.5998538732528687,1.0209240913391113,0.2703088297868997,-0.1463965789609727,0.28635929142132965
1759825558.385522,1,1.8583231496639852,-0.5907360574954659,1.033457946617494,0.2703088297868997,True,0.09052157402038574,1.8528046607971191,-0.5998538732528687,1.0209240913391113,0.2703088297868997,-0.1463965789609727,0.28635929142132965
1759825558.4868543,1,1.8861833663760192,-0.5413961231772294,1.063569700358694,0.2985313510871522,True,0.1,1.8940293788909912,-0.526794970035553,1.0865377187728882,0.2985313510871522,-0.1463965789609727,0.28635929142132965
1759825558.5860276,1,1.8964957610231994,-0.5224706413298001,1.0852672712843514,0.2985313510871522,True,0.09917330741882324,1.8940293788909912,-0.526794970035553,1.0865377187728882,0.2985313510871522,-0.08916742798165345,0.2450823505726109
1759825558.6811283,1,1.9000048181821534,-0.5155378241471715,1.0965089392521552,0.2985313510871522,True,0.09510064125061035,1.8940293788909912,-0.526794970035553,1.0865377187728882,0.2985313510871522,-0.1513280886701267,0.30782273927647846
1759825558.7744486,1,1.922452560400751,-0.46959363898251455,1.122629803660522,0.269197012389942,True,0.09332036972045898,1.929289698600769,-0.45503875613212585,1.1392089128494263,0.269197012389942,-0.1513280886701267,0.30782273927647846
1759825558.8716958,1,1.9309904953588892,-0.4515765030851051,1.1416540152146348,0.269197012389942,True,0.09724712371826172,1.929289698600769,-0.45503875613212585,1.1392089128494263,0.269197012389942,-0.05541560586755878,0.23129350486351544
1759825558.9667397,1,1.9339865527460316,-0.44482087171563345,1.1512469313023308,0.269197012389942,True,0.09504389762878418,1.929289698600769,-0.45503875613212585,1.1392089128494263,0.269197012389942,-0.11885823184178257,0.30061667346533133
1759825559.064569,1,1.9554597688316797,-0.39468621056487924,1.1739094711659366,0.29136511377899293,True,0.09782934188842773,1.9616100788116455,-0.3798145651817322,1.1852978467941284,0.29136511377899293,-0.11885823184178257,0.30061667346533133
1759825559.1635175,1,1.9634929443812963,-0.3753285280873017,1.189627516893215,0.29136511377899293,True,0.09894847869873047,1.9616100788116455,-0.3798145651817322,1.1852978467941284,0.29136511377899293,-0.08514626221976762,0.2684389404942793
1759825559.2597842,1,1.9662972391294384,-0.3681492336737626,1.1980333389414533,0.29136511377899293,True,0.0962667465209961,1.9616100788116455,-0.3798145651817322,1.1852978467941284,0.29136511377899293,-0.08514626221976762,0.2684389404942793
1759825559.3632963,1,1.9856225729477874,-0.316971834821335,1.217488968362149,0.28172396491848634,True,0.1,1.991278052330017,-0.30157890915870667,1.2264293432235718,0.28172396491848634,-0.12807180079516023,0.3332208244942922
1759825559.4606686,1,1.9927251789063858,-0.29762084674952055,1.231320186340957,0.28172396491848634,True,0.09737229347229004,1.991278052330017,-0.30157890915870667,1.2264293432235718,0.28172396491848634,-0.054147522277434135,0.2454921502680935
1759825559.5547466,1,1.995186181901121,-0.29051562072353665,1.2379336422833518,0.28172396491848634,True,0.09407806396484375,1.991278052330017,-0.30157890915870667,1.2264293432235718,0.28172396491848634,-0.09309804242716524,0.3105312594560373
1759825559.6788888,1,2.014156297629465,-0.23307927040051088,1.2582211692216534,0.28117618430879215,True,0.1,2.020249843597412,-0.21402189135551453,1.2702113389968872,0.28117618430879215,-0.09309804242716524,0.3105312594560373
1759825559.7923782,1,2.021206291813288,-0.21107554658385053,1.2725548204133794,0.28117618430879215,True,0.1,2.020249843597412,-0.21402189135551453,1.2702113389968872,0.28117618430879215,-0.04796707409060019,0.27419066026349054
1759825559.9120579,1,2.035771432878561,-0.1616542866678598,1.2896269048527476,0.2922988379605469,True,0.1,2.039508581161499,-0.14839127659797668,1.2951124906539917,0.2922988379605469,-0.08259325212334723,0.3391655676860774
1759825560.03354,1,2.041163288283343,-0.14272631457972873,1.301239032924916,0.2922988379605469,True,0.1,2.039508581161499,-0.14839127659797668,1.2951124906539917,0.2922988379605469,-0.037073273988930566,0.260803965270464
1759825560.1530716,1,2.05522694450949,-0.09046056901889796,1.3160138537187844,0.31494334331834384,True,0.1,2.058777093887329,-0.07693181931972504,1.3190144300460815,0.31494334331834384,-0.06974494886378757,0.3226280471185893
1759825560.262083,1,2.060438644510743,-0.07045417925810422,1.3261195299615105,0.31494334331834384,True,0.1,2.058777093887329,-0.07693181931972504,1.3190144300460815,0.31494334331834384,-0.026034045743315914,0.23424528827163912
1759825560.3906622,1,2.0717446275687545,-0.02437004956146583,1.3373240579559793,0.28216002559783787,True,0.1,2.0745370388031006,-0.012814866378903389,1.335917353630066,0.28216002559783787,-0.061387347584359375,0.30414691471421856
1759825560.5044982,1,2.075949931579408,-0.006740080162770301,1.3442689394756417,0.28216002559783787,True,0.1,2.0745370388031006,-0.012814866378903389,1.335917353630066,0.28216002559783787,-0.05958712794895682,0.3055275379973116
1759825560.6217446,1,2.0872916100016843,0.04323235793471518,1.3558288021305245,0.30036807991175557,True,0.1,2.0901639461517334,0.0560201071202755,1.3572449684143066,0.30036807991175557,-0.05958712794895682,0.3055275379973116
1759825560.7342205,1,2.0915000794719347,0.062347676716122784,1.3632996814012444,0.30036807991175557,True,0.1,2.0901639461517334,0.0560201071202755,1.3572449684143066,0.30036807991175557,-0.04693543958330437,0.2890738109400537
1759825560.8478765,1,2.1014485079347325,0.11053209618886245,1.3739316178900367,0.30762840861974966,True,0.1,2.1037089824676514,0.12170097976922989,1.375017762184143,0.30762840861974966,-0.04693543958330437,0.2890738109400537
1759825560.9545875,1,2.105131341177749,0.12896074775028746,1.3807004375441903,0.30762840861974966,True,0.1,2.1037089824676514,0.12170097976922989,1.375017762184143,0.30762840861974966,-0.03756426979937366,0.2797623632690118
1759825561.0813408,1,2.113834871447924,0.1748506154286242,1.3898672856298635,0.27955437565481833,True,0.1,2.1159706115722656,0.18624183535575867,1.3897773027420044,0.27955437565481833,-0.03756426979937366,0.2797623632690118
1759825561.1862285,1,2.117066913322219,0.192396220582165,1.3955393672245586,0.27955437565481833,True,0.1,2.1159706115722656,0.18624183535575867,1.3897773027420044,0.27955437565481833,-0.03294753480722079,0.2823971061228078
1759825561.3026104,1,2.1248375455791138,0.23640165642886019,1.402590886152371,0.26556533067266974,True,0.1,2.1267943382263184,0.24743424355983734,1.4006987810134888,0.26556533067266974,-0.03294753480722079,0.2823971061228078
1759825561.4179738,1,2.1277375151578353,0.2532219929600184,1.4067513824427502,0.26556533067266974,True,0.1,2.1267943382263184,0.24743424355983734,1.4006987810134888,0.26556533067266974,-0.034545306846357704,0.27947760132664456
1759825561.5300937,1,2.135488712003452,0.3000297703880061,1.4127002945828355,0.29427014825039016,True,0.1,2.13733172416687,0.3110120892524719,1.4119397401809692,0.29427014825039016,-0.05861706533341504,0.35286559881214224
1759825561.6342,1,2.138387884459239,0.31791867467087387,1.4167217270823125,0.29427014825039016,True,0.1,2.13733172416687,0.3110120892524719,1.4119397401809692,0.29427014825039016,-0.039737493233397814,0.2727049879494054
1759825561.7519073,1,2.145811031819392,0.3672510771967612,1.4249699971609768,0.31234321884697247,True,0.1,2.147465705871582,0.3786604106426239,1.429324746131897,0.31234321884697247,-0.061122074166174656,0.3401238376599893
1759825561.8654552,1,2.148556352410771,0.386107864116405,1.431019051581364,0.31234321884697247,True,0.1,2.147465705871582,0.3786604106426239,1.429324746131897,0.31234321884697247,-0.029708019716572664,0.25908579525883835
1759825561.9923837,1,2.1553335433953604,0.43747024579312543,1.4406275580315757,0.2929826287647439,True,0.1,2.1570255756378174,0.45127952098846436,1.4465268850326538,0.2929826287647439,-0.04935811043825389,0.32391763877101354
1759825562.1196864,1,2.1578207748877833,0.4571025694883675,1.4473271980683977,0.2929826287647439,True,0.1,2.1570255756378174,0.45127952098846436,1.4465268850326538,0.2929826287647439,-0.033028063436781,0.3114151484113793
1759825562.2397938,1,2.164441464215156,0.5143780334116478,1.45720079832466,0.3352465886731314,True,0.1,2.166008949279785,0.529211163520813,1.462594985961914,0.3352465886731314,-0.033028063436781,0.3114151484113793
1759825562.3653247,1,2.1668513658765205,0.5362693462745236,1.4639702972321507,0.3352465886731314,True,0.1,2.166008949279785,0.529211163520813,1.462594985961914,0.3352465886731314,-0.015613607694596965,0.27598140091732787
1759825562.4894848,1,2.1721118767606056,0.5876976076648666,1.4711388717532223,0.2910625316034223,True,0.1,2.173459768295288,0.6015943288803101,1.471482276916504,0.2910625316034223,-0.015613607694596965,0.27598140091732787
1759825562.6148062,1,2.1740453299775804,0.607349263116172,1.4755672150391028,0.2910625316034223,True,0.1,2.173459768295288,0.6015943288803101,1.471482276916504,0.2910625316034223,-0.010460710467715018,0.2827078107363453
1759825562.723874,1,2.1786760788087607,0.6554709537325405,1.4794316946408879,0.2839954011215012,True,0.1,2.1798789501190186,0.6677384972572327,1.4759637117385864,0.2839954011215012,-0.018478215142330612,0.34674086120860076
1759825562.8175454,1,2.180343530176156,0.6731717568037712,1.48148668617484,0.2839954011215012,True,0.09367132186889648,2.1798789501190186,0.6677384972572327,1.4759637117385864,0.2839954011215012,-0.010574066563695084,0.27603007307499533
1759825562.9272027,1,2.184745943851838,0.7210686975202805,1.484097256717412,0.31449221921746523,True,0.1,2.1857428550720215,0.7313105463981628,1.4807850122451782,0.31449221921746523,-0.020143690407264714,0.3421493828637418
1759825563.028983,1,2.186398738283942,0.7393662275514429,1.4856494720929518,0.31449221921746523,True,0.1,2.1857428550720215,0.7313105463981628,1.4807850122451782,0.31449221921746523,-0.011606840235673488,0.26191340907217087
1759825563.150209,1,2.190405643903952,0.785361695778964,1.4880903046230243,0.27892653859017347,True,0.1,2.19142484664917,0.7966115474700928,1.486250400543213,0.27892653859017347,-0.02489502375073016,0.33115218633557264
1759825563.2574627,1,2.19191227772264,0.802932398218128,1.4896530698167378,0.27892653859017347,True,0.1,2.19142484664917,0.7966115474700928,1.486250400543213,0.27892653859017347,-0.015420574668793208,0.27083931554033264
1759825563.3827336,1,2.196049452762262,0.8541819938514678,1.4929283010173968,0.30267710880718873,True,0.1,2.1971020698547363,0.8672100901603699,1.4936243295669556,0.30267710880718873,-0.027284276654134132,0.33316072022555804
1759825563.4760277,1,2.197535061854716,0.8729873843606597,1.4951862350888314,0.30267710880718873,True,0.09329414367675781,2.1971020698547363,0.8672100901603699,1.4936243295669556,0.30267710880718873,-0.014156585553877221,0.24746326456921286
1759825563.5927277,1,2.2008804522085845,0.9183895188954688,1.4987349189058827,0.3000522642581898,True,0.1,2.201559066772461,0.9279574155807495,1.5000834465026855,0.3000522642581898,-0.025672486504383585,0.31745687042249093
1759825563.695769,1,2.202120441148039,0.9357343686380151,1.5012619957064093,0.3000522642581898,True,0.1,2.201559066772461,0.9279574155807495,1.5000834465026855,0.3000522642581898,-0.014078240834836109,0.25135611614129727
1759825563.8057814,1,2.2050209261777325,0.9790496678563093,1.5048871779962179,0.27791578177768606,True,0.1,2.205630302429199,0.9886846542358398,1.5063269138336182,0.27791578177768606,-0.02292135470607981,0.3165770943489837
1759825563.9135134,1,2.2060921146582606,0.9955971092196199,1.5073269894812924,0.27791578177768606,True,0.1,2.205630302429199,0.9886846542358398,1.5063269138336182,0.27791578177768606,-0.018286611686267662,0.3183264988611376
1759825564.0300293,1,2.209188152407456,1.0467652868753943,1.5113657042833468,0.32004972052431946,True,0.1,2.2098588943481445,1.058647871017456,1.5134767293930054,0.32004972052431946,-0.018286611686267662,0.3183264988611376
1759825564.1359026,1,2.210324005060155,1.0663126421992244,1.5141399930633348,0.32004972052431946,True,0.1,2.2098588943481445,1.058647871017456,1.5134767293930054,0.32004972052431946,-0.010953210829537596,0.3005818066430934
1759825564.25243,1,2.2130359261344315,1.116316297481626,1.5175743346566497,0.31589812008270024,True,0.1,2.2136151790618896,1.1277275085449219,1.5184533596038818,0.31589812008270024,-0.010953210829537596,0.3005818066430934
1759825564.3533084,1,2.214032450146657,1.1354181423737415,1.5198026593839025,0.31589812008270024,True,0.1,2.2136151790618896,1.1277275085449219,1.5184533596038818,0.31589812008270024,-0.006254107943863829,0.2920578993828688
1759825564.4682987,1,2.216345539812515,1.1813363664757597,1.5220098334720245,0.29339652949775813,True,0.1,2.216855764389038,1.191605806350708,1.521152377128601,0.29339652949775813,-0.006254107943863829,0.2920578993828688
1759825564.5813458,1,2.217205247428251,1.1988767506192808,1.5232775636077456,0.29339652949775813,True,0.1,2.216855764389038,1.191605806350708,1.521152377128601,0.29339652949775813,-0.006459139334133113,0.2936057485523401
1759825564.687321,1,2.219465136526662,1.2456408246444666,1.5246440063963052,0.2956998061453389,True,0.1,2.2199974060058594,1.2562878131866455,1.5232110023498535,0.2956998061453389,-0.006459139334133113,0.2936057485523401
1759825564.8046126,1,2.220313127202743,1.2635038213962937,1.525334102645978,0.2956998061453389,True,0.1,2.2199974060058594,1.2562878131866455,1.5232110023498535,0.2956998061453389,-0.009599935609116983,0.29009705283390047
1759825564.9202144,1,2.2225055257045336,1.3108498202219017,1.526626679875604,0.2836763238909363,True,0.1,2.2230677604675293,1.3225970268249512,1.5258922576904297,0.2836763238909363,-0.009599935609116983,0.29009705283390047
1759825565.035585,1,2.223329144933609,1.3289349984567573,1.527346850168704,0.2836763238909363,True,0.1,2.2230677604675293,1.3225970268249512,1.5258922576904297,0.2836763238909363,-0.012236600338058068,0.27949409663911967
1759825565.1454968,1,2.225421936052402,1.3773549822772253,1.529004091555258,0.30185414570339275,True,0.1,2.2259128093719482,1.3886418342590332,1.5296764373779297,0.30185414570339275,-0.020973610583682856,0.3544677974442099
1759825565.2555315,1,2.226203578647548,1.3958505198133488,1.5302307311897678,0.30185414570339275,True,0.1,2.2259128093719482,1.3886418342590332,1.5296764373779297,0.30185414570339275,-0.014761821366127137,0.27576899081351525
1759825565.3706114,1,2.228123216849148,1.4467141891139514,1.5332891681703584,0.30179004360701683,True,0.1,2.2285633087158203,1.4595129489898682,1.5361820459365845,0.30179004360701683,-0.02112587250785225,0.34235798224489294
1759825565.4776878,1,2.228823745723433,1.4661436442891358,1.5356132160242932,0.30179004360701683,True,0.1,2.2285633087158203,1.4595129489898682,1.5361820459365845,0.30179004360701683,-0.009279496239136265,0.2643783471677918
1759825565.593865,1,2.230384767717255,1.5158407092828672,1.5389357165550326,0.3112431991893548,True,0.1,2.230682134628296,1.5273308753967285,1.541545033454895,0.3112431991893548,-0.014285018304391883,0.33104450041775507
1759825565.7117152,1,2.230944110383984,1.5348245220556624,1.5413413781880099,0.3112431991893548,True,0.1,2.230682134628296,1.5273308753967285,1.541545033454895,0.3112431991893548,-0.00417861922374918,0.25329500881883593
