timestamp,observer_vehicle_id,vehicle_0_x,vehicle_0_y,vehicle_0_theta,vehicle_0_velocity,vehicle_1_x,vehicle_1_y,vehicle_1_theta,vehicle_1_velocity
1759828505.205378,0,0.0,6.0,-0.05483113549895436,0.0,0.0,0.0,0.0,0.0
1759828505.2165565,0,0.0,6.0,-0.05483113549895436,0.0,0.0,0.0,0.0,0.0
1759828505.2268302,0,0.0,6.0,-0.05483113549895436,0.0,0.0,0.0,0.0,0.0
1759828505.2379484,0,0.0,6.0,-0.05483113549895436,0.0,1.1681404113769531,0.8761053085327148,-0.4587276663187267,0.0
1759828505.249148,0,0.0,6.0,-0.05483113549895436,0.0,2.1504091729431822,1.6128068797073867,-0.8444637065263602,0.0
1759828505.2592683,0,0.0,6.0,-0.05483113549895436,0.0,2.979609603602695,2.234707202702021,-1.170089953818455,0.0
1759828505.270234,0,0.0,6.0,-0.05483113549895436,0.0,3.733827772431576,2.800370829323682,-1.466270735779614,0.0
1759828505.2807298,0,0.0,6.0,-0.05483113549895436,0.0,4.365783745749327,3.2743378093119957,-1.7144392658919445,0.0
1759828505.2920258,0,0.0,6.0,-0.05483113549895436,0.0,4.8959164673037145,3.6719373504777866,-1.9226218985869148,0.0
1759828505.3030105,0,0.0,6.0,-0.05483113549895436,0.0,5.374728462826065,4.031046347119549,-2.110650929320021,0.0
1759828505.3140464,0,0.0,6.0,-0.05483113549895436,0.0,5.7738881543052205,4.330416115728915,-2.267400573435919,0.0
1759828505.3247435,0,0.0,6.0,-0.05483113549895436,0.0,6.10759496787443,4.580696225905823,-2.398446932531413,0.0
1759828505.3354018,0,0.0,6.0,-0.05483113549895436,0.0,6.409265932416611,4.806949183266091,-1.515301964292637,0.0
1759828505.3457391,0,0.0,6.0,-0.05483113549895436,0.0,6.659558327962804,4.994668259190595,-0.7825683051202676,0.0
1759828505.356443,0,0.0,6.0,-0.05483113549895436,0.0,6.86759918423283,5.150698717919991,-0.17352647810257094,0.0
1759828505.3666775,0,0.0,6.0,-0.05483113549895436,0.0,7.0410335192977636,5.280774316265374,0.33420438875391695,0.0
1759828505.377508,0,0.0,6.0,-0.05483113549895436,0.0,7.196373063278634,5.39727883725567,0.7889625615976624,0.0
1759828505.3879063,0,0.0,6.0,-0.05483113549895436,0.0,7.324878449268571,5.493657763418054,1.1651634505391162,0.0
1759828505.399065,0,-1.0592142785981197e-06,5.999995744228363,-2.879845279452528,0.0,7.43132828018168,5.573495042723812,1.4767964666083053,0.0
1759828505.4090722,0,-1.0651399875605724e-06,5.999995720419711,-3.12092755516759,0.0,7.526002055256229,5.64450029053606,1.7539549535317835,0.0
1759828505.4191341,0,-1.0669991310448115e-06,5.999995712949938,3.139631185725751,0.0,7.603960475649596,5.702969037078845,1.9821790612337977,0.0
1759828505.4301984,0,-1.0676900338114374e-06,5.99999571017399,3.136417634793009,0.0,7.6682207225677335,5.7511641655957515,2.1703016198952203,0.0
1759828505.4411252,0,-1.067952886704975e-06,5.999995709117885,3.1359950116451856,0.0,7.724767543694567,5.79357423157172,2.3358430422321304,0.0
1759828505.451446,0,-1.0680532293295026e-06,5.999995708714722,3.1363998615141178,0.0,7.77110870025692,5.828330058124797,2.471507272637989,0.0
1759828505.4622142,0,-1.0680915535570548e-06,5.999995708560741,3.136931677483716,0.0,7.80915442784476,5.856864320262804,2.582886546189141,0.0
1759828505.4728765,0,-1.0681061919285896e-06,5.999995708501926,3.137500301177308,0.0,7.842432519083266,5.881822859343432,2.6803085134456808,0.0
1759828505.482971,0,-1.0681117832789005e-06,5.99999570847946,3.138050500908278,0.0,7.869589765830417,5.902190770453572,2.7598116431299196,0.0
1759828505.493897,0,-1.0681139189841147e-06,5.9999957084708795,3.1384524859248,0.0,7.891781429991557,5.918834499003397,2.8247779767991164,0.0
1759828505.503963,0,-1.0681147347508853e-06,5.999995708467602,3.138846969110695,0.0,7.909978939788499,5.932482615302555,2.8780513809400667,0.0
1759828505.5145645,0,-1.068115046346063e-06,5.99999570846635,3.1391412209139986,0.0,7.9258858228426705,5.944412763564758,2.924618950845155,0.0
1759828505.5257509,0,-1.0681151653648303e-06,5.999995708465872,3.1393664332697018,0.0,7.938816145136186,5.954110493881525,2.962472607356492,0.0
1759828505.5359526,0,-1.068115210825954e-06,5.999995708465689,3.139606329335713,0.0,7.949365771387022,5.9620227042658405,2.9933567507952366,0.0
1759828505.5466065,0,-1.068115228190558e-06,5.99999570846562,3.139788912052591,0.0,7.958529114150523,5.968895203257231,3.0201825345298943,0.0
1759828505.5567749,0,-1.0681152348232465e-06,5.999995708465593,3.1399603382389376,0.0,7.965949846251265,5.9744607457883765,3.04190680695155,0.0
1759828505.5674016,0,-1.0681152373567081e-06,5.999995708465582,3.140089978786806,0.0,7.9719703844774115,5.978976144148419,3.0595319968619554,0.0
1759828505.577854,0,-1.0681152383244043e-06,5.999995708465579,3.140208157968079,0.0,7.977176314422643,5.982880587016186,3.074772412336187,0.0
1759828505.588411,0,-1.0681152386940315e-06,5.999995708465577,3.1403087545324624,0.0,7.981367189113428,5.986023739338303,3.087041242719987,0.0
1759828505.606,0,-1.0681152388352164e-06,5.999995708465576,3.1402371713559383,0.0,7.984723020153834,5.988540609659069,3.0968654739054173,0.0
1759828505.616011,0,-1.0681152388891442e-06,5.999995708465576,3.1403922795007517,0.0,7.987603732001367,5.990701141004193,3.105298788583067,0.0
1759828505.6270561,0,-1.0681152389097428e-06,5.999995708465576,3.140502337155695,0.0,7.989913888789564,5.992433756557993,3.112061797235343,0.0
1759828505.6377635,0,-1.068115238917611e-06,5.999995708465576,3.1405969979158215,0.0,7.9917719588562655,5.99382730746937,3.1175013171856056,0.0
1759828505.6489768,0,-1.0681152389206162e-06,5.999995708465576,3.1406654925843913,0.0,7.9933530940663164,5.995013157482491,3.1221301073874765,0.0
1759828505.6597133,0,-1.0681152389217641e-06,5.999995708465576,3.1407325602406857,0.0,7.994616151951835,5.995960449782728,3.125827722827142,0.0
1759828505.6703868,0,-1.0681152389222025e-06,5.999995708465576,3.1407909117946247,0.0,7.995627740611564,5.996719140385395,3.128789159424538,0.0
1759828505.6811142,0,-1.06811523892237e-06,5.999995708465576,3.1408401163120203,0.0,7.996439909615704,5.997328266422241,3.1311667928519182,0.0
1759828505.691856,0,-1.068115238922434e-06,5.999995708465576,3.1408829636965923,0.0,7.997132831770748,5.99784795742743,3.133195329855926,0.0
1759828505.7033617,0,-1.0681152389224585e-06,5.999995708465576,3.1409107679921213,0.0,7.997684322337747,5.998261574866314,3.134809824376522,0.0
1759828505.7144613,0,-1.0681152389224678e-06,5.999995708465576,3.1409439241947226,0.0,7.9981246280179015,5.998591803738121,3.1360988239542773,0.0
1759828505.7249346,0,-1.0681152389224714e-06,5.999995708465576,3.1409831561274295,0.0,7.998496153921977,5.9988704478385255,3.137186470003518,0.0
1759828505.7357152,0,-1.0681152389224727e-06,5.999995708465576,3.1410139364064698,0.0,7.9987908705182935,5.99909148502585,3.1380492559845568,0.0
1759828505.746345,0,-1.068115238922473e-06,5.999995708465576,3.1410433118527905,0.0,7.9990252939520134,5.9992673023944,3.1387355330886226,0.0
1759828505.7568407,0,-1.0681152389224733e-06,5.999995708465576,3.1410712893767823,0.0,7.999212255652569,5.999407523504934,3.1392828654623224,0.0
1759828505.7677824,0,-1.0681152389224735e-06,5.999995708465576,3.1410917091669788,0.0,7.999361664697245,5.999519580156676,3.139720262035159,0.0
1759828505.7780108,0,-1.0681152389224735e-06,5.999995708465576,3.141118389799317,0.0,7.999488313693054,5.9996145667918395,3.1400910283220336,0.0
1759828505.7884822,0,-1.0681152389224735e-06,5.999995708465576,3.14113982209693,0.0,7.9995887987580465,5.999689930501964,3.1403851994222096,0.0
1759828505.8043602,0,-1.0681152389224735e-06,5.999995708465576,3.141110166208952,0.0,7.999668278418938,5.99974954017754,3.140617876977708,0.0
1759828505.8152616,0,-1.0681152389224735e-06,5.999995708465576,3.141139236358624,0.0,7.999731705949951,5.999797110769862,3.1408035617516687,0.0
1759828505.8263474,0,-1.0681152389224735e-06,5.999995708465576,3.141166005013238,0.0,7.999785204907569,5.999837234940895,3.1409601805210587,0.0
1759828505.837072,0,-1.0681152389224735e-06,5.999995708465576,3.141191975064473,0.0,7.999827610973165,5.999869039452693,3.1410843247306626,0.0
1759828505.8485484,0,-1.0681152389224735e-06,5.999995708465576,3.14120841281677,0.0,7.999861284125613,5.999894294287333,3.141182903243825,0.0
1759828505.8594003,0,-1.0681152389224735e-06,5.999995708465576,3.1412282329088406,0.0,7.999888112874421,5.999914415825279,3.1412614446922893,0.0
1759828505.869578,0,-1.0681152389224735e-06,5.999995708465576,3.1412507119850517,0.0,7.9999095584708835,5.999930500003712,3.1413242269048074,0.0
1759828505.8804457,0,-1.0681152389224735e-06,5.999995708465576,3.141265037154337,0.0,7.999927763572675,5.999944153814,3.1413775225345923,0.0
1759828505.8911657,0,-1.0681152389224735e-06,5.999995708465576,3.1412788817099724,0.0,7.999942185462279,5.999954970218484,3.1414197427703234,0.0
1759828505.9013805,0,-1.0681152389224735e-06,5.999995708465576,3.1412948169533728,0.0,7.9999536455007,5.999963565237193,3.1414532921551057,0.0
1759828505.9122694,0,-1.0681152389224735e-06,5.999995708465576,3.141304709503178,0.0,7.999962767759409,5.99997040692318,3.1414799976648324,0.0
1759828505.9227984,0,-1.0681152389224735e-06,5.999995708465576,3.1413162855147547,0.0,7.999970050594773,5.999975869043279,3.141501318243084,0.0
1759828505.9341848,0,-1.0681152389224735e-06,5.999995708465576,3.1413222675256396,0.0,7.999976202608617,5.999980483048237,3.1415193283292684,0.0
1759828505.9456456,0,-1.0681152389224735e-06,5.999995708465576,3.1413286257729567,0.0,7.999981073180324,5.9999841359727215,3.1415335869799197,0.0
1759828505.9564576,0,-1.0681152389224735e-06,5.999995708465576,3.1413393152785396,0.0,7.999984942319958,5.9999870378240345,3.1415449139274916,0.0
1759828505.967861,0,-1.0681152389224735e-06,5.999995708465576,3.141346545069853,0.0,7.99998802193152,5.99998934752999,3.141553929523206,0.0
1759828505.9791849,0,-1.0681152389224735e-06,5.999995708465576,3.141354394859878,0.0,7.99999047992534,5.999991191023187,3.141561125326346,0.0
1759828505.9904625,0,-1.0681152389224735e-06,5.999995708465576,3.141362618095524,0.0,7.999992558683474,5.999992750089954,3.1415672109129695,0.0
1759828506.0027053,0,-1.0681152389224735e-06,5.999995708465576,3.141366468120795,0.0,7.999994204308269,5.999993984307099,3.1415720284971176,0.0
1759828506.0128856,0,-1.0681152389224735e-06,5.999995708465576,3.141380384430068,0.0,7.99999551360808,5.999994966280803,3.14157586148629,0.0
1759828506.0241761,0,-1.0681152389224735e-06,5.999995708465576,3.1413879332225036,0.0,7.999996556634436,5.99999574854965,3.1415789149570794,0.0
1759828506.0351517,0,-1.0681152389224735e-06,5.999995708465576,3.141396196300171,0.0,7.999997390028848,5.999996373594724,3.141581354728116,0.0
1759828506.0463789,0,-1.0681152389224735e-06,5.999995708465576,3.1414029616690424,0.0,7.999998097290852,5.9999969040406045,3.141583425245183,0.0
1759828506.0577633,0,-1.0681152389224735e-06,5.999995708465576,3.1414089340145654,0.0,7.999998657681795,5.999997324333317,3.141585065795647,0.0
1759828506.0687716,0,-1.0681152389224735e-06,5.999995708465576,3.141416289528099,0.0,7.999999103075235,5.999997658378005,3.1415863696896964,0.0
1759828506.0793796,0,-1.0681152389224735e-06,5.999995708465576,3.1414246025648307,0.0,7.9999994581417795,5.9999979246776,3.141587409150794,0.0
1759828506.0894907,0,-1.0681152389224735e-06,5.999995708465576,3.1414336713935818,0.0,7.999999742058928,5.9999981376152105,3.1415882403212763,0.0
1759828506.0999722,0,-1.0681152389224735e-06,5.999995708465576,3.1414402228407,0.0,7.999999982293521,5.999998317790944,3.1415889436106132,0.0
1759828506.1109557,0,-1.0681152389224735e-06,5.999995708465576,3.1414444645532242,0.0,8.000000172761467,5.999998460641736,3.141589501207558,0.0
1759828506.1214972,0,-1.0681152389224735e-06,5.999995708465576,3.141450054994902,0.0,8.000000324236147,5.999998574247613,3.141589944651302,0.0
1759828506.131744,0,-1.0681152389224735e-06,5.999995708465576,3.141456194057522,0.0,8.000000445039149,5.999998664849756,3.1415902983033743,0.0
1759828506.142657,0,-1.0681152389224735e-06,5.999995708465576,3.1414598217744913,0.0,8.00000054154724,5.99999873723074,3.1415905808318443,0.0
1759828506.1533053,0,-1.0681152389224735e-06,5.999995708465576,3.1414641982391913,0.0,8.000000623232493,5.999998798494607,3.1415908199662903,0.0
1759828506.163508,0,-1.0681152389224735e-06,5.999995708465576,3.1414696563726157,0.0,8.000000688053122,5.999998847110022,3.141591009729372,0.0
1759828506.1738942,0,-1.0681152389224735e-06,5.999995708465576,3.1414741282972205,0.0,8.000000739606548,5.999998885775046,3.1415911606525766,0.0
1759828506.1839397,0,-1.0681152389224735e-06,5.999995708465576,3.1414790932188943,0.0,8.000000780724077,5.999998916613157,3.1415912810245823,0.0
1759828506.1948688,0,-1.0681152389224735e-06,5.999995708465576,3.141481429840324,0.0,8.00000081356583,5.999998941244442,3.1415913771691635,0.0
1759828506.2093015,0,-1.0681152389224735e-06,5.999995708465576,3.141475931359663,0.0,8.00000084131025,5.999998962052733,3.1415914583912503,0.0
1759828506.220364,0,-1.0681152389224735e-06,5.999995708465576,3.141480732317321,0.0,8.000000863312085,5.99999897855409,3.1415915228018565,0.0
1759828506.230453,0,-1.0681152389224735e-06,5.999995708465576,3.141487814696587,0.0,8.000000880823443,5.999998991687593,3.141591574066544,0.0
1759828506.2417645,0,-1.0681152389224735e-06,5.999995708465576,3.1414912730365376,0.0,8.000000894776452,5.999999002152338,3.141591614914127,0.0
1759828506.2522953,0,-1.0681152389224735e-06,5.999995708465576,3.1414960383212804,0.0,8.00000090653787,5.999999010973392,3.141591649345807,0.0
1759828506.2635338,0,-1.0681152389224735e-06,5.999995708465576,3.1414989571156458,0.0,8.000000915844682,5.999999017953492,3.141591676591596,0.0
1759828506.274302,0,-1.0681152389224735e-06,5.999995708465576,3.141502680643006,0.0,8.000000923232447,5.9999990234943095,3.1415916982193584,0.0
1759828506.2849271,0,-1.0681152389224735e-06,5.999995708465576,3.1415064149387995,0.0,8.000000929112764,5.999999027904541,3.141591715434046,0.0
1759828506.2950544,0,-1.0681152389224735e-06,5.999995708465576,3.1415106663356127,0.0,8.000000933807458,5.999999031425556,3.1415917291778124,0.0
1759828506.3057077,0,-1.0681152389224735e-06,5.999995708465576,3.1415134825813986,0.0,8.000000937774644,5.999999034400942,3.1415917407917915,0.0
1759828506.3167405,0,-1.0681152389224735e-06,5.999995708465576,3.1415154727385115,0.0,8.000000940914545,5.999999036755865,3.1415917499838835,0.0
1759828506.3276618,0,-1.0681152389224735e-06,5.999995708465576,3.1415177241545607,0.0,8.0000009434065,5.999999038624829,3.141591757279111,0.0
1759828506.3384526,0,-1.0681152389224735e-06,5.999995708465576,3.14152021164794,0.0,8.000000945389623,5.9999990401121694,3.141591763084724,0.0
1759828506.3491118,0,-1.0681152389224735e-06,5.999995708465576,3.1415228232448733,0.0,8.000000946972063,5.999999041299,3.1415917677173377,0.0
1759828506.3603213,0,-1.0681152389224735e-06,5.999995708465576,3.1415245143484416,0.0,8.00000094823722,5.9999990422478655,3.141591771421098,0.0
1759828506.3709025,0,-1.0681152389224735e-06,5.999995708465576,3.1415271586798674,0.0,8.000000949314234,5.9999990430556265,3.141591774574071,0.0
1759828506.3816555,0,-1.0681152389224735e-06,5.999995708465576,3.1415294224009394,0.0,8.00000095016853,5.999999043696348,3.1415917770750323,0.0
1759828506.3921077,0,-1.0681152389224735e-06,5.999995708465576,3.1415319433268003,0.0,8.000000950848111,5.9999990442060325,3.141591779064511,0.0
1759828506.40727,0,-1.0681152389224735e-06,5.999995708465576,3.1415285325396987,0.0,8.000000951387387,5.999999044610489,3.1415917806432487,0.0
1759828506.4184082,0,-1.0681152389224735e-06,5.999995708465576,3.141531461991825,0.0,8.000000951818668,5.99999904493395,3.141591781905829,0.0
1759828506.4285269,0,-1.0681152389224735e-06,5.999995708465576,3.1415355908667095,0.0,8.000000952184912,5.999999045208632,3.141591782978011,0.0
1759828506.4398448,0,-1.0681152389224735e-06,5.999995708465576,3.1415377190079887,0.0,8.0000009524755,5.999999045426573,3.1415917838287095,0.0
1759828506.4510186,0,-1.0681152389224735e-06,5.999995708465576,3.1415397800294187,0.0,8.000000952706714,5.999999045599983,3.141591784505591,0.0
1759828506.4618473,0,-1.0681152389224735e-06,5.999995708465576,3.1415420694741485,0.0,8.000000952891238,5.9999990457383765,3.141591785045789,0.0
1759828506.4732301,0,-1.0681152389224735e-06,5.999995708465576,3.1415436054172368,0.0,8.000000953047117,5.999999045855286,3.1415917855021265,0.0
1759828506.4838367,0,-1.0681152389224735e-06,5.999995708465576,3.141545844135914,0.0,8.000000953170636,5.999999045947924,3.1415917858637306,0.0
1759828506.494563,0,-1.0681152389224735e-06,5.999995708465576,3.1415477533585907,0.0,8.00000095326875,5.999999046021509,3.1415917861509577,0.0
1759828506.504953,0,-1.0681152389224735e-06,5.999995708465576,3.141549767253885,0.0,8.000000953346907,5.999999046080128,3.141591786379768,0.0
1759828506.5155556,0,-1.0681152389224735e-06,5.999995708465576,3.1415513669067323,0.0,8.00000095340931,5.99999904612693,3.1415917865624507,0.0
1759828506.5260959,0,-1.0681152389224735e-06,5.999995708465576,3.141552875451181,0.0,8.000000953459262,5.999999046164392,3.1415917867086796,0.0
1759828506.5363503,0,-1.0681152389224735e-06,5.999995708465576,3.141554498998147,0.0,8.000000953501877,5.999999046196352,3.14159178683343,0.0
1759828506.5478282,0,-1.0681152389224735e-06,5.999995708465576,3.1415550154483185,0.0,8.00000095353565,5.999999046221682,3.1415917869323025,0.0
1759828506.557937,0,-1.0681152389224735e-06,5.999995708465576,3.141556700512549,0.0,8.000000953562528,5.999999046241841,3.1415917870109897,0.0
1759828506.5688872,0,-1.0681152389224735e-06,5.999995708465576,3.1415576326995307,0.0,8.000000953583951,5.999999046257909,3.141591787073708,0.0
1759828506.5789018,0,-1.0681152389224735e-06,5.999995708465576,3.1415592149128706,0.0,8.000000953601088,5.999999046270762,3.1415917871238768,0.0
1759828506.589312,0,-1.0681152389224735e-06,5.999995708465576,3.141560361014264,0.0,8.000000953615606,5.999999046281651,3.1415917871663814,0.0
1759828506.6036294,0,-1.0681152389224735e-06,5.999995708465576,3.141558873567849,0.0,8.000000953627078,5.999999046290256,3.1415917871999666,0.0
1759828506.6117506,0,-1.0681152389224735e-06,5.999995708465576,3.141562006156427,0.0,8.000000953636231,5.9999990462971216,3.1415917872267642,0.0
1759828506.6223526,0,-1.0681152389224735e-06,5.999995708465576,3.141563134404695,0.0,8.00000095364353,5.999999046302596,3.141591787248133,0.0
1759828506.6329875,0,-1.0681152389224735e-06,5.999995708465576,3.1415640465895827,0.0,8.000000953649366,5.9999990463069715,3.1415917872652144,0.0
1759828506.643902,0,-1.0681152389224735e-06,5.999995708465576,3.1415647618468867,0.0,8.000000953654308,5.999999046310677,3.1415917872796784,0.0
1759828506.6539974,0,-1.0681152389224735e-06,5.999995708465576,3.1415659541725702,0.0,8.000000953658228,5.999999046313619,3.14159178729116,0.0
1759828506.6647766,0,-1.0681152389224735e-06,5.999995708465576,3.141566666405435,0.0,8.000000953661347,5.999999046315957,3.141591787300289,0.0
1759828506.6758156,0,-1.0681152389224735e-06,5.999995708465576,3.1415672329272404,0.0,8.000000953663832,5.999999046317821,3.141591787307565,0.0
1759828506.686414,0,-1.0681152389224735e-06,5.999995708465576,3.1415680728464395,0.0,8.000000953665818,5.999999046319311,3.1415917873133816,0.0
1759828506.6978464,0,-1.0681152389224735e-06,5.999995708465576,3.1415684870354443,0.0,8.0000009536675,5.999999046320573,3.141591787318307,0.0
1759828506.7087626,0,-1.0681152389224735e-06,5.999995708465576,3.1415692244376867,0.0,8.000000953668836,5.999999046321573,3.1415917873222137,0.0
1759828506.71948,0,-1.0681152389224735e-06,5.999995708465576,3.141570058435496,0.0,8.000000953669899,5.99999904632237,3.1415917873253214,0.0
1759828506.730105,0,-1.0681152389224735e-06,5.999995708465576,3.141570884919746,0.0,8.000000953670746,5.999999046323005,3.1415917873277994,0.0
1759828506.740452,0,-1.0681152389224735e-06,5.999995708465576,3.1415717665777034,0.0,8.000000953671423,5.999999046323513,3.141591787329781,0.0
1759828506.7510717,0,-1.0681152389224735e-06,5.999995708465576,3.141572448737344,0.0,8.000000953671996,5.999999046323943,3.141591787331462,0.0
1759828506.7614772,0,-1.0681152389224735e-06,5.999995708465576,3.1415731714414754,0.0,8.000000953672453,5.999999046324285,3.141591787332795,0.0
1759828506.7718086,0,-1.0681152389224735e-06,5.999995708465576,3.1415738691732678,0.0,8.000000953672815,5.9999990463245565,3.1415917873338555,0.0
1759828506.7824948,0,-1.0681152389224735e-06,5.999995708465576,3.1415743790867943,0.0,8.000000953673105,5.999999046324773,3.1415917873347006,0.0
1759828506.793237,0,-1.0681152389224735e-06,5.999995708465576,3.1415748615378902,0.0,8.000000953673334,5.999999046324946,3.1415917873353756,0.0
1759828506.8042955,0,-1.0681152389224735e-06,5.999995708465576,3.1415752420382415,0.0,8.000000953673528,5.999999046325092,3.1415917873359467,0.0
1759828506.81509,0,-1.0681152389224735e-06,5.999995708465576,3.14157574628344,0.0,8.000000953673682,5.999999046325208,3.141591787336399,0.0
1759828506.825839,0,-1.0681152389224735e-06,5.999995708465576,3.14157626703067,0.0,8.000000953673805,5.999999046325301,3.141591787336759,0.0
1759828506.8365057,0,-1.0681152389224735e-06,5.999995708465576,3.141576798555258,0.0,8.000000953673903,5.9999990463253745,3.141591787337046,0.0
1759828506.8476157,0,-1.0681152389224735e-06,5.999995708465576,3.1415771726324397,0.0,8.00000095367398,5.999999046325433,3.1415917873372754,0.0
1759828506.8579588,0,-1.0681152389224735e-06,5.999995708465576,3.141577785599438,0.0,8.000000953674048,5.999999046325483,3.1415917873374704,0.0
1759828506.8681083,0,-1.0681152389224735e-06,5.999995708465576,3.141578402272355,0.0,8.000000953674101,5.999999046325523,3.141591787337625,0.0
1759828506.8782198,0,-1.0681152389224735e-06,5.999995708465576,3.141578955889692,0.0,8.000000953674142,5.999999046325554,3.1415917873377475,0.0
1759828506.8884952,0,-1.0681152389224735e-06,5.999995708465576,3.141579402682403,0.0,8.000000953674176,5.999999046325579,3.1415917873378456,0.0
1759828506.899283,0,-1.0681152389224735e-06,5.999995708465576,3.1415796829561486,0.0,8.000000953674203,5.999999046325599,3.141591787337924,0.0
1759828506.9102106,0,-1.0681152389224735e-06,5.999995708465576,3.1415799440861214,0.0,8.000000953674224,5.999999046325616,3.1415917873379904,0.0
1759828506.9203615,0,-1.0681152389224735e-06,5.999995708465576,3.141580419223498,0.0,8.000000953674242,5.999999046325629,3.141591787338043,0.0
1759828506.9309354,0,-1.0681152389224735e-06,5.999995708465576,3.1415807606577495,0.0,8.000000953674256,5.99999904632564,3.1415917873380845,0.0
1759828506.9413788,0,-1.0681152389224735e-06,5.999995708465576,3.141581117522822,0.0,8.000000953674267,5.999999046325649,3.141591787338118,0.0
1759828506.9527912,0,-1.0681152389224735e-06,5.999995708465576,3.1415812511852135,0.0,8.000000953674277,5.999999046325656,3.141591787338144,0.0
1759828506.9632604,0,-1.0681152389224735e-06,5.999995708465576,3.141581630548089,0.0,8.000000953674284,5.999999046325661,3.1415917873381662,0.0
1759828506.9740014,0,-1.0681152389224735e-06,5.999995708465576,3.141581942977517,0.0,8.000000953674292,5.999999046325666,3.141591787338184,0.0
1759828506.9851792,0,-1.0681152389224735e-06,5.999995708465576,3.1415821610343553,0.0,8.000000953674295,5.999999046325669,3.141591787338198,0.0
1759828506.9961698,0,-1.0681152389224735e-06,5.999995708465576,3.1415824342049454,0.0,8.000000953674299,5.999999046325672,3.1415917873382093,0.0
1759828507.011041,0,-1.0681152389224735e-06,5.999995708465576,3.1415820230358875,0.0,8.000000953674302,5.999999046325674,3.1415917873382186,0.0
1759828507.0218775,0,-1.0681152389224735e-06,5.999995708465576,3.141582527702571,0.0,8.000000953674306,5.999999046325676,3.141591787338226,0.0
1759828507.0324981,0,-1.0681152389224735e-06,5.999995708465576,3.1415830500811612,0.0,8.00000095367431,5.999999046325677,3.1415917873382324,0.0
1759828507.0430017,0,-1.0681152389224735e-06,5.999995708465576,3.1415835104094647,0.0,8.00000095367431,5.999999046325679,3.1415917873382373,0.0
1759828507.0535777,0,-1.0681152389224735e-06,5.999995708465576,3.141583887922156,0.0,8.00000095367431,5.99999904632568,3.141591787338241,0.0
1759828507.0638366,0,-1.0681152389224735e-06,5.999995708465576,3.1415842621261927,0.0,8.00000095367431,5.99999904632568,3.141591787338244,0.0
1759828507.0751274,0,-1.0681152389224735e-06,5.999995708465576,3.141584436265557,0.0,8.00000095367431,5.99999904632568,3.1415917873382466,0.0
1759828507.0857544,0,-1.0681152389224735e-06,5.999995708465576,3.1415847075497627,0.0,8.00000095367431,5.99999904632568,3.1415917873382484,0.0
1759828507.09696,0,-1.0681152389224735e-06,5.999995708465576,3.141584885431902,0.0,8.00000095367431,5.99999904632568,3.14159178733825,0.0
1759828507.107773,0,-1.0681152389224735e-06,5.999995708465576,3.1415851188848656,0.0,8.00000095367431,5.99999904632568,3.1415917873382515,0.0
1759828507.118812,0,-1.0681152389224735e-06,5.999995708465576,3.1415853150780766,0.0,8.00000095367431,5.99999904632568,3.1415917873382524,0.0
1759828507.1296408,0,-1.0681152389224735e-06,5.999995708465576,3.141585533539539,0.0,8.00000095367431,5.99999904632568,3.1415917873382533,0.0
1759828507.1401365,0,-1.0681152389224735e-06,5.999995708465576,3.141585780865242,0.0,8.00000095367431,5.99999904632568,3.141591787338254,0.0
1759828507.151247,0,-1.0681152389224735e-06,5.999995708465576,3.1415859356268108,0.0,8.00000095367431,5.99999904632568,3.141591787338255,0.0
1759828507.1615663,0,-1.0681152389224735e-06,5.999995708465576,3.1415861774300478,0.0,8.00000095367431,5.99999904632568,3.141591787338255,0.0
1759828507.1717772,0,-1.0681152389224735e-06,5.999995708465576,3.1415864081281892,0.0,8.00000095367431,5.99999904632568,3.141591787338255,0.0
1759828507.1823692,0,-1.0681152389224735e-06,5.999995708465576,3.1415865721952567,0.0,8.00000095367431,5.99999904632568,3.141591787338255,0.0
1759828507.193053,0,-1.0681152389224735e-06,5.999995708465576,3.14158671709915,0.0,8.00000095367431,5.99999904632568,3.141591787338255,0.0
1759828507.2162955,0,-1.0681152389224735e-06,5.999995708465576,3.141585696423496,0.0,8.000000953946424,5.99999904632568,2.51427307612662,-2.7211413497596487e-08
1759828507.2234793,0,-1.0681152389224735e-06,5.999995708465576,3.1415864846736348,0.0,8.000000954613881,5.99999904647856,2.0061843871644807,-4.925094671415575e-08
1759828507.2335973,0,-1.0681152389224735e-06,5.999995708465576,3.1415869056521775,0.0,8.000000955261035,5.9999990458038654,0.993863809400336,-3.657106321561475e-07
1759828507.2437887,0,-1.0681152389224735e-06,5.999995708465576,3.1415872096695203,0.0,8.000000955502834,5.999999041387748,0.7982259848371058,-6.230487211074384e-07
1759828507.253831,0,-1.0681152389224735e-06,5.999995708465576,3.1415874625367675,0.0,8.000000954154622,5.999999035514061,0.6470540326854634,-8.329841482245968e-07
1759828507.263834,0,-1.0681152389224735e-06,5.999995708465576,3.1415876718257856,0.0,8.000000950919125,5.999999029607188,0.5313986021503854,-1.0052173964229838e-06
1759828507.2752018,0,-1.0681152389224735e-06,5.999995708465576,3.1415877428860846,0.0,8.000000946222608,5.999999024477165,0.44638503278803854,-1.145887800294306e-06
1759828507.2865584,0,-1.0681152389224735e-06,5.999995708465576,3.1415878208160297,0.0,8.000000940583313,5.999999020989257,0.34372629759932355,-1.2534753265162837e-06
1759828507.2967188,0,-1.0681152389224735e-06,5.999995708465576,3.141587994427363,0.0,8.000000934268888,5.999999019176397,0.26864079972974625,-1.3415612257259596e-06
1759828507.3069038,0,-1.0681152389224735e-06,5.999995708465576,3.1415881479315964,0.0,8.000000927748863,5.999999018566913,0.21345426299450876,-1.4168877249381719e-06
1759828507.318186,0,-1.0681152389224735e-06,5.999995708465576,3.1415882086330242,0.0,8.000000921388828,5.999999018808462,0.1758664152633943,-1.4809345761651741e-06
1759828507.329297,0,-1.0681152389224735e-06,5.999995708465576,3.1415882871649323,0.0,7.992723429897686,5.998355455205157,0.15234876866934305,0.05495822154874422
1759828507.3399482,0,-1.0681152389224735e-06,5.999995708465576,3.1415884005670076,0.0,7.97249727241689,5.995327815177283,0.1005568197622918,0.15981365734718103
1759828507.3511922,0,-1.0681152389224735e-06,5.999995708465576,3.1415884730696195,0.0,7.956190460344996,5.9929679367624775,0.0657202805420416,0.24326745011988454
1759828507.362461,0,-1.0681152389224735e-06,5.999995708465576,3.1415885479423924,0.0,7.943016231109386,5.991010798816246,0.04411091172309766,0.3113000625111367
1759828507.3726592,0,-1.0681152389224735e-06,5.999995708465576,3.141588687080697,0.0,7.933109325173046,5.989405450562182,0.03320516517448229,0.36544376694619846
1759828507.383587,0,-1.0681152389224735e-06,5.999995708465576,3.141588771402315,0.0,7.9254868137165975,5.9880926918124375,0.03111578265107772,0.40927475308813965
1759828507.3947566,0,-1.0681152389224735e-06,5.999995708465576,3.141588838704566,0.0,7.919100678226228,5.986845287706823,0.0016284230910468753,0.44703828848934435
1759828507.4051113,0,-1.0681152389224735e-06,5.999995708465576,3.141588949729961,0.0,7.914300402608515,5.985637079576644,-0.015493760391184781,0.47736015033128537
1759828507.4158418,0,-1.0681152389224735e-06,5.999995708465576,3.1415890323719573,0.0,7.910719093376068,5.984540370051724,-0.022830410868271762,0.5017812885983973
1759828507.4267294,0,-1.0681152389224735e-06,5.999995708465576,3.1415891021916895,0.0,7.908074033667216,5.98361040206367,-0.02212538313632074,0.5214948000994047
1759828507.4379187,0,-1.0681152389224735e-06,5.999995708465576,3.1415891574286867,0.0,7.906135711120557,5.9828895087732565,-0.014661888150947773,0.537442381233477
1759828507.4493256,0,-1.0681152389224735e-06,5.999995708465576,3.141589206849229,0.0,7.904752507435862,5.982407439196941,-0.0014966234856845853,0.5503730937832401
1759828507.460315,0,-1.0681152389224735e-06,5.999995708465576,3.1415892798862544,0.0,7.903425550118931,5.981975051156592,-0.018052460882144686,0.5615475504240062
1759828507.4710255,0,-1.0681152389224735e-06,5.999995708465576,3.1415893630792304,0.0,7.902507004031552,5.981491342056586,-0.024528288788263304,0.5705392302193886
1759828507.481968,0,-1.0681152389224735e-06,5.999995708465576,3.1415894306846184,0.0,7.901884232635863,5.9810670563416775,-0.023095435381255143,0.5777983133333912
1759828507.4925897,0,-1.0681152389224735e-06,5.999995708465576,3.141589507123264,0.0,7.901495006513058,5.980770149796306,-0.015391431049656243,0.5836753163286101
1759828507.5037,0,-1.0681152389224735e-06,5.999995708465576,3.1415895595829717,0.0,7.900973098918076,5.980445824274037,-0.03648536724370044,0.5887386425966472
1759828507.514646,0,-1.0681152389224735e-06,5.999995708465576,3.141589617728437,0.0,7.900640008609009,5.979992279021173,-0.04671341438552718,0.5928517248730371
1759828507.525237,0,-1.0681152389224735e-06,5.999995708465576,3.1415896869708906,0.0,7.900464144792119,5.979552639263576,-0.04837679170621884,0.5961142913499456
1759828507.5360203,0,-1.0681152389224735e-06,5.999995708465576,3.1415897444060707,0.0,7.893524868056916,5.979241116867383,-0.04317527236474306,0.5976664781660128
1759828507.5468707,0,-1.0681152389224735e-06,5.999995708465576,3.141589796329134,0.0,7.88551892368035,5.9790803790443166,-0.03238318303690447,0.5988903848816248
1759828507.5580497,0,-1.0681152389224735e-06,5.999995708465576,3.141589836396271,0.0,7.8780482125995634,5.9791008083340245,-0.016663351807961697,0.5998695224965654
1759828507.5687058,0,-1.0681152389224735e-06,5.999995708465576,3.141589893797761,0.0,7.859922862120863,5.9791573233110995,-0.03592765053407108,0.5995464587155933
1759828507.5800364,0,-1.0681152389224735e-06,5.999995708465576,3.1415899284692905,0.0,7.844808444137305,5.979031624977522,-0.04426248422969818,0.5993092957072107
1759828507.5910847,0,-1.0681152389224735e-06,5.999995708465576,3.141589973104539,0.0,7.832819598556709,5.978877053464971,-0.04412535280368893,0.5991210244780256
1759828507.6024818,0,-1.0681152389224735e-06,5.999995708465576,3.1415900084582002,0.0,7.823058012529386,5.978788268061042,-0.037046778853713776,0.5989670093911529
1759828507.6127837,0,-1.0681152389224735e-06,5.999995708465576,3.1415900741472296,0.0,7.815326738159601,5.978826439533305,-0.024940395106723558,0.5988439948295862
1759828507.6238022,0,-1.0681152389224735e-06,5.999995708465576,3.1415901146621987,0.0,7.808426304376995,5.978854988681417,-0.04044689077003858,0.5987381724405855
1759828507.634535,0,-1.0681152389224735e-06,5.999995708465576,3.1415901599623144,0.0,7.802923147266837,5.978746046140524,-0.04611297837150664,0.5986530794158417
1759828507.6456194,0,-1.0681152389224735e-06,5.999995708465576,3.1415901943462963,0.0,7.798481021829375,5.978632218429259,-0.04402818288856755,0.5985835909053422
1759828507.656438,0,-1.0681152389224735e-06,5.999995708465576,3.1415902345785938,0.0,7.795019161127163,5.978597473180656,-0.035654861032674345,0.5985282334135966
1759828507.6678517,0,-1.0681152389224735e-06,5.999995708465576,3.1415902601634453,0.0,7.792276206171996,5.97869518903397,-0.021785447993612463,0.5984833644772848
1759828507.6788218,0,-1.0681152389224735e-06,5.999995708465576,3.1415902971615104,0.0,7.78961737815691,5.978777523301743,-0.0387792310043618,0.5984445467485783
1759828507.6895766,0,-1.0681152389224735e-06,5.999995708465576,3.1415903377334704,0.0,7.787524080112804,5.97869702880738,-0.04576828911498219,0.5984129575489625
1759828507.6999848,0,-1.0681152389224735e-06,5.999995708465576,3.141590382152639,0.0,7.785914040967049,5.978590351109027,-0.04495079746898079,0.5983878541153637
1759828507.7113695,0,-1.0681152389224735e-06,5.999995708465576,3.1415904031288537,0.0,7.784656956289742,5.9785475099639855,-0.037313243132353825,0.5983673140693968
1759828507.7223978,0,-1.0681152389224735e-06,5.999995708465576,3.1415904321168497,0.0,7.783723875875513,5.978630436855175,-0.024304395429289367,0.5983509181531222
1759828507.733957,0,-1.0681152389224735e-06,5.999995708465576,3.1415904519372493,0.0,7.773560525955354,5.9791503777790656,-0.04385528528630687,0.5835686267116704
1759828507.7447402,0,-1.0681152389224735e-06,5.999995708465576,3.14159048732237,0.0,7.75846388480818,5.979828936417089,-0.05284360888371887,0.5584970939801095
1759828507.755527,0,-1.0681152389224735e-06,5.999995708465576,3.1415905205634793,0.0,7.7463558677770585,5.980332417106652,-0.05340569182916164,0.5386046177080067
1759828507.76624,0,-1.0681152389224735e-06,5.999995708465576,3.1415905522251784,0.0,7.735393989038354,5.980787832434201,-0.047346734209423424,0.5223330790840501
1759828507.7772834,0,-1.0681152389224735e-06,5.999995708465576,3.1415905761922645,0.0,7.726496389921158,5.981251406402154,-0.035632342199708046,0.5093609461039617
1759828507.787548,0,-1.0681152389224735e-06,5.999995708465576,3.1415906111515532,0.0,7.719338778201678,5.981766208717981,-0.019784875213392762,0.4989851418538891
1759828507.7987585,0,-1.0681152389224735e-06,5.999995708465576,3.141590628710132,0.0,7.712773787350003,5.982239533854762,-0.03325313199886845,0.48998933632542163
1759828507.8094985,0,-1.0681152389224735e-06,5.999995708465576,3.1415906532219307,0.0,7.707298083852557,5.982546040639492,-0.03725923476234974,0.4825293627744805
1759828507.8207996,0,-1.0681152389224735e-06,5.999995708465576,3.141590669330327,0.0,7.702939204679526,5.982789576706721,-0.03347801710633436,0.47659766757408073
1759828507.8321404,0,-1.0681152389224735e-06,5.999995708465576,3.1415906859960927,0.0,7.69940724920963,5.983052200355998,-0.02342547940323239,0.4717951903940726
1759828507.8427613,0,-1.0681152389224735e-06,5.999995708465576,3.1415907129089398,0.0,7.696141143553285,5.98324572759773,-0.04337341309807949,0.4677071560790665
1759828507.8534346,0,-1.0681152389224735e-06,5.999995708465576,3.141590737132887,0.0,7.693457901626049,5.9832686308996195,-0.052800755695892106,0.4643245802266216
1759828507.8642724,0,-1.0681152389224735e-06,5.999995708465576,3.141590757269313,0.0,7.69133220271768,5.983237289932726,-0.05377712501240481,0.4616072382772096
1759828507.8756409,0,-1.0681152389224735e-06,5.999995708465576,3.1415907703392136,0.0,7.689654015129134,5.9832327464601605,-0.04756197140206886,0.4594200503328996
1759828507.8861344,0,-1.0681152389224735e-06,5.999995708465576,3.1415907940005017,0.0,7.688340297201916,5.983306750027077,-0.036060945742548284,0.4576751053463469
1759828507.8961537,0,-1.0681152389224735e-06,5.999995708465576,3.141590820782426,0.0,7.687329268596387,5.983486227796303,-0.020539095892273793,0.4562790458551002
1759828507.9074407,0,-1.0681152389224735e-06,5.999995708465576,3.141590830894815,0.0,7.686225546754193,5.983661901454939,-0.033933123176304175,0.4550514145988747
1759828507.9184244,0,-1.0681152389224735e-06,5.999995708465576,3.141590844754935,0.0,7.685389623108702,5.98372196098719,-0.03771476591632514,0.45406367896588645
1759828507.92973,0,-1.0681152389224735e-06,5.999995708465576,3.1415908560664167,0.0,7.684768233828273,5.983767043148705,-0.03375101406955077,0.453278459125499
1759828507.9411418,0,-1.0681152389224735e-06,5.999995708465576,3.1415908674032575,0.0,7.677600338282921,5.983819532492457,-0.023734503399641917,0.45407934796662935
1759828507.951759,0,-1.0681152389224735e-06,5.999995708465576,3.1415908868224722,0.0,7.662966634986102,5.983782214727133,-0.0450868183905728,0.456288879471317
1759828507.9627323,0,-1.0681152389224735e-06,5.999995708465576,3.141590901696164,0.0,7.650246922952069,5.9836034386772825,-0.0554649885324703,0.45805913159518336
1759828507.973311,0,-1.0681152389224735e-06,5.999995708465576,3.1415909189970783,0.0,7.639980642959538,5.98339701585291,-0.05737718727562333,0.4594815650246868
1759828507.9844823,0,-1.0681152389224735e-06,5.999995708465576,3.1415909300700022,0.0,7.631734998777403,5.983238704895825,-0.052051981275891175,0.4606266032861136
1759828507.995281,0,-1.0681152389224735e-06,5.999995708465576,3.1415909440500727,0.0,7.625224771431026,5.983180113630249,-0.04108908668617254,0.46153966296026794
1759828508.0060322,0,-1.0681152389224735e-06,5.999995708465576,3.1415909577677272,0.0,7.619498473313747,5.983117930320805,-0.05917159391594446,0.4623150746038276
1759828508.016918,0,-1.0681152389224735e-06,5.999995708465576,3.1415909696557396,0.0,7.614786711466097,5.982940536313868,-0.0669613074757022,0.46295667554816966
1759828508.027312,0,-1.0681152389224735e-06,5.999995708465576,3.1415909844970944,0.0,7.611063947542449,5.982755342369785,-0.06690741440172171,0.4634723084143287
1759828508.038638,0,-1.0681152389224735e-06,5.999995708465576,3.141590991677301,0.0,7.608163764038883,5.982632407436857,-0.0599069959596825,0.46388213386634847
1759828508.0499587,0,-1.0681152389224735e-06,5.999995708465576,3.141590999487523,0.0,7.605871925247204,5.982615438738986,-0.0472873942942691,0.4642138245099877
1759828508.0612016,0,-1.0681152389224735e-06,5.999995708465576,3.1415910085838235,0.0,7.603735919409803,5.982610212180342,-0.06290074839696871,0.46449501070837945
1759828508.0723836,0,-1.0681152389224735e-06,5.999995708465576,3.141591018378069,0.0,7.602021274291915,5.982499872717392,-0.0684884312464818,0.4647276658341518
1759828508.0837185,0,-1.0681152389224735e-06,5.999995708465576,3.141591027256677,0.0,7.6007023154246705,5.9823890555684835,-0.06607330059631096,0.4649145598736456
1759828508.0943077,0,-1.0681152389224735e-06,5.999995708465576,3.1415910404212166,0.0,7.599676901062489,5.982342542444261,-0.057597765960415645,0.46506521272064305
1759828508.1043286,0,-1.0681152389224735e-06,5.999995708465576,3.141591055405666,0.0,7.598907704706783,5.982398424478513,-0.044579238230406916,0.46518552131053414
1759828508.1159012,0,-1.0681152389224735e-06,5.999995708465576,3.141591059999463,0.0,7.598053667534879,5.982454717267955,-0.0606225931815056,0.46528768247052643
1759828508.126351,0,-1.0681152389224735e-06,5.999995708465576,3.1415910708714065,0.0,7.597412659779281,5.982390188973473,-0.066986330959978,0.46537229643041417
1759828508.1378484,0,-1.0681152389224735e-06,5.999995708465576,3.141591075848762,0.0,7.592959207783499,5.9827088304821325,-0.06509840904977376,0.45299337221129987
1759828508.1490479,0,-1.0681152389224735e-06,5.999995708465576,3.1415910827936244,0.0,7.58932494484091,5.983020981581184,-0.05669462034391568,0.4429953511331151
1759828508.159531,0,-1.0681152389224735e-06,5.999995708465576,3.1415910932577553,0.0,7.584266175041655,5.983377641882159,-0.043430651415277695,0.43474949503410837
1759828508.1695364,0,-1.0681152389224735e-06,5.999995708465576,3.1415911048320844,0.0,7.580137221675494,5.983800262218872,-0.02649818388037165,0.4280108540060694
1759828508.1795762,0,-1.0681152389224735e-06,5.999995708465576,3.141591114577551,0.0,7.56931659212752,5.984600069763321,-0.04271137011369933,0.4091720989606765
1759828508.1908183,0,-1.0681152389224735e-06,5.999995708465576,3.141591117960999,0.0,7.560512632422045,5.985158615770411,-0.048585191551198066,0.39417964687517393
1759828508.2018738,0,-1.0681152389224735e-06,5.999995708465576,3.141591122604634,0.0,7.55330161536252,5.985604573962166,-0.04663998479331437,0.38208104851539015
1759828508.2133343,0,-1.0681152389224735e-06,5.999995708465576,-3.1395821051442527,-0.00047830064942834484,7.547419230807027,5.986011447704252,-0.038043818505785844,0.37229923787993263
1759828508.2260573,0,-0.00016328757962687232,5.9999585050420094,-3.1395656590792345,0.0005356915231838223,7.542622367587454,5.986429796066896,-0.023183532412623897,0.3643812637607679
1759828508.2375224,0,-0.00019826189484132049,5.999959015690288,3.080833210540547,-0.000842203672958355,7.538248974188599,5.9868050236853,-0.03801098420804153,0.35753973520140464
1759828508.2487755,0,-0.00022100922400747886,5.999958563687219,3.051347675826843,-0.004202723143294602,7.5346704672399225,5.987042064570944,-0.04293452669122428,0.35196855332311744
1759828508.259603,0,-0.0002290495450093284,5.999957806335994,3.0679312612283933,-0.0042433860310998155,7.531777626272616,5.987226327132206,-0.04024391373594292,0.3474817286888931
1759828508.270624,0,-0.00022820104256288627,5.999957667785937,3.0202528806738185,0.0005371015311946975,7.529487208957794,5.987413562919957,-0.031244000697553127,0.34390475406246146
1759828508.2814856,0,-0.00022922952726256855,6.000023036140887,-2.6345648400829975,0.0056321793883887285,7.527359970507846,5.987550848777902,-0.050728595665086494,0.34086811152653773
1759828508.2923584,0,-0.00021245152570002456,5.999948739444712,2.897300769031989,0.0005217031891614988,7.525613372415719,5.987567633285965,-0.059692765489253216,0.33835501057506295
1759828508.303151,0,-0.00021257137543796413,6.000014113360762,-2.757526244540114,0.004904495089060655,7.524240268700216,5.987547245384573,-0.06024450471830902,0.33636098817804916
1759828508.314576,0,-0.00023278261320197797,5.999937177719855,2.818353702681954,-0.0006949130147453275,7.523138701786892,5.987548405076542,-0.05375070281540645,0.3347311438440791
1759828508.325903,0,-0.00025034695871486084,5.99995662812759,2.762167027264308,-0.0002862779288390184,7.522282365943871,5.987608612354693,-0.04152097154387937,0.33343193671191546
1759828508.3373055,0,-0.00025040547473180366,5.999956628077987,2.7621478082041446,-0.00029299525560289486,7.514660799613963,5.987555469884257,-0.059582593352193285,0.33553672816140867
1759828508.3486197,0,-0.00026003411793393293,5.999976868015038,2.7825761470060475,0.0001818062749148726,7.50343289112987,5.987329653956365,-0.0671517801810679,0.34006289038348575
1759828508.359397,0,-0.00026383541708102924,5.99997964884,2.7907097795986306,0.000367180758909928,7.493943937326538,5.987113857038614,-0.06668431766702088,0.3436992556235554
1759828508.3696632,0,-0.00026637501439204,5.999979799157024,2.797955045700935,0.0005241911149336578,7.486167612436764,5.986954795363365,-0.05999678346708672,0.34662973555238175
1759828508.38087,0,-0.00026663940995701863,5.999979799156115,2.7979395743026516,0.0005523414155521214,7.480039522290032,5.9868848978503735,-0.04770074311365124,0.3489652425381104
1759828508.3919091,0,-0.0002679718447148894,5.999978391211677,2.801212408250673,0.0006859217975616637,7.474626507256693,5.986826262200936,-0.06520386730761023,0.3509474603960816
1759828508.4025748,0,-0.00026798358797645996,5.999974289755793,2.807955064973842,0.00087006199961573,7.470139537653951,5.9866828632650355,-0.07264576261293391,0.352588276398088
1759828508.4132755,0,-0.0002679458409539759,5.9999742897555945,2.8079337145773122,0.00086441543299008,7.466625714003512,5.9865373213838,-0.07205738008495736,0.3538902234608755
1759828508.4325726,0,-0.057120184659045295,5.9875534697013295,2.8179933794293546,0.398130021572916,7.4638638492871845,5.9864528018697545,-0.05981560841758613,0.3549451324074211
1759828508.4438992,0,-0.07610841034886294,5.987558209126405,2.817938407765349,0.39812157921806307,7.4617169368818645,5.986481208170248,-0.042939544892600934,0.35578751047965057
1759828508.4553287,0,-0.08487369681498572,5.9872901326094,2.8175256953364607,0.40649101527236053,7.4597217905510425,5.9865395855311,-0.054304018516749354,0.35651314908849885
1759828508.4661303,0,-0.08993044079465037,5.98685334472982,2.8188724035746993,0.41845119359034144,7.4581318023786345,5.986533173381758,-0.056620737823796966,0.35709787523341563
1759828508.4776144,0,-0.09191648562079499,5.986678986225292,2.8202552657106863,0.4228342347056133,7.456904738623626,5.986532759842497,-0.051429215323483025,0.35756846122038816
1759828508.4883866,0,-0.09290633768811975,5.986535345415666,2.8220366245671604,0.42637031399266273,7.455964365804998,5.986584545161994,-0.04053383294601915,0.3579484829159503
1759828508.4996126,0,-0.09309865959642909,5.986535531707259,2.822005392081567,0.4263670070130798,7.455012056095386,5.986619627473341,-0.057381667573146895,0.35819805516094705
1759828508.5108266,0,-0.09414012982726538,5.9863221357877,2.82043471273905,0.4317838076412725,7.454252673669897,5.986560050334198,-0.06402540406777613,0.3584009931386695
1759828508.5211468,0,-0.09435265560678288,5.986231921369737,2.820872757086369,0.43375451197799,7.45367606533093,5.986486921737986,-0.06308268642231285,0.35856344726412664
1759828508.5322726,0,-0.09443378288265004,5.986232013977984,2.820861855400589,0.43373720332667415,7.453260581794747,5.98645352678118,-0.05548113815052009,0.3586918539465937
1759828508.5427454,0,-0.0946018345674425,5.986157961257819,2.8220574602901816,0.4352971146304381,7.449575480870227,5.98631103481603,-0.6083614088756769,0.35263237317384116
1759828508.5528889,0,-0.09469720835112709,5.986103540355076,2.8237145035155966,0.4365663532440542,7.442716130230484,5.983538720254608,-1.0507517417764378,0.34771346401055664
1759828508.5635753,0,-0.09475070084942235,5.986103580769869,2.823721538885639,0.4365591078916283,7.427928038467615,5.982984702786856,-1.4307334914278564,0.33709850022190097
1759828508.5746586,0,-0.09509687515538987,5.986032687571902,2.821846852162401,0.4385226202906789,7.412730418852176,5.983810543909491,-1.7415113922555836,0.3285810463974077
1759828508.5856721,0,-0.09519486135416676,5.985997020188448,2.8221823262641754,0.4392092227564795,7.398737284392591,5.9864423460721845,-1.9920581455959396,0.32171041408657164
1759828508.59633,0,-0.09520390871108468,5.985968571437019,2.8230420263427876,0.4397704174700426,7.386603123470978,5.99059556208015,-2.194680404596325,0.31615214214061516
1759828508.6074228,0,-0.09528801001869375,5.985950513106214,2.8243662399179117,0.44023721955161177,7.37653926157468,5.9957717544486,-2.358851758471029,0.31164667230782833
1759828508.6176298,0,-0.09521628468951988,5.985947379378316,2.82279756672445,0.44063672378106644,7.36844370346885,6.001651215343844,-2.5002997731335364,0.30777223916968444
1759828508.6307812,0,-0.19543859879096626,5.973130781886245,2.8225139674009943,0.849026010318325,7.362167569951599,6.007741956055283,-2.6151531763997915,0.30462389515634497
1759828508.6421878,0,-0.23261313426517982,5.972979918233149,2.8234108120240116,0.8533234892136897,7.357516024924849,6.013691903121244,-2.7075506370166753,0.3020891066231571
1759828508.6533248,0,-0.2474923090811425,5.97285594960254,2.824772844202206,0.8568379951286489,7.354185104883074,6.019317258101267,-2.7820940451222107,0.3000421329607374
1759828508.6645632,0,-0.2527687510722486,6.023495375707398,-2.830031746256227,0.8568327352669812,7.3519071447987585,6.024461440182998,-2.8416275113119918,0.29840530997179054
1759828508.6747093,0,-0.2570610906215167,6.023833696291806,-2.8317872662765486,0.8640846359550238,7.3506623196300875,6.028936450532746,-2.8926104937172585,0.2970117739380016
1759828508.6849258,0,-0.26218524187417225,6.024913048326445,-2.93451473357365,0.8744656842561368,7.349932606143049,6.033028966297916,-2.934200976977504,0.2958787722775819
1759828508.6953983,0,-0.2625176451806285,6.024912676330527,-2.934507545737717,0.8744533005905083,7.349614360705574,6.0366391722627935,-2.9672410876070883,0.29497693348848447
1759828508.7059083,0,-0.26522102155973887,6.024915822677654,-2.9717052847081318,0.8782834451186822,7.349547670016411,6.039902839912044,-2.9944636105074958,0.29423209507405235
1759828508.716128,0,-0.2678710883011265,6.0251208727626535,-3.001344516965562,0.8813453883869063,7.34965842535022,6.042803364986001,-3.0165200402666508,0.2936268600524572
1759828508.7266545,0,-0.2706572437015725,6.025744381515163,-3.0269519521300676,0.8839675529703003,7.350160834052074,6.04502043012331,-3.0339049911491194,0.2932210763802783
1759828508.7375808,0,-0.27327124015871546,6.026739387208184,-3.0474826868002673,0.8860675874174195,7.350653682189055,6.047004212422716,-3.0478456979546196,0.292893814763885
1759828508.748213,0,-0.27538118289162605,6.02802787942871,-3.0640935039216686,0.8878178546385077,7.346204668796857,6.049070593082322,-3.059179750495456,0.3006642054864795
1759828508.7583098,0,-0.27520431460510697,6.028027790350691,-3.0640903625594547,0.8878185597663211,7.342572935381631,6.051119544373342,-3.0681634000854108,0.3069493585698353
1759828508.7686858,0,-0.27697914171188,6.02950508585693,-3.0775459623202504,0.8891967090701145,7.33783674222454,6.053129031583092,-3.0755238944098067,0.31214147251110297
1759828508.7792416,0,-0.2783764413908382,6.03107410202223,-3.088915133410885,0.8903859104127324,7.325330003533789,6.054872702748975,-3.083377293949686,0.324902405962981
1759828508.7896225,0,-0.27934353238747744,6.032652537500219,-3.0980658753604966,0.8913457833452897,7.31498881250931,6.056840284258086,-3.0897287239942184,0.33514134470528495
1759828508.8005097,0,-0.2806962857242755,6.035630362897766,-3.1114276595490122,0.8927183122710091,7.306316928275598,6.058912610815348,-3.0948747215236083,0.3435097006692988
1759828508.810892,0,-0.28059608029105615,6.035630352572158,-3.111432993258671,0.8927216660779586,7.2993271431965585,6.0609720550658315,-3.0989368287099284,0.3501833467221354
1759828508.8212464,0,-0.28087315632024124,6.036991435145881,-3.1163160843035445,0.8932138659691957,7.293559452902014,6.0629922628049915,-3.1021927097248967,0.35560146738200615
1759828508.8323083,0,-0.3910174317273286,6.040302767741531,-3.120432516679875,0.9560400782339702,7.288756575494828,6.064390384173323,-3.105186909806686,0.3602817000835036
1759828508.8425303,0,-0.43255036923761064,6.04136311981093,-3.1237726543525737,0.9563764365326102,7.284846746827092,6.0658039106977615,-3.1075541505040842,0.3640479832866777
1759828508.8531706,0,-0.44961951877764766,6.042347298201574,-3.126425648092326,0.9572836149299451,7.28163067489562,6.067201678968046,-3.109423022040502,0.36708790646020395
1759828508.8640053,0,-0.4570381253690163,6.043251082935744,-3.1286028481472616,0.9580012880137524,7.278978805976015,6.06856932930569,-3.110891871395618,0.3695470707386142
1759828508.8740106,0,-0.4602732542771395,6.044077387707973,-3.1303461800709673,0.9585984519992623,7.276767948107836,6.0698884570790215,-3.112044020955064,0.3715432611123269
1759828508.88424,0,-0.46396541489957793,6.044736262762634,-3.1318651663979713,0.9597579132298139,7.275054648563006,6.070548533499836,-3.11321121295696,0.3732623331151882
1759828508.894548,0,-0.4665776862186966,6.045362174375414,-3.1330707334061434,0.9606828461012381,7.273619663193907,6.071272474419153,-3.113912048800058,0.374645911680525
1759828508.904665,0,-0.46846946181032534,6.045947681116857,-3.1340366473800763,0.9614366906790308,7.27242100673644,6.072028862810377,-3.1144388985913567,0.37576336471135446
1759828508.9151604,0,-0.47009159564013153,6.046492439402492,-3.134827811109996,0.9620555421213717,7.271404859658927,6.072810102337542,-3.114821552114281,0.37666768073614576
1759828508.9255898,0,-0.4713169896118077,6.047000683553699,-3.1354670641516105,0.9625618132938185,7.2705187460179665,6.07360654951962,-3.115088082889293,0.37740141033196306
1759828508.9360514,0,-0.4713417295032373,6.0470006392292746,-3.13546905455061,0.9625608840072847,7.269979013345566,6.073717947096736,-3.1133569140658426,0.3780275646043607
1759828508.9467216,0,-0.4723797574867957,6.047339206210399,-3.136007068763699,0.962988765733669,7.269443406947736,6.073953791180955,-3.111925919397645,0.3785327469241629
1759828508.9575725,0,-0.473877536129301,6.048012590193902,-3.136798281106538,0.963612080161993,7.262225948887781,6.07442628964374,-3.1108103943515335,0.3827845863351784
1759828508.967825,0,-0.4742372668696594,6.0483291811321225,-3.137082359828608,0.963848800133335,7.255556090448055,6.075062678559595,-3.1098520409202113,0.3862559144191921
1759828508.9782197,0,-0.474607856437631,6.04847066568463,-3.137309250637673,0.9640446973155061,7.24978532510375,6.075807752939493,-3.109025994490154,0.38907052332190784
1759828508.9887667,0,-0.47465256390553856,6.048470567018699,-3.137331977243358,0.9640574794954014,7.2449922447577535,6.076626204268231,-3.1083007963888027,0.3913668467392599
1759828508.9996054,0,-0.4750825675971897,6.048629660330211,-3.1374861184004685,0.9642306186885209,7.2328515425460775,6.076881196653565,-3.1091566890705593,0.39733068445426123
1759828509.0109265,0,-0.4755496458659276,6.048802308067896,-3.1376530115458565,0.9643583273818838,7.222978060250564,6.07743564453584,-3.109765462131146,0.40210731463391886
1759828509.02191,0,-0.4759313597319599,6.0491712675257885,-3.1378843235660563,0.964534233082884,7.214811349145135,6.078182789526204,-3.1102111175971228,0.40601095250563907
1759828509.0355403,0,-0.6007453829224649,6.052860217961969,-3.1379740263816225,1.0704816056741158,7.208227397766619,6.079086230621091,-3.1104977629153368,0.4091129958564574
1759828509.04634,0,-0.6469194161180211,6.052852648910802,-3.1379934708569834,1.07046593278758,7.20283970485775,6.079360230843411,-3.1109540481158238,0.411742248125654
1759828509.056817,0,-0.6669294273278991,6.053091284538802,-3.1381486807008883,1.0724825272078038,7.198333919616666,6.079819374824086,-3.1112724722104836,0.41389418032414416
1759828509.0671837,0,-0.6735791505695511,6.053090339294183,-3.138159528005776,1.0724911284539589,7.194688288765489,6.080394910490785,-3.1114747066173427,0.41560298806642676
1759828509.07819,0,-0.6793209189511373,6.05348026427231,-3.1382259776919894,1.0738519431591715,7.191601992538062,6.081073437999171,-3.111591270284693,0.41702698366456664
1759828509.0884926,0,-0.6812615498433106,6.053703656122715,-3.138233086103011,1.0743718805110447,7.189059285099933,6.081805708044327,-3.111632880944973,0.41816391521521656
1759828509.099872,0,-0.6819675389049323,6.053703599452848,-3.1382214322758863,1.0743698097906516,7.186957080717431,6.082589663751441,-3.1116086933455556,0.41907271538884955
1759828509.1108952,0,-0.6851527852434895,6.053784614259221,-3.138264073853258,1.0758900480166762,7.185360212342855,6.082672125988998,-3.111806553452557,0.41985926363340326
1759828509.1222517,0,-0.6897848493516747,6.054135094177548,-3.138288605266254,1.078083056031472,7.1839756143944005,6.0829359678423724,-3.1116890091654916,0.42050154281112895
1759828509.1327457,0,-0.6912152255939134,6.054364944569085,-3.1383165718091157,1.0788948244300114,7.182791536288082,6.083316919105767,-3.111541926940439,0.4210275422270531
1759828509.142816,0,-0.6923401314777877,6.05442854475262,-3.1383414695521643,1.0795433215671417,7.181783079629788,6.083780555901167,-3.111371757083667,0.4214479911831902
1759828509.153172,0,-0.6923490066181239,6.054428699278211,-3.1383464977857596,1.0795361086947826,7.180914151028973,6.084313398753134,-3.1111808030643475,0.42178480525471224
1759828509.1640477,0,-0.6936821007965867,6.054551827936155,-3.138338572987433,1.0800773557061385,7.163917960932139,6.076187253578287,-2.543389594966552,0.4397280971853047
1759828509.174405,0,-0.6944847400857512,6.054707565912183,-3.13833033251633,1.0805098122440726,7.143977445603306,6.064299358042827,-2.0868499548786352,0.45396445570719196
1759828509.1856618,0,-0.6955382322669217,6.054887526892947,-3.138339776811101,1.0808760315915773,7.12687752560672,6.049559630944874,-1.7116444645697841,0.4654509988112135
1759828509.1964288,0,-0.6961009942976264,6.055081666577771,-3.1383362391822316,1.0811713521676956,7.114568985695375,6.034090211711673,-1.4014134267736182,0.47474573443172086
1759828509.207046,0,-0.6965145065917273,6.055101370105284,-3.1383202466169062,1.081426017377992,7.1069318398350845,6.019627393303244,-1.1431127255254205,0.4822865863662806
1759828509.2171073,0,-0.6962761787848736,6.055101233966787,-3.138298014011853,1.0814444912908863,7.103048200605401,6.006881078576432,-0.9536138980332971,0.4887193481725247
1759828509.233929,0,-0.8243646844170297,6.055939043135553,-3.138265329564822,1.0986700208637492,7.101511315920063,5.9963717121875195,-0.7867874470540599,0.49401268460492187
1759828509.2439919,0,-0.8717976370701587,6.056078525472234,-3.138213030472865,1.0989298295274859,7.101809081868372,5.988292307563119,-0.6460993468937561,0.4982798951308007
1759828509.2543721,0,-0.8928483761071846,6.0560389309675156,-3.1381596742590085,1.0993573224393274,7.103235055132121,5.982442648434095,-0.5273957302079197,0.5016841404640934
1759828509.2652662,0,-0.8997862022658489,6.056036462120528,-3.138164748040106,1.0993604729593567,7.10513895491755,5.978330179237271,-0.4517523133540344,0.504596654779376
1759828509.2766864,0,-0.9087864902388728,6.056137563406529,-3.138122084737778,1.0999560400728952,7.107197818193866,5.975380105184084,-0.38151331234554003,0.5070065041885807
1759828509.286739,0,-0.9093575278134638,6.056136991314846,-3.1380937491855048,1.0999684662399503,7.109269244805835,5.973540966525547,-0.31960564899965305,0.5089200284874154
1759828509.298172,0,-0.9142753525673447,6.0563761642074745,-3.1380833494623492,1.1003659253338023,7.1113177794267335,5.972511123663023,-0.2620373355631209,0.5104838369016409
1759828509.3082566,0,-0.9140477509306892,6.056376145465202,-3.138057925265942,1.1003564449490317,7.113236767463551,5.972166736356726,-0.20979307986361134,0.5117320063156011
1759828509.3184922,0,-0.9155481378572843,6.05632788009317,-3.138040914822703,1.1005026386741974,7.114996950409783,5.972347672815671,-0.16154573734270283,0.5127303595439348
1759828509.3287733,0,-0.9168275769641274,6.0563355131780465,-3.1380503927130254,1.1006362933009215,7.116430378447243,5.972877963540646,-0.1477599292000601,0.5136082816354333
1759828509.3397686,0,-0.9181413397856688,6.056386950871199,-3.1380493387720607,1.1007335071164182,7.117669589346636,5.973436679986305,-0.1296527045009184,0.5143144014284311
1759828509.3500025,0,-0.9188133166603906,6.056472583019373,-3.1380513032008417,1.1007775739578223,7.118768384996861,5.974064727486463,-0.10880211267673781,0.5148850744044027
1759828509.360102,0,-0.9186920170274259,6.056472688205872,-3.1380618905447295,1.100774966134301,7.119737982494658,5.974772950637532,-0.08587902013834191,0.5153404339982574
1759828509.3707514,0,-0.9201051890260381,6.056417978642633,-3.1380406330469564,1.1008869220772048,7.110497319343234,5.97522411002289,-0.06044061821007492,0.5271139595489277
1759828509.3810916,0,-0.9200500746446706,6.056417954323809,-3.1380128892927517,1.1008925588211806,7.103155533364121,5.9758334732935365,-0.03346707644212872,0.5366762358032331
1759828509.3912609,0,-0.9204406951145327,6.056458161585306,-3.1380187675400477,1.1009361059168532,7.083321895857733,5.97610870246586,-0.044932330576958474,0.556726473924666
1759828509.40142,0,-0.920797699751573,6.056533743048577,-3.1380218563474647,1.1009567299311855,7.0673194496696015,5.976230942031412,-0.047582364689568106,0.5727327501558142
