timestamp,vehicle_id,x,y,theta,velocity,gps_available,dt,gps_x,gps_y,gps_theta,gps_velocity,control_steering,control_acceleration
1759828505.205378,0,0.0,6.0,-0.05483113549895435,0.0,False,0.01,nan,nan,nan,nan,0.0,0.0
1759828505.2165565,0,0.0,6.0,-0.05483113549895435,0.0,False,0.01117849349975586,nan,nan,nan,nan,0.0,0.0
1759828505.2268302,0,0.0,6.0,-0.05483113549895435,0.0,False,0.01027369499206543,nan,nan,nan,nan,0.0,0.0
1759828505.2379484,0,0.0,6.0,-0.05483113549895435,0.0,False,0.011118173599243164,nan,nan,nan,nan,0.0,0.0
1759828505.249148,0,0.0,6.0,-0.05483113549895435,0.0,False,0.011199474334716797,nan,nan,nan,nan,0.0,0.0
1759828505.2592683,0,0.0,6.0,-0.05483113549895435,0.0,False,0.010120391845703125,nan,nan,nan,nan,0.0,0.0
1759828505.270234,0,0.0,6.0,-0.05483113549895435,0.0,False,0.010965824127197266,nan,nan,nan,nan,0.0,0.0
1759828505.2807298,0,0.0,6.0,-0.05483113549895435,0.0,False,0.010495662689208984,nan,nan,nan,nan,0.0,0.0
1759828505.2920258,0,0.0,6.0,-0.05483113549895435,0.0,False,0.01129603385925293,nan,nan,nan,nan,0.0,0.0
1759828505.3030105,0,0.0,6.0,-0.05483113549895435,0.0,False,0.010984659194946289,nan,nan,nan,nan,0.0,0.0
1759828505.3140464,0,0.0,6.0,-0.05483113549895435,0.0,False,0.011035919189453125,nan,nan,nan,nan,0.0,0.0
1759828505.3247435,0,0.0,6.0,-0.05483113549895435,0.0,False,0.010697126388549805,nan,nan,nan,nan,0.0,0.0
1759828505.3354018,0,0.0,6.0,-0.05483113549895435,0.0,False,0.01065826416015625,nan,nan,nan,nan,0.0,0.0
1759828505.3457391,0,0.0,6.0,-0.05483113549895435,0.0,False,0.010337352752685547,nan,nan,nan,nan,0.0,0.0
1759828505.356443,0,0.0,6.0,-0.05483113549895435,0.0,False,0.010703802108764648,nan,nan,nan,nan,0.0,0.0
1759828505.3666775,0,0.0,6.0,-0.05483113549895435,0.0,False,0.010234594345092773,nan,nan,nan,nan,0.0,0.0
1759828505.377508,0,0.0,6.0,-0.05483113549895435,0.0,False,0.010830402374267578,nan,nan,nan,nan,0.0,0.0
1759828505.3879063,0,0.0,6.0,-0.05483113549895435,0.0,False,0.010398387908935547,nan,nan,nan,nan,0.0,0.0
1759828505.399065,0,-1.0592142785981197e-06,5.999995744228363,-2.879845279452528,0.0,True,0.01115870475769043,-1.0681152389224735e-06,5.999995708465576,3.1415913105010986,0.0,0.0,0.0
1759828505.4090722,0,-1.0651399875605724e-06,5.999995720419711,-3.12092755516759,0.0,True,0.010007143020629883,-1.0681152389224735e-06,5.999995708465576,3.1415913105010986,0.0,0.0,0.0
1759828505.4191341,0,-1.0669991310448115e-06,5.999995712949938,3.139631185725751,0.0,True,0.010061979293823242,-1.0681152389224735e-06,5.999995708465576,3.1415913105010986,0.0,0.0,0.0
1759828505.4301984,0,-1.0676900338114374e-06,5.99999571017399,3.136417634793009,0.0,True,0.011064291000366211,-1.0681152389224735e-06,5.999995708465576,3.1415913105010986,0.0,0.0,0.0
1759828505.4411252,0,-1.067952886704975e-06,5.999995709117885,3.1359950116451856,0.0,True,0.01092672348022461,-1.0681152389224735e-06,5.999995708465576,3.1415913105010986,0.0,0.0,0.0
1759828505.451446,0,-1.0680532293295026e-06,5.999995708714722,3.1363998615141178,0.0,True,0.010320901870727539,-1.0681152389224735e-06,5.999995708465576,3.1415913105010986,0.0,0.0,0.0
1759828505.4622142,0,-1.0680915535570548e-06,5.999995708560741,3.136931677483716,0.0,True,0.01076817512512207,-1.0681152389224735e-06,5.999995708465576,3.1415913105010986,0.0,0.0,0.0
1759828505.4728765,0,-1.0681061919285896e-06,5.999995708501926,3.137500301177308,0.0,True,0.010662317276000977,-1.0681152389224735e-06,5.999995708465576,3.1415913105010986,0.0,0.0,0.0
1759828505.482971,0,-1.0681117832789005e-06,5.99999570847946,3.138050500908278,0.0,True,0.010094404220581055,-1.0681152389224735e-06,5.999995708465576,3.1415913105010986,0.0,0.0,0.0
1759828505.493897,0,-1.0681139189841147e-06,5.9999957084708795,3.1384524859248,0.0,True,0.010926008224487305,-1.0681152389224735e-06,5.999995708465576,3.1415913105010986,0.0,0.0,0.0
1759828505.503963,0,-1.0681147347508853e-06,5.999995708467602,3.138846969110695,0.0,True,0.010066032409667969,-1.0681152389224735e-06,5.999995708465576,3.1415913105010986,0.0,0.0,0.0
1759828505.5145645,0,-1.068115046346063e-06,5.99999570846635,3.1391412209139986,0.0,True,0.010601520538330078,-1.0681152389224735e-06,5.999995708465576,3.1415913105010986,0.0,0.0,0.0
1759828505.5257509,0,-1.0681151653648303e-06,5.999995708465872,3.1393664332697018,0.0,True,0.011186361312866211,-1.0681152389224735e-06,5.999995708465576,3.1415913105010986,0.0,0.0,0.0
1759828505.5359526,0,-1.068115210825954e-06,5.999995708465689,3.139606329335713,0.0,True,0.010201692581176758,-1.0681152389224735e-06,5.999995708465576,3.1415913105010986,0.0,0.0,0.0
1759828505.5466065,0,-1.068115228190558e-06,5.99999570846562,3.139788912052591,0.0,True,0.010653972625732422,-1.0681152389224735e-06,5.999995708465576,3.1415913105010986,0.0,0.0,0.0
1759828505.5567749,0,-1.0681152348232465e-06,5.999995708465593,3.1399603382389376,0.0,True,0.010168313980102539,-1.0681152389224735e-06,5.999995708465576,3.1415913105010986,0.0,0.0,0.0
1759828505.5674016,0,-1.0681152373567081e-06,5.999995708465582,3.140089978786806,0.0,True,0.010626792907714844,-1.0681152389224735e-06,5.999995708465576,3.1415913105010986,0.0,0.0,0.0
1759828505.577854,0,-1.0681152383244043e-06,5.999995708465579,3.140208157968079,0.0,True,0.0104522705078125,-1.0681152389224735e-06,5.999995708465576,3.1415913105010986,0.0,0.0,0.0
1759828505.588411,0,-1.0681152386940315e-06,5.999995708465577,3.1403087545324624,0.0,True,0.010557174682617188,-1.0681152389224735e-06,5.999995708465576,3.1415913105010986,0.0,0.0,0.0
1759828505.606,0,-1.0681152388352164e-06,5.999995708465576,3.1402371713559383,0.0,True,0.01758885383605957,-1.0681152389224735e-06,5.999995708465576,3.1415913105010986,0.0,0.0,0.0
1759828505.616011,0,-1.0681152388891442e-06,5.999995708465576,3.1403922795007517,0.0,True,0.010010957717895508,-1.0681152389224735e-06,5.999995708465576,3.1415913105010986,0.0,0.0,0.0
1759828505.6270561,0,-1.0681152389097428e-06,5.999995708465576,3.140502337155695,0.0,True,0.011045217514038086,-1.0681152389224735e-06,5.999995708465576,3.1415913105010986,0.0,0.0,0.0
1759828505.6377635,0,-1.068115238917611e-06,5.999995708465576,3.1405969979158215,0.0,True,0.010707378387451172,-1.0681152389224735e-06,5.999995708465576,3.1415913105010986,0.0,0.0,0.0
1759828505.6489768,0,-1.0681152389206162e-06,5.999995708465576,3.1406654925843913,0.0,True,0.011213302612304688,-1.0681152389224735e-06,5.999995708465576,3.1415913105010986,0.0,0.0,0.0
1759828505.6597133,0,-1.0681152389217641e-06,5.999995708465576,3.1407325602406857,0.0,True,0.010736465454101562,-1.0681152389224735e-06,5.999995708465576,3.1415913105010986,0.0,0.0,0.0
1759828505.6703868,0,-1.0681152389222025e-06,5.999995708465576,3.1407909117946247,0.0,True,0.01067352294921875,-1.0681152389224735e-06,5.999995708465576,3.1415913105010986,0.0,0.0,0.0
1759828505.6811142,0,-1.06811523892237e-06,5.999995708465576,3.1408401163120203,0.0,True,0.010727405548095703,-1.0681152389224735e-06,5.999995708465576,3.1415913105010986,0.0,0.0,0.0
1759828505.691856,0,-1.068115238922434e-06,5.999995708465576,3.1408829636965923,0.0,True,0.010741710662841797,-1.0681152389224735e-06,5.999995708465576,3.1415913105010986,0.0,0.0,0.0
1759828505.7033617,0,-1.0681152389224585e-06,5.999995708465576,3.1409107679921213,0.0,True,0.011505842208862305,-1.0681152389224735e-06,5.999995708465576,3.1415913105010986,0.0,0.0,0.0
1759828505.7144613,0,-1.0681152389224678e-06,5.999995708465576,3.1409439241947226,0.0,True,0.011099576950073242,-1.0681152389224735e-06,5.999995708465576,3.1415913105010986,0.0,0.0,0.0
1759828505.7249346,0,-1.0681152389224714e-06,5.999995708465576,3.1409831561274295,0.0,True,0.010473251342773438,-1.0681152389224735e-06,5.999995708465576,3.1415913105010986,0.0,0.0,0.0
1759828505.7357152,0,-1.0681152389224727e-06,5.999995708465576,3.1410139364064698,0.0,True,0.010780572891235352,-1.0681152389224735e-06,5.999995708465576,3.1415913105010986,0.0,0.0,0.0
1759828505.746345,0,-1.068115238922473e-06,5.999995708465576,3.1410433118527905,0.0,True,0.010629892349243164,-1.0681152389224735e-06,5.999995708465576,3.1415913105010986,0.0,0.0,0.0
1759828505.7568407,0,-1.0681152389224733e-06,5.999995708465576,3.1410712893767823,0.0,True,0.010495662689208984,-1.0681152389224735e-06,5.999995708465576,3.1415913105010986,0.0,0.0,0.0
1759828505.7677824,0,-1.0681152389224735e-06,5.999995708465576,3.1410917091669788,0.0,True,0.010941743850708008,-1.0681152389224735e-06,5.999995708465576,3.1415913105010986,0.0,0.0,0.0
1759828505.7780108,0,-1.0681152389224735e-06,5.999995708465576,3.141118389799317,0.0,True,0.010228395462036133,-1.0681152389224735e-06,5.999995708465576,3.1415913105010986,0.0,0.0,0.0
1759828505.7884822,0,-1.0681152389224735e-06,5.999995708465576,3.14113982209693,0.0,True,0.010471343994140625,-1.0681152389224735e-06,5.999995708465576,3.1415913105010986,0.0,0.0,0.0
1759828505.8043602,0,-1.0681152389224735e-06,5.999995708465576,3.141110166208952,0.0,True,0.015877962112426758,-1.0681152389224735e-06,5.999995708465576,3.1415913105010986,0.0,0.0,0.0
1759828505.8152616,0,-1.0681152389224735e-06,5.999995708465576,3.141139236358624,0.0,True,0.010901451110839844,-1.0681152389224735e-06,5.999995708465576,3.1415913105010986,0.0,0.0,0.0
1759828505.8263474,0,-1.0681152389224735e-06,5.999995708465576,3.141166005013238,0.0,True,0.011085748672485352,-1.0681152389224735e-06,5.999995708465576,3.1415913105010986,0.0,0.0,0.0
1759828505.837072,0,-1.0681152389224735e-06,5.999995708465576,3.141191975064473,0.0,True,0.010724544525146484,-1.0681152389224735e-06,5.999995708465576,3.1415913105010986,0.0,0.0,0.0
1759828505.8485484,0,-1.0681152389224735e-06,5.999995708465576,3.14120841281677,0.0,True,0.011476516723632812,-1.0681152389224735e-06,5.999995708465576,3.1415913105010986,0.0,0.0,0.0
1759828505.8594003,0,-1.0681152389224735e-06,5.999995708465576,3.1412282329088406,0.0,True,0.010851860046386719,-1.0681152389224735e-06,5.999995708465576,3.1415913105010986,0.0,0.0,0.0
1759828505.869578,0,-1.0681152389224735e-06,5.999995708465576,3.1412507119850517,0.0,True,0.0101776123046875,-1.0681152389224735e-06,5.999995708465576,3.1415913105010986,0.0,0.0,0.0
1759828505.8804457,0,-1.0681152389224735e-06,5.999995708465576,3.141265037154337,0.0,True,0.010867834091186523,-1.0681152389224735e-06,5.999995708465576,3.1415913105010986,0.0,0.0,0.0
1759828505.8911657,0,-1.0681152389224735e-06,5.999995708465576,3.1412788817099724,0.0,True,0.010720014572143555,-1.0681152389224735e-06,5.999995708465576,3.1415913105010986,0.0,0.0,0.0
1759828505.9013805,0,-1.0681152389224735e-06,5.999995708465576,3.1412948169533728,0.0,True,0.010214805603027344,-1.0681152389224735e-06,5.999995708465576,3.1415913105010986,0.0,0.0,0.0
1759828505.9122694,0,-1.0681152389224735e-06,5.999995708465576,3.141304709503178,0.0,True,0.010888814926147461,-1.0681152389224735e-06,5.999995708465576,3.1415913105010986,0.0,0.0,0.0
1759828505.9227984,0,-1.0681152389224735e-06,5.999995708465576,3.1413162855147547,0.0,True,0.010529041290283203,-1.0681152389224735e-06,5.999995708465576,3.1415913105010986,0.0,0.0,0.0
1759828505.9341848,0,-1.0681152389224735e-06,5.999995708465576,3.1413222675256396,0.0,True,0.011386394500732422,-1.0681152389224735e-06,5.999995708465576,3.1415913105010986,0.0,0.0,0.0
1759828505.9456456,0,-1.0681152389224735e-06,5.999995708465576,3.1413286257729567,0.0,True,0.01146078109741211,-1.0681152389224735e-06,5.999995708465576,3.1415913105010986,0.0,0.0,0.0
1759828505.9564576,0,-1.0681152389224735e-06,5.999995708465576,3.1413393152785396,0.0,True,0.010812044143676758,-1.0681152389224735e-06,5.999995708465576,3.1415913105010986,0.0,0.0,0.0
1759828505.967861,0,-1.0681152389224735e-06,5.999995708465576,3.141346545069853,0.0,True,0.011403322219848633,-1.0681152389224735e-06,5.999995708465576,3.1415913105010986,0.0,0.0,0.0
1759828505.9791849,0,-1.0681152389224735e-06,5.999995708465576,3.141354394859878,0.0,True,0.011323928833007812,-1.0681152389224735e-06,5.999995708465576,3.1415913105010986,0.0,0.0,0.0
1759828505.9904625,0,-1.0681152389224735e-06,5.999995708465576,3.141362618095524,0.0,True,0.01127767562866211,-1.0681152389224735e-06,5.999995708465576,3.1415913105010986,0.0,0.0,0.0
1759828506.0027053,0,-1.0681152389224735e-06,5.999995708465576,3.141366468120795,0.0,True,0.012242794036865234,-1.0681152389224735e-06,5.999995708465576,3.1415913105010986,0.0,0.0,0.0
1759828506.0128856,0,-1.0681152389224735e-06,5.999995708465576,3.141380384430068,0.0,True,0.010180234909057617,-1.0681152389224735e-06,5.999995708465576,3.1415913105010986,0.0,0.0,0.0
1759828506.0241761,0,-1.0681152389224735e-06,5.999995708465576,3.1413879332225036,0.0,True,0.011290550231933594,-1.0681152389224735e-06,5.999995708465576,3.1415913105010986,0.0,0.0,0.0
1759828506.0351517,0,-1.0681152389224735e-06,5.999995708465576,3.141396196300171,0.0,True,0.01097559928894043,-1.0681152389224735e-06,5.999995708465576,3.1415913105010986,0.0,0.0,0.0
1759828506.0463789,0,-1.0681152389224735e-06,5.999995708465576,3.1414029616690424,0.0,True,0.011227130889892578,-1.0681152389224735e-06,5.999995708465576,3.1415913105010986,0.0,0.0,0.0
1759828506.0577633,0,-1.0681152389224735e-06,5.999995708465576,3.1414089340145654,0.0,True,0.01138448715209961,-1.0681152389224735e-06,5.999995708465576,3.1415913105010986,0.0,0.0,0.0
1759828506.0687716,0,-1.0681152389224735e-06,5.999995708465576,3.141416289528099,0.0,True,0.011008262634277344,-1.0681152389224735e-06,5.999995708465576,3.1415913105010986,0.0,0.0,0.0
1759828506.0793796,0,-1.0681152389224735e-06,5.999995708465576,3.1414246025648307,0.0,True,0.01060795783996582,-1.0681152389224735e-06,5.999995708465576,3.1415913105010986,0.0,0.0,0.0
1759828506.0894907,0,-1.0681152389224735e-06,5.999995708465576,3.1414336713935818,0.0,True,0.010111093521118164,-1.0681152389224735e-06,5.999995708465576,3.1415913105010986,0.0,0.0,0.0
1759828506.0999722,0,-1.0681152389224735e-06,5.999995708465576,3.1414402228407,0.0,True,0.010481595993041992,-1.0681152389224735e-06,5.999995708465576,3.1415913105010986,0.0,0.0,0.0
1759828506.1109557,0,-1.0681152389224735e-06,5.999995708465576,3.1414444645532242,0.0,True,0.010983467102050781,-1.0681152389224735e-06,5.999995708465576,3.1415913105010986,0.0,0.0,0.0
1759828506.1214972,0,-1.0681152389224735e-06,5.999995708465576,3.141450054994902,0.0,True,0.010541439056396484,-1.0681152389224735e-06,5.999995708465576,3.1415913105010986,0.0,0.0,0.0
1759828506.131744,0,-1.0681152389224735e-06,5.999995708465576,3.141456194057522,0.0,True,0.010246753692626953,-1.0681152389224735e-06,5.999995708465576,3.1415913105010986,0.0,0.0,0.0
1759828506.142657,0,-1.0681152389224735e-06,5.999995708465576,3.1414598217744913,0.0,True,0.01091313362121582,-1.0681152389224735e-06,5.999995708465576,3.1415913105010986,0.0,0.0,0.0
1759828506.1533053,0,-1.0681152389224735e-06,5.999995708465576,3.1414641982391913,0.0,True,0.010648250579833984,-1.0681152389224735e-06,5.999995708465576,3.1415913105010986,0.0,0.0,0.0
1759828506.163508,0,-1.0681152389224735e-06,5.999995708465576,3.1414696563726157,0.0,True,0.010202646255493164,-1.0681152389224735e-06,5.999995708465576,3.1415913105010986,0.0,0.0,0.0
1759828506.1738942,0,-1.0681152389224735e-06,5.999995708465576,3.1414741282972205,0.0,True,0.010386228561401367,-1.0681152389224735e-06,5.999995708465576,3.1415913105010986,0.0,0.0,0.0
1759828506.1839397,0,-1.0681152389224735e-06,5.999995708465576,3.1414790932188943,0.0,True,0.010045528411865234,-1.0681152389224735e-06,5.999995708465576,3.1415913105010986,0.0,0.0,0.0
1759828506.1948688,0,-1.0681152389224735e-06,5.999995708465576,3.141481429840324,0.0,True,0.010929107666015625,-1.0681152389224735e-06,5.999995708465576,3.1415913105010986,0.0,0.0,0.0
1759828506.2093015,0,-1.0681152389224735e-06,5.999995708465576,3.141475931359663,0.0,True,0.014432668685913086,-1.0681152389224735e-06,5.999995708465576,3.1415913105010986,0.0,0.0,0.0
1759828506.220364,0,-1.0681152389224735e-06,5.999995708465576,3.141480732317321,0.0,True,0.0110626220703125,-1.0681152389224735e-06,5.999995708465576,3.1415913105010986,0.0,0.0,0.0
1759828506.230453,0,-1.0681152389224735e-06,5.999995708465576,3.141487814696587,0.0,True,0.010088920593261719,-1.0681152389224735e-06,5.999995708465576,3.1415913105010986,0.0,0.0,0.0
1759828506.2417645,0,-1.0681152389224735e-06,5.999995708465576,3.1414912730365376,0.0,True,0.011311531066894531,-1.0681152389224735e-06,5.999995708465576,3.1415913105010986,0.0,0.0,0.0
1759828506.2522953,0,-1.0681152389224735e-06,5.999995708465576,3.1414960383212804,0.0,True,0.010530710220336914,-1.0681152389224735e-06,5.999995708465576,3.1415913105010986,0.0,0.0,0.0
1759828506.2635338,0,-1.0681152389224735e-06,5.999995708465576,3.1414989571156458,0.0,True,0.011238574981689453,-1.0681152389224735e-06,5.999995708465576,3.1415913105010986,0.0,0.0,0.0
1759828506.274302,0,-1.0681152389224735e-06,5.999995708465576,3.141502680643006,0.0,True,0.01076817512512207,-1.0681152389224735e-06,5.999995708465576,3.1415913105010986,0.0,0.0,0.0
1759828506.2849271,0,-1.0681152389224735e-06,5.999995708465576,3.1415064149387995,0.0,True,0.010625123977661133,-1.0681152389224735e-06,5.999995708465576,3.1415913105010986,0.0,0.0,0.0
1759828506.2950544,0,-1.0681152389224735e-06,5.999995708465576,3.1415106663356127,0.0,True,0.01012730598449707,-1.0681152389224735e-06,5.999995708465576,3.1415913105010986,0.0,0.0,0.0
1759828506.3057077,0,-1.0681152389224735e-06,5.999995708465576,3.1415134825813986,0.0,True,0.010653257369995117,-1.0681152389224735e-06,5.999995708465576,3.1415913105010986,0.0,0.0,0.0
1759828506.3167405,0,-1.0681152389224735e-06,5.999995708465576,3.1415154727385115,0.0,True,0.011032819747924805,-1.0681152389224735e-06,5.999995708465576,3.1415913105010986,0.0,0.0,0.0
1759828506.3276618,0,-1.0681152389224735e-06,5.999995708465576,3.1415177241545607,0.0,True,0.010921239852905273,-1.0681152389224735e-06,5.999995708465576,3.1415913105010986,0.0,0.0,0.0
1759828506.3384526,0,-1.0681152389224735e-06,5.999995708465576,3.14152021164794,0.0,True,0.010790824890136719,-1.0681152389224735e-06,5.999995708465576,3.1415913105010986,0.0,0.0,0.0
1759828506.3491118,0,-1.0681152389224735e-06,5.999995708465576,3.1415228232448733,0.0,True,0.010659217834472656,-1.0681152389224735e-06,5.999995708465576,3.1415913105010986,0.0,0.0,0.0
1759828506.3603213,0,-1.0681152389224735e-06,5.999995708465576,3.1415245143484416,0.0,True,0.011209487915039062,-1.0681152389224735e-06,5.999995708465576,3.1415913105010986,0.0,0.0,0.0
1759828506.3709025,0,-1.0681152389224735e-06,5.999995708465576,3.1415271586798674,0.0,True,0.010581254959106445,-1.0681152389224735e-06,5.999995708465576,3.1415913105010986,0.0,0.0,0.0
1759828506.3816555,0,-1.0681152389224735e-06,5.999995708465576,3.1415294224009394,0.0,True,0.01075291633605957,-1.0681152389224735e-06,5.999995708465576,3.1415913105010986,0.0,0.0,0.0
1759828506.3921077,0,-1.0681152389224735e-06,5.999995708465576,3.1415319433268003,0.0,True,0.0104522705078125,-1.0681152389224735e-06,5.999995708465576,3.1415913105010986,0.0,0.0,0.0
1759828506.40727,0,-1.0681152389224735e-06,5.999995708465576,3.1415285325396987,0.0,True,0.015162229537963867,-1.0681152389224735e-06,5.999995708465576,3.1415913105010986,0.0,0.0,0.0
1759828506.4184082,0,-1.0681152389224735e-06,5.999995708465576,3.141531461991825,0.0,True,0.011138200759887695,-1.0681152389224735e-06,5.999995708465576,3.1415913105010986,0.0,0.0,0.0
1759828506.4285269,0,-1.0681152389224735e-06,5.999995708465576,3.1415355908667095,0.0,True,0.010118722915649414,-1.0681152389224735e-06,5.999995708465576,3.1415913105010986,0.0,0.0,0.0
1759828506.4398448,0,-1.0681152389224735e-06,5.999995708465576,3.1415377190079887,0.0,True,0.011317968368530273,-1.0681152389224735e-06,5.999995708465576,3.1415913105010986,0.0,0.0,0.0
1759828506.4510186,0,-1.0681152389224735e-06,5.999995708465576,3.1415397800294187,0.0,True,0.011173725128173828,-1.0681152389224735e-06,5.999995708465576,3.1415913105010986,0.0,0.0,0.0
1759828506.4618473,0,-1.0681152389224735e-06,5.999995708465576,3.1415420694741485,0.0,True,0.010828733444213867,-1.0681152389224735e-06,5.999995708465576,3.1415913105010986,0.0,0.0,0.0
1759828506.4732301,0,-1.0681152389224735e-06,5.999995708465576,3.1415436054172368,0.0,True,0.011382818222045898,-1.0681152389224735e-06,5.999995708465576,3.1415913105010986,0.0,0.0,0.0
1759828506.4838367,0,-1.0681152389224735e-06,5.999995708465576,3.141545844135914,0.0,True,0.010606527328491211,-1.0681152389224735e-06,5.999995708465576,3.1415913105010986,0.0,0.0,0.0
1759828506.494563,0,-1.0681152389224735e-06,5.999995708465576,3.1415477533585907,0.0,True,0.010726451873779297,-1.0681152389224735e-06,5.999995708465576,3.1415913105010986,0.0,0.0,0.0
1759828506.504953,0,-1.0681152389224735e-06,5.999995708465576,3.141549767253885,0.0,True,0.01038980484008789,-1.0681152389224735e-06,5.999995708465576,3.1415913105010986,0.0,0.0,0.0
1759828506.5155556,0,-1.0681152389224735e-06,5.999995708465576,3.1415513669067323,0.0,True,0.010602712631225586,-1.0681152389224735e-06,5.999995708465576,3.1415913105010986,0.0,0.0,0.0
1759828506.5260959,0,-1.0681152389224735e-06,5.999995708465576,3.141552875451181,0.0,True,0.010540246963500977,-1.0681152389224735e-06,5.999995708465576,3.1415913105010986,0.0,0.0,0.0
1759828506.5363503,0,-1.0681152389224735e-06,5.999995708465576,3.141554498998147,0.0,True,0.010254383087158203,-1.0681152389224735e-06,5.999995708465576,3.1415913105010986,0.0,0.0,0.0
1759828506.5478282,0,-1.0681152389224735e-06,5.999995708465576,3.1415550154483185,0.0,True,0.011477947235107422,-1.0681152389224735e-06,5.999995708465576,3.1415913105010986,0.0,0.0,0.0
1759828506.557937,0,-1.0681152389224735e-06,5.999995708465576,3.141556700512549,0.0,True,0.010108709335327148,-1.0681152389224735e-06,5.999995708465576,3.1415913105010986,0.0,0.0,0.0
1759828506.5688872,0,-1.0681152389224735e-06,5.999995708465576,3.1415576326995307,0.0,True,0.010950326919555664,-1.0681152389224735e-06,5.999995708465576,3.1415913105010986,0.0,0.0,0.0
1759828506.5789018,0,-1.0681152389224735e-06,5.999995708465576,3.1415592149128706,0.0,True,0.010014533996582031,-1.0681152389224735e-06,5.999995708465576,3.1415913105010986,0.0,0.0,0.0
1759828506.589312,0,-1.0681152389224735e-06,5.999995708465576,3.141560361014264,0.0,True,0.010410308837890625,-1.0681152389224735e-06,5.999995708465576,3.1415913105010986,0.0,0.0,0.0
1759828506.6036294,0,-1.0681152389224735e-06,5.999995708465576,3.141558873567849,0.0,True,0.01431727409362793,-1.0681152389224735e-06,5.999995708465576,3.1415913105010986,0.0,0.0,0.0
1759828506.6117506,0,-1.0681152389224735e-06,5.999995708465576,3.141562006156427,0.0,True,0.008121252059936523,-1.0681152389224735e-06,5.999995708465576,3.1415913105010986,0.0,0.0,0.0
1759828506.6223526,0,-1.0681152389224735e-06,5.999995708465576,3.141563134404695,0.0,True,0.010601997375488281,-1.0681152389224735e-06,5.999995708465576,3.1415913105010986,0.0,0.0,0.0
1759828506.6329875,0,-1.0681152389224735e-06,5.999995708465576,3.1415640465895827,0.0,True,0.010634899139404297,-1.0681152389224735e-06,5.999995708465576,3.1415913105010986,0.0,0.0,0.0
1759828506.643902,0,-1.0681152389224735e-06,5.999995708465576,3.1415647618468867,0.0,True,0.01091456413269043,-1.0681152389224735e-06,5.999995708465576,3.1415913105010986,0.0,0.0,0.0
1759828506.6539974,0,-1.0681152389224735e-06,5.999995708465576,3.1415659541725702,0.0,True,0.010095357894897461,-1.0681152389224735e-06,5.999995708465576,3.1415913105010986,0.0,0.0,0.0
1759828506.6647766,0,-1.0681152389224735e-06,5.999995708465576,3.141566666405435,0.0,True,0.010779142379760742,-1.0681152389224735e-06,5.999995708465576,3.1415913105010986,0.0,0.0,0.0
1759828506.6758156,0,-1.0681152389224735e-06,5.999995708465576,3.1415672329272404,0.0,True,0.011039018630981445,-1.0681152389224735e-06,5.999995708465576,3.1415913105010986,0.0,0.0,0.0
1759828506.686414,0,-1.0681152389224735e-06,5.999995708465576,3.1415680728464395,0.0,True,0.010598421096801758,-1.0681152389224735e-06,5.999995708465576,3.1415913105010986,0.0,0.0,0.0
1759828506.6978464,0,-1.0681152389224735e-06,5.999995708465576,3.1415684870354443,0.0,True,0.011432409286499023,-1.0681152389224735e-06,5.999995708465576,3.1415913105010986,0.0,0.0,0.0
1759828506.7087626,0,-1.0681152389224735e-06,5.999995708465576,3.1415692244376867,0.0,True,0.01091623306274414,-1.0681152389224735e-06,5.999995708465576,3.1415913105010986,0.0,0.0,0.0
1759828506.71948,0,-1.0681152389224735e-06,5.999995708465576,3.141570058435496,0.0,True,0.010717391967773438,-1.0681152389224735e-06,5.999995708465576,3.1415913105010986,0.0,0.0,0.0
1759828506.730105,0,-1.0681152389224735e-06,5.999995708465576,3.141570884919746,0.0,True,0.010624885559082031,-1.0681152389224735e-06,5.999995708465576,3.1415913105010986,0.0,0.0,0.0
1759828506.740452,0,-1.0681152389224735e-06,5.999995708465576,3.1415717665777034,0.0,True,0.010347127914428711,-1.0681152389224735e-06,5.999995708465576,3.1415913105010986,0.0,0.0,0.0
1759828506.7510717,0,-1.0681152389224735e-06,5.999995708465576,3.141572448737344,0.0,True,0.010619640350341797,-1.0681152389224735e-06,5.999995708465576,3.1415913105010986,0.0,0.0,0.0
1759828506.7614772,0,-1.0681152389224735e-06,5.999995708465576,3.1415731714414754,0.0,True,0.010405540466308594,-1.0681152389224735e-06,5.999995708465576,3.1415913105010986,0.0,0.0,0.0
1759828506.7718086,0,-1.0681152389224735e-06,5.999995708465576,3.1415738691732678,0.0,True,0.010331392288208008,-1.0681152389224735e-06,5.999995708465576,3.1415913105010986,0.0,0.0,0.0
1759828506.7824948,0,-1.0681152389224735e-06,5.999995708465576,3.1415743790867943,0.0,True,0.010686159133911133,-1.0681152389224735e-06,5.999995708465576,3.1415913105010986,0.0,0.0,0.0
1759828506.793237,0,-1.0681152389224735e-06,5.999995708465576,3.1415748615378902,0.0,True,0.0107421875,-1.0681152389224735e-06,5.999995708465576,3.1415913105010986,0.0,0.0,0.0
1759828506.8042955,0,-1.0681152389224735e-06,5.999995708465576,3.1415752420382415,0.0,True,0.011058568954467773,-1.0681152389224735e-06,5.999995708465576,3.1415913105010986,0.0,0.0,0.0
1759828506.81509,0,-1.0681152389224735e-06,5.999995708465576,3.14157574628344,0.0,True,0.010794401168823242,-1.0681152389224735e-06,5.999995708465576,3.1415913105010986,0.0,0.0,0.0
1759828506.825839,0,-1.0681152389224735e-06,5.999995708465576,3.14157626703067,0.0,True,0.010749101638793945,-1.0681152389224735e-06,5.999995708465576,3.1415913105010986,0.0,0.0,0.0
1759828506.8365057,0,-1.0681152389224735e-06,5.999995708465576,3.141576798555258,0.0,True,0.010666608810424805,-1.0681152389224735e-06,5.999995708465576,3.1415913105010986,0.0,0.0,0.0
1759828506.8476157,0,-1.0681152389224735e-06,5.999995708465576,3.1415771726324397,0.0,True,0.011110067367553711,-1.0681152389224735e-06,5.999995708465576,3.1415913105010986,0.0,0.0,0.0
1759828506.8579588,0,-1.0681152389224735e-06,5.999995708465576,3.141577785599438,0.0,True,0.010343074798583984,-1.0681152389224735e-06,5.999995708465576,3.1415913105010986,0.0,0.0,0.0
1759828506.8681083,0,-1.0681152389224735e-06,5.999995708465576,3.141578402272355,0.0,True,0.010149478912353516,-1.0681152389224735e-06,5.999995708465576,3.1415913105010986,0.0,0.0,0.0
1759828506.8782198,0,-1.0681152389224735e-06,5.999995708465576,3.141578955889692,0.0,True,0.010111570358276367,-1.0681152389224735e-06,5.999995708465576,3.1415913105010986,0.0,0.0,0.0
1759828506.8884952,0,-1.0681152389224735e-06,5.999995708465576,3.141579402682403,0.0,True,0.01027536392211914,-1.0681152389224735e-06,5.999995708465576,3.1415913105010986,0.0,0.0,0.0
1759828506.899283,0,-1.0681152389224735e-06,5.999995708465576,3.1415796829561486,0.0,True,0.010787725448608398,-1.0681152389224735e-06,5.999995708465576,3.1415913105010986,0.0,0.0,0.0
1759828506.9102106,0,-1.0681152389224735e-06,5.999995708465576,3.1415799440861214,0.0,True,0.010927677154541016,-1.0681152389224735e-06,5.999995708465576,3.1415913105010986,0.0,0.0,0.0
1759828506.9203615,0,-1.0681152389224735e-06,5.999995708465576,3.141580419223498,0.0,True,0.010150909423828125,-1.0681152389224735e-06,5.999995708465576,3.1415913105010986,0.0,0.0,0.0
1759828506.9309354,0,-1.0681152389224735e-06,5.999995708465576,3.1415807606577495,0.0,True,0.010573863983154297,-1.0681152389224735e-06,5.999995708465576,3.1415913105010986,0.0,0.0,0.0
1759828506.9413788,0,-1.0681152389224735e-06,5.999995708465576,3.141581117522822,0.0,True,0.010443449020385742,-1.0681152389224735e-06,5.999995708465576,3.1415913105010986,0.0,0.0,0.0
1759828506.9527912,0,-1.0681152389224735e-06,5.999995708465576,3.1415812511852135,0.0,True,0.011412382125854492,-1.0681152389224735e-06,5.999995708465576,3.1415913105010986,0.0,0.0,0.0
1759828506.9632604,0,-1.0681152389224735e-06,5.999995708465576,3.141581630548089,0.0,True,0.010469198226928711,-1.0681152389224735e-06,5.999995708465576,3.1415913105010986,0.0,0.0,0.0
1759828506.9740014,0,-1.0681152389224735e-06,5.999995708465576,3.141581942977517,0.0,True,0.010740995407104492,-1.0681152389224735e-06,5.999995708465576,3.1415913105010986,0.0,0.0,0.0
1759828506.9851792,0,-1.0681152389224735e-06,5.999995708465576,3.1415821610343553,0.0,True,0.011177778244018555,-1.0681152389224735e-06,5.999995708465576,3.1415913105010986,0.0,0.0,0.0
1759828506.9961698,0,-1.0681152389224735e-06,5.999995708465576,3.1415824342049454,0.0,True,0.010990619659423828,-1.0681152389224735e-06,5.999995708465576,3.1415913105010986,0.0,0.0,0.0
1759828507.011041,0,-1.0681152389224735e-06,5.999995708465576,3.1415820230358875,0.0,True,0.01487112045288086,-1.0681152389224735e-06,5.999995708465576,3.1415913105010986,0.0,0.0,0.0
1759828507.0218775,0,-1.0681152389224735e-06,5.999995708465576,3.141582527702571,0.0,True,0.010836601257324219,-1.0681152389224735e-06,5.999995708465576,3.1415913105010986,0.0,0.0,0.0
1759828507.0324981,0,-1.0681152389224735e-06,5.999995708465576,3.1415830500811612,0.0,True,0.010620594024658203,-1.0681152389224735e-06,5.999995708465576,3.1415913105010986,0.0,0.0,0.0
1759828507.0430017,0,-1.0681152389224735e-06,5.999995708465576,3.1415835104094647,0.0,True,0.010503530502319336,-1.0681152389224735e-06,5.999995708465576,3.1415913105010986,0.0,0.0,0.0
1759828507.0535777,0,-1.0681152389224735e-06,5.999995708465576,3.141583887922156,0.0,True,0.010576009750366211,-1.0681152389224735e-06,5.999995708465576,3.1415913105010986,0.0,0.0,0.0
1759828507.0638366,0,-1.0681152389224735e-06,5.999995708465576,3.1415842621261927,0.0,True,0.010258913040161133,-1.0681152389224735e-06,5.999995708465576,3.1415913105010986,0.0,0.0,0.0
1759828507.0751274,0,-1.0681152389224735e-06,5.999995708465576,3.141584436265557,0.0,True,0.011290788650512695,-1.0681152389224735e-06,5.999995708465576,3.1415913105010986,0.0,0.0,0.0
1759828507.0857544,0,-1.0681152389224735e-06,5.999995708465576,3.1415847075497627,0.0,True,0.010627031326293945,-1.0681152389224735e-06,5.999995708465576,3.1415913105010986,0.0,0.0,0.0
1759828507.09696,0,-1.0681152389224735e-06,5.999995708465576,3.141584885431902,0.0,True,0.011205673217773438,-1.0681152389224735e-06,5.999995708465576,3.1415913105010986,0.0,0.0,0.0
1759828507.107773,0,-1.0681152389224735e-06,5.999995708465576,3.1415851188848656,0.0,True,0.010812997817993164,-1.0681152389224735e-06,5.999995708465576,3.1415913105010986,0.0,0.0,0.0
1759828507.118812,0,-1.0681152389224735e-06,5.999995708465576,3.1415853150780766,0.0,True,0.011039018630981445,-1.0681152389224735e-06,5.999995708465576,3.1415913105010986,0.0,0.0,0.0
1759828507.1296408,0,-1.0681152389224735e-06,5.999995708465576,3.141585533539539,0.0,True,0.010828733444213867,-1.0681152389224735e-06,5.999995708465576,3.1415913105010986,0.0,0.0,0.0
1759828507.1401365,0,-1.0681152389224735e-06,5.999995708465576,3.141585780865242,0.0,True,0.010495662689208984,-1.0681152389224735e-06,5.999995708465576,3.1415913105010986,0.0,0.0,0.0
1759828507.151247,0,-1.0681152389224735e-06,5.999995708465576,3.1415859356268108,0.0,True,0.011110544204711914,-1.0681152389224735e-06,5.999995708465576,3.1415913105010986,0.0,0.0,0.0
1759828507.1615663,0,-1.0681152389224735e-06,5.999995708465576,3.1415861774300478,0.0,True,0.010319232940673828,-1.0681152389224735e-06,5.999995708465576,3.1415913105010986,0.0,0.0,0.0
1759828507.1717772,0,-1.0681152389224735e-06,5.999995708465576,3.1415864081281892,0.0,True,0.010210990905761719,-1.0681152389224735e-06,5.999995708465576,3.1415913105010986,0.0,0.0,0.0
1759828507.1823692,0,-1.0681152389224735e-06,5.999995708465576,3.1415865721952567,0.0,True,0.010591983795166016,-1.0681152389224735e-06,5.999995708465576,3.1415913105010986,0.0,0.0,0.0
1759828507.193053,0,-1.0681152389224735e-06,5.999995708465576,3.14158671709915,0.0,True,0.010683774948120117,-1.0681152389224735e-06,5.999995708465576,3.1415913105010986,0.0,0.0,0.0
1759828507.2162955,0,-1.0681152389224735e-06,5.999995708465576,3.141585696423496,0.0,True,0.023242473602294922,-1.0681152389224735e-06,5.999995708465576,3.1415913105010986,0.0,0,0
1759828507.2234793,0,-1.0681152389224735e-06,5.999995708465576,3.1415864846736348,0.0,True,0.00718379020690918,-1.0681152389224735e-06,5.999995708465576,3.1415913105010986,0.0,0,0
1759828507.2335973,0,-1.0681152389224735e-06,5.999995708465576,3.1415869056521775,0.0,True,0.01011800765991211,-1.0681152389224735e-06,5.999995708465576,3.1415913105010986,0.0,0,0
1759828507.2437887,0,-1.0681152389224735e-06,5.999995708465576,3.1415872096695203,0.0,True,0.01019144058227539,-1.0681152389224735e-06,5.999995708465576,3.1415913105010986,0.0,0,0
1759828507.253831,0,-1.0681152389224735e-06,5.999995708465576,3.1415874625367675,0.0,True,0.010042190551757812,-1.0681152389224735e-06,5.999995708465576,3.1415913105010986,0.0,0,0
1759828507.263834,0,-1.0681152389224735e-06,5.999995708465576,3.1415876718257856,0.0,True,0.010003089904785156,-1.0681152389224735e-06,5.999995708465576,3.1415913105010986,0.0,0,0
1759828507.2752018,0,-1.0681152389224735e-06,5.999995708465576,3.1415877428860846,0.0,True,0.0113677978515625,-1.0681152389224735e-06,5.999995708465576,3.1415913105010986,0.0,0,0
1759828507.2865584,0,-1.0681152389224735e-06,5.999995708465576,3.1415878208160297,0.0,True,0.011356592178344727,-1.0681152389224735e-06,5.999995708465576,3.1415913105010986,0.0,0,0
1759828507.2967188,0,-1.0681152389224735e-06,5.999995708465576,3.141587994427363,0.0,True,0.010160446166992188,-1.0681152389224735e-06,5.999995708465576,3.1415913105010986,0.0,0,0
1759828507.3069038,0,-1.0681152389224735e-06,5.999995708465576,3.1415881479315964,0.0,True,0.010185003280639648,-1.0681152389224735e-06,5.999995708465576,3.1415913105010986,0.0,0,0
1759828507.318186,0,-1.0681152389224735e-06,5.999995708465576,3.1415882086330242,0.0,True,0.011282205581665039,-1.0681152389224735e-06,5.999995708465576,3.1415913105010986,0.0,0,0
1759828507.329297,0,-1.0681152389224735e-06,5.999995708465576,3.1415882871649323,0.0,True,0.011111021041870117,-1.0681152389224735e-06,5.999995708465576,3.1415913105010986,0.0,0,0
1759828507.3399482,0,-1.0681152389224735e-06,5.999995708465576,3.1415884005670076,0.0,True,0.010651111602783203,-1.0681152389224735e-06,5.999995708465576,3.1415913105010986,0.0,0,0
1759828507.3511922,0,-1.0681152389224735e-06,5.999995708465576,3.1415884730696195,0.0,True,0.011244058609008789,-1.0681152389224735e-06,5.999995708465576,3.1415913105010986,0.0,0,0
1759828507.362461,0,-1.0681152389224735e-06,5.999995708465576,3.1415885479423924,0.0,True,0.011268854141235352,-1.0681152389224735e-06,5.999995708465576,3.1415913105010986,0.0,0,0
1759828507.3726592,0,-1.0681152389224735e-06,5.999995708465576,3.141588687080697,0.0,True,0.010198116302490234,-1.0681152389224735e-06,5.999995708465576,3.1415913105010986,0.0,0,0
1759828507.383587,0,-1.0681152389224735e-06,5.999995708465576,3.141588771402315,0.0,True,0.010927677154541016,-1.0681152389224735e-06,5.999995708465576,3.1415913105010986,0.0,0,0
1759828507.3947566,0,-1.0681152389224735e-06,5.999995708465576,3.141588838704566,0.0,True,0.011169672012329102,-1.0681152389224735e-06,5.999995708465576,3.1415913105010986,0.0,0,0
1759828507.4051113,0,-1.0681152389224735e-06,5.999995708465576,3.141588949729961,0.0,True,0.010354757308959961,-1.0681152389224735e-06,5.999995708465576,3.1415913105010986,0.0,0,0
1759828507.4158418,0,-1.0681152389224735e-06,5.999995708465576,3.1415890323719573,0.0,True,0.010730504989624023,-1.0681152389224735e-06,5.999995708465576,3.1415913105010986,0.0,0,0
1759828507.4267294,0,-1.0681152389224735e-06,5.999995708465576,3.1415891021916895,0.0,True,0.010887622833251953,-1.0681152389224735e-06,5.999995708465576,3.1415913105010986,0.0,0,0
1759828507.4379187,0,-1.0681152389224735e-06,5.999995708465576,3.1415891574286867,0.0,True,0.01118922233581543,-1.0681152389224735e-06,5.999995708465576,3.1415913105010986,0.0,0,0
1759828507.4493256,0,-1.0681152389224735e-06,5.999995708465576,3.141589206849229,0.0,True,0.011406898498535156,-1.0681152389224735e-06,5.999995708465576,3.1415913105010986,0.0,0,0
1759828507.460315,0,-1.0681152389224735e-06,5.999995708465576,3.1415892798862544,0.0,True,0.01098942756652832,-1.0681152389224735e-06,5.999995708465576,3.1415913105010986,0.0,0,0
1759828507.4710255,0,-1.0681152389224735e-06,5.999995708465576,3.1415893630792304,0.0,True,0.010710477828979492,-1.0681152389224735e-06,5.999995708465576,3.1415913105010986,0.0,0,0
1759828507.481968,0,-1.0681152389224735e-06,5.999995708465576,3.1415894306846184,0.0,True,0.010942459106445312,-1.0681152389224735e-06,5.999995708465576,3.1415913105010986,0.0,0,0
1759828507.4925897,0,-1.0681152389224735e-06,5.999995708465576,3.141589507123264,0.0,True,0.010621786117553711,-1.0681152389224735e-06,5.999995708465576,3.1415913105010986,0.0,0,0
1759828507.5037,0,-1.0681152389224735e-06,5.999995708465576,3.1415895595829717,0.0,True,0.011110305786132812,-1.0681152389224735e-06,5.999995708465576,3.1415913105010986,0.0,0,0
1759828507.514646,0,-1.0681152389224735e-06,5.999995708465576,3.141589617728437,0.0,True,0.010946035385131836,-1.0681152389224735e-06,5.999995708465576,3.1415913105010986,0.0,0,0
1759828507.525237,0,-1.0681152389224735e-06,5.999995708465576,3.1415896869708906,0.0,True,0.01059103012084961,-1.0681152389224735e-06,5.999995708465576,3.1415913105010986,0.0,0,0
1759828507.5360203,0,-1.0681152389224735e-06,5.999995708465576,3.1415897444060707,0.0,True,0.010783195495605469,-1.0681152389224735e-06,5.999995708465576,3.1415913105010986,0.0,0,0
1759828507.5468707,0,-1.0681152389224735e-06,5.999995708465576,3.141589796329134,0.0,True,0.01085042953491211,-1.0681152389224735e-06,5.999995708465576,3.1415913105010986,0.0,0,0
1759828507.5580497,0,-1.0681152389224735e-06,5.999995708465576,3.141589836396271,0.0,True,0.011178970336914062,-1.0681152389224735e-06,5.999995708465576,3.1415913105010986,0.0,0,0
1759828507.5687058,0,-1.0681152389224735e-06,5.999995708465576,3.141589893797761,0.0,True,0.010656118392944336,-1.0681152389224735e-06,5.999995708465576,3.1415913105010986,0.0,0,0
1759828507.5800364,0,-1.0681152389224735e-06,5.999995708465576,3.1415899284692905,0.0,True,0.011330604553222656,-1.0681152389224735e-06,5.999995708465576,3.1415913105010986,0.0,0,0
1759828507.5910847,0,-1.0681152389224735e-06,5.999995708465576,3.141589973104539,0.0,True,0.011048316955566406,-1.0681152389224735e-06,5.999995708465576,3.1415913105010986,0.0,0,0
1759828507.6024818,0,-1.0681152389224735e-06,5.999995708465576,3.1415900084582002,0.0,True,0.011397123336791992,-1.0681152389224735e-06,5.999995708465576,3.1415913105010986,0.0,0,0
1759828507.6127837,0,-1.0681152389224735e-06,5.999995708465576,3.1415900741472296,0.0,True,0.010301828384399414,-1.0681152389224735e-06,5.999995708465576,3.1415913105010986,0.0,0,0
1759828507.6238022,0,-1.0681152389224735e-06,5.999995708465576,3.1415901146621987,0.0,True,0.011018514633178711,-1.0681152389224735e-06,5.999995708465576,3.1415913105010986,0.0,0,0
1759828507.634535,0,-1.0681152389224735e-06,5.999995708465576,3.1415901599623144,0.0,True,0.010732889175415039,-1.0681152389224735e-06,5.999995708465576,3.1415913105010986,0.0,0,0
1759828507.6456194,0,-1.0681152389224735e-06,5.999995708465576,3.1415901943462963,0.0,True,0.011084318161010742,-1.0681152389224735e-06,5.999995708465576,3.1415913105010986,0.0,0,0
1759828507.656438,0,-1.0681152389224735e-06,5.999995708465576,3.1415902345785938,0.0,True,0.010818719863891602,-1.0681152389224735e-06,5.999995708465576,3.1415913105010986,0.0,0,0
1759828507.6678517,0,-1.0681152389224735e-06,5.999995708465576,3.1415902601634453,0.0,True,0.01141357421875,-1.0681152389224735e-06,5.999995708465576,3.1415913105010986,0.0,0,0
1759828507.6788218,0,-1.0681152389224735e-06,5.999995708465576,3.1415902971615104,0.0,True,0.010970115661621094,-1.0681152389224735e-06,5.999995708465576,3.1415913105010986,0.0,0,0
1759828507.6895766,0,-1.0681152389224735e-06,5.999995708465576,3.1415903377334704,0.0,True,0.010754823684692383,-1.0681152389224735e-06,5.999995708465576,3.1415913105010986,0.0,0,0
1759828507.6999848,0,-1.0681152389224735e-06,5.999995708465576,3.141590382152639,0.0,True,0.010408163070678711,-1.0681152389224735e-06,5.999995708465576,3.1415913105010986,0.0,0,0
1759828507.7113695,0,-1.0681152389224735e-06,5.999995708465576,3.1415904031288537,0.0,True,0.011384725570678711,-1.0681152389224735e-06,5.999995708465576,3.1415913105010986,0.0,0,0
1759828507.7223978,0,-1.0681152389224735e-06,5.999995708465576,3.1415904321168497,0.0,True,0.011028289794921875,-1.0681152389224735e-06,5.999995708465576,3.1415913105010986,0.0,0,0
1759828507.733957,0,-1.0681152389224735e-06,5.999995708465576,3.1415904519372493,0.0,True,0.011559247970581055,-1.0681152389224735e-06,5.999995708465576,3.1415913105010986,0.0,0,0
1759828507.7447402,0,-1.0681152389224735e-06,5.999995708465576,3.14159048732237,0.0,True,0.010783195495605469,-1.0681152389224735e-06,5.999995708465576,3.1415913105010986,0.0,0,0
1759828507.755527,0,-1.0681152389224735e-06,5.999995708465576,3.1415905205634793,0.0,True,0.010786771774291992,-1.0681152389224735e-06,5.999995708465576,3.1415913105010986,0.0,0,0
1759828507.76624,0,-1.0681152389224735e-06,5.999995708465576,3.1415905522251784,0.0,True,0.010712862014770508,-1.0681152389224735e-06,5.999995708465576,3.1415913105010986,0.0,0,0
1759828507.7772834,0,-1.0681152389224735e-06,5.999995708465576,3.1415905761922645,0.0,True,0.011043548583984375,-1.0681152389224735e-06,5.999995708465576,3.1415913105010986,0.0,0,0
1759828507.787548,0,-1.0681152389224735e-06,5.999995708465576,3.1415906111515532,0.0,True,0.01026463508605957,-1.0681152389224735e-06,5.999995708465576,3.1415913105010986,0.0,0,0
1759828507.7987585,0,-1.0681152389224735e-06,5.999995708465576,3.141590628710132,0.0,True,0.011210441589355469,-1.0681152389224735e-06,5.999995708465576,3.1415913105010986,0.0,0,0
1759828507.8094985,0,-1.0681152389224735e-06,5.999995708465576,3.1415906532219307,0.0,True,0.010740041732788086,-1.0681152389224735e-06,5.999995708465576,3.1415913105010986,0.0,0,0
1759828507.8207996,0,-1.0681152389224735e-06,5.999995708465576,3.141590669330327,0.0,True,0.011301040649414062,-1.0681152389224735e-06,5.999995708465576,3.1415913105010986,0.0,0,0
1759828507.8321404,0,-1.0681152389224735e-06,5.999995708465576,3.1415906859960927,0.0,True,0.011340856552124023,-1.0681152389224735e-06,5.999995708465576,3.1415913105010986,0.0,0,0
1759828507.8427613,0,-1.0681152389224735e-06,5.999995708465576,3.1415907129089398,0.0,True,0.010620832443237305,-1.0681152389224735e-06,5.999995708465576,3.1415913105010986,0.0,0,0
1759828507.8534346,0,-1.0681152389224735e-06,5.999995708465576,3.141590737132887,0.0,True,0.010673284530639648,-1.0681152389224735e-06,5.999995708465576,3.1415913105010986,0.0,0,0
1759828507.8642724,0,-1.0681152389224735e-06,5.999995708465576,3.141590757269313,0.0,True,0.010837793350219727,-1.0681152389224735e-06,5.999995708465576,3.1415913105010986,0.0,0,0
1759828507.8756409,0,-1.0681152389224735e-06,5.999995708465576,3.1415907703392136,0.0,True,0.011368513107299805,-1.0681152389224735e-06,5.999995708465576,3.1415913105010986,0.0,0,0
1759828507.8861344,0,-1.0681152389224735e-06,5.999995708465576,3.1415907940005017,0.0,True,0.01049351692199707,-1.0681152389224735e-06,5.999995708465576,3.1415913105010986,0.0,0,0
1759828507.8961537,0,-1.0681152389224735e-06,5.999995708465576,3.141590820782426,0.0,True,0.010019302368164062,-1.0681152389224735e-06,5.999995708465576,3.1415913105010986,0.0,0,0
1759828507.9074407,0,-1.0681152389224735e-06,5.999995708465576,3.141590830894815,0.0,True,0.01128697395324707,-1.0681152389224735e-06,5.999995708465576,3.1415913105010986,0.0,0,0
1759828507.9184244,0,-1.0681152389224735e-06,5.999995708465576,3.141590844754935,0.0,True,0.010983705520629883,-1.0681152389224735e-06,5.999995708465576,3.1415913105010986,0.0,0,0
1759828507.92973,0,-1.0681152389224735e-06,5.999995708465576,3.1415908560664167,0.0,True,0.011305570602416992,-1.0681152389224735e-06,5.999995708465576,3.1415913105010986,0.0,0,0
1759828507.9411418,0,-1.0681152389224735e-06,5.999995708465576,3.1415908674032575,0.0,True,0.011411905288696289,-1.0681152389224735e-06,5.999995708465576,3.1415913105010986,0.0,0,0
1759828507.951759,0,-1.0681152389224735e-06,5.999995708465576,3.1415908868224722,0.0,True,0.010617256164550781,-1.0681152389224735e-06,5.999995708465576,3.1415913105010986,0.0,0,0
1759828507.9627323,0,-1.0681152389224735e-06,5.999995708465576,3.141590901696164,0.0,True,0.010973215103149414,-1.0681152389224735e-06,5.999995708465576,3.1415913105010986,0.0,0,0
1759828507.973311,0,-1.0681152389224735e-06,5.999995708465576,3.1415909189970783,0.0,True,0.010578632354736328,-1.0681152389224735e-06,5.999995708465576,3.1415913105010986,0.0,0,0
1759828507.9844823,0,-1.0681152389224735e-06,5.999995708465576,3.1415909300700022,0.0,True,0.011171340942382812,-1.0681152389224735e-06,5.999995708465576,3.1415913105010986,0.0,0,0
1759828507.995281,0,-1.0681152389224735e-06,5.999995708465576,3.1415909440500727,0.0,True,0.01079869270324707,-1.0681152389224735e-06,5.999995708465576,3.1415913105010986,0.0,0,0
1759828508.0060322,0,-1.0681152389224735e-06,5.999995708465576,3.1415909577677272,0.0,True,0.01075124740600586,-1.0681152389224735e-06,5.999995708465576,3.1415913105010986,0.0,0,0
1759828508.016918,0,-1.0681152389224735e-06,5.999995708465576,3.1415909696557396,0.0,True,0.01088571548461914,-1.0681152389224735e-06,5.999995708465576,3.1415913105010986,0.0,0,0
1759828508.027312,0,-1.0681152389224735e-06,5.999995708465576,3.1415909844970944,0.0,True,0.010394096374511719,-1.0681152389224735e-06,5.999995708465576,3.1415913105010986,0.0,0,0
1759828508.038638,0,-1.0681152389224735e-06,5.999995708465576,3.141590991677301,0.0,True,0.011326074600219727,-1.0681152389224735e-06,5.999995708465576,3.1415913105010986,0.0,0,0
1759828508.0499587,0,-1.0681152389224735e-06,5.999995708465576,3.141590999487523,0.0,True,0.01132059097290039,-1.0681152389224735e-06,5.999995708465576,3.1415913105010986,0.0,0,0
1759828508.0612016,0,-1.0681152389224735e-06,5.999995708465576,3.1415910085838235,0.0,True,0.011242866516113281,-1.0681152389224735e-06,5.999995708465576,3.1415913105010986,0.0,0,0
1759828508.0723836,0,-1.0681152389224735e-06,5.999995708465576,3.141591018378069,0.0,True,0.011182069778442383,-1.0681152389224735e-06,5.999995708465576,3.1415913105010986,0.0,0,0
1759828508.0837185,0,-1.0681152389224735e-06,5.999995708465576,3.141591027256677,0.0,True,0.011334896087646484,-1.0681152389224735e-06,5.999995708465576,3.1415913105010986,0.0,0,0
1759828508.0943077,0,-1.0681152389224735e-06,5.999995708465576,3.1415910404212166,0.0,True,0.010589122772216797,-1.0681152389224735e-06,5.999995708465576,3.1415913105010986,0.0,0,0
1759828508.1043286,0,-1.0681152389224735e-06,5.999995708465576,3.141591055405666,0.0,True,0.010020971298217773,-1.0681152389224735e-06,5.999995708465576,3.1415913105010986,0.0,0,0
1759828508.1159012,0,-1.0681152389224735e-06,5.999995708465576,3.141591059999463,0.0,True,0.011572599411010742,-1.0681152389224735e-06,5.999995708465576,3.1415913105010986,0.0,0,0
1759828508.126351,0,-1.0681152389224735e-06,5.999995708465576,3.1415910708714065,0.0,True,0.010449886322021484,-1.0681152389224735e-06,5.999995708465576,3.1415913105010986,0.0,0,0
1759828508.1378484,0,-1.0681152389224735e-06,5.999995708465576,3.141591075848762,0.0,True,0.011497259140014648,-1.0681152389224735e-06,5.999995708465576,3.1415913105010986,0.0,0,0
1759828508.1490479,0,-1.0681152389224735e-06,5.999995708465576,3.1415910827936244,0.0,True,0.011199474334716797,-1.0681152389224735e-06,5.999995708465576,3.1415913105010986,0.0,0,0
1759828508.159531,0,-1.0681152389224735e-06,5.999995708465576,3.1415910932577553,0.0,True,0.010483264923095703,-1.0681152389224735e-06,5.999995708465576,3.1415913105010986,0.0,0,0
1759828508.1695364,0,-1.0681152389224735e-06,5.999995708465576,3.1415911048320844,0.0,True,0.01000523567199707,-1.0681152389224735e-06,5.999995708465576,3.1415913105010986,0.0,0,0
1759828508.1795762,0,-1.0681152389224735e-06,5.999995708465576,3.141591114577551,0.0,True,0.010039806365966797,-1.0681152389224735e-06,5.999995708465576,3.1415913105010986,0.0,0,0
1759828508.1908183,0,-1.0681152389224735e-06,5.999995708465576,3.141591117960999,0.0,True,0.011242151260375977,-1.0681152389224735e-06,5.999995708465576,3.1415913105010986,0.0,0,0
1759828508.2018738,0,-1.0681152389224735e-06,5.999995708465576,3.141591122604634,0.0,True,0.011055469512939453,-1.0681152389224735e-06,5.999995708465576,3.1415913105010986,0.0,0,0
1759828508.2133343,0,-1.0681152389224735e-06,5.999995708465576,3.141591126178538,0.0,True,0.011460542678833008,-1.0681152389224735e-06,5.999995708465576,3.1415913105010986,0.0,-0.04783006494283448,0.20120758567959568
1759828508.2260573,0,-0.000151726695795934,5.999994824367472,3.1415907424574048,0.0011560814419877986,True,0.012722969055175781,-0.00023574828810524195,5.999994277954102,3.1415913105010986,0.0011560814419877986,-0.06203899188039763,0.20289056429476163
1759828508.2375224,0,-0.00020871768616779747,5.99999448666988,3.141590043021555,0.0011560814419877986,True,0.011465072631835938,-0.00023574828810524195,5.999994277954102,3.1415913105010986,0.0011560814419877986,-0.187789396425309,0.20547749274914354
1759828508.2487755,0,-0.0002303927119294022,5.999994357674142,3.1415878962917674,0.0011560814419877986,True,0.011253118515014648,-0.00023574828810524195,5.999994277954102,3.1415913105010986,0.0011560814419877986,-0.5235987755982988,0.20868153795452732
1759828508.259603,0,-0.00023848390707489358,5.999994308412218,3.1415878429568203,0.0011560814419877986,True,0.01082754135131836,-0.00023574828810524195,5.999994277954102,3.1415913105010986,0.0011560814419877986,-0.5235987755982988,0.2098648555101011
1759828508.270624,0,-0.00024165985213942095,5.999994289610545,3.1415909523049628,0.0011560814419877986,True,0.011020898818969727,-0.00023574828810524195,5.999994277954102,3.1415913105010986,0.0011560814419877986,0.014090989878895677,0.20939001440939833
1759828508.2814856,0,-0.00024280262697449204,5.9999942824283625,-3.141591121233372,0.0011560814419877986,True,0.010861635208129883,-0.00023574828810524195,5.999994277954102,3.1415913105010986,0.0011560814419877986,0.5235987755982988,0.21400455717785302
1759828508.2923584,0,-0.0002432440763639842,5.999994279658961,3.14159187183807,0.0011560814419877986,True,0.010872840881347656,-0.00023574828810524195,5.999994277954102,3.1415913105010986,0.0011560814419877986,0.08531958560838326,0.21414178128959166
1759828508.303151,0,-0.00024337721506449036,5.999994278622927,-3.141591052777409,0.0011560814419877986,True,0.01079249382019043,-0.00023574828810524195,5.999994277954102,3.1415913105010986,0.0011560814419877986,0.5235987755982988,0.21790363947242297
1759828508.314576,0,-0.00024370738210171885,5.999994278203052,3.1415915032958353,0.0011560814419877986,True,0.011425018310546875,-0.00023574828810524195,5.999994277954102,3.1415913105010986,0.0011560814419877986,0.012367824504329938,0.21194406246752084
1759828508.325903,0,-0.0002437902238738386,5.999994278055304,3.141591256185311,0.0011560814419877986,True,0.011327028274536133,-0.00023574828810524195,5.999994277954102,3.1415913105010986,0.0011560814419877986,0.008854423194708083,0.21079813849409557
1759828508.3373055,0,-0.00024385524094133076,5.999994278000038,3.1415912356202753,0.0011560814419877986,True,0.011402606964111328,-0.00023574828810524195,5.999994277954102,3.1415913105010986,0.0011560814419877986,0.008182690518320435,0.20887808333101543
1759828508.3486197,0,-0.0002438410157085758,5.999994277978808,3.1415912045527463,0.0011560814419877986,True,0.011314153671264648,-0.00023574828810524195,5.999994277954102,3.1415913105010986,0.0011560814419877986,0.0021924136275357498,0.20283323270625225
1759828508.359397,0,-0.00024359848757059038,5.999994277970467,3.1415912014550074,0.0011560814419877986,True,0.01077723503112793,-0.00023574828810524195,5.999994277954102,3.1415913105010986,0.0011560814419877986,0.001229818445226627,0.19969781611420936
1759828508.3696632,0,-0.00024328023119723555,5.999994277966961,3.1415912062279947,0.0011560814419877986,True,0.010266304016113281,-0.00023574828810524195,5.999994277954102,3.1415913105010986,0.0011560814419877986,0.0011565909452961876,0.19957313693778378
1759828508.38087,0,-0.00024357400472639393,5.999994277966278,3.1415912251387894,0.0011560814419877986,True,0.011206865310668945,-0.00023574828810524195,5.999994277954102,3.1415913105010986,0.0011560814419877986,0.003971621007142545,0.19802429513791575
1759828508.3919091,0,-0.00024361209785203757,5.999994277965851,3.1415912361592895,0.0011560814419877986,True,0.011039018630981445,-0.00023574828810524195,5.999994277954102,3.1415913105010986,0.0011560814419877986,0.005193733326958494,0.193439026094298
1759828508.4025748,0,-0.00024346177685407295,5.999994277965412,3.1415912438049514,0.0011560814419877986,True,0.010665655136108398,-0.00023574828810524195,5.999994277954102,3.1415913105010986,0.0011560814419877986,0.0059140018200505295,0.1920768949922389
1759828508.4132755,0,-0.0002434198357646479,5.999994277965218,3.141591245099697,0.0011560814419877986,True,0.010700702667236328,-0.00023574828810524195,5.999994277954102,3.1415913105010986,0.0011560814419877986,0.00534934515748553,0.18994173881216003
1759828508.4325726,0,-0.05900259452807461,6.000006435471733,3.1415376230826624,0.4423936264124546,True,0.019297122955322266,-0.09004165232181549,6.000013828277588,3.1413378715515137,0.4423936264124546,0.004748193900889319,0.18642515555450298
1759828508.4438992,0,-0.08009974027949993,6.00001113717728,3.1414738454450664,0.4423936264124546,True,0.01132655143737793,-0.09004165232181549,6.000013828277588,3.1413378715515137,0.4423936264124546,0.0039039584155968754,0.18666797653756917
1759828508.4553287,0,-0.08817553721311826,6.00001305620627,3.141433849598563,0.4423936264124546,True,0.011429548263549805,-0.09004165232181549,6.000013828277588,3.1413378715515137,0.4423936264124546,0.004646126919048754,0.18435404147507625
1759828508.4661303,0,-0.0911540990502126,6.000013845683662,3.14140417655611,0.4423936264124546,True,0.010801553726196289,-0.09004165232181549,6.000013828277588,3.1413378715515137,0.4423936264124546,0.004686073617700792,0.18359069038419557
1759828508.4776144,0,-0.09240715242564837,6.000014227968624,3.14138548479705,0.4423936264124546,True,0.011484146118164062,-0.09004165232181549,6.000013828277588,3.1413378715515137,0.4423936264124546,0.005660512770852222,0.18048042360558636
1759828508.4883866,0,-0.09276547681590377,6.000014381576237,3.1413697566804792,0.4423936264124546,True,0.010772228240966797,-0.09004165232181549,6.000013828277588,3.1413378715515137,0.4423936264124546,0.005582744610427959,0.1803529327760762
1759828508.4996126,0,-0.09297901225087121,6.000014485709717,3.1413585325482263,0.4423936264124546,True,0.01122593879699707,-0.09004165232181549,6.000013828277588,3.1413378715515137,0.4423936264124546,0.0052520466521306375,0.1782398561195584
1759828508.5108266,0,-0.09305856113425308,6.000014543414903,3.1413493953374907,0.4423936264124546,True,0.011214017868041992,-0.09004165232181549,6.000013828277588,3.1413378715515137,0.4423936264124546,0.004631596535629612,0.17772951883093285
1759828508.5211468,0,-0.09293790709956076,6.000014542943981,3.1413435825803493,0.4423936264124546,True,0.010320186614990234,-0.09004165232181549,6.000013828277588,3.1413378715515137,0.4423936264124546,0.004741115012396158,0.17583881833678056
1759828508.5322726,0,-0.0930279538684197,6.00001458267618,3.1413367511826955,0.4423936264124546,True,0.011125802993774414,-0.09004165232181549,6.000013828277588,3.1413378715515137,0.4423936264124546,0.0030102498808135536,0.17536347554760026
1759828508.5427454,0,-0.09295200036063725,6.000014572756741,3.1413290844163164,0.4423936264124546,True,0.010472774505615234,-0.09004165232181549,6.000013828277588,3.1413378715515137,0.4423936264124546,0.0006402424538656248,0.17637571116116146
1759828508.5528889,0,-0.09286735123277474,6.000014568512896,3.1413281364422705,0.4423936264124546,True,0.010143518447875977,-0.09004165232181549,6.000013828277588,3.1413378715515137,0.4423936264124546,0.0011860858497794169,0.1752874740852791
1759828508.5635753,0,-0.09292675348670104,6.000014590769093,3.141325695337354,0.4423936264124546,True,0.010686397552490234,-0.09004165232181549,6.000013828277588,3.1413378715515137,0.4423936264124546,0.0004615506071887765,0.1762107105320021
1759828508.5746586,0,-0.09301652233103094,6.000014622430864,3.1413252752659044,0.4423936264124546,True,0.011083364486694336,-0.09004165232181549,6.000013828277588,3.1413378715515137,0.4423936264124546,0.0007203188461808452,0.17237106269584684
1759828508.5856721,0,-0.09303900665060036,6.000014629453229,3.141323309391227,0.4423936264124546,True,0.011013507843017578,-0.09004165232181549,6.000013828277588,3.1413378715515137,0.4423936264124546,-2.212234873155694e-05,0.17371772799515486
1759828508.59633,0,-0.09298748548404505,6.000014615415433,3.1413208201747835,0.4423936264124546,True,0.010657787322998047,-0.09004165232181549,6.000013828277588,3.1413378715515137,0.4423936264124546,-0.0011797764315950587,0.1741804669496274
1759828508.6074228,0,-0.09304133140156376,6.000014634694102,3.1413209388843217,0.4423936264124546,True,0.011092901229858398,-0.09004165232181549,6.000013828277588,3.1413378715515137,0.4423936264124546,-0.0009460661245910273,0.17439463823222243
1759828508.6176298,0,-0.09291218920974308,6.000014602069063,3.1413217332989785,0.4423936264124546,True,0.010206937789916992,-0.09004165232181549,6.000013828277588,3.1413378715515137,0.4423936264124546,-0.0008141380017754329,0.17278061302928582
1759828508.6307812,0,-0.19968781966779808,6.000012916871881,3.141419856582541,0.8955229313841311,True,0.013151407241821289,-0.25839996337890625,6.000010013580322,-3.1414637565612793,0.8955229313841311,-0.0013548646854175672,0.17236508305439627
1759828508.6421878,0,-0.2398756743965661,6.0000117570814595,3.1415083056037023,0.8955229313841311,True,0.011406660079956055,-0.25839996337890625,6.000010013580322,-3.1414637565612793,0.8955229313841311,-0.0005533851773051879,0.17070112641837137
1759828508.6533248,0,-0.25513383222904223,6.000010968321496,3.1415702663274363,0.8955229313841311,True,0.011137008666992188,-0.25839996337890625,6.000010013580322,-3.1414637565612793,0.8955229313841311,-0.0007311771426010694,0.17042445722762656
1759828508.6645632,0,-0.2609965900774036,6.00001042886997,-3.141571915248333,0.8955229313841311,True,0.011238336563110352,-0.25839996337890625,6.000010013580322,-3.1414637565612793,0.8955229313841311,-0.0012571633093632073,0.17276175320356768
1759828508.6747093,0,-0.2628623686500653,6.000010052002769,-3.141545344860951,0.8955229313841311,True,0.010146141052246094,-0.25839996337890625,6.000010013580322,-3.1414637565612793,0.8955229313841311,-0.0029311982325808117,0.17193911574185214
1759828508.6849258,0,-0.26359909086754174,6.0000098126807515,-3.141523150301321,0.8955229313841311,True,0.010216474533081055,-0.25839996337890625,6.000010013580322,-3.1414637565612793,0.8955229313841311,-0.003140634955689947,0.17052687483440582
1759828508.6953983,0,-0.26396808194886273,6.000009620468309,-3.141511309476675,0.8955229313841311,True,0.010472536087036133,-0.25839996337890625,6.000010013580322,-3.1414637565612793,0.8955229313841311,-0.00437900151854187,0.17017998420951724
