timestamp,observer_vehicle_id,vehicle_0_x,vehicle_0_y,vehicle_0_theta,vehicle_0_velocity,vehicle_1_x,vehicle_1_y,vehicle_1_theta,vehicle_1_velocity
1759681444.302745,1,0.0,0.0,0.0,0.0,-1.735,-0.35,-0.7801621756414646,0.0
1759681444.3135295,1,0.0,0.0,0.0,0.0,-1.735,-0.35,-0.7801621756414646,0.0
1759681445.610752,1,-0.23082706348932336,-0.15899285346373232,-0.13748157401540484,0.0,-1.7350000141675657,-0.3499999055495629,-0.7230010220885248,0.0
1759681445.71505,1,-0.4181054913758725,-0.2879895629126723,-0.24902539671869098,0.0,-1.7350000142591175,-0.34999990493921607,-0.7180959224447108,0.0
1759681445.8233185,1,-0.5699820317916372,-0.3926015792415947,-0.33948370570869973,0.0,-1.7350000142878588,-0.3499999047476075,-0.7176959460791145,0.0
1759681445.9175878,1,-0.6943574867523358,-0.4782709465424791,-0.41356225203855784,0.0,-1.7350000142985407,-0.3499999046763953,-0.7176724620782693,0.0
1759681446.0105963,1,-0.7959250873530315,-0.5482303455612005,-0.47405634397244195,0.0,-1.7350000143026045,-0.3499999046493024,-0.7176770042214429,0.0
1759681446.093587,1,-0.8746285218152916,-0.6024409889467383,-0.5209324419772596,0.0,-1.735000014304156,-0.34999990463895986,-0.7176823112205284,0.0
1759681446.1964805,1,-0.9386657068030625,-0.6465495722951614,-0.5590732598456185,0.0,-1.7350000143047486,-0.3499999046350097,-0.7176855779834935,0.0
1759681446.2826443,1,-0.9913212069651782,-0.6828184919564039,-0.5904350981561896,0.0,-1.7350000143049749,-0.34999990463350084,-0.7176889741110699,0.0
1759681446.3643003,1,-1.0325116669224332,-0.7111903330442254,-0.6149683100930291,0.0,-1.7350000143050612,-0.3499999046329245,-0.7176917052790159,0.0
1759681446.4565558,1,-1.0666359415804274,-0.7346950110409872,-0.6352928722184406,0.0,-1.7350000143050943,-0.3499999046327044,-0.7176936572887982,0.0
1759681446.5406516,1,-1.0932094013738876,-0.7529987148402665,-0.6511201371162976,0.0,-1.735000014305107,-0.3499999046326203,-0.7176955230609803,0.0
1759681446.6320214,1,-1.1151189848776273,-0.7680899573783089,-0.6641695775960332,0.0,-1.73520743744353,-0.34983984203966767,-0.7180508383689966,0.0033999690941353584
1759681446.7334042,1,-1.1328543717596347,-0.7803060282541748,-0.6747328489362818,0.0,-1.7352705262318502,-0.349816513909156,-0.718227573296936,0.0040538846800248825
1759681446.8253856,1,-1.1465269857662737,-0.7897236757447355,-0.6828763155910258,0.0,-1.7353037309422523,-0.3498037922198179,-0.7182008221896747,0.004173895316112343
1759681446.9138498,1,-1.1578513775402812,-0.7975238761834244,-0.6896211711652496,0.0,-1.7400583734727144,-0.34616325745744514,-0.7150438069640533,0.047469929591671275
1759681446.9972472,1,-1.1671810950351513,-0.8039501521325985,-0.6951779903134215,0.0,-1.7424876846171897,-0.3441852928961996,-0.7123635300458778,0.05109420768805933
1759681447.0821354,1,-1.1744295571919026,-0.8089428668693566,-0.6994952049910989,0.0,-1.7434017277575977,-0.34349774017879775,-0.7106516406214096,0.05211973566386231
1759681447.1834202,1,-1.1803172410498344,-0.8129982823943573,-0.7030019343661447,0.0,-1.7491901027839019,-0.3386167322966727,-0.7065219448590743,0.052342415891110466
1759681447.2649117,1,-1.1851906523998048,-0.8163550706535909,-0.7059045587512158,0.0,-1.7522108435387225,-0.33603584623790084,-0.7033553691707278,0.05246352292830105
1759681447.3491542,1,-1.1889772928009397,-0.818963294981001,-0.7081598977686983,0.0,-1.7533802787819777,-0.33503078820409776,-0.701323343470084,0.05252414575813415
1759681447.4489236,1,-1.1920601352709586,-0.8210867458176494,-0.7099960517656031,0.0,-1.759296360789555,-0.33007430811939437,-0.6967918826293392,0.05234464541396417
1759681447.5380764,1,-1.1945866034924413,-0.8228269680673579,-0.7115008269099847,0.0,-1.7623095609174149,-0.32753503292355185,-0.6932821125920823,0.052434782144216326
1759681447.652542,1,-1.196607237312023,-0.8242249238677017,-0.7126763715150052,0.0005235987755982988,-1.7677333722362052,-0.32306003491889734,-0.6883989628845636,0.05324222143457916
1759681447.744417,1,-1.1981750178474946,-0.8253220241713379,-0.7132295864910752,0.006697093351062316,-1.7703710170234608,-0.3208627629744221,-0.6848936632791753,0.053386512432143554
1759681447.860813,1,-1.1981079514044717,-0.8275039845090679,-0.711934200821316,0.020863414642326862,-1.7758214426540606,-0.31639355489190113,-0.6799671717029391,0.049638659155541456
1759681447.975826,1,-1.1979335992903375,-0.8294945578170432,-0.7102642065094151,0.03231539389411895,-1.778410143627203,-0.31426072653568654,-0.6761777751819932,0.049807230459070095
1759681448.099669,1,-1.1949112252587308,-0.8336099860044404,-0.7020518340660881,0.048211606023564176,-1.7843897498477252,-0.3095179293820745,-0.6699103935196882,0.05501648228287096
1759681448.2141423,1,-1.1923625985843596,-0.837157129270797,-0.6939881184876989,0.06110683285962803,-1.7872744891300052,-0.3072357184516573,-0.6651718805664926,0.05624345820368307
1759681448.333711,1,-1.187049208203127,-0.8425452327499854,-0.677975129250074,0.07867658825393593,-1.7934976484986054,-0.3024213795416125,-0.6552151272438934,0.05690918315012046
1759681448.4437108,1,-1.1826345252522144,-0.8471330923627786,-0.6646014340391558,0.09308680513490263,-1.796453720290475,-0.30011411532834176,-0.6472250587815375,0.05779380455673018
1759681448.5643754,1,-1.1743306051404279,-0.8539814764273287,-0.6395775917343914,0.10712675373148921,-1.8026250119674212,-0.2955667127567265,-0.6324203025980075,0.062005402146623145
1759681448.679314,1,-1.1641743274858263,-0.8614088330508954,-0.6109761670871651,0.11384945576893236,-1.8054976838019232,-0.2934047667043144,-0.6208550528030199,0.06278334853644574
1759681448.8021526,1,-1.1553105521338187,-0.8677331243573652,-0.5841903601254793,0.1180171221556041,-1.8122885050554585,-0.2886398324839542,-0.6014091839744803,0.05877319982115366
1759681448.912786,1,-1.1425920115630857,-0.8753793233798073,-0.5492499318684626,0.13131537914992017,-1.8155004154967551,-0.2863195011951644,-0.5859401121367512,0.05837090191840009
1759681449.035368,1,-1.1322461020064347,-0.8815948815520314,-0.5204090521776688,0.14020426790948248,-1.8220935227912267,-0.28201764038046934,-0.5647218648794403,0.05950114776681726
1759681449.1457615,1,-1.1174597087037432,-0.8889923331872669,-0.48476065247367695,0.14434509895104397,-1.8251904814255964,-0.27994057209736406,-0.548202695184456,0.05959962535304238
1759681449.279002,1,-1.1029170206315286,-0.8957365962351024,-0.4548750035599468,0.1497953168967044,-1.8305700872206832,-0.27650501583101883,-0.5310929486217839,0.044325047991534194
1759681449.38487,1,-1.087321971240746,-0.9023924812129599,-0.42608181459168043,0.1558590702288528,-1.8330713643104661,-0.2748854153718617,-0.5183251791711293,0.042880290033424015
1759681449.4968846,1,-1.0679619294112797,-0.9098267940538733,-0.40090462332280935,0.15788323321398465,-1.8337951289909642,-0.27425172872104103,-0.5142473325808503,0.021886391950661582
1759681449.609226,1,-1.0518452129850884,-0.9159206611860263,-0.38076381739877524,0.15966361551843736,-1.8340209610040463,-0.27403955392480994,-0.5126778639143531,0.019978558273769882
1759681449.7293134,1,-1.0312567171329874,-0.9232257055423057,-0.36726130455684763,0.16710361235468818,-1.8258512643957736,-0.27925301047104484,-0.5254983283864536,0.06414128570318513
1759681449.835398,1,-1.014461087819069,-0.929173972165635,-0.35660385900625735,0.17297914799950623,-1.8218840525201268,-0.28182077911733033,-0.5399501307549192,0.06802791460277939
1759681449.9616852,1,-0.9940374389951678,-0.9362931781230756,-0.3514891332742893,0.1765826200946868,-1.808415226942465,-0.2914200060409224,-0.572887149735076,0.10503724438507908
1759681450.0777717,1,-0.9747660241816994,-0.9430321803027053,-0.34797251637475124,0.1804474610446552,-1.8020500057446325,-0.2961667515771507,-0.6030655965050052,0.10724010393688549
1759681450.1922884,1,-0.9553259096652437,-0.9498637357769942,-0.34689126168561,0.1847172157791145,-1.7884954479178903,-0.30728885240667997,-0.6460524852729821,0.11534534043396372
1759681450.3061142,1,-0.930690881531537,-0.9586204141981133,-0.34648846725148924,0.19012963270004538,-1.7823207389521534,-0.3126365943119473,-0.6804235829622797,0.1136775461199518
1759681450.4255023,1,-0.9105404454203901,-0.9658099788653346,-0.346230302624823,0.19461706424883335,-1.7656831018325483,-0.3282183947330053,-0.7184029876645077,0.14076775228294425
1759681450.530572,1,-0.886702127205307,-0.9743697196552693,-0.34473834115999386,0.20843671178340342,-1.757946384277244,-0.33577816515288755,-0.7470956676366945,0.1417705995257331
1759681450.640467,1,-0.8672257640938759,-0.9814092526306375,-0.34340796701919446,0.21997457125013786,-1.741854736460814,-0.35195695478371697,-0.7712231304215528,0.15791200266433977
1759681450.7497816,1,-0.8424494664015864,-0.9901892091260182,-0.3389788258824581,0.22302652210965823,-1.7343677798776833,-0.3596779310770698,-0.7874234182458125,0.15847955653128903
1759681450.843784,1,-0.8220033052116671,-0.9974145782437989,-0.33520301990140083,0.2256771300472487,-1.719737492892958,-0.3744807009897847,-0.7968958987462761,0.15366749547664632
1759681450.9255173,1,-0.7977056879508152,-1.0057073800202139,-0.3277445119625826,0.22809705857364143,-1.7133257042588126,-0.3810102141011529,-0.8008292379385002,0.15286352198858352
1759681451.0099435,1,-0.7773353645155401,-1.012611659400034,-0.3212631126334165,0.23042850964203948,-1.7108415716225167,-0.383555709494722,-0.8022076499174063,0.1525831647762698
1759681451.0953734,1,-0.7575915968154474,-1.0191085286413184,-0.31460849667102536,0.2317796041564866,-1.6923066317237794,-0.4021555181316814,-0.7994195379396207,0.16328898840331882
1759681451.190832,1,-0.7362972184188324,-1.0258383659619632,-0.30462160939272387,0.23252284040455312,-1.6827636719794767,-0.4116848161411812,-0.79606427710528,0.16411784831476703
1759681451.27885,1,-0.7110337783792765,-1.0332603035871029,-0.2915031244941098,0.23903929422335196,-1.6794718095640377,-0.41492291474922016,-0.7919674022381331,0.16410592246282124
1759681451.3733585,1,-0.6905464187066446,-1.0392283242080784,-0.2796141021230857,0.24447816493712599,-1.6560272597802796,-0.43803666285760934,-0.7832388387566681,0.19397168916258067
1759681451.4566214,1,-0.6733257783177347,-1.0441871544650791,-0.26962395621452434,0.24921916608313663,-1.6452377851032014,-0.4484515958299556,-0.7757749133274796,0.19667129057033417
1759681451.5424721,1,-0.6487094074162504,-1.0503185280143599,-0.25194887792071763,0.25609906650360914,-1.6408497811314702,-0.45265434158084683,-0.7700442156049319,0.1973297937017266
1759681451.6338985,1,-0.6293535616217546,-1.0550997379267555,-0.23791546721059384,0.26137610010765633,-1.617892351638214,-0.47411020332616716,-0.7606279357401476,0.19411980713592544
1759681451.7360265,1,-0.6051304990264308,-1.0601760730949013,-0.21773796023218647,0.2573050890007183,-1.6062348728448497,-0.4848905975363016,-0.7526736099373431,0.19400726694346535
1759681451.8273597,1,-0.5850798068491436,-1.0642582508243181,-0.2006761153036243,0.2534487430706313,-1.602240106328798,-0.4884688821121533,-0.7476633414144305,0.19403615633754787
1759681451.9443202,1,-0.5585779734180599,-1.06844696211193,-0.1771336079064971,0.2583626039796161,-1.5729171588979318,-0.5151864929842405,-0.7382307132434648,0.20667300296214094
1759681452.040759,1,-0.5366790352844888,-1.0717970307050588,-0.15748400469972396,0.2620268095719117,-1.5587048588702805,-0.5279523852541428,-0.731269608684272,0.20798808743366598
1759681452.1454663,1,-0.5101592301547873,-1.0748787602276022,-0.13545072351453963,0.2569065788909798,-1.5337647503594611,-0.5500945750968951,-0.722578904308159,0.2211954969389469
1759681452.2438755,1,-0.48844090584439487,-1.0772857202364263,-0.11728524079511116,0.25272081424293474,-1.5220483765001236,-0.5603224341583058,-0.7161665586414969,0.22246382270840087
1759681452.3346725,1,-0.46032551703456415,-1.0794770358088694,-0.09878072602381067,0.2579349804785911,-1.518127140849808,-0.5636679388893338,-0.7126851837779271,0.22218712019499667
1759681452.4339623,1,-0.43847703459209697,-1.0811151944178121,-0.08433793503534076,0.2624286138073489,-1.4883689692658708,-0.5889254743918978,-0.7010493615734487,0.22804219129884204
1759681452.5300663,1,-0.4103627036964103,-1.082583426648211,-0.07121043548416559,0.2609961111536752,-1.4739217173536685,-0.6009787804730141,-0.691766093867781,0.2282795916017119
1759681452.6216342,1,-0.3870591787804706,-1.0837309880728283,-0.0602760347549593,0.2600586302505912,-1.46871223113374,-0.6052104707128234,-0.6863583845939504,0.22825078854070258
1759681452.7174468,1,-0.3581271472410622,-1.0847551751353524,-0.05064543350462975,0.25900998904548594,-1.4380874912202088,-0.6292868466613689,-0.6687728834973892,0.2276199874276998
1759681452.8107295,1,-0.33488438494705897,-1.0855271033468004,-0.0430478029965715,0.2582470137758423,-1.4231739502544807,-0.6407385326071422,-0.6536735840934597,0.22799169571829334
1759681452.903953,1,-0.31162839151110683,-1.0861660853409034,-0.03652415016972297,0.25929305194515034,-1.417425156450429,-0.6449741795693323,-0.6449669603445751,0.22826347668829752
1759681452.998288,1,-0.2868052239735453,-1.0867119913744585,-0.03037696923953828,0.26172125290905246,-1.3845964512914584,-0.6681372510467678,-0.6213714004214989,0.23294246279594424
1759681453.085603,1,-0.2582262023924074,-1.0871533356301806,-0.024423463054120874,0.26467435196312583,-1.3692557269189438,-0.6785867048076833,-0.6020786951478464,0.23405843381928818
1759681453.1839333,1,-0.2343490778362592,-1.0874747516324104,-0.019378916937290224,0.2670006433567936,-1.362179870009068,-0.6832034969180084,-0.5899013110618768,0.23405970954424457
1759681453.2825325,1,-0.20978679347778703,-1.087692675827455,-0.014897861328274838,0.2713657226157195,-1.3284895124118128,-0.7042840160297433,-0.5653548392727644,0.22295797293101496
1759681453.3729844,1,-0.18277287101794912,-1.0878135948895127,-0.010130430074011347,0.2777433507458413,-1.3126022097252394,-0.7139025635591256,-0.546399308946396,0.22226788323793661
1759681453.4686081,1,-0.1604795071054365,-1.087889475862063,-0.006206553884615131,0.2829114577671746,-1.3059964948829121,-0.7176962186013404,-0.5351204132517666,0.22214204419738756
1759681453.5664563,1,-0.13178754597517406,-1.0878248969736546,-0.0023548483614461726,0.2820851938469707,-1.268387209573479,-0.7390667824417044,-0.5123985573023117,0.24492817825924876
1759681453.6545556,1,-0.10807372558362954,-1.087750896970719,0.0008105218448740849,0.28132426946377076,-1.2509337147282347,-0.7486328072310596,-0.4950283646978619,0.24740880297386414
1759681453.75341,1,-0.07973628479313692,-1.0875634608839808,0.003388845655361232,0.2784820177697956,-1.2431086310518185,-0.7527415690384065,-0.48457698663347853,0.24775471950533315
1759681453.8473153,1,-0.05634314072361928,-1.0873955286719021,0.0055434865180861576,0.27620624838001584,-1.2026358197937308,-0.77292664616259,-0.4601469648777186,0.2621626332516972
1759681453.9416893,1,-0.026871749735254608,-1.0871424528741704,0.006862721025976739,0.27827310913216097,-1.1827798531165816,-0.7824437298187874,-0.44026624540092635,0.2638414074347819
1759681454.0329788,1,-0.0025814663937947474,-1.0869274635596553,0.007932843103802248,0.28005855757471104,-1.1754172705132446,-0.7857431419010826,-0.4293460564394237,0.26434633362811866
1759681454.1300082,1,0.026932636824462144,-1.0866787766936992,0.008218694802770177,0.28118260768234005,-1.1354190424110002,-0.8030827805557018,-0.40749613177589805,0.25532206509990857
1759681454.2302651,1,0.051182037902607815,-1.0864734943428183,0.008387321580751743,0.28219046509436896,-1.1154130938376567,-0.8114355189811036,-0.38981292262799294,0.2550687884762038
1759681454.329656,1,0.08113428471308909,-1.0862635582657547,0.00805909771421721,0.2804194308804554,-1.0781022352540903,-0.826021177305784,-0.3682532440253906,0.27273445880394437
1759681454.4213133,1,0.10588190194841528,-1.086092658256647,0.007768272050694785,0.2789459673879746,-1.061146387876334,-0.8323210678282671,-0.3527571352475466,0.27472910994730937
1759681454.5472376,1,0.13438277861564202,-1.0859357563356522,0.007385938732552778,0.27229032654508517,-1.024150230464239,-0.8453741540385851,-0.334397448399147,0.27547959649814086
1759681454.6309636,1,0.15816637344193402,-1.085807991782524,0.007034769380422402,0.26666877685572515,-1.0084892003306256,-0.8506407381841111,-0.32276870076415565,0.27592374348302
1759681454.7287977,1,0.190200200041945,-1.0856735657451986,0.0068309815061759595,0.2818584015602996,-1.0009850328175929,-0.8530296099736486,-0.31551562137678024,0.27569978008403556
1759681454.8387067,1,0.2164043144875482,-1.0855632610811157,0.006676548982882205,0.2941226306466164,-0.9592759840491303,-0.8663437962486982,-0.3005968721001664,0.2527230044769612
1759681454.9514203,1,0.24871478856675844,-1.0854343311696557,0.0067312630617346585,0.2905770353462679,-0.9387978590155914,-0.8726940492898949,-0.289403486543201,0.25085891969512525
1759681455.0650373,1,0.27485232801387566,-1.0853296523975446,0.006815201690361537,0.28768600988563536,-0.8948405317913861,-0.8855193924634877,-0.27380342482800657,0.276012908647323
1759681455.1797364,1,0.30698031894239713,-1.0851998073670188,0.006914623453078222,0.28440348017789574,-0.8741737534692623,-0.8913072899350941,-0.26235657503044274,0.2783071320098852
1759681455.3019466,1,0.33728060717285363,-1.0850777253481452,0.006979848245909541,0.2869229814612587,-0.830390024679511,-0.9027851372432878,-0.24832803638228634,0.28073637569745635
1759681455.410492,1,0.3680963910657246,-1.0849551356078602,0.006915562689210986,0.29431512191101283,-0.8096443606785555,-0.9080083081071578,-0.23840880268376113,0.281090831759208
1759681455.5685349,1,0.40451303219737716,-1.0848338620538744,0.006478117047911828,0.2890173460510492,-0.7643412294319694,-0.9188115550881789,-0.22586420858439307,0.26473953180269494
1759681455.6800048,1,0.4340566660961279,-1.0847382752129962,0.00612508496708182,0.28486822448551,-0.7429327389431383,-0.9237388068329282,-0.21745928857003952,0.2634997157808701
1759681455.8037784,1,0.46852052421564877,-1.0846686704886306,0.0053608885273171885,0.28891018232669036,-0.697393613382186,-0.9336421728018736,-0.20525634037101795,0.2830708684500247
1759681455.918763,1,0.506678892878369,-1.0846399297453286,0.004490836063993069,0.2848327287266146,-0.6757267910284338,-0.9381544117167184,-0.19607761626757753,0.2848634574894396
1759681456.0354397,1,0.5376561618573782,-1.0846218532348717,0.003773918839647202,0.28153679641581025,-0.629298629842376,-0.9471021616985175,-0.1831638513345563,0.2931388716516648
1759681456.146718,1,0.5743234489845545,-1.0846321872337141,0.003479556485957215,0.2863616865480023,-0.6071235092248435,-0.9511640492881414,-0.17336844635277626,0.2941380365073387
1759681456.27259,1,0.605444742091495,-1.0846428888416983,0.0031982290743182993,0.29025655383608445,-0.5623410128032753,-0.9587916930598726,-0.16247534847425874,0.28694046323024786
1759681456.3787236,1,0.6405173281557249,-1.0846351802960814,0.0036679233465447695,0.2965066767832689,-0.5411494215353436,-0.962245436093743,-0.15479630180219286,0.28645626018762
1759681456.5235696,1,0.6780315209935368,-1.0845966392007893,0.004300233400225365,0.28208773588576874,-0.4949077721167811,-0.9694807230821226,-0.14648385580154422,0.27918146324014936
1759681456.6394205,1,0.7085258799871929,-1.0845617641926575,0.004852864039015874,0.2704028787121913,-0.47314965324192504,-0.972776316803147,-0.14162259059521956,0.2786863696730433
1759681456.7669384,1,0.7461588355574524,-1.0844714036250558,0.0054028572958253725,0.28387468152650275,-0.42558744409567983,-0.9797079372358436,-0.13493801708552275,0.28230232945643846
1759681456.8877013,1,0.7784514430730982,-1.0843909282918376,0.005836267455149685,0.29538518579079537,-0.40286499738834197,-0.9829184407574266,-0.13071164718662504,0.282737732082657
1759681457.0071976,1,0.8152183862881202,-1.084284951705656,0.005942803730690357,0.29800387011306234,-0.3554042901195478,-0.9892908332229843,-0.12441926934216312,0.29489297329574593
1759681457.1267736,1,0.8546786971327942,-1.0841909065920103,0.00548622325565884,0.29321833316031776,-0.33294765874707405,-0.9922024675697181,-0.11989867638225546,0.2959053493005188
1759681457.2500648,1,0.88667105091455,-1.0841186171857502,0.00506248003129588,0.2895033556299782,-0.28277677221966324,-0.9982753297102918,-0.11257063967424644,0.3123167522881311
1759681457.3685503,1,0.9262961745421849,-1.0840987204534949,0.003934744829180916,0.29488779191192277,-0.25905941158949614,-1.0010151174647939,-0.10714542789373753,0.3138644704385474
1759681457.5298035,1,0.9658179821296954,-1.0841290959789596,0.0027841114316544254,0.27923828864202765,-0.2073730269662928,-1.006432669614277,-0.09936128085726666,0.28502302732137175
1759681457.6518323,1,0.9974918407126092,-1.0841609608080442,0.0018254028240595516,0.26682501823246574,-0.182670375124476,-1.008902676113308,-0.09377151149601977,0.28249372601241435
1759681457.770212,1,1.0378663374695112,-1.0842619134864204,0.0013976141108151552,0.2864027584147165,-0.13910795619180613,-1.0129761123391032,-0.08734409869351997,0.25963424663997997
1759681457.8764958,1,1.0708290525258326,-1.084345381971586,0.0010865805346547957,0.302707088847595,-0.11831578838443362,-1.014842681193836,-0.08342547807580095,0.25762024852176946
1759681457.9791996,1,1.1086747973094284,-1.0843894400740846,0.0026619881147128674,0.30208101258976106,-0.073043156353488,-1.0187973971864728,-0.0785920076390606,0.3074099875213196
1759681458.07862,1,1.1395410376105581,-1.084416030580957,0.00400888540331677,0.3019326417405217,-0.05161049520872455,-1.0205869779866144,-0.0759990538141108,0.31187405956098857
1759681458.1714795,1,1.1743774358002825,-1.08418587588021,0.009504090093658882,0.3021756103081689,-0.04439292664342664,-1.021162966907814,-0.07429639006056532,0.31293378120776555
1759681458.2671208,1,1.2031706556011927,-1.0839614767971617,0.014367944111050416,0.3024468439392526,0.004814293537197903,-1.0251933167071026,-0.0735089334947989,0.28878173575525146
1759681458.3599877,1,1.237298502034166,-1.0831498196456704,0.025289906334348057,0.3039826012828674,0.028636602623009346,-1.0271477432328573,-0.07350022635366328,0.2869790997580548
1759681458.4720051,1,1.2649566695390877,-1.082426837128209,0.03443522096685961,0.30495815628559725,0.07274186251640583,-1.0310028603810413,-0.07699253326387173,0.29975319991091764
1759681458.5620086,1,1.2991707930650234,-1.0805691725230966,0.051792024952800615,0.306058866109814,0.09204563985456937,-1.0327585116882894,-0.08041158392929033,0.30094592063367936
1759681458.653929,1,1.3259311280714674,-1.0790080400450581,0.06591395006172336,0.30663420533939467,0.09988283126061409,-1.0335186025821728,-0.08289783777467878,0.30133649332183066
1759681458.750974,1,1.3584786658814905,-1.075893590866129,0.08742590332313663,0.3062390082837852,0.14632037472994378,-1.0384108204069311,-0.09136008096799839,0.28412170856736924
1759681458.843383,1,1.3854891093050148,-1.0731768357532208,0.10626604807254313,0.3057548489151934,0.1684090838070743,-1.0408788836556981,-0.10046428819989046,0.2824215272353404
1759681458.9389489,1,1.417960652802127,-1.0684949198611835,0.13081896129267526,0.30306319612002913,0.17699637589649903,-1.0419406304852168,-0.10525622396830706,0.2821098839714247
1759681459.035607,1,1.4453058816101296,-1.0643325906086276,0.15373598567492433,0.3007271919124861,0.2309531957757391,-1.0492498725065862,-0.11888490924316937,0.3132262688747089
1759681459.1255994,1,1.470939229133742,-1.0597058698430906,0.1742428061396684,0.3007496093568879,0.25581498335086944,-1.0528329602133244,-0.13198137183873807,0.3150925729143557
1759681459.2171824,1,1.497797692889556,-1.0540875985840272,0.19894745342172135,0.3027092350783479,0.26601246906341824,-1.054479991163098,-0.13918662056027095,0.31565719707961665
1759681459.3125165,1,1.5244257947160844,-1.0477190029917198,0.2218384339339032,0.30678411513254983,0.311235058680171,-1.061652482913353,-0.14767064292109874,0.2921715515188999
1759681459.4043646,1,1.5527655676976821,-1.0400205204597788,0.2492027547931068,0.31310328200471643,0.33280221265243287,-1.0651910240196965,-0.15428126141469073,0.28985522170085404
1759681459.5210025,1,1.5842719369503593,-1.0300259114856436,0.27906336429607276,0.3064570683553328,0.3722359617168116,-1.0715714771998737,-0.15724087225149908,0.2641783777295371
1759681459.6191962,1,1.6102927236129019,-1.0215769296429364,0.30528927054845895,0.30127392376984335,0.3904976514291975,-1.0745484309028488,-0.15885660712653762,0.261844401776277
1759681459.711585,1,1.6339766898239285,-1.0131620233926375,0.3272962325358747,0.30248029468040555,0.3967731587985004,-1.0755827956786432,-0.15927978846679453,0.2613686010321274
1759681459.8068938,1,1.6610049680637722,-1.00238767327033,0.35557286213847805,0.3087887849729101,0.44656861801466574,-1.0832258075243173,-0.15441258013510134,0.2916112782644751
1759681459.902255,1,1.6832871250518526,-0.9933192081543294,0.37901318857968164,0.31393262841305275,0.4708008385301105,-1.086845899952243,-0.15037304314232752,0.29431763663767224
1759681459.9930727,1,1.711268121745529,-0.9801982795053312,0.41025574356836897,0.31334885369543375,0.4796467030047043,-1.0881127094831717,-0.14715325759732367,0.2947929710555636
1759681460.0908408,1,1.734074397773441,-0.9693146685728536,0.43601314662745455,0.3128675381663401,0.5296460044082285,-1.0948556443038677,-0.13837836989354102,0.29486689967065194
1759681460.1737106,1,1.760866921187713,-0.9546554656971802,0.4680589064277583,0.3117512977391293,0.5521574052628971,-1.097741494768929,-0.1312606033287783,0.2949510087566365
1759681460.2519932,1,1.7832513089104451,-0.9422375150531018,0.4955280409477239,0.3106524157887491,0.5604686387508105,-1.098718773529842,-0.12674908930463794,0.2949923931149543
1759681460.3406198,1,1.80431398390825,-0.9295844885673614,0.5203180102043578,0.3079933904524652,0.6023883368182595,-1.1035744114361221,-0.11851352174221386,0.2796160870223162
1759681460.4252899,1,1.826768214027443,-0.9151616933357597,0.5508374534313598,0.30351959932235095,0.6223902281733357,-1.105785211886348,-0.11185439517661852,0.27830954756563553
1759681460.5449681,1,1.8531448060990772,-0.8959495106299901,0.5872899796186035,0.3055654115650953,0.6610986047792751,-1.1097695424954035,-0.10298874217019387,0.26712006417528134
1759681460.6208227,1,1.8742481527162502,-0.8802056621292148,0.6184849108009057,0.30712762616945655,0.6765238969288568,-1.1112427233849063,-0.09717104409173409,0.2663032225441072
1759681460.707543,1,1.8916720567816923,-0.8670125476739731,0.644555869160425,0.30834967211196135,0.6837642841572,-1.11187688320777,-0.09351949582953362,0.266042921602328
1759681460.7991736,1,1.9134668198437015,-0.8481939488800484,0.6792107118267613,0.3158906133347553,0.726543209466506,-1.11544683317383,-0.08288499396069987,0.2669607230728041
1759681460.8947308,1,1.9302599700563432,-0.833249222381053,0.7061667021175566,0.3217357219404609,0.7475522742923483,-1.1170554004609436,-0.07410687636300012,0.267289121779675
1759681460.9846177,1,1.9508438005753028,-0.8128179526123128,0.7409524763114468,0.31765461600122297,0.755159622194005,-1.1175381574578998,-0.06914378171592135,0.2669950019599471
1759681461.0784376,1,1.9677355975964474,-0.7958437570735153,0.7701600735462859,0.31431280900745295,0.8034735788609002,-1.1201279904357144,-0.053659942920397524,0.29238064178796364
1759681461.1912096,1,1.9875528727105647,-0.7735653409438857,0.8057737870625452,0.3073114689126958,0.8279384655050767,-1.1211851586412853,-0.04056428099230906,0.29478517940039584
1759681461.3222442,1,2.0056516442054155,-0.7517144923821011,0.8371512763737657,0.30716026138261754,0.8724901551287536,-1.121948301990592,-0.020869984309053343,0.26609208193799244
1759681461.4155555,1,2.0239321452797636,-0.7280405107190037,0.8726276586552296,0.31278197662766183,0.8926206043770112,-1.1220217707930713,-0.006155757172696549,0.2637124890183779
1759681461.5352786,1,2.0404684195869462,-0.7052602582175818,0.9040244384671019,0.3120200027911931,0.9300602818724012,-1.1215058450788853,0.012169698182701845,0.24530216522995343
1759681461.646015,1,2.056349965680165,-0.681954428466263,0.937496193759251,0.30615270304263803,0.9477764869849212,-1.1210355691404341,0.0255125604719652,0.24343915975531952
1759681461.7671993,1,2.074874138415109,-0.6510644141867725,0.9785900672492563,0.31533742398188047,0.987283868140753,-1.1193552964505074,0.04400920323799644,0.24790529449366713
1759681461.8700016,1,2.089738710795556,-0.6256520861466163,1.0129376077877184,0.3228056254788035,1.0058155677526546,-1.1183403257199456,0.05800637170937805,0.2485002468788242
1759681461.9676914,1,2.1047591300714825,-0.5961685655483056,1.0505682498229099,0.3189645395077694,1.0449480861347828,-1.1151042072507245,0.08061144364794436,0.28447577826863113
1759681462.0709267,1,2.1168989600202117,-0.5719376090704026,1.0822290577005007,0.3158413295792556,1.063587239332119,-1.1132136833143254,0.09917550865528334,0.28816206890586527
1759681462.1863477,1,2.1299318024702214,-0.5416102554382408,1.1202123313000039,0.3127995338169342,1.0997438541130564,-1.1084392849798501,0.1250916933285686,0.25529226892501383
1759681462.2823963,1,2.1405305468825024,-0.5165481298560191,1.1521405341536344,0.31032300821555747,1.1164649139291183,-1.105891297519637,0.14522603629736222,0.2530156298613484
1759681462.3970351,1,2.1512733079238586,-0.48652627786916186,1.189362400724503,0.31011019792565475,1.1512605300895795,-1.0997692396857095,0.17038913298740085,0.23888304962407003
1759681462.5230386,1,2.1618396119967964,-0.45156821404265307,1.2304500890032402,0.31220714289384494,1.1678605511837492,-1.0965358803849798,0.18968438563408474,0.23796876634221747
1759681462.6468377,1,2.170251591615682,-0.42160382465757135,1.2680362963953618,0.3131208136124931,1.2081297866757605,-1.0876318200042259,0.2157803343354709,0.24531145653999484
1759681462.7450736,1,2.178064396378179,-0.3870891358669738,1.3074169224246301,0.3073546512311265,1.2269759653304677,-1.0831369371786415,0.23544944516573127,0.2456410521086671
1759681462.8498197,1,2.1842677439273954,-0.35883179145870764,1.3411850930339388,0.3021294210334616,1.2634425687046575,-1.0733071927595568,0.2637006786015442,0.2578342315062359
1759681462.9642115,1,2.1898317931691595,-0.3244372988062534,1.374432380704187,0.30006967910717564,1.2804598438568484,-1.0683279696332615,0.28484776729717637,0.2587802442441393
1759681463.0842905,1,2.1940660248753243,-0.29666587769002606,1.4019747641757057,0.29836120604312893,1.316990748615996,-1.0564006328490887,0.31603752708929844,0.2449910540797062
1759681463.1933305,1,2.197829720393592,-0.2637062432202279,1.4266237568360765,0.29824477331512955,1.3343213744428102,-1.050315540280653,0.3395787049335613,0.2437931788922806
1759681463.2944114,1,2.200810749903453,-0.23672562709742015,1.4468263740520413,0.29778431290858104,1.3671046608390909,-1.0376379287212505,0.36948805050500455,0.24675346438854523
1759681463.4083078,1,2.2036294273583117,-0.20320458537662794,1.4633580402304835,0.2999890932528319,1.3824648979152767,-1.0312888102248081,0.39132500173547424,0.24673895447401425
1759681463.5542676,1,2.2058070894542596,-0.1719934704651369,1.4759792911395941,0.29874092194907687,1.418651075901825,-1.0149756300767705,0.4255564888756407,0.2293942984312254
1759681463.6642213,1,2.2078100489315626,-0.14130228997018923,1.4859136353026157,0.2953414962368523,1.4357083609918535,-1.0068562170567914,0.4514343873869054,0.2279500826075828
1759681463.7658553,1,2.210000842770294,-0.10359465008986408,1.4942587523808568,0.3007248227192303,1.4670770875673398,-0.990386798186291,0.48370763459859456,0.240133251958327
1759681463.8792903,1,2.2116431358701143,-0.0726775091509481,1.5010048983429347,0.3054201053080847,1.4818453365672977,-0.9821848006708741,0.5088509809346874,0.24161470075550698
1759681463.9751222,1,2.21339094102817,-0.03655965223331143,1.5074423551789657,0.3067799482393845,1.51360780633165,-0.9625072649212676,0.547971145825401,0.2500965646034124
1759681464.058559,1,2.214895873034911,-0.006492953712536587,1.5128568275401526,0.3078693281236672,1.5272022070997577,-0.9535473193462257,0.5777231050826678,0.2518852522584993
1759681464.1357079,1,2.216115334815681,0.02158546011752658,1.5175871417142106,0.3056896025604943,1.53193469237824,-0.9500676444870602,0.5937662494039418,0.25268937669134267
1759681464.2274437,1,2.2174343379034704,0.05077499498293206,1.5229853570099976,0.3005759318235434,1.562638471239333,-0.9276010350269808,0.6278298062179942,0.2466521905712783
1759681464.3219225,1,2.218701651645566,0.08091746565828306,1.528550689280225,0.2994562595637529,1.5773423849063701,-0.9163493080162426,0.6562890110971873,0.24712970714288082
1759681464.4178896,1,2.2195266063924404,0.10974406639035963,1.533861713530461,0.30093748188658576,1.583011818582251,-0.9116164385991288,0.6719001166835409,0.24670333647231285
1759681464.5392673,1,2.2204887859382896,0.14354637222982508,1.5399210609173817,0.2992994651369496,1.620086372333479,-0.8798850934007332,0.7097173036671861,0.2555782408638195
1759681464.634677,1,2.221023002198591,0.1705492839729892,1.5451409872445068,0.2975644912207192,1.6374214189058598,-0.8644435523648141,0.7395806572324798,0.25713208039062574
1759681464.7339551,1,2.221426211780161,0.19799636867267195,1.5499850838898999,0.29981402864421347,1.6441142064127532,-0.8579956188827448,0.7563689597678406,0.25773784166354424
1759681464.8347437,1,2.221645094298852,0.2276113265300291,1.5557557166192075,0.30472188649977744,1.6762229443994172,-0.8262216968773873,0.7868205841830747,0.25145104423043135
1759681464.933409,1,2.2217645338121357,0.2552334616076052,1.560707091786111,0.3058289215933628,1.6914095061761194,-0.8106652392099433,0.8106503614794709,0.2516926659066171
1759681465.0289197,1,2.221821648041819,0.2856080703775052,1.5661157070674692,0.3030139981688759,1.6968317703149063,-0.8047532142286062,0.8224711247700652,0.2512764713677112
1759681465.127446,1,2.221853665386398,0.31379874071482916,1.5705628446165234,0.3010748993325386,1.7290039595505733,-0.7681159671275885,0.8538139206947939,0.26626756561070103
1759681465.2237842,1,2.221796778146808,0.34488464555682813,1.5745179797029503,0.2996964306245532,1.7440608892973812,-0.7503818886317736,0.8788043102234797,0.26801547004564624
1759681465.3288903,1,2.221679514904087,0.37607780221922876,1.577198547046101,0.2985691821272786,1.7689760317552918,-0.7186331626315537,0.908795838260297,0.2708708977607639
1759681465.4302173,1,2.221273087886504,0.40531055355915996,1.5787940088864627,0.297720466898395,1.7802846247222568,-0.7035503321371607,0.9304452211637807,0.27117647377198373
1759681465.5420325,1,2.2212388006254655,0.4381710491704347,1.5792552514239369,0.28940016192913404,1.8022569205701875,-0.6729260354410646,0.9554709832026799,0.26958451362757635
1759681465.6378083,1,2.2211182381115275,0.4654098699853191,1.5791311556758734,0.28318297363329875,1.8121485256212237,-0.6586040278866402,0.9725741625821116,0.26942390811234823
1759681465.731597,1,2.2210699517734973,0.4918282648205962,1.5787765735683994,0.28459498955311563,1.815588940041737,-0.6533049138615916,0.98120951448332,0.26938136196509876
1759681465.8338227,1,2.2209355838783247,0.5221344846489311,1.576917263186925,0.29271112572068025,1.8399439081627507,-0.6161671766311076,1.0043105491978497,0.2537330187925997
1759681465.925243,1,2.2207686596154375,0.5472705059821824,1.5753988614183847,0.29944201930101444,1.8510747974896486,-0.5986939980184074,1.0222929497847764,0.253024115624217
1759681466.0236456,1,2.220786748132928,0.5790692308853567,1.5730975811072132,0.2987685379690123,1.8555340144308354,-0.5913098103541116,1.03208890652144,0.252408852438914
1759681466.1197298,1,2.220872919866876,0.6051470094146137,1.571234476294163,0.298235163727406,1.8804371110982774,-0.5457298517928811,1.0641136932376765,0.2935853196325842
1759681466.2112448,1,2.22084262879312,0.6362146087018145,1.5694751856602018,0.3006913236187123,1.8918578962848183,-0.5239571777814382,1.090978773816162,0.2978875902059132
1759681466.3092046,1,2.220826953246052,0.6618563179381082,1.5680489612655861,0.3027686530164623,1.8962350463213282,-0.5146521687354833,1.106779480489745,0.29927914303789577
1759681466.4087374,1,2.221116854612152,0.6941128710022116,1.5670687214238799,0.29748413430547493,1.9170421113758227,-0.4701809834411055,1.1359584974659367,0.2792457304911192
1759681466.513991,1,2.2214377170788704,0.7203319847942592,1.5662862999309464,0.29320893022442623,1.9268451167335132,-0.44824021403124725,1.1593478888051798,0.27835247923825596
1759681466.6118603,1,2.2218426342208475,0.7536071882562049,1.5662771753625733,0.29541557663104023,1.9429384141268617,-0.40866986947800743,1.1834047072133653,0.2936971888457353
1759681466.7092984,1,2.2221823055240137,0.7808816161403668,1.5663130585925695,0.2972171778424563,1.9502730552725158,-0.3897868124028569,1.2007939325046437,0.2955352725670698
1759681466.8072808,1,2.222262615520637,0.8128622345847338,1.5670528995110986,0.29986706970620935,1.9528364798891016,-0.382472373051072,1.2098383203711909,0.29572222550547966
1759681466.9069493,1,2.2223133213260717,0.8391938706439865,1.5676515061901504,0.302061184428251,1.9705614443550448,-0.3355020639389927,1.2248250399213343,0.28733361348292247
1759681467.014523,1,2.2225168371441257,0.8721760158433599,1.5687016223534582,0.2975125365045437,1.9789399513700732,-0.312717834513663,1.2353134703280613,0.2867581783273274
1759681467.1353638,1,2.2225992041811256,0.9022412915909925,1.5696344033635816,0.2983442654652884,1.9944889061169169,-0.26755693659624724,1.24824577314919,0.3038137268824015
1759681467.2519894,1,2.222534454286255,0.9345250023059078,1.5707768244611846,0.3036193463657651,2.0016493888102707,-0.24625677220566036,1.257023844246415,0.3053565399200645
1759681467.3725982,1,2.2225509728755175,0.970774246304079,1.5717862799126077,0.2978282076850477,2.0155765099560456,-0.20424415890278116,1.2687325450170692,0.2845305371468265
1759681467.4920332,1,2.222599724380498,1.0001764225916578,1.5726033989039292,0.29312267435507594,2.022102863366005,-0.18398490586905605,1.276924609384157,0.2827780809124743
1759681467.6119213,1,2.222515522273631,1.035837834475373,1.5731403209593144,0.29762608948640423,2.0357583618147705,-0.1379762877547575,1.2909693878100428,0.28668833117610265
1759681467.7261236,1,2.222633418239506,1.0666156348915303,1.573547982652416,0.3014664615891132,2.0421104363268756,-0.11586888496072496,1.3017985374055725,0.2873880169271763
1759681467.842533,1,2.2225836477140293,1.1030821872233556,1.5736447411389618,0.30682668234878163,2.0540209992074416,-0.07017263409893068,1.3166029002451665,0.3065055267292111
1759681467.9642358,1,2.2226392580174923,1.141877523354706,1.5735107853790435,0.2984353977802975,2.0594748573016113,-0.0483630404040909,1.3277253425022686,0.3086060973304891
1759681468.0828662,1,2.222763107965266,1.1732990585408354,1.5733676632480018,0.2916973055285904,2.070327928384024,-0.004684183318073781,1.3410104729805206,0.2773539739184871
1759681468.197012,1,2.2228110038793663,1.2108286695207857,1.5730069002937086,0.2961756187757522,2.075276272006371,0.01611653796745471,1.3508929482091199,0.2745379998490991
1759681468.3387804,1,2.222902040866488,1.242232548382095,1.5727057263081647,0.299828503617705,2.0860792079850796,0.06764790041748969,1.3640811054842088,0.3050891218906861
1759681468.467483,1,2.2228363204738417,1.2791624555395216,1.5722250762978291,0.3034931278563448,2.091083565489472,0.09241541194765565,1.3736127934756635,0.3080820519641195
1759681468.5849113,1,2.222959314326197,1.31952217342376,1.5716163764661224,0.29588595396048406,2.100641177208418,0.14011943405588284,1.3857792906349367,0.291149305078776
1759681468.70713,1,2.223116659071543,1.3520991434531882,1.57113570001447,0.28976689465379735,2.1050616657549264,0.16310387291016465,1.3944028556483197,0.28986274699729075
1759681468.8290257,1,2.2234709379252835,1.3906738653512307,1.5706550231857472,0.29255019014891426,2.113643179949539,0.213098577188226,1.4057229048632296,0.29866480318437455
1759681468.9377465,1,2.2237158992080066,1.4219855001734074,1.5702373206309568,0.294933372652195,2.1175765529384005,0.23682634220034254,1.4136690690212943,0.2997112234177116
1759681469.066787,1,2.223781960415244,1.4595634593371258,1.5700524473336697,0.3015295603917282,2.1249403186419884,0.28385887201430987,1.422577855275068,0.2958705092851441
1759681469.1762025,1,2.2239501627689875,1.4986664030562737,1.570189778802479,0.2964680349394388,2.1282838793266103,0.30554818397767525,1.4285999848064717,0.2955746688870445
1759681469.30461,1,2.2240747649929475,1.5316097042452326,1.5704713474622882,0.2923637422093408,2.1352803883788165,0.35634166721470706,1.436054198090001,0.31533254705279934
1759681469.4189665,1,2.2240903153745513,1.5699388122402995,1.571138814953553,0.2960486972627686,2.13854750701583,0.38021599913606674,1.4409807520071918,0.3171670208345996
1759681469.5550623,1,2.22419776934168,1.605530764734206,1.5717519473684531,0.29775971087216085,2.1453139631767604,0.4295388702000278,1.4467995453204263,0.2993220873720274
1759681469.665409,1,2.2242835034499784,1.6424275434725168,1.5724095749949432,0.29766411597218106,2.1484997379067288,0.45288271830238963,1.4506218047657118,0.2977353802453187
1759681469.7911499,1,2.2243203818703896,1.6823715555327818,1.5729815031980858,0.294904354543114,2.1544052298389564,0.49804640448591864,1.4555072961452638,0.28634829900280306
1759681469.9116027,1,2.2243239067191074,1.7147715071235503,1.5734433629311098,0.2926440859820672,2.1571630113680973,0.5197326023119215,1.4582587912212057,0.28531824935085376
1759681470.0117831,1,2.224245744592608,1.7531717696657465,1.5738501534557277,0.29997743482224637,2.1622862968146435,0.5669815338993343,1.4634216832453366,0.31170731183753925
1759681470.1092296,1,2.22411230353431,1.7848723757095504,1.5741641049910013,0.3060424836560117,2.1646616452304253,0.5892327185632943,1.4667642574075697,0.31413972649095817
1759681470.206142,1,2.224062803116169,1.821777906642619,1.5743792176174918,0.3031628525796894,2.1654570238565944,0.5975688124519439,1.4687069376138469,0.31457642165999006
1759681470.3022633,1,2.2238405417003446,1.8505259475337603,1.5745609208467168,0.3008867593342152,2.170955940330711,0.6490339572933181,1.474411614343622,0.3007784170639188
1759681470.3978167,1,2.2236921533354534,1.8856330821674618,1.5745293485953549,0.3018983620470641,2.1735221391020456,0.6742493599388134,1.4788013839820497,0.29968372787153336
1759681470.5076447,1,2.2237853136093633,1.9157052904010334,1.5744912069979442,0.3028231037861572,2.1776007902186176,0.7194562351713997,1.4841447139277781,0.30726567768181545
1759681470.598005,1,2.223745113718996,1.949542548970547,1.5742199488284054,0.2989341626218567,2.1793603987012413,0.7395150739246629,1.487781272446572,0.3079308680600513
1759681470.695653,1,2.2238109262947106,1.9774050702449824,1.5739578549525273,0.2957240332533965,2.180025935354223,0.7479276615422208,1.4898658980477844,0.308096249297279
1759681470.792452,1,2.2239611961109946,2.011778720921207,1.5736455570859023,0.2968192585602346,2.1842526769811994,0.796558350143803,1.494318652044579,0.2967566511947722
1759681470.8801992,1,2.2238837483328027,2.0390581415375655,1.5733851625142288,0.29771967890812817,2.1861672367228557,0.8192594633015912,1.496718205283028,0.29591426951876487
1759681470.9767098,1,2.223895994482625,2.066375305168926,1.5732054164624738,0.2964980518775433,2.1869486106272107,0.8288961222064677,1.4979547428492694,0.2957354858202235
1759681471.069096,1,2.224033035962786,2.0945155818319012,1.5730946181258898,0.2933841064073968,2.190652634930097,0.8770092721467964,1.5019767088730926,0.29001024314123547
1759681471.1574621,1,2.2242198757478806,2.1243496626082967,1.5730869560072596,0.29688898195455177,2.1923463260425824,0.8996140191619424,1.5048416404484346,0.2895901299657979
1759681471.2556043,1,2.224021904977706,2.1533265637487724,1.5731699963580392,0.30498244741704644,2.1930269603154486,0.9097810553882077,1.5065163116349019,0.28945896928298354
1759681471.3531158,1,2.2237649717122605,2.177294363879015,1.5732347395115218,0.31163875445729106,2.196217366313553,0.964779142837143,1.5101888122545142,0.31750921170469343
1759681471.4688587,1,2.223511824178066,2.20776592924918,1.573353393530458,0.3104973462167762,2.1977507341534017,0.9923012366922412,1.5128892231555027,0.3202012237611513
1759681471.5612357,1,2.223409669993499,2.236404376150768,1.5735048266108629,0.308722586296368,2.2005767229103563,1.033611657795698,1.515459028660391,0.2978609815872007
1759681471.6453865,1,2.223480154788798,2.2680595266859207,1.5736598197263492,0.30628039640629695,2.2017689772503766,1.0521350626619854,1.517292931294469,0.29603672375642226
1759681471.7464216,1,2.223599774727912,2.293887627699874,1.573840664916196,0.3042912847111971,2.2023295691664346,1.0608766252716133,1.5184585677290736,0.29555654622793054
1759681471.8454688,1,2.223692213987933,2.3262430957042137,1.5739635603601883,0.30631072404358256,2.2054112585218215,1.1071182691026804,1.5208540395629158,0.27057557033536883
1759681471.939278,1,2.22351940733753,2.351488693921316,1.574082645965718,0.3078839153659708,2.2067952214662805,1.1293229491860124,1.521720618500822,0.2684064349638736
1759681472.027602,1,2.223563562504258,2.383321307980947,1.5740392812634545,0.301585726135366,2.207305286529523,1.1369065949716715,1.5225016298055145,0.2679313919901001
1759681472.1247206,1,2.2237430045525386,2.4094560314918096,1.5739698594273999,0.29641819399762465,2.2092544791856286,1.192144548708443,1.5252519779463873,0.3230079772095672
1759681472.2129505,1,2.223742598795178,2.4413502744073616,1.573811593185631,0.29780171563327623,2.210283229933022,1.2174274354363805,1.5268482866436348,0.32752903515382437
1759681472.3030837,1,2.223821282329719,2.4680532842249696,1.5736747980837615,0.298976926824761,2.210538488402698,1.2276021771196934,1.527779661861505,0.3288029847546474
1759681472.399984,1,2.2239978639699194,2.500777031235197,1.5736242180548194,0.29719680721944125,2.2131774455740922,1.2766002979382407,1.5310529452172648,0.29697233498175235
1759681472.5046263,1,2.2241802896132423,2.527700337085957,1.5735549882344155,0.29574786521307794,2.214360300098794,1.3009298831075058,1.5329596763809705,0.2942731349506183
1759681472.5955353,1,2.224156110272416,2.5539503528863357,1.5735671924567574,0.2950957631964356,2.2148010255678225,1.3089003649782587,1.5337810011033592,0.29382006366015967
1759681472.6873677,1,2.224248795233922,2.581681091023055,1.5735526869589254,0.29496989446293553,2.216707563076238,1.3598594290096162,1.5365079178156438,0.30211636984199464
1759681472.7834039,1,2.2243794153468937,2.614072163653865,1.5735504276459094,0.2950077389128789,2.2176212414501126,1.3850794417358256,1.5382778126947934,0.30283206906454674
1759681472.8748298,1,2.224548146175054,2.641489603094705,1.5735372883616157,0.2950272657575933,2.2179150677465733,1.394250234429828,1.5391133724170083,0.3030134872849291
1759681472.9788587,1,2.224584987630974,2.6756783866138365,1.5736366774245312,0.30171816223809006,2.2198022714866292,1.4483972854923726,1.540963587301011,0.30180683380716994
1759681473.0880601,1,2.224501222319472,2.704327088809124,1.573761538127265,0.307085106059458,2.2206948830757374,1.4748580891677718,1.5421823582916787,0.3017325930545846
1759681473.201542,1,2.224468876479895,2.737624786730573,1.5740909652682242,0.3012911181299493,2.2223819419650286,1.5187612172523755,1.5434284705086176,0.28659422169837573
1759681473.3107264,1,2.2245301595491345,2.764765128173324,1.5743575254215516,0.2966085056043203,2.2231559539800982,1.5393560665415298,1.5442780277717825,0.2852740346385457
1759681473.4270346,1,2.2244785262705684,2.7990646486212873,1.574602787461015,0.3011071856078852,2.224721218576477,1.5820168372688193,1.5458505931860558,0.27323398317036596
1759681473.5495105,1,2.2242896223313435,2.8266251274539744,1.5747881478153627,0.3047280820765367,2.2254209182170883,1.6024324913423147,1.5461864699889634,0.2721068817378146
1759681473.6661885,1,2.2241588935252237,2.8601236307011617,1.5746740678188904,0.30308199333962127,2.2262020191288223,1.6539491661718388,1.5477130916731614,0.31598583606814823
1759681473.7873337,1,2.2239797912544237,2.891824983267593,1.57451635376553,0.3039551220355995,2.2266259951889533,1.6788624160004169,1.548008362959927,0.3200254029908271
1759681473.9059703,1,2.2237451862175153,2.9238084293585413,1.5742351002312591,0.306878122944377,2.228002392354199,1.7265263087556721,1.5497747239708297,0.3034562173139728
1759681474.0165622,1,2.2235867276003956,2.9546797795767183,1.5740065327615658,0.3041839648080224,2.2286317361389836,1.7486706616858598,1.5506146219138472,0.3021959660014813
1759681474.1393588,1,2.2238064371966413,2.9873774829490105,1.5737714845192328,0.296548062460505,2.230074550337536,1.7923123574074726,1.5526496945233585,0.27720186863034657
1759681474.2566648,1,2.223856021132722,3.0243624062898222,1.573653360231589,0.30266093445555575,2.2307055656827983,1.8129526982137387,1.5542387048144022,0.2749026259352778
1759681474.3688555,1,2.223777451639143,3.0544565307014397,1.573568029382036,0.30762713804921443,2.2313741200831516,1.8608096493271908,1.555751722770712,0.29824347895748704
1759681474.5034258,1,2.2235478209218957,3.0899000938003605,1.5735015713833804,0.309424919716817,2.2316302876489225,1.8840076389689284,1.5567288076016677,0.3004256262444641
1759681474.618843,1,2.2237823514572237,3.1307507539421766,1.5735001585657689,0.3002999028514198,2.232491475433491,1.934289248773227,1.5577589116289718,0.30141521115454584
1759681474.737448,1,2.224054788198707,3.1637378019553566,1.5735219506149092,0.2929368772577123,2.232895148228958,1.9586846679070085,1.5583391043558694,0.3015576418731094
1759681474.850701,1,2.2241761165273948,3.202864589558775,1.573661431831399,0.30157461031765825,2.2339274693184072,2.0035401636434407,1.5596222742918726,0.2847658246971872
1759681474.9631743,1,2.22411531921262,3.2346153458958278,1.573801912145825,0.3086224515157853,2.2344066058418863,2.024957643190673,1.5597645476330346,0.28325573261348025
1759681475.0786653,1,2.2240630686215725,3.2712911880301356,1.5738663976658918,0.3036363169338541,2.2349575106048416,2.0729874697016486,1.5606451595939315,0.2993282118171761
1759681475.2004657,1,2.223973554592939,3.305811931797287,1.5739030774403928,0.30247221823910064,2.2351994141824894,2.0962430428563676,1.560517143165777,0.30079349364766766
1759681475.339113,1,2.2239954883295763,3.3405139096916554,1.5738141388717375,0.304460279198876,2.235734500747085,2.1485846600050977,1.561327814405794,0.31004717868020265
1759681475.476016,1,2.2238202958059508,3.378823511877909,1.573636458225547,0.3073154773537983,2.2360315157234023,2.173822160088785,1.56188544313358,0.3109314092993847
1759681475.5955608,1,2.2239468322573037,3.4221632657546306,1.573575126104519,0.30553059438126096,2.236846376446875,2.227537158577769,1.562738607804923,0.30546932549771844
1759681475.7061064,1,2.2240740414785427,3.4581018223066176,1.573563674834886,0.3041009872267325,2.2372311092046537,2.253205607350644,1.5633000101020755,0.3050234476917682
1759681475.8272514,1,2.224256261902204,3.4971770484631866,1.573802910844574,0.29631657718617804,2.237707106887031,2.3008941748869542,1.5646531659576874,0.30973483903110605
1759681475.945923,1,2.2244639963891193,3.5288141938665856,1.5740448583303184,0.2908033734609166,2.2379242292858534,2.3236917855995234,1.5648370680850014,0.3101923123742878
1759681476.0432014,1,2.2245026853175762,3.566867896925177,1.5755833556726613,0.3005867836315435,2.2384540081242292,2.3691258948318556,1.5655668433755936,0.30884321433414524
1759681476.1393442,1,2.224423691096652,3.598243068684779,1.5769358927050403,0.30943946942039724,2.2387168623939657,2.3904840204764874,1.5652606713989585,0.30877374116754414
1759681476.2324648,1,2.223823499223183,3.63360786855222,1.5827642949670646,0.31063553171162456,2.238798626437022,2.398485170530155,1.5659509999360886,0.30902706320832496
1759681476.3287292,1,2.2233127728403543,3.6628411733038564,1.5880830239646757,0.31189671659482693,2.239673966934391,2.4506350218743544,1.5635808705095198,0.2999212486365466
1759681476.4167728,1,2.222390459902629,3.697073325725852,1.5999133709772158,0.3062162012662266,2.240092393930858,2.474572092630652,1.5611700202024366,0.2995873322480492
1759681476.5240767,1,2.2215790590848665,3.725399174389404,1.6118810632041838,0.30160649078395796,2.2403130365770987,2.485813763163819,1.5594443369685713,0.2995185000761114
1759681476.6176445,1,2.2195264101052383,3.7588745178776537,1.6318136211569327,0.30619331673151196,2.241758826636199,2.5393001623885483,1.5495110597896458,0.3153029116885529
1759681476.724381,1,2.2175390191592634,3.7865517880494806,1.6511853656332292,0.30920543824810487,2.242665244985503,2.566459015378068,1.5402298017188254,0.31683944374370426
1759681476.8220086,1,2.214661019056595,3.8124056483121214,1.669968718990547,0.3107772436987878,2.245418517238101,2.6063419066890448,1.527108302623663,0.2860199832110065
1759681476.9130886,1,2.2109069303627327,3.839648406939278,1.6971031870463418,0.31059774645256083,2.2467926837929992,2.624510803783444,1.517381442375971,0.28366037501060465
1759681477.0116277,1,2.2065455932020814,3.8659235724219045,1.7230607787165888,0.30875496281403203,2.2475390327114053,2.632206965493765,1.5112341977913426,0.28308596417879606
1759681477.1046185,1,2.2012065579159454,3.8930060865174734,1.7560360306966665,0.30504252241647484,2.251593111666021,2.676288893871579,1.4965500260982594,0.2733239165356187
1759681477.190404,1,2.194287306340807,3.9211249489597115,1.792462350142483,0.3089695226366264,2.2536608607297968,2.696788374897934,1.483829429615094,0.27226110127461106
1759681477.296244,1,2.186106170078314,3.9490080567875485,1.8302683144190943,0.318273373432254,2.254763264172801,2.7064700345324413,1.4756177321675472,0.271816745760684
1759681477.3943412,1,2.1765276742954054,3.976794100013293,1.8695784844388277,0.3211745973957974,2.2615539425077076,2.762893713184039,1.4547907299287874,0.3096027461435396
1759681477.48893,1,2.166386796355885,4.002545842175066,1.9072476605626192,0.31937766922295974,2.2652621919052027,2.7902278229134363,1.4359584764007214,0.31207671584816776
1759681477.5783772,1,2.1579559289873647,4.023704916201905,1.9387075939630853,0.3179211941130501,2.2667876942973693,2.799782361904946,1.42574066772267,0.31224331655751597
1759681477.674246,1,2.1453141389687755,4.050151106857349,1.9792807608451601,0.31303918085195537,2.2748145781123807,2.846007194715229,1.4160488344788917,0.2835485596704605
1759681477.767471,1,2.1349731039154327,4.071574363563049,2.013180945617932,0.3088296006502355,2.2787345119493376,2.8682633714824597,1.4086038076800889,0.2807575801476757
1759681477.8607888,1,2.1205801013034695,4.0960806400752015,2.053048851998545,0.30995134320324735,2.2803628797718307,2.876713783463354,1.4051918235096597,0.27980405895797084
1759681477.9558346,1,2.108616829052335,4.1160426929274205,2.0865433773274433,0.3108532293588615,2.28795100371621,2.9256875220127525,1.4096221899736474,0.28936751728165894
1759681478.0421991,1,2.0913910316269733,4.1408368674964,2.1287672139997564,0.3117946912812265,2.2913817850521325,2.9483273646097934,1.414617088874056,0.29005684395619985
1759681478.1360693,1,2.077172196226227,4.160910681144683,2.164902784035669,0.31264293547876626,2.2927590318970594,2.958026200670046,1.4183933743430517,0.2902452981521854
1759681478.2297626,1,2.062254845291803,4.179594196316367,2.1978858077876775,0.3124382379028725,2.298720823559891,3.0036518348768366,1.4302827680515917,0.28777619500500057
1759681478.3225257,1,2.0459652236609576,4.198744729208344,2.2353214192183763,0.3112757482569201,2.30141887029424,3.025848402697809,1.4407644432668125,0.28762136399725524
1759681478.4124906,1,2.02534876708475,4.220371128732632,2.2771515109912897,0.31093682350283314,2.3022728587604533,3.0338503776886374,1.447714367467006,0.2871729376520727
1759681478.5252147,1,2.008132368401957,4.237804887357597,2.314478395543388,0.31040620513305456,2.30725329918669,3.0816316312047896,1.4643743080016438,0.270845947725569
1759681478.6184695,1,1.9852097635977004,4.258126913260768,2.3584887721648102,0.3107513620281976,2.3093833598409943,3.1042376464473294,1.477949932619585,0.2694572619058337
1759681478.7085254,1,1.96682775854214,4.273600475855155,2.395477597561568,0.31090886060783623,2.310020531000448,3.112347893877989,1.486198945676208,0.2691901927007033
1759681478.7963755,1,1.9484798623769937,4.288038337418806,2.428611862303098,0.3132981524242717,2.312577059653566,3.1572778188100292,1.504244304341011,0.2791627090072074
1759681478.8928208,1,1.9262086186612044,4.303677849927654,2.4707066526694956,0.3180371242052291,2.3136445457991175,3.1800067233102896,1.5194029422651787,0.28006301404200756
1759681478.982131,1,1.907877825202138,4.31623293472909,2.505677191313774,0.3216982056025261,2.3138448397966904,3.1876770041255353,1.5282034777062061,0.28025600515574894
1759681479.1000338,1,1.8836901246598603,4.330400453938974,2.549456132895355,0.31860276122023207,2.3153187901369563,3.232104545171718,1.5471747002731637,0.2437140371751558
1759681479.2040148,1,1.861023267709129,4.342788571384128,2.5875226031571423,0.31679396911375163,2.3157841287483003,3.2536883412426456,1.5626016136872323,0.24085084219845315
1759681479.3371105,1,1.835963228920318,4.354624674324908,2.6323103790187408,0.31628322754793914,2.315003665532867,3.2955699588381586,1.5844780161525993,0.2508320174832675
1759681479.4552996,1,1.805077769831568,4.366916714778709,2.684724486014463,0.309694285331007,2.3144088567188517,3.3149108516416126,1.6012123713480646,0.25126598293429575
1759681479.5660627,1,1.780065288595819,4.376607515426665,2.729990206906051,0.3032356857478721,2.311900957420581,3.3556105426315757,1.628597344237428,0.25216815458429526
1759681479.670961,1,1.7501647327349676,4.3856688406487745,2.7804370277715105,0.3058003687566398,2.3103501494288445,3.374802090600299,1.6498381464303566,0.25243494453174103
1759681479.7899125,1,1.7262181698146537,4.392420285405201,2.8215352483517635,0.3076069588099716,2.3064501610416137,3.4111694577795317,1.6772437840210217,0.2433849215171468
1759681479.9070368,1,1.695270241166743,4.398510969025415,2.8659995714675026,0.3108141470345,2.304245880337794,3.4283664786843886,1.697463126882029,0.24232181344152467
1759681480.0246193,1,1.665766730706697,4.4032355165103505,2.903457238080857,0.3128238432403546,2.2991768651004807,3.463136275237519,1.7244302204247752,0.2264669431452504
1759681480.1387572,1,1.6343750083754744,4.407794002435718,2.94018237860882,0.31394889231208817,2.296434715437028,3.479570663003862,1.7442240732091654,0.22484246959120047
1759681480.2617188,1,1.5985411926186441,4.411851387315359,2.9716040906969927,0.30287344577859887,2.2897893868979606,3.513333119663179,1.7723821277000469,0.21622544338441607
1759681480.375481,1,1.5699181429042302,4.415155875460379,2.997021281545338,0.2943432870623683,2.2862928811954712,3.5294007553554803,1.7934035623345117,0.21518227151593275
1759681480.4973943,1,1.5361474187826154,4.417687850245387,3.0172979803981828,0.3023812283450665,2.2771149274993103,3.5643199010282833,1.8245651017095113,0.22287542277731057
1759681480.6033785,1,1.508548589341345,4.419419867487864,3.033835130090785,0.309530032758034,2.2725322229291933,3.5806814546343917,1.8493011025013983,0.224096694639506
1759681480.7260087,1,1.4749160900615839,4.4209474830368185,3.0461714011198127,0.3108896801972462,2.2608202671476647,3.615137208381096,1.888935538730967,0.22464255451339832
1759681480.8320744,1,1.4432550168058735,4.422419524618781,3.056203182217832,0.30823653044819865,2.2550195020764616,3.6309612952434867,1.9209401369496188,0.2256099302768667
1759681480.9552658,1,1.410756329869579,4.424465145286799,3.0645029993206085,0.30145212408938316,2.240955714656458,3.663884678004555,1.9647764009095523,0.2212855805210018
1759681481.0591636,1,1.3715927149542433,4.426514655039504,3.0720240984780363,0.30711062459265664,2.233935827396259,3.679130907751889,1.9985937594492806,0.22070402817622634
1759681481.1795502,1,1.340148283659987,4.427813401909209,3.078104697682028,0.31166608104857235,2.2147199787776124,3.714152937824918,2.0469842172196744,0.25598869032848315
1759681481.2959423,1,1.304360021975751,4.4292358622415975,3.0847954357203586,0.30691537637575395,2.2050776720329486,3.730480087558061,2.084707967923794,0.25987873201421297
