timestamp,observer_vehicle_id,vehicle_0_x,vehicle_0_y,vehicle_0_theta,vehicle_0_velocity,vehicle_1_x,vehicle_1_y,vehicle_1_theta,vehicle_1_velocity
1759681444.6287143,0,-1.205,-0.83,-0.7801621756414646,0.0,-0.2342379722595215,-0.047252616882324225,1.788060341313151,0.0
1759681444.6387346,0,-1.205,-0.83,-0.7801621756414646,0.0,-0.43384446295662277,-0.08751905592784898,-2.9434444618607527,0.0
1759681444.6502156,0,-1.205,-0.83,-0.7801621756414646,0.0,-0.6039148811285138,-0.12182720944955609,-0.7675683794666373,0.0
1759681444.6603973,0,-1.205,-0.83,-0.7801621756414646,0.0,-0.7494526023240052,-0.15118640392703275,1.1238034544369662,0.0
1759681444.6712008,0,-1.205,-0.83,-0.7801621756414646,0.0,-0.8741343918078175,-0.17633834993241274,2.7757897323881067,0.0
1759681444.6824286,0,-1.205,-0.83,-0.7801621756414646,0.0,-0.981109530974162,-0.19791834918787127,-2.056557516888811,0.0
1759681444.692919,0,-1.205,-0.83,-0.7801621756414646,0.0,-1.0732097197860668,-0.21649763799718924,-0.008038684845226495,0.0
1759681444.7035346,0,-1.205,-0.83,-0.7801621756414646,0.0,-1.1526532888695962,-0.23252371821576864,1.7917263933410992,0.0
1759681444.7142162,0,-1.205,-0.83,-0.7801621756414646,0.0,-1.2213160978358395,-0.24637500532711457,-2.902382833732886,0.0
1759681444.7255435,0,-1.205,-0.83,-0.7801621756414646,0.0,-1.2807193475542378,-0.25835836982362137,-0.7647872618229968,0.0
1759681444.7366753,0,-1.205,-0.83,-0.7801621756414646,0.0,-1.332241719004489,-0.268751931787649,1.125508422530814,0.0
1759681444.7468917,0,-1.205,-0.83,-0.7801621756414646,0.0,-1.3770977118664447,-0.2778006911546141,2.8051818998940896,0.0
1759681444.7569213,0,-1.205,-0.83,-0.7801621756414646,0.0,-1.4164669635611358,-0.2857426151276065,-1.9805651375916897,0.0
1759681444.7683575,0,-1.205,-0.83,-0.7801621756414646,0.0,-1.4515055975694109,-0.29281092746356985,0.04330530622555286,0.0
1759681444.7795265,0,-1.205,-0.83,-0.7801621756414646,0.0,-1.4826899818367756,-0.2991017254425771,1.8445500012228975,0.0
1759681444.790853,0,-1.205,-0.83,-0.7801621756414646,0.0,-1.5104440838347302,-0.3047005356438936,-2.835527527409052,0.0
1759681444.8022397,0,-1.205,-0.83,-0.7801621756414646,0.0,-1.53514523461291,-0.30968347672306534,-0.7176112207119008,0.0
1759681444.8136327,0,-1.205,-0.83,-0.7801621756414646,0.0,-1.53514523461291,-0.30968347672306534,-0.7176112207119008,0.0
1759681444.8255126,0,-1.2049999243418377,-0.8299996288021405,-0.7229993336050455,0.0,-1.53514523461291,-0.30968347672306534,-0.7176112207119008,0.0
1759681444.835978,0,-1.2049999239185727,-0.829999626725497,-0.7181182037612928,0.0,-1.53514523461291,-0.30968347672306534,-0.7176112207119008,0.0
1759681444.847402,0,-1.2049999237857767,-0.8299996260739668,-0.717654628707491,0.0,-1.53514523461291,-0.30968347672306534,-0.7176112207119008,0.0
1759681444.858364,0,-1.2049999237364264,-0.8299996258318424,-0.7175953107242865,0.0,-1.53514523461291,-0.30968347672306534,-0.7176112207119008,0.0
1759681444.8685236,0,-1.2049999237176512,-0.8299996257397265,-0.7175915139136427,0.0,-1.53514523461291,-0.30968347672306534,-0.7176112207119008,0.0
1759681444.8800275,0,-1.2049999237104838,-0.8299996257045619,-0.7175964132593631,0.0,-1.53514523461291,-0.30968347672306534,-0.7176112207119008,0.0
1759681444.8913972,0,-1.2049999237077464,-0.8299996256911313,-0.7176075013635704,0.0,-1.53514523461291,-0.30968347672306534,-0.7176112207119008,0.0
1759681444.9015138,0,-1.2049999237067008,-0.8299996256860013,-0.7176211953488192,0.0,-1.53514523461291,-0.30968347672306534,-0.7176112207119008,0.0
1759681444.9127927,0,-1.2049999237063016,-0.8299996256840418,-0.7176308499934425,0.0,-1.53514523461291,-0.30968347672306534,-0.7176112207119008,0.0
1759681444.9231305,0,-1.204999923706149,-0.8299996256832933,-0.7176404312483217,0.0,-1.53514523461291,-0.30968347672306534,-0.7176112207119008,0.0
1759681444.934449,0,-1.2049999237060907,-0.8299996256830074,-0.7176471786972183,0.0,-1.53514523461291,-0.30968347672306534,-0.7176112207119008,0.0
1759681444.945892,0,-1.2049999237060685,-0.8299996256828983,-0.7176529705395467,0.0,-1.53514523461291,-0.30968347672306534,-0.7176112207119008,0.0
1759681444.9571457,0,-1.20499992370606,-0.8299996256828566,-0.7176582257534908,0.0,-1.53514523461291,-0.30968347672306534,-0.7176112207119008,0.0
1759681444.9686515,0,-1.2049999237060567,-0.8299996256828407,-0.7176625497939427,0.0,-1.53514523461291,-0.30968347672306534,-0.7176112207119008,0.0
1759681444.978732,0,-1.2049999237060554,-0.8299996256828346,-0.7176672419702861,0.0,-1.53514523461291,-0.30968347672306534,-0.7176112207119008,0.0
1759681444.9899924,0,-1.204999923706055,-0.8299996256828323,-0.7176702418616792,0.0,-1.53514523461291,-0.30968347672306534,-0.7176112207119008,0.0
1759681445.0012164,0,-1.2049999237060547,-0.8299996256828314,-0.7176728619970092,0.0,-1.53514523461291,-0.30968347672306534,-0.7176112207119008,0.0
1759681445.012703,0,-1.2049999237060547,-0.829999625682831,-0.717675055346426,0.0,-1.53514523461291,-0.30968347672306534,-0.7176112207119008,0.0
1759681445.0236037,0,-1.2049999237060547,-0.8299996256828309,-0.717677336825119,0.0,-1.53514523461291,-0.30968347672306534,-0.7176112207119008,0.0
1759681445.03516,0,-1.2049999237060547,-0.8299996256828308,-0.7176790157784225,0.0,-1.53514523461291,-0.30968347672306534,-0.7176112207119008,0.0
1759681445.0465183,0,-1.2049999237060547,-0.8299996256828308,-0.7176806399228468,0.0,-1.53514523461291,-0.30968347672306534,-0.7176112207119008,0.0
1759681445.0579648,0,-1.2049999237060547,-0.8299996256828308,-0.7176820805748534,0.0,-1.53514523461291,-0.30968347672306534,-0.7176112207119008,0.0
1759681445.0680614,0,-1.2049999237060547,-0.8299996256828308,-0.7176838955640363,0.0,-1.53514523461291,-0.30968347672306534,-0.7176112207119008,0.0
1759681445.0787323,0,-1.2049999237060547,-0.8299996256828308,-0.7176851893895062,0.0,-1.53514523461291,-0.30968347672306534,-0.7176112207119008,0.0
1759681445.0890245,0,-1.2049999237060547,-0.8299996256828308,-0.7176864188304286,0.0,-1.53514523461291,-0.30968347672306534,-0.7176112207119008,0.0
1759681445.1000044,0,-1.2049999237060547,-0.8299996256828308,-0.7176872474093834,0.0,-1.53514523461291,-0.30968347672306534,-0.7176112207119008,0.0
1759681445.111455,0,-1.2049999237060547,-0.8299996256828308,-0.7176878711610756,0.0,-1.53514523461291,-0.30968347672306534,-0.7176112207119008,0.0
1759681445.1221085,0,-1.2049999237060547,-0.8299996256828308,-0.7176887395038776,0.0,-1.53514523461291,-0.30968347672306534,-0.7176112207119008,0.0
1759681445.1336627,0,-1.2049999237060547,-0.8299996256828308,-0.717689282193609,0.0,-1.53514523461291,-0.30968347672306534,-0.7176112207119008,0.0
1759681445.1448557,0,-1.2049999237060547,-0.8299996256828308,-0.7176899265057486,0.0,-1.53514523461291,-0.30968347672306534,-0.7176112207119008,0.0
1759681445.1558642,0,-1.2049999237060547,-0.8299996256828308,-0.7176905931716746,0.0,-1.53514523461291,-0.30968347672306534,-0.7176112207119008,0.0
1759681445.1673145,0,-1.2049999237060547,-0.8299996256828308,-0.7176911044697983,0.0,-1.53514523461291,-0.30968347672306534,-0.7176112207119008,0.0
1759681445.1787832,0,-1.2049999237060547,-0.8299996256828308,-0.7176916007090846,0.0,-1.53514523461291,-0.30968347672306534,-0.7176112207119008,0.0
1759681445.1900895,0,-1.2049999237060547,-0.8299996256828308,-0.7176921246405676,0.0,-1.53514523461291,-0.30968347672306534,-0.7176112207119008,0.0
1759681445.201329,0,-1.2049999237060547,-0.8299996256828308,-0.7176926366155918,0.0,-1.53514523461291,-0.30968347672306534,-0.7176112207119008,0.0
1759681445.2117321,0,-1.2049999237060547,-0.8299996256828308,-0.7176932800210736,0.0,-1.53514523461291,-0.30968347672306534,-0.7176112207119008,0.0
1759681445.2278292,0,-1.2049999237060547,-0.8299996256828308,-0.7176927727430193,0.0,-1.53514523461291,-0.30968347672306534,-0.7176112207119008,0.0
1759681445.2390637,0,-1.2049999237060547,-0.8299996256828308,-0.7176934272588511,0.0,-1.53514523461291,-0.30968347672306534,-0.7176112207119008,0.0
1759681445.2492955,0,-1.2049999237060547,-0.8299996256828308,-0.7176942207437556,0.0,-1.53514523461291,-0.30968347672306534,-0.7176112207119008,0.0
1759681445.2604103,0,-1.2049999237060547,-0.8299996256828308,-0.7176947190037701,0.0,-1.53514523461291,-0.30968347672306534,-0.7176112207119008,0.0
1759681445.2704294,0,-1.2049999237060547,-0.8299996256828308,-0.7176953106814706,0.0,-1.53514523461291,-0.30968347672306534,-0.7176112207119008,0.0
1759681445.2816799,0,-1.2049999237060547,-0.8299996256828308,-0.7176956125904645,0.0,-1.53514523461291,-0.30968347672306534,-0.7176112207119008,0.0
1759681445.2931712,0,-1.2049999237060547,-0.8299996256828308,-0.7176958530780198,0.0,-1.53514523461291,-0.30968347672306534,-0.7176112207119008,0.0
1759681445.303263,0,-1.2049999237060547,-0.8299996256828308,-0.7176962929538018,0.0,-1.53514523461291,-0.30968347672306534,-0.7176112207119008,0.0
1759681445.3137233,0,-1.2049999237060547,-0.8299996256828308,-0.7176966228899531,0.0,-1.53514523461291,-0.30968347672306534,-0.7176112207119008,0.0
1759681445.3257024,0,-1.2049999237060547,-0.8299996256828308,-0.7176967113863721,0.0,-1.53514523461291,-0.30968347672306534,-0.7176112207119008,0.0
1759681445.3370173,0,-1.2049999237060547,-0.8299996256828308,-0.7176969166115726,0.0,-1.53514523461291,-0.30968347672306534,-0.7176112207119008,0.0
1759681445.3482587,0,-1.2049999237060547,-0.8299996256828308,-0.7176971407640752,0.0,-1.53514523461291,-0.30968347672306534,-0.7176112207119008,0.0
1759681445.3594387,0,-1.2049999237060547,-0.8299996256828308,-0.7176973675143667,0.0,-1.53514523461291,-0.30968347672306534,-0.7176112207119008,0.0
1759681445.3704557,0,-1.2049999237060547,-0.8299996256828308,-0.7176976029097286,0.0,-1.53514523461291,-0.30968347672306534,-0.7176112207119008,0.0
1759681445.3817556,0,-1.2049999237060547,-0.8299996256828308,-0.7176977925835146,0.0,-1.53514523461291,-0.30968347672306534,-0.7176112207119008,0.0
1759681445.3919046,0,-1.2049999237060547,-0.8299996256828308,-0.7176980956774397,0.0,-1.53514523461291,-0.30968347672306534,-0.7176112207119008,0.0
1759681445.4021657,0,-1.2049999237060547,-0.8299996256828308,-0.7176983466685947,0.0,-1.53514523461291,-0.30968347672306534,-0.7176112207119008,0.0
1759681445.4132137,0,-1.2049999237060547,-0.8299996256828308,-0.71769848561018,0.0,-1.53514523461291,-0.30968347672306534,-0.7176112207119008,0.0
1759681445.4294376,0,-1.2049999237060547,-0.8299996256828308,-0.7176981491231231,0.0,-1.53514523461291,-0.30968347672306534,-0.7176112207119008,0.0
1759681445.4395385,0,-1.2049999237060547,-0.8299996256828308,-0.7176985084503134,0.0,-1.53514523461291,-0.30968347672306534,-0.7176112207119008,0.0
1759681445.4500744,0,-1.2049999237060547,-0.8299996256828308,-0.7176988002804947,0.0,-1.53514523461291,-0.30968347672306534,-0.7176112207119008,0.0
1759681445.4612682,0,-1.2049999237060547,-0.8299996256828308,-0.7176989856409399,0.0,-1.53514523461291,-0.30968347672306534,-0.7176112207119008,0.0
1759681445.4718504,0,-1.2049999237060547,-0.8299996256828308,-0.7176991977810178,0.0,-1.53514523461291,-0.30968347672306534,-0.7176112207119008,0.0
1759681445.4820735,0,-1.2049999237060547,-0.8299996256828308,-0.7176994102898817,0.0,-1.53514523461291,-0.30968347672306534,-0.7176112207119008,0.0
1759681445.4925106,0,-1.2049999237060547,-0.8299996256828308,-0.7176995750185462,0.0,-1.53514523461291,-0.30968347672306534,-0.7176112207119008,0.0
1759681445.5032873,0,-1.2049999237060547,-0.8299996256828308,-0.7176996945516372,0.0,-1.53514523461291,-0.30968347672306534,-0.7176112207119008,0.0
1759681445.5148518,0,-1.2049999237060547,-0.8299996256828308,-0.7176997529991365,0.0,-1.53514523461291,-0.30968347672306534,-0.7176112207119008,0.0
1759681445.526283,0,-1.2049999237060547,-0.8299996256828308,-0.7176998335606797,0.0,-1.53514523461291,-0.30968347672306534,-0.7176112207119008,0.0
1759681445.5366747,0,-1.2049999237060547,-0.8299996256828308,-0.7176999903242773,0.0,-1.53514523461291,-0.30968347672306534,-0.7176112207119008,0.0
1759681445.5468056,0,-1.2049999237060547,-0.8299996256828308,-0.7177001477033365,0.0,-1.53514523461291,-0.30968347672306534,-0.7176112207119008,0.0
1759681445.5570285,0,-1.2049999237060547,-0.8299996256828308,-0.7177002773038019,0.0,-1.53514523461291,-0.30968347672306534,-0.7176112207119008,0.0
1759681445.5675356,0,-1.2049999237060547,-0.8299996256828308,-0.717700373996621,0.0,-1.53514523461291,-0.30968347672306534,-0.7176112207119008,0.0
1759681445.57823,0,-1.2049999237060547,-0.8299996256828308,-0.7177004533597948,0.0,-1.53514523461291,-0.30968347672306534,-0.7176112207119008,0.0
1759681445.5897949,0,-1.2049999237060547,-0.8299996256828308,-0.7177004847096349,0.0,-1.53514523461291,-0.30968347672306534,-0.7176112207119008,0.0
1759681445.6000443,0,-1.2049999237060547,-0.8299996256828308,-0.7177005991658943,0.0,-1.53514523461291,-0.30968347672306534,-0.7176112207119008,0.0
1759681445.6102393,0,-1.2049999237060547,-0.8299996256828308,-0.717700708142516,0.0,-1.53514523461291,-0.30968347672306534,-0.7176112207119008,0.0
1759681445.6202931,0,-1.2049999237060547,-0.8299996256828308,-0.7177008113359093,0.0,-1.5747953215617767,-0.31768203384810095,-0.7176295089798849,0.0
1759681445.642949,0,-1.2049999237060547,-0.8299996256828308,-0.7177003217733162,0.0,-1.6058531314131779,-0.3239472828145229,-0.717643834132571,0.0
1759681445.654245,0,-1.2049999237060547,-0.8299996256828308,-0.7177005171328759,0.0,-1.6305982085102537,-0.32893907294551605,-0.7176552475905497,0.0
1759681445.6649973,0,-1.2049999237060547,-0.8299996256828308,-0.7177007374228594,0.0,-1.6503775116346595,-0.332929124370573,-0.7176643706271915,0.0
1759681445.6762676,0,-1.2049999237060547,-0.8299996256828308,-0.7177008921102281,0.0,-1.666218809658543,-0.3361247674808176,-0.7176716772922147,0.0
1759681445.6873956,0,-1.2049999237060547,-0.8299996256828308,-0.7177010227003926,0.0,-1.6789415444020483,-0.3386913071397051,-0.7176775455462435,0.0
1759681445.6986105,0,-1.2049999237060547,-0.8299996256828308,-0.7177011286140083,0.0,-1.6891851651440655,-0.34075773856463204,-0.7176822703298612,0.0
1759681445.7097316,0,-1.2049999237060547,-0.8299996256828308,-0.7177012231310762,0.0,-1.6974550570321523,-0.3424260124014596,-0.717686084747702,0.0
1759681445.721168,0,-1.2049999237060547,-0.8299996256828308,-0.7177012950545869,0.0,-1.7041463008874498,-0.34377582775705157,-0.7176891710274605,0.0
1759681445.731319,0,-1.2049999237060547,-0.8299996256828308,-0.7177014044513204,0.0,-1.7102259736001715,-0.34500227171307457,-0.7176919752251909,0.0
1759681445.7425704,0,-1.2049999237060547,-0.8299996256828308,-0.7177014612050634,0.0,-1.7150519081820368,-0.3459758008123806,-0.717694201146789,0.0
1759681445.7538295,0,-1.2049999237060547,-0.8299996256828308,-0.7177015130340294,0.0,-1.7188928407038382,-0.34675062681033253,-0.7176959727444996,0.0
1759681445.7650788,0,-1.2049999237060547,-0.8299996256828308,-0.7177015641814036,0.0,-1.7219579772717488,-0.3473689525649793,-0.7176973865128737,0.0
1759681445.776167,0,-1.2049999237060547,-0.8299996256828308,-0.7177016189847105,0.0,-1.7244109071282683,-0.3478637787076402,-0.717698517906069,0.0
1759681445.7873518,0,-1.2049999237060547,-0.8299996256828308,-0.7177016683674999,0.0,-1.7263788053485845,-0.348260760090096,-0.7176994255825153,0.0
1759681445.7982118,0,-1.2049999237060547,-0.8299996256828308,-0.7177017246866271,0.0,-1.7279622607099443,-0.3485801883470659,-0.7177001559379373,0.0
1759681445.8086123,0,-1.2049999237060547,-0.8299996256828308,-0.7177017887632005,0.0,-1.729240243929874,-0.3488379941320223,-0.7177007453969121,0.0
1759681445.819799,0,-1.2049999237060547,-0.8299996256828308,-0.7177018249524956,0.0,-1.7302732721736283,-0.34904638548889627,-0.7177012218724713,0.0
1759681445.8333795,0,-1.2049999237060547,-0.8299996256828308,-0.7177018020377908,0.0,-1.731210570619668,-0.34923546540626255,-0.7177016541934694,0.0
1759681445.843711,0,-1.2049999237060547,-0.8299996256828308,-0.7177018747763384,0.0,-1.7319541756170052,-0.34938547181248636,-0.7177019971749989,0.0
1759681445.854084,0,-1.2049999237060547,-0.8299996256828308,-0.7177019402014668,0.0,-1.7325455435550847,-0.3495047676475937,-0.7177022699384696,0.0
1759681445.8651536,0,-1.2049999237060547,-0.8299996256828308,-0.7177019798127766,0.0,-1.7330166598733379,-0.3495998052899813,-0.7177024872368956,0.0
1759681445.8753114,0,-1.2049999237060547,-0.8299996256828308,-0.7177020355869068,0.0,-1.733393319814012,-0.3496757883781415,-0.7177026609681144,0.0
1759681445.885955,0,-1.2049999237060547,-0.8299996256828308,-0.7177020740207407,0.0,-1.7336950278148902,-0.3497366515152947,-0.7177028001283835,0.0
1759681445.8968945,0,-1.2049999237060547,-0.8299996256828308,-0.7177021027410788,0.0,-1.7339372253977277,-0.34978550969823813,-0.7177029118399746,0.0
1759681445.9079938,0,-1.2049999237060547,-0.8299996256828308,-0.7177021279911067,0.0,-1.7341321133264176,-0.349824824170174,-0.7177030017303869,0.0
1759681445.918092,0,-1.2049999237060547,-0.8299996256828308,-0.7177021729039854,0.0,-1.7342895110113952,-0.34985657578716955,-0.7177030743287408,0.0
1759681445.9282715,0,-1.2049999237060547,-0.8299996256828308,-0.7177022113230045,0.0,-1.7344301651536906,-0.3498849497524896,-0.7177031392042771,0.0
1759681445.9391644,0,-1.2049999237060547,-0.8299996256828308,-0.7177022323873263,0.0,-1.7345417333675262,-0.3499074562537453,-0.7177031906641742,0.0
1759681445.9505692,0,-1.2049999237060547,-0.8299996256828308,-0.717702245019245,0.0,-1.734630412824171,-0.34992534543771364,-0.7177032315668251,0.0
1759681445.9610426,0,-1.2049999237060547,-0.8299996256828308,-0.7177022765731778,0.0,-1.7347011581970546,-0.34993961680380353,-0.7177032641975313,0.0
1759681445.971109,0,-1.2049999237060547,-0.8299996256828308,-0.7177023130116034,0.0,-1.734757760533727,-0.3499510351147865,-0.7177032903048813,0.0
1759681445.9822795,0,-1.2049999237060547,-0.8299996256828308,-0.7177023279715637,0.0,-1.7348031013539205,-0.34996018165564735,-0.7177033112179521,0.0
1759681445.993441,0,-1.2049999237060547,-0.8299996256828308,-0.7177023443017134,0.0,-1.7348395165017252,-0.3499675276329792,-0.7177033280141316,0.0
1759681446.0045998,0,-1.2049999237060547,-0.8299996256828308,-0.7177023626581569,0.0,-1.7348688392001164,-0.3499734428603139,-0.7177033415389787,0.0
1759681446.015298,0,-1.2049999237060547,-0.8299996256828308,-0.717702388616992,0.0,-1.7348949642284106,-0.3499787130260887,-0.7177033535889276,0.0
1759681446.0330696,0,-1.2049999237060547,-0.8299996256828308,-0.7177023206185957,0.0,-1.7349155127732279,-0.349982858255575,-0.7177033630667704,0.0
1759681446.0443459,0,-1.2049999237060547,-0.8299996256828308,-0.7177023629949186,0.0,-1.7349318513040126,-0.3499861542047614,-0.7177033706027799,0.0
1759681446.0555556,0,-1.2049999237060547,-0.8299996256828308,-0.7177024061573078,0.0,-1.7349448779312944,-0.3499887820482412,-0.7177033766112018,0.0
1759681446.0666325,0,-1.2049999237060547,-0.8299996256828308,-0.7177024440207909,0.0,-1.7349552928922543,-0.349990883043891,-0.7177033814150147,0.0
1759681446.0780365,0,-1.2049999237060547,-0.8299996256828308,-0.7177024722430385,0.0,-1.7349636385228338,-0.3499925665963891,-0.7177033852643664,0.0
1759681446.0889404,0,-1.2049999237060547,-0.8299996256828308,-0.7177025024682404,0.0,-1.7349703474168834,-0.34999391997229395,-0.7177033883587871,0.0
1759681446.09993,0,-1.2049999237060547,-0.8299996256828308,-0.717702527860471,0.0,-1.7349762525288581,-0.3499951112023541,-0.71770339108247,0.0
1759681446.1112578,0,-1.2049999237060547,-0.8299996256828308,-0.717702546816689,0.0,-1.7349809284111803,-0.34999605446161886,-0.7177033932391813,0.0
1759681446.1213186,0,-1.2049999237060547,-0.8299996256828308,-0.7177025768609404,0.0,-1.7349846457616862,-0.34999680435758784,-0.7177033949537779,0.0
1759681446.1316054,0,-1.2049999237060547,-0.8299996256828308,-0.7177026002863408,0.0,-1.7349876074669468,-0.3499974018182881,-0.7177033963198395,0.0
1759681446.1430273,0,-1.2049999237060547,-0.8299996256828308,-0.7177026097780157,0.0,-1.7349899700735978,-0.3499978784236556,-0.7177033974095718,0.0
1759681446.154342,0,-1.2049999237060547,-0.8299996256828308,-0.7177026208723625,0.0,-1.7349918600449552,-0.34999825968495996,-0.7177033982813051,0.0
1759681446.1656501,0,-1.2049999237060547,-0.8299996256828308,-0.717702632933932,0.0,-1.7349933759481382,-0.34999856548600955,-0.7177033989805027,0.0
1759681446.176469,0,-1.2049999237060547,-0.8299996256828308,-0.7177026494607475,0.0,-1.7349945956760238,-0.34999881154002654,-0.7177033995430919,0.0
1759681446.1878757,0,-1.2049999237060547,-0.8299996256828308,-0.7177026602823454,0.0,-1.7349955789301186,-0.3499990098905133,-0.7177033999966096,0.0
1759681446.1980278,0,-1.2049999237060547,-0.8299996256828308,-0.7177026809119429,0.0,-1.7349963747591262,-0.34999917043199674,-0.717703400363679,0.0
1759681446.2092319,0,-1.2049999237060547,-0.8299996256828308,-0.7177026912040603,0.0,-1.7349970933865055,-0.3499993153997027,-0.7177034006951398,0.0
1759681446.2206018,0,-1.2049999237060547,-0.8299996256828308,-0.7177027000584123,0.0,-1.7349976634789657,-0.3499994304036651,-0.7177034009580902,0.0
1759681446.238353,0,-1.2049999237060547,-0.8299996256828308,-0.7177026666061153,0.0,-1.7349981139572013,-0.3499995212780157,-0.7177034011658695,0.0
1759681446.248392,0,-1.2049999237060547,-0.8299996256828308,-0.7177026976892904,0.0,-1.7349984742967668,-0.34999959396881714,-0.7177034013320731,0.0
1759681446.259734,0,-1.2049999237060547,-0.8299996256828308,-0.7177027177014139,0.0,-1.7349987628162826,-0.3499996521714595,-0.7177034014651503,0.0
1759681446.2711673,0,-1.2049999237060547,-0.8299996256828308,-0.7177027337061386,0.0,-1.7349989944201185,-0.34999969889258054,-0.7177034015719755,0.0
1759681446.2826443,0,-1.2049999237060547,-0.8299996256828308,-0.7177027474916056,0.0,-1.7349991808216927,-0.34999973649511196,-0.7177034016579518,0.0
1759681446.2939503,0,-1.2049999237060547,-0.8299996256828308,-0.7177027609087538,0.0,-1.7349993456336965,-0.3499997697424092,-0.71770340173397,0.0
1759681446.3054163,0,-1.2049999237060547,-0.8299996256828308,-0.7177027721713269,0.0,-1.7349994763225731,-0.3499997961060953,-0.7177034017942491,0.0
1759681446.3167136,0,-1.2049999237060547,-0.8299996256828308,-0.7177027835016858,0.0,-1.7349995802533438,-0.34999981707190575,-0.7177034018421863,0.0
1759681446.3281412,0,-1.2049999237060547,-0.8299996256828308,-0.717702793314329,0.0,-1.7349996631140923,-0.3499998337872898,-0.7177034018804052,0.0
1759681446.339651,0,-1.2049999237060547,-0.8299996256828308,-0.7177028021770653,0.0,-1.734999729348239,-0.3499998471486125,-0.717703401910955,0.0
1759681446.351097,0,-1.2049999237060547,-0.8299996256828308,-0.7177028110366467,0.0,-1.7349997824383931,-0.3499998578584157,-0.7177034019354425,0.0
1759681446.362477,0,-1.2049999237060547,-0.8299996256828308,-0.7177028198387756,0.0,-1.734999825109624,-0.349999866466424,-0.7177034019551242,0.0
1759681446.373688,0,-1.2049999237060547,-0.8299996256828308,-0.7177028289248994,0.0,-1.7349998625934988,-0.34999987402799415,-0.7177034019724132,0.0
1759681446.3840134,0,-1.2049999237060547,-0.8299996256828308,-0.7177028410603299,0.0,-1.7349998923376788,-0.34999988002824645,-0.7177034019861326,0.0
1759681446.3950276,0,-1.2049999237060547,-0.8299996256828308,-0.7177028486786128,0.0,-1.7349999159816178,-0.3499998847979055,-0.7177034019970381,0.0
1759681446.406398,0,-1.2049999237060547,-0.8299996256828308,-0.7177028541922041,0.0,-1.7349999348184764,-0.3499998885978389,-0.7177034020057264,0.0
1759681446.4166362,0,-1.2049999237060547,-0.8299996256828308,-0.7177028640656165,0.0,-1.734999949883802,-0.34999989163694617,-0.7177034020126751,0.0
1759681446.4457326,0,-1.2049999237060547,-0.8299996256828308,-0.7177028072088234,0.0,-1.734999961718869,-0.34999989402441783,-0.717703402018134,0.0
1759681446.4570682,0,-1.2049999237060547,-0.8299996256828308,-0.7177028307521328,0.0,-1.7349999712604545,-0.34999989594922865,-0.7177034020225351,0.0
1759681446.4683228,0,-1.2049999237060547,-0.8299996256828308,-0.7177028534613363,0.0,-1.7349999797724969,-0.34999989766635115,-0.7177034020264612,0.0
1759681446.4783804,0,-1.2049999237060547,-0.8299996256828308,-0.7177028743882552,0.0,-1.734999986531827,-0.3499998990299014,-0.7177034020295788,0.0
1759681446.4896452,0,-1.2049999237060547,-0.8299996256828308,-0.7177028866882544,0.0,-1.7349999919055303,-0.3499999001139312,-0.7177034020320574,0.0
1759681446.5009253,0,-1.2049999237060547,-0.8299996256828308,-0.7177028962108648,0.0,-1.734999996188971,-0.34999990097802375,-0.7177034020340332,0.0
1759681446.510944,0,-1.2049999237060547,-0.8299996256828308,-0.717702907499163,0.0,-1.7349999996169958,-0.3499999016695544,-0.7177034020356142,0.0
1759681446.5220418,0,-1.2049999237060547,-0.8299996256828308,-0.7177029137622633,0.0,-1.7350000023637517,-0.3499999022236536,-0.7177034020368811,0.0
1759681446.5334249,0,-1.2049999237060547,-0.8299996256828308,-0.7177029183355508,0.0,-1.7350000045696639,-0.3499999026686492,-0.7177034020378984,0.0
1759681446.544918,0,-1.2049999237060547,-0.8299996256828308,-0.7177029223695081,0.0,-1.7350000065084468,-0.3499999030597572,-0.7177034020387927,0.0
1759681446.555166,0,-1.2049999237060547,-0.8299996256828308,-0.7177029292868758,0.0,-1.7350000080451475,-0.34999990336975373,-0.7177034020395014,0.0
1759681446.5666833,0,-1.2049999237060547,-0.8299996256828308,-0.7177029323343671,0.0,-1.7350000092645494,-0.349999903615742,-0.7177034020400639,0.0
1759681446.5782375,0,-1.2049999237060547,-0.8299996256828308,-0.7177029352530724,0.0,-1.7350000102347716,-0.3499999038114636,-0.7177034020405114,0.0
1759681446.5897622,0,-1.2049999237060547,-0.8299996256828308,-0.7177029384199898,0.0,-1.7350000110088608,-0.3499999039676196,-0.7177034020408685,0.0
1759681446.6011987,0,-1.2049999237060547,-0.8299996256828308,-0.7177029418689873,0.0,-1.7350000116281958,-0.3499999040925572,-0.7177034020411542,0.0
1759681446.6119606,0,-1.2049999237060547,-0.8299996256828308,-0.7177029466344429,0.0,-1.735000012125402,-0.3499999041928579,-0.7177034020413835,0.0
1759681446.6403127,0,-1.2049999237060547,-0.8299996256828308,-0.7177029186570394,0.0,-1.7350582095164284,-0.3499532766923529,-0.7182526274522095,0.0018857803190126853
1759681446.6451662,0,-1.2049999237060547,-0.8299996256828308,-0.7177029422823883,0.0,-1.7351020438516787,-0.3499363373436875,-0.7186933087203632,0.003396061848253462
1759681446.6553798,0,-1.2049999237060547,-0.8299996256828308,-0.7177029526440748,0.0,-1.7351345880166023,-0.3499394971085558,-0.7190487335563642,0.004608249539271
1759681446.6662166,0,-1.2049999237060547,-0.8299996256828308,-0.717702958844594,0.0,-1.735158530946806,-0.3499556905505213,-0.7193373305147626,0.005586281420044527
1759681446.6768353,0,-1.2049999237060547,-0.8299996256828308,-0.7177029640483497,0.0,-1.735175952616713,-0.3499799508970625,-0.719573339100692,0.006380038873938904
1759681446.687172,0,-1.2049999237060547,-0.8299996256828308,-0.717702968763092,0.0,-1.7351884251098497,-0.35000884984303887,-0.7197678225993688,0.007028319886150023
1759681446.6973486,0,-1.2049999237060547,-0.8299996256828308,-0.7177029729090875,0.0,-1.735197130162436,-0.3500400636124701,-0.7199294566293857,0.007561480198943449
1759681446.708594,0,-1.2049999237060547,-0.8299996256828308,-0.7177029748082688,0.0,-1.7352028975914289,-0.35007214834672806,-0.7200655510850996,0.00800433406536178
1759681446.7200086,0,-1.2049999237060547,-0.8299996256828308,-0.7177029764209308,0.0,-1.7352064014047257,-0.35010414115358346,-0.7201815672556848,0.008375910588385464
1759681446.730346,0,-1.2049999237060547,-0.8299996256828308,-0.7177029796488252,0.0,-1.735208217321238,-0.350135340620989,-0.7202812408578743,0.008689998213724221
1759681446.7406912,0,-1.2049999237060547,-0.8299996256828308,-0.7177029825359362,0.0,-1.735214105758999,-0.35015467218678237,-0.7203184375925601,0.008854730186304519
1759681446.7518396,0,-1.2049999237060547,-0.8299996256828308,-0.7177029840304741,0.0,-1.735223860222824,-0.35017124836197705,-0.7203714212734792,0.009064284656514114
1759681446.7626774,0,-1.2049999237060547,-0.8299996256828308,-0.717702985943367,0.0,-1.735230891923962,-0.3501880425034523,-0.7204194620742742,0.009244949110543224
1759681446.772957,0,-1.2049999237060547,-0.8299996256828308,-0.7177029885019124,0.0,-1.7352358245313737,-0.3502047150256879,-0.7204634523628554,0.009402529134017013
1759681446.7832425,0,-1.2049999237060547,-0.8299996256828308,-0.7177029907943542,0.0,-1.7352391107302123,-0.35022111531119343,-0.7205043628117836,0.009542163624199334
1759681446.7932837,0,-1.2049999237060547,-0.8299996256828308,-0.7177029931127166,0.0,-1.7352411112870618,-0.35023714390603927,-0.7205428240757147,0.009667576304643254
1759681446.8039627,0,-1.2049999237060547,-0.8299996256828308,-0.7177029944571309,0.0,-1.7352420632963017,-0.3502528671876498,-0.7205797997037164,0.009782773923425761
1759681446.8145902,0,-1.2049999237060547,-0.8299996256828308,-0.7177029958393941,0.0,-1.7352421805616456,-0.35026829628030426,-0.7206156990183149,0.009890104574598836
1759681446.8253856,0,-1.2049999237060547,-0.8299996256828308,-0.7177029970656559,0.0,-1.7352416181082646,-0.35028349210170856,-0.7206509676317109,0.009991705442139513
1759681446.8481839,0,-1.2049999237060547,-0.8299996256828308,-0.7177029868020384,0.0,-1.7352475514669774,-0.3502864436997028,-0.7206386909423746,0.009996361422126314
1759681446.8506813,0,-1.2049999237060547,-0.8299996256828308,-0.7177029991102017,0.0,-1.735252200112619,-0.3502892103896108,-0.7206302061974977,0.01000340036433172
1759681446.8607726,0,-1.2049999237060547,-0.8299996256828308,-0.7177030021180357,0.0,-1.735255468340518,-0.3502929042138895,-0.7206289853220496,0.010022386967348843
1759681446.8711917,0,-1.2049999237060547,-0.8299996256828308,-0.7177030037570375,0.0,-1.7352576087090166,-0.35029753400366404,-0.7206337895241245,0.010051502736181578
1759681446.8821945,0,-1.2049999237060547,-0.8299996256828308,-0.7177030046767534,0.0,-1.7352588082991331,-0.35030313002112895,-0.7206438013261626,0.010089690861971234
1759681446.8923213,0,-1.2049999237060547,-0.8299996256828308,-0.7177030063747498,0.0,-1.7352592787030563,-0.3503095082316505,-0.7206575816492277,0.010134216745850879
1759681446.9024873,0,-1.2049999237060547,-0.8299996256828308,-0.7177030078948565,0.0,-1.7352591484107094,-0.3503166222156212,-0.7206744973771254,0.010184117840088965
1759681446.9138498,0,-1.2049999237060547,-0.8299996256828308,-0.7177030083231415,0.0,-1.7352584670791362,-0.35032459502132374,-0.7206947080019273,0.010240216688971253
1759681446.9244945,0,-1.2049999237060547,-0.8299996256828308,-0.7177030094534871,0.0,-1.7367026652413307,-0.34916603220793,-0.7195100165215841,0.019222642618470974
1759681446.9347212,0,-1.2049999237060547,-0.8299996256828308,-0.7177030109038647,0.0,-1.7378304010387562,-0.34834906920614733,-0.7185809062790351,0.026359926413374368
1759681446.9450507,0,-1.2049999237060547,-0.8299996256828308,-0.7177030121512331,0.0,-1.7387108059975718,-0.34778325673336263,-0.7178531442003914,0.03204621972022612
1759681446.9552572,0,-1.2049999237060547,-0.8299996256828308,-0.7177030133766316,0.0,-1.7393978555673044,-0.3474014758706435,-0.7172840426923707,0.036589928404533054
1759681446.9662237,0,-1.2049999237060547,-0.8299996256828308,-0.7177030139933134,0.0,-1.7399322706839044,-0.3471553302001349,-0.7168417213368944,0.04022895621052607
1759681446.976439,0,-1.2049999237060547,-0.8299996256828308,-0.7177030151582571,0.0,-1.740347728590121,-0.3470072200966118,-0.7164987718637353,0.043154582395914486
1759681446.9866433,0,-1.2049999237060547,-0.8299996256828308,-0.7177030162628526,0.0,-1.7406694489385417,-0.34693037490768036,-0.7162349236360213,0.045514130777833395
1759681446.996729,0,-1.2049999237060547,-0.8299996256828308,-0.7177030173457801,0.0,-1.7409172306925642,-0.3469049724082079,-0.7160340885235071,0.04742361737713499
1759681447.00825,0,-1.2049999237060547,-0.8299996256828308,-0.7177030174924859,0.0,-1.741427821296845,-0.34662557602270694,-0.7155063515859819,0.0495025692040382
1759681447.0189302,0,-1.2049999237060547,-0.8299996256828308,-0.7177030182884252,0.0,-1.7418244680628274,-0.34643540916292204,-0.7150963034040013,0.051165891424140894
1759681447.0291696,0,-1.2049999237060547,-0.8299996256828308,-0.7177030193625971,0.0,-1.742132355627392,-0.34631118500370134,-0.7147784005198891,0.052502936732965265
1759681447.0404494,0,-1.2049999237060547,-0.8299996256828308,-0.7177030197991208,0.0,-1.742369786890629,-0.3462371925963739,-0.7145344558807071,0.05358321611206756
1759681447.0506716,0,-1.2049999237060547,-0.8299996256828308,-0.7177030208509692,0.0,-1.742552620708691,-0.3461995762360714,-0.7143479376201974,0.05446089153105638
1759681447.0610201,0,-1.2049999237060547,-0.8299996256828308,-0.7177030217643381,0.0,-1.7426922741734212,-0.3461892351473537,-0.7142072221145097,0.05517839498802617
1759681447.0719104,0,-1.2049999237060547,-0.8299996256828308,-0.7177030223368845,0.0,-1.7427973899586198,-0.3461998553828936,-0.7141035896801597,0.05576941053586324
1759681447.0821354,0,-1.2049999237060547,-0.8299996256828308,-0.7177030232341011,0.0,-1.7428755181953723,-0.34622553809902334,-0.7140290033466876,0.056259638172179126
1759681447.0923223,0,-1.2049999237060547,-0.8299996256828308,-0.7177030240818265,0.0,-1.7430759046375588,-0.3461047131279613,-0.7137259070627123,0.056692617414408716
1759681447.1030447,0,-1.2049999237060547,-0.8299996256828308,-0.7177030246160641,0.0,-1.7432294316623913,-0.3460233321838466,-0.7134923496301374,0.05705087033308053
1759681447.1131341,0,-1.2049999237060547,-0.8299996256828308,-0.7177030254209988,0.0,-1.7433465429389452,-0.34597184198587094,-0.7133130297782063,0.0573500324795264
1759681447.1245215,0,-1.2049999237060547,-0.8299996256828308,-0.7177030256355437,0.0,-1.7434342738172515,-0.34594489244889454,-0.7131776504062556,0.057604382930454306
1759681447.1352777,0,-1.2049999237060547,-0.8299996256828308,-0.7177030261888628,0.0,-1.743499140909911,-0.34593652384094997,-0.7130765870621307,0.057823002982792984
1759681447.1463926,0,-1.2049999237060547,-0.8299996256828308,-0.7177030266308009,0.0,-1.7435456989800666,-0.34594314161702383,-0.7130031049954618,0.05801412494550068
1759681447.156963,0,-1.2049999237060547,-0.8299996256828308,-0.7177030273068024,0.0,-1.7435779523533672,-0.3459611172957094,-0.7129512489462473,0.05818310426683946
1759681447.167478,0,-1.2049999237060547,-0.8299996256828308,-0.7177030279693106,0.0,-1.7435987902585037,-0.3459881239308207,-0.7129167115739015,0.058334725906497145
1759681447.1775594,0,-1.2049999237060547,-0.8299996256828308,-0.7177030287296304,0.0,-1.7436106612405247,-0.3460219925180307,-0.712895827506463,0.05847225252088356
1759681447.1879432,0,-1.2049999237060547,-0.8299996256828308,-0.7177030293016067,0.0,-1.744667811541448,-0.34510400911220795,-0.7119683300763995,0.05845415558417437
1759681447.1994233,0,-1.2049999237060547,-0.8299996256828308,-0.7177030294754019,0.0,-1.7460657288448573,-0.34390936421430907,-0.7108382690551295,0.05847785945512266
1759681447.2097135,0,-1.2049999237060547,-0.8299996256828308,-0.7177030300945367,0.0,-1.7471666143508677,-0.34297336660199257,-0.7099513545540762,0.0585112258008742
1759681447.2199845,0,-1.2049999237060547,-0.8299996256828308,-0.7177030306851968,0.0,-1.7480337143326181,-0.3422414473813467,-0.7092560498180362,0.058552463706205496
1759681447.2307906,0,-1.2049999237060547,-0.8299996256828308,-0.7177030310629924,0.0,-1.7487154257574065,-0.3416721017561501,-0.7087130935021556,0.05860096257647302
1759681447.2521243,0,-1.2049999237060547,-0.8299996256828308,-0.7177030285918278,0.0,-1.7492348861798037,-0.3412514143401369,-0.7083075386231898,0.05867045016031714
1759681447.262402,0,-1.2049999237060547,-0.8299996256828308,-0.7177030299503464,0.0,-1.7496428473612242,-0.34092799401691165,-0.707993046236753,0.05874170104377094
1759681447.2725918,0,-1.2049999237060547,-0.8299996256828308,-0.7177030312498687,0.0,-1.7503699381540494,-0.34028372769433757,-0.7073166129890126,0.0588123330486775
1759681447.2840397,0,-1.2049999237060547,-0.8299996256828308,-0.7177030319633744,0.0,-1.750938695022925,-0.3397859774961244,-0.7067894502190581,0.05888543673656561
1759681447.2945077,0,-1.2049999237060547,-0.8299996256828308,-0.7177030327787772,0.0,-1.7513843093936303,-0.33940202487747695,-0.7063783365622319,0.058959430543519646
1759681447.304929,0,-1.2049999237060547,-0.8299996256828308,-0.7177030334675756,0.0,-1.7517329595584221,-0.33910794267723754,-0.7060587321854976,0.059034380993197876
1759681447.3151917,0,-1.2049999237060547,-0.8299996256828308,-0.7177030340727004,0.0,-1.7520051444022227,-0.3388849066473052,-0.7058113764492605,0.05911017943688356
1759681447.325456,0,-1.2049999237060547,-0.8299996256828308,-0.7177030345802677,0.0,-1.7522167287171817,-0.3387184109701412,-0.7056213838942341,0.059186976367915325
1759681447.3365536,0,-1.2049999237060547,-0.8299996256828308,-0.7177030348457851,0.0,-1.7523794868941076,-0.3385981439542209,-0.7054778898853218,0.05926616047752298
1759681447.3478436,0,-1.2049999237060547,-0.8299996256828308,-0.7177030350719136,0.0,-1.7525032093745636,-0.33851517989924185,-0.7053717025097089,0.059347929342101896
1759681447.358131,0,-1.2049999237060547,-0.8299996256828308,-0.7177030355090324,0.0,-1.752774956475759,-0.3382558474156314,-0.7050135060340407,0.05930631555153075
1759681447.3687127,0,-1.2049999237060547,-0.8299996256828308,-0.7177030358501622,0.0,-1.75298537629776,-0.3380598768544817,-0.7047353177875653,0.059289237196937454
1759681447.378844,0,-1.2049999237060547,-0.8299996256828308,-0.7177030362403123,0.0,-1.7531478437827135,-0.33791366249453747,-0.7045197437751106,0.05929106727835622
1759681447.389382,0,-1.2049999237060547,-0.8299996256828308,-0.717703036515637,0.0,-1.7532722079083498,-0.3378075438797857,-0.7043539385129428,0.059308729939204274
1759681447.3996646,0,-1.2049999237060547,-0.8299996256828308,-0.7177030368147967,0.0,-1.7533665587801766,-0.33773320620593356,-0.7042273612699651,0.05933883434253736
1759681447.4104378,0,-1.2049999237060547,-0.8299996256828308,-0.7177030370121767,0.0,-1.7534367894633898,-0.33768492881172274,-0.7041323019943024,0.05937987411704411
1759681447.42073,0,-1.2049999237060547,-0.8299996256828308,-0.7177030372877429,0.0,-1.753488057635869,-0.33765717137249257,-0.7040620410515702,0.05942920224963461
1759681447.431001,0,-1.2049999237060547,-0.8299996256828308,-0.7177030375502369,0.0,-1.7535241555459429,-0.3376460466719331,-0.7040116192715455,0.05948543218157249
1759681447.4417813,0,-1.2049999237060547,-0.8299996256828308,-0.7177030377180635,0.0,-1.7535477859098811,-0.33764905019773284,-0.7039774775012068,0.05954831583933858
1759681447.4519434,0,-1.2049999237060547,-0.8299996256828308,-0.7177030379797049,0.0,-1.7535616668541625,-0.3376630211228129,-0.703956080594793,0.05961592107326504
1759681447.462085,0,-1.2049999237060547,-0.8299996256828308,-0.7177030382261851,0.0,-1.7552055763745769,-0.3362509389402904,-0.702536944021269,0.059487513737388295
1759681447.4723134,0,-1.2049999237060547,-0.8299996256828308,-0.717703038439204,0.0,-1.7565008146071435,-0.3351411091364052,-0.701420383271254,0.05940103071578641
1759681447.4825954,0,-1.2049999237060547,-0.8299996256828308,-0.7177030386311305,0.0,-1.7575216696149139,-0.33427002692023144,-0.7005421857164799,0.05934792535713554
1759681447.4928079,0,-1.2049999237060547,-0.8299996256828308,-0.7177030388233732,0.0,-1.7583262713937808,-0.333587783417133,-0.6998520333199478,0.05932134562873581
1759681447.5037212,0,-1.2049999237060547,-0.8299996256828308,-0.7177030389213517,0.0,-1.7589587411945142,-0.33305683093016636,-0.6993118994990211,0.05931716584609613
1759681447.5143166,0,-1.2049999237060547,-0.8299996256828308,-0.7177030390738359,0.0,-1.759455356190043,-0.33264563174545114,-0.698890234563356,0.0593305777543048
1759681447.5247335,0,-1.2049999237060547,-0.8299996256828308,-0.7177030392526529,0.0,-1.7598442507486753,-0.33232972585572845,-0.6985625845171068,0.05935802758953626
1759681447.5351822,0,-1.2049999237060547,-0.8299996256828308,-0.7177030394219965,0.0,-1.7601472183340774,-0.33209022866264054,-0.6983100451760987,0.059397054850247655
1759681447.546749,0,-1.2049999237060547,-0.8299996256828308,-0.7177030394665724,0.0,-1.7607913734150487,-0.33151267660199085,-0.6976495263738937,0.05943011448099839
1759681447.5579786,0,-1.2049999237060547,-0.8299996256828308,-0.7177030395766195,0.0,-1.7612945817657555,-0.33106699463050665,-0.6971335147979404,0.05947444355435808
1759681447.569103,0,-1.2049999237060547,-0.8299996256828308,-0.717703039716131,0.0,-1.7616872773898804,-0.3307250782578702,-0.6967309258224157,0.05952783902718858
1759681447.5805573,0,-1.2049999237060547,-0.8299996256828308,-0.7177030398307238,0.0,-1.7619926560992902,-0.33046568152977657,-0.6964180724900464,0.05958929149992818
1759681447.591843,0,-1.2049999237060547,-0.8299996256828308,-0.7177030399721858,0.0,-1.7622292587700008,-0.3302715326795832,-0.6961759690037727,0.059657247826107825
1759681447.6026893,0,-1.2049999237060547,-0.8299996256828308,-0.7177030401559676,0.0,-1.7624117440371194,-0.33012879793364414,-0.6959895731337419,0.05973005224576071
1759681447.6135628,0,-1.2049999237060547,-0.8299996256828308,-0.7177030403250412,0.0,-1.7625511677233645,-0.33002724573855147,-0.6958475574801278,0.059807147910239306
1759681447.6241584,0,-1.2049999237060547,-0.8299996256828308,-0.7177030405041549,0.0,-1.7626564381129326,-0.3299584539360273,-0.6957407665872996,0.059887605134658774
1759681447.6357977,0,-1.2049999237060547,-0.8299996256828308,-0.7173952776833464,0.005235987755982988,-1.76273356734586,-0.3299174211404335,-0.6956630956368415,0.059972895622606964
1759681447.6484745,0,-1.2049999237060547,-0.8299996256828308,-0.7173998905254668,0.005235987755982988,-1.7627873207007463,-0.3299002264286173,-0.6956096998799137,0.06006429218150843
1759681447.65888,0,-1.2049999237060547,-0.8299996256828308,-0.717382544892861,0.005235987755982988,-1.7636948559717374,-0.3291105047860729,-0.6947352563626392,0.0600399788920192
1759681447.6690474,0,-1.2041602606300994,-0.8294224998492294,-0.7168827176631583,0.005288347633542818,-1.764940876490217,-0.3280541584309273,-0.6935682062306434,0.06011695339346477
1759681447.679988,0,-1.2041602606300994,-0.8294224998492294,-0.7168962059423853,0.005288347633542818,-1.765919582705083,-0.3272297329374144,-0.692651823899671,0.06019583124565692
1759681447.6914124,0,-1.2041602606300994,-0.8294224998492296,-0.716871956268546,0.005288347633542818,-1.7666873470606477,-0.3265890555989929,-0.6919335468864679,0.060277345338842304
1759681447.7017477,0,-1.2041602606300994,-0.8294224998492296,-0.7168848681184747,0.005288347633542818,-1.7672906262199717,-0.3260915024055861,-0.691369788655864,0.06035962028472396
1759681447.7120395,0,-1.2041602606300996,-0.8294224998492297,-0.716854114312371,0.005288347633542818,-1.7677637925629992,-0.32570747863163896,-0.6909284061624518,0.0604427799310866
1759681447.7223215,0,-1.2041602606300996,-0.8294224998492297,-0.716888688013665,0.005288347633542818,-1.7681337055057698,-0.32541384250146377,-0.6905842611857556,0.0605269822362443
1759681447.7330828,0,-1.2041602606300996,-0.8294224998492297,-0.7168739814622113,0.005288347633542818,-1.7684208375522577,-0.3251932074170617,-0.6903182417827247,0.06061316395940961
1759681447.7439127,0,-1.2041602606300996,-0.8294224998492298,-0.7168688700339396,0.005288347633542818,-1.768641840617906,-0.3250311959191664,-0.690114730127483,0.0607014411454146
1759681447.7547038,0,-1.204312388077063,-0.8295362699157602,-0.716961687714287,0.00590569709108922,-1.769176292238559,-0.3245557170901665,-0.6895017160068144,0.060752800185254766
1759681447.7654893,0,-1.2043123880770634,-0.8295362699157607,-0.7169485127952786,0.00590569709108922,-1.7695931142888612,-0.3241903277006514,-0.6890217354859184,0.06081199745939094
1759681447.776504,0,-1.2043123880770636,-0.829536269915761,-0.7169463524027448,0.00590569709108922,-1.7699172882044636,-0.3239121352101793,-0.6886466111759786,0.06087812202112494
1759681447.7870095,0,-1.204312388077064,-0.8295362699157615,-0.7169394065061316,0.00590569709108922,-1.770168921156392,-0.3237022944672737,-0.6883536960318197,0.060949246068715754
1759681447.797449,0,-1.2043123880770645,-0.8295362699157619,-0.7169637502751117,0.00590569709108922,-1.7703632385741332,-0.3235467067546832,-0.6881257886853845,0.06102458823322848
1759681447.8083565,0,-1.2043123880770648,-0.8295362699157622,-0.7169433330197913,0.00590569709108922,-1.7705117095916243,-0.32343500658534613,-0.6879498680009869,0.061104461729441305
1759681447.8187437,0,-1.2043123880770652,-0.8295362699157627,-0.7169568004792486,0.00590569709108922,-1.770624103884747,-0.32335782853264455,-0.6878149180190136,0.06118745182926563
1759681447.8293998,0,-1.2043123880770654,-0.829536269915763,-0.7169732840893686,0.00590569709108922,-1.7707074750935117,-0.3233087761526024,-0.6877129086373373,0.061273792194240055
1759681447.8429866,0,-1.2001520915020985,-0.8335877796257534,-0.7137387096478811,0.05003246888623294,-1.770765446663352,-0.3232860487449926,-0.6876394350527921,0.06136842808561362
1759681447.8510637,0,-1.1986701801592834,-0.8348612687373128,-0.7113306272665098,0.05003246888623294,-1.7708069297750861,-0.32327814475149913,-0.6875849552733646,0.06146048013181553
1759681447.8618176,0,-1.1980688708876082,-0.835376426147835,-0.70949368546465,0.05003246888623294,-1.7708331611021741,-0.3232855869074237,-0.6875477445049964,0.061555558684366234
1759681447.8730767,0,-1.1978143877705905,-0.8358055110675954,-0.7080394461907037,0.05144910101535939,-1.772253466045438,-0.32208287978572464,-0.6861771709923725,0.06065128578902358
1759681447.8838415,0,-1.19772959581927,-0.8358767012741692,-0.7070719845175566,0.05144910101535939,-1.7733718551526976,-0.3211319905125633,-0.685098954072056,0.05995256896468135
1759681447.894478,0,-1.1976984230941972,-0.8359021788553765,-0.7063918633971871,0.05144910101535939,-1.7742529765544515,-0.32038110368395906,-0.6842504670142945,0.059415489710749815
1759681447.9049711,0,-1.1976880527634228,-0.835910119939053,-0.7058921117476552,0.05144910101535939,-1.7749471255340028,-0.31978946884066634,-0.6835829791883755,0.05900585645510262
1759681447.9157956,0,-1.1976796135270422,-0.8359166136998571,-0.705538709464998,0.05144910101535939,-1.7754928190460406,-0.31932584134117914,-0.6830592009662867,0.05869803844875875
1759681447.9266138,0,-1.19767631206463,-0.8359189109792319,-0.7052774383534185,0.05144910101535939,-1.775920765003285,-0.3189648647496007,-0.6826493832018223,0.05847122597479302
1759681447.9374907,0,-1.1976741862716027,-0.8359203472836968,-0.7051044672776888,0.05144910101535939,-1.7762549559141034,-0.3186865732023172,-0.6823302898929784,0.05830924831670243
1759681447.9484613,0,-1.1976720927361582,-0.835921861454642,-0.7049559011220639,0.05144910101535939,-1.7765142146025357,-0.3184751774018675,-0.6820836977520603,0.058199477444924014
1759681447.959378,0,-1.1976719347862466,-0.8359218136074794,-0.7048546593486984,0.05144910101535939,-1.7767135468437252,-0.31831789530995835,-0.6818950722650413,0.05813168260052107
1759681447.9702551,0,-1.1976723511273133,-0.8359213391284583,-0.7048329774108374,0.05144910101535939,-1.7768647743810415,-0.31820457490171766,-0.6817529670383377,0.05809782933876335
1759681447.9810362,0,-1.1976737274868128,-0.8359200955500858,-0.7048129791183344,0.05144910101535939,-1.7771022021579876,-0.31795558944239966,-0.6815186557409056,0.05841642612735937
1759681447.9918256,0,-1.1976479215361995,-0.8361261142509161,-0.7045917382308895,0.0525942989405386,-1.7775389422677583,-0.31756148399599765,-0.6809636468634135,0.05870952947501601
1759681448.0022573,0,-1.1976526768980411,-0.8361220628470629,-0.7045877406708863,0.0525942989405386,-1.777878671079913,-0.31726187096337355,-0.6805279776451714,0.05896590258847398
1759681448.0129306,0,-1.197651389900702,-0.8361231510668979,-0.7046001190104498,0.0525942989405386,-1.7781418687039272,-0.3170368980553616,-0.6801865438928423,0.059194345619803274
1759681448.0238864,0,-1.1976472692076587,-0.8361266503837033,-0.7046081759434599,0.0525942989405386,-1.7783444693779855,-0.31687118546399345,-0.6799197579651103,0.059401870708984075
1759681448.0339246,0,-1.1976575075137548,-0.8361179843998826,-0.7046458317110247,0.0525942989405386,-1.7784998667740841,-0.31675129749539166,-0.6797113743882041,0.059591444921664474
1759681448.0695467,0,-1.188342125280821,-0.8440104023858662,-0.6919062156686215,0.08467068283329818,-1.7785983383125856,-0.3166985047114915,-0.6795676908803292,0.059823220196750126
1759681448.0811076,0,-1.185340222322538,-0.8464120885324224,-0.6833256733998543,0.08467068283329818,-1.778669769098193,-0.31667134276610737,-0.6794579842063616,0.06003878975031203
1759681448.0919917,0,-1.1842024214750855,-0.8473118603385005,-0.6771762641243542,0.08467068283329818,-1.7787199436278416,-0.31666409392286227,-0.6793751363319054,0.060240548090744056
1759681448.1027658,0,-1.1837659019031799,-0.8476499724988167,-0.6728646306175353,0.08467068283329818,-1.779757969035983,-0.3158023608527255,-0.6781190596035029,0.06196688977421397
1759681448.1131527,0,-1.183289779822002,-0.8481904468353233,-0.669016003402076,0.0862603040462427,-1.7811535432717724,-0.3146838184745204,-0.6765140970648186,0.06388638313345422
1759681448.1232119,0,-1.1832336704171031,-0.8482285052395642,-0.6668864256560757,0.0862603040462427,-1.7822473045985125,-0.31382736637953984,-0.6752491196715384,0.06544692308483047
1759681448.1336565,0,-1.1832018239639879,-0.8482486856129855,-0.6653281323460981,0.0862603040462427,-1.783103443650858,-0.31317515679461905,-0.6742527536791086,0.06672648934431971
1759681448.144533,0,-1.1831785709295652,-0.8482631654289416,-0.6641997631685702,0.0862603040462427,-1.783771987954112,-0.3126827003270641,-0.67346918465123,0.06778639332211037
1759681448.155074,0,-1.1831766432530793,-0.8482620662401719,-0.6634224227309785,0.0862603040462427,-1.7842932383523245,-0.31231425231577675,-0.6728533172891474,0.06867276458786607
1759681448.1657994,0,-1.1831711028945575,-0.8482644787955727,-0.6628682931748338,0.0862603040462427,-1.784697764414241,-0.31204323036246406,-0.6723708119921168,0.06942302920880684
1759681448.1763573,0,-1.1831725008054323,-0.8482621189456185,-0.6625271515579036,0.0862603040462427,-1.7850099873982175,-0.3118484729667694,-0.671994154396355,0.07006560411087025
1759681448.1868048,0,-1.1831753657474118,-0.8482590690865668,-0.6622890658005082,0.0862603040462427,-1.7852489347360037,-0.31171369765888524,-0.6717018280968001,0.07062296325527537
1759681448.19756,0,-1.183169200826273,-0.8482632461443358,-0.6620992953410727,0.0862603040462427,-1.785429003819936,-0.3116269636098842,-0.6714774559977817,0.07111419159583363
1759681448.2079241,0,-1.183175828963103,-0.8482578359162447,-0.6620361435617902,0.0862603040462427,-1.7855624068791907,-0.31157785617955824,-0.6713071532910828,0.07155214167492964
1759681448.2182236,0,-1.1831798479396731,-0.8482546112385071,-0.6620540489678209,0.0862603040462427,-1.7856583596346407,-0.3115587726882603,-0.6711803761619058,0.07194801558907656
1759681448.2287977,0,-1.1829095609915998,-0.8486203183084652,-0.6612285639480568,0.08754982672984908,-1.7861474380324338,-0.31114981266975456,-0.6704720535026234,0.07213020684768519
1759681448.2395606,0,-1.1829033842325112,-0.8486250762244459,-0.6612224508934096,0.08754982672984908,-1.7865271413383044,-0.3108395090396099,-0.6699152657383238,0.07231518519998106
1759681448.2502813,0,-1.1730472184109932,-0.8561389506132764,-0.6483225509372224,0.12312966209424298,-1.7868208617347643,-0.31060715518401105,-0.669477710840926,0.07250304449497345
1759681448.261013,0,-1.1693126213874552,-0.8588334879574319,-0.6379328229059126,0.12312966209424298,-1.7870467310076603,-0.3104366911674176,-0.6691342820050886,0.07269406902899632
1759681448.2714841,0,-1.1678841378168616,-0.8598462466971263,-0.6303353477294834,0.12312966209424298,-1.7872191313314891,-0.3103151885510514,-0.6688651405875392,0.07288750245890274
1759681448.2823617,0,-1.1673164679445944,-0.8602359832094199,-0.6247765824495657,0.12312966209424298,-1.7873486924140742,-0.3102334479623295,-0.6686553187649551,0.07308521866801326
1759681448.2938879,0,-1.167071128673121,-0.8603954034551541,-0.6206488437076764,0.12312966209424298,-1.7874435512942923,-0.31018459438191054,-0.6684932041556506,0.0732897256212694
1759681448.3050525,0,-1.1669859207259763,-0.8604434865381368,-0.6177740554639595,0.12312966209424298,-1.7875109472932704,-0.31016189123566235,-0.6683689006669342,0.0734993175308508
1759681448.3162026,0,-1.1669509677527767,-0.8604587246930132,-0.6156834258225066,0.12312966209424298,-1.787556272844528,-0.31016048870951357,-0.6682748839801312,0.07371393825095464
1759681448.327072,0,-1.1669455134105629,-0.860455813774247,-0.6142622807811444,0.12312966209424298,-1.7875839881612015,-0.3101762062025847,-0.6682050397674585,0.0739325320673149
1759681448.337792,0,-1.1669473548440543,-0.860449802089079,-0.6133067464977129,0.12312966209424298,-1.7886126523199408,-0.3093351722266014,-0.666062722052253,0.07496608364862203
1759681448.3483083,0,-1.1664074460512095,-0.8609888956467484,-0.6111087545572645,0.12488663763367377,-1.7900270934852929,-0.3082165726431777,-0.6633965387094743,0.07590340359221298
1759681448.3592381,0,-1.1663949157218612,-0.8609952039829218,-0.6106147296825359,0.12488663763367377,-1.791133664775763,-0.3073521885095545,-0.6612968474520218,0.0767028004460738
1759681448.370044,0,-1.166394132673647,-0.8609942437510002,-0.6103211518298134,0.12488663763367377,-1.7919990316545877,-0.3066868522732468,-0.6596424105771894,0.07739440034363751
1759681448.3810835,0,-1.1663853504411403,-0.860999279271865,-0.6101297053271145,0.12488663763367377,-1.7926742545284737,-0.3061786066016734,-0.6583400012750339,0.07800327187970518
1759681448.3916724,0,-1.1663978615389368,-0.8609902639672161,-0.610090632599231,0.12488663763367377,-1.7932002838050676,-0.3057934538528594,-0.6573147846558481,0.07854592934364157
1759681448.4023428,0,-1.166399785226829,-0.8609887979838925,-0.6100688587423783,0.12488663763367377,-1.7936081095663117,-0.3055060045049851,-0.6565098130724004,0.07903767892465505
1759681448.413051,0,-1.1663992625535886,-0.8609892015036104,-0.6101293251877876,0.12488663763367377,-1.7939220543186989,-0.30529634844357356,-0.6558802444664296,0.07949039585801798
1759681448.42402,0,-1.1663899270612166,-0.8609957199780018,-0.6101211101688752,0.12488663763367377,-1.7941608733341157,-0.3051493148288889,-0.6553912971040894,0.07991459524465311
1759681448.4343069,0,-1.1664106422538496,-0.860981904604553,-0.6102590985421028,0.12488663763367377,-1.794340599295786,-0.3050513351310669,-0.6550134631561773,0.08031391989055894
1759681448.4508822,0,-1.1526676802751161,-0.8699832222254009,-0.5906733270306056,0.13687348058473287,-1.7949043564089624,-0.3045791045279795,-0.6537104339743643,0.08051817427893523
1759681448.4609137,0,-1.147841612067043,-0.8730044242358256,-0.577054628909386,0.13687348058473287,-1.7953418962263379,-0.3042184415437335,-0.6526843746923776,0.08073359219772208
1759681448.4723172,0,-1.1459293562471047,-0.8741771617514397,-0.566822839254621,0.13687348058473287,-1.7956788065737634,-0.3039482687124054,-0.6518783837591372,0.0809659548872755
1759681448.4834292,0,-1.1451999673259823,-0.8746061339103758,-0.5594980487365913,0.13687348058473287,-1.7959369349408667,-0.3037494606513398,-0.6512451050587198,0.0812114620898861
1759681448.4942088,0,-1.1449273059088518,-0.8747536109265069,-0.5543493334343408,0.13687348058473287,-1.7961332414552083,-0.30360703978092135,-0.6507477292802322,0.08146689165117976
1759681448.5046651,0,-1.144831064616957,-0.874796395849571,-0.5506996927572864,0.13687348058473287,-1.796280893551278,-0.3035092962239398,-0.6503576147504471,0.08172971106218936
1759681448.516145,0,-1.1447492360890523,-0.874832786240377,-0.5478897907292075,0.13687348058473287,-1.796388896047605,-0.30344899537723746,-0.6500539348551276,0.08200514149397227
1759681448.5263095,0,-1.1447686677407325,-0.8748126597576323,-0.5462037855342443,0.13687348058473287,-1.7964664616497936,-0.30341712684720584,-0.6498176330575,0.08228490619265875
1759681448.537129,0,-1.1447478727244604,-0.8748184450616738,-0.5448810185544253,0.13687348058473287,-1.7965190268635234,-0.3034093345153952,-0.6496359295681887,0.08257294678027945
1759681448.5478685,0,-1.144741979971336,-0.8748173843566392,-0.5439964583813278,0.13687348058473287,-1.7965515149662774,-0.3034211867965539,-0.649497940219498,0.08286854674133547
1759681448.5582986,0,-1.144751599785344,-0.8748089020249912,-0.5435169850339188,0.13657925309787503,-1.7965680051841604,-0.30344884543769146,-0.6493948443883114,0.0831698642210846
1759681448.5690215,0,-1.1447429040502015,-0.8748119494489477,-0.5430931573249869,0.13687348058473287,-1.7975949766097263,-0.3026441505137667,-0.6464026965833563,0.08423977245497738
1759681448.5802188,0,-1.143875870578112,-0.8755128922992909,-0.5403453522994403,0.13776228556452713,-1.7989956031609025,-0.3015842188037016,-0.6425930557949021,0.0855743304267028
1759681448.5910861,0,-1.1438803353096039,-0.8755094892044013,-0.5401927515335766,0.1382774754443915,-1.8000875775945486,-0.30076935292595935,-0.6395903406760238,0.08670391934589548
1759681448.6021345,0,-1.143874716477579,-0.875512410635722,-0.5401291108089831,0.1382774754443915,-1.8009374830370128,-0.3001467720026554,-0.6372235119704683,0.08767479571335118
1759681448.6127362,0,-1.1438908726499875,-0.8755032487105082,-0.5402843731273622,0.13787102550561717,-1.8015981948454853,-0.2996742777034692,-0.6353564641062548,0.08851958564181747
1759681448.6239274,0,-1.1438732662883655,-0.8755136841556308,-0.5403026474235031,0.13794040514893235,-1.8021088377019618,-0.29932136412222066,-0.6338873395951824,0.08926961390829083
1759681448.6352007,0,-1.1438633228458723,-0.8755197168351444,-0.5403406100571695,0.1381917186268236,-1.8025008651649026,-0.29906326453300786,-0.6327341148173454,0.08994677138300664
1759681448.6594393,0,-1.1314949775830092,-0.8821047818735961,-0.5220388756099136,0.1177560765821225,-1.8027787161804483,-0.2989055933672582,-0.6318746930839226,0.09064801063956136
1759681448.670912,0,-1.1271425101428942,-0.8844326754218346,-0.509905531485819,0.11713472641095869,-1.8029857854994116,-0.29880442116210515,-0.6312064699367488,0.09129490490856966
1759681448.680925,0,-1.1255208736721336,-0.885282751009768,-0.501456300231474,0.11702018943767761,-1.8033067908646059,-0.29852969801980006,-0.6303455939371289,0.09114892371362003
1759681448.691822,0,-1.123841382064353,-0.8863578305409475,-0.49234486491710727,0.11820660264011144,-1.8038336474596484,-0.29811090535450463,-0.6285306238177868,0.09117990783765756
1759681448.702795,0,-1.123583470877569,-0.8864797816917465,-0.48800827474309816,0.1170130127410806,-1.8042396116198953,-0.29779253139720485,-0.6271008696792718,0.09127534929652376
1759681448.7133937,0,-1.1234947467696321,-0.8865153533952305,-0.48496608519802925,0.11680112115521546,-1.804551145250843,-0.2975537025282546,-0.6259731706322904,0.09142052208179868
1759681448.7239437,0,-1.123460278872408,-0.8865249840199518,-0.48275121119721043,0.11761028048306303,-1.8047883371505578,-0.29737855844937316,-0.6250836595925435,0.09160601376307412
1759681448.734596,0,-1.1234420884442875,-0.8865283879369801,-0.48129972256767306,0.11673209846496038,-1.804966640959036,-0.29725483872509423,-0.6243827476391778,0.09182548472687797
1759681448.7454913,0,-1.1234255191429794,-0.8865323313488198,-0.48015863323853636,0.11734034675754659,-1.805097959794226,-0.2971730844740737,-0.6238318028433049,0.09207497154236259
1759681448.756161,0,-1.1234264129599054,-0.8865289918693112,-0.47950258009031843,0.11697807969149034,-1.8051920872752203,-0.29712509932783143,-0.6233997506725494,0.09234839915336247
1759681448.7669804,0,-1.1234210751323173,-0.8865296680645273,-0.47903431393996065,0.11715416877783537,-1.8052562996211647,-0.2971049555670503,-0.6230627537815584,0.09264346123882344
1759681448.777401,0,-1.1234328085597205,-0.8865227827070303,-0.47886702584105756,0.11679661158663146,-1.80529685798566,-0.29710711976249543,-0.6228012669834138,0.09295475811684133
