timestamp,vehicle_id,x,y,theta,velocity,gps_available,dt,gps_x,gps_y,gps_theta,gps_velocity,control_steering,control_acceleration
1759681444.6287143,0,-1.205,-0.83,-0.7801621756414647,0.0,False,0.01,nan,nan,nan,nan,0.0,0.0
1759681444.6387346,0,-1.205,-0.83,-0.7801621756414647,0.0,False,0.010020256042480469,nan,nan,nan,nan,0.0,0.0
1759681444.6502156,0,-1.205,-0.83,-0.7801621756414647,0.0,False,0.011481046676635742,nan,nan,nan,nan,0.0,0.0
1759681444.6603973,0,-1.205,-0.83,-0.7801621756414647,0.0,False,0.010181665420532227,nan,nan,nan,nan,0.0,0.0
1759681444.6712008,0,-1.205,-0.83,-0.7801621756414647,0.0,False,0.010803461074829102,nan,nan,nan,nan,0.0,0.0
1759681444.6824286,0,-1.205,-0.83,-0.7801621756414647,0.0,False,0.011227846145629883,nan,nan,nan,nan,0.0,0.0
1759681444.692919,0,-1.205,-0.83,-0.7801621756414647,0.0,False,0.01049041748046875,nan,nan,nan,nan,0.0,0.0
1759681444.7035346,0,-1.205,-0.83,-0.7801621756414647,0.0,False,0.01061558723449707,nan,nan,nan,nan,0.0,0.0
1759681444.7142162,0,-1.205,-0.83,-0.7801621756414647,0.0,False,0.010681629180908203,nan,nan,nan,nan,0.0,0.0
1759681444.7255435,0,-1.205,-0.83,-0.7801621756414647,0.0,False,0.011327266693115234,nan,nan,nan,nan,0.0,0.0
1759681444.7366753,0,-1.205,-0.83,-0.7801621756414647,0.0,False,0.011131763458251953,nan,nan,nan,nan,0.0,0.0
1759681444.7468917,0,-1.205,-0.83,-0.7801621756414647,0.0,False,0.010216474533081055,nan,nan,nan,nan,0.0,0.0
1759681444.7569213,0,-1.205,-0.83,-0.7801621756414647,0.0,False,0.01002955436706543,nan,nan,nan,nan,0.0,0.0
1759681444.7683575,0,-1.205,-0.83,-0.7801621756414647,0.0,False,0.011436223983764648,nan,nan,nan,nan,0.0,0.0
1759681444.7795265,0,-1.205,-0.83,-0.7801621756414647,0.0,False,0.011168956756591797,nan,nan,nan,nan,0.0,0.0
1759681444.790853,0,-1.205,-0.83,-0.7801621756414647,0.0,False,0.01132655143737793,nan,nan,nan,nan,0.0,0.0
1759681444.8022397,0,-1.205,-0.83,-0.7801621756414647,0.0,False,0.011386632919311523,nan,nan,nan,nan,0.0,0.0
1759681444.8136327,0,-1.205,-0.83,-0.7801621756414647,0.0,False,0.011393070220947266,nan,nan,nan,nan,0.0,0.0
1759681444.8255126,0,-1.2049999243418377,-0.8299996288021405,-0.7229993336050455,0.0,True,0.011879920959472656,-1.2049999237060547,-0.8299996256828308,-0.7177030444145203,0.0,0.0,0.0
1759681444.835978,0,-1.2049999239185727,-0.829999626725497,-0.7181182037612928,0.0,True,0.010465383529663086,-1.2049999237060547,-0.8299996256828308,-0.7177030444145203,0.0,0.0,0.0
1759681444.847402,0,-1.2049999237857767,-0.8299996260739668,-0.717654628707491,0.0,True,0.011424064636230469,-1.2049999237060547,-0.8299996256828308,-0.7177030444145203,0.0,0.0,0.0
1759681444.858364,0,-1.2049999237364264,-0.8299996258318424,-0.7175953107242865,0.0,True,0.01096200942993164,-1.2049999237060547,-0.8299996256828308,-0.7177030444145203,0.0,0.0,0.0
1759681444.8685236,0,-1.2049999237176512,-0.8299996257397265,-0.7175915139136428,0.0,True,0.010159492492675781,-1.2049999237060547,-0.8299996256828308,-0.7177030444145203,0.0,0.0,0.0
1759681444.8800275,0,-1.2049999237104838,-0.8299996257045619,-0.7175964132593631,0.0,True,0.011503934860229492,-1.2049999237060547,-0.8299996256828308,-0.7177030444145203,0.0,0.0,0.0
1759681444.8913972,0,-1.2049999237077464,-0.8299996256911313,-0.7176075013635703,0.0,True,0.011369705200195312,-1.2049999237060547,-0.8299996256828308,-0.7177030444145203,0.0,0.0,0.0
1759681444.9015138,0,-1.2049999237067008,-0.8299996256860013,-0.7176211953488192,0.0,True,0.0101165771484375,-1.2049999237060547,-0.8299996256828308,-0.7177030444145203,0.0,0.0,0.0
1759681444.9127927,0,-1.2049999237063016,-0.8299996256840418,-0.7176308499934425,0.0,True,0.011278867721557617,-1.2049999237060547,-0.8299996256828308,-0.7177030444145203,0.0,0.0,0.0
1759681444.9231305,0,-1.204999923706149,-0.8299996256832933,-0.7176404312483218,0.0,True,0.01033782958984375,-1.2049999237060547,-0.8299996256828308,-0.7177030444145203,0.0,0.0,0.0
1759681444.934449,0,-1.2049999237060907,-0.8299996256830074,-0.7176471786972183,0.0,True,0.011318445205688477,-1.2049999237060547,-0.8299996256828308,-0.7177030444145203,0.0,0.0,0.0
1759681444.945892,0,-1.2049999237060685,-0.8299996256828983,-0.7176529705395467,0.0,True,0.011443138122558594,-1.2049999237060547,-0.8299996256828308,-0.7177030444145203,0.0,0.0,0.0
1759681444.9571457,0,-1.20499992370606,-0.8299996256828566,-0.7176582257534907,0.0,True,0.011253595352172852,-1.2049999237060547,-0.8299996256828308,-0.7177030444145203,0.0,0.0,0.0
1759681444.9686515,0,-1.2049999237060567,-0.8299996256828407,-0.7176625497939426,0.0,True,0.011505842208862305,-1.2049999237060547,-0.8299996256828308,-0.7177030444145203,0.0,0.0,0.0
1759681444.978732,0,-1.2049999237060554,-0.8299996256828346,-0.7176672419702861,0.0,True,0.010080575942993164,-1.2049999237060547,-0.8299996256828308,-0.7177030444145203,0.0,0.0,0.0
1759681444.9899924,0,-1.204999923706055,-0.8299996256828323,-0.7176702418616792,0.0,True,0.011260271072387695,-1.2049999237060547,-0.8299996256828308,-0.7177030444145203,0.0,0.0,0.0
1759681445.0012164,0,-1.2049999237060547,-0.8299996256828314,-0.7176728619970092,0.0,True,0.011224031448364258,-1.2049999237060547,-0.8299996256828308,-0.7177030444145203,0.0,0.0,0.0
1759681445.012703,0,-1.2049999237060547,-0.829999625682831,-0.717675055346426,0.0,True,0.011486530303955078,-1.2049999237060547,-0.8299996256828308,-0.7177030444145203,0.0,0.0,0.0
1759681445.0236037,0,-1.2049999237060547,-0.8299996256828309,-0.717677336825119,0.0,True,0.010900735855102539,-1.2049999237060547,-0.8299996256828308,-0.7177030444145203,0.0,0.0,0.0
1759681445.03516,0,-1.2049999237060547,-0.8299996256828308,-0.7176790157784225,0.0,True,0.011556386947631836,-1.2049999237060547,-0.8299996256828308,-0.7177030444145203,0.0,0.0,0.0
1759681445.0465183,0,-1.2049999237060547,-0.8299996256828308,-0.7176806399228468,0.0,True,0.011358261108398438,-1.2049999237060547,-0.8299996256828308,-0.7177030444145203,0.0,0.0,0.0
1759681445.0579648,0,-1.2049999237060547,-0.8299996256828308,-0.7176820805748534,0.0,True,0.011446475982666016,-1.2049999237060547,-0.8299996256828308,-0.7177030444145203,0.0,0.0,0.0
1759681445.0680614,0,-1.2049999237060547,-0.8299996256828308,-0.7176838955640363,0.0,True,0.010096549987792969,-1.2049999237060547,-0.8299996256828308,-0.7177030444145203,0.0,0.0,0.0
1759681445.0787323,0,-1.2049999237060547,-0.8299996256828308,-0.7176851893895062,0.0,True,0.010670900344848633,-1.2049999237060547,-0.8299996256828308,-0.7177030444145203,0.0,0.0,0.0
1759681445.0890245,0,-1.2049999237060547,-0.8299996256828308,-0.7176864188304286,0.0,True,0.010292291641235352,-1.2049999237060547,-0.8299996256828308,-0.7177030444145203,0.0,0.0,0.0
1759681445.1000044,0,-1.2049999237060547,-0.8299996256828308,-0.7176872474093834,0.0,True,0.010979890823364258,-1.2049999237060547,-0.8299996256828308,-0.7177030444145203,0.0,0.0,0.0
1759681445.111455,0,-1.2049999237060547,-0.8299996256828308,-0.7176878711610755,0.0,True,0.011450529098510742,-1.2049999237060547,-0.8299996256828308,-0.7177030444145203,0.0,0.0,0.0
1759681445.1221085,0,-1.2049999237060547,-0.8299996256828308,-0.7176887395038776,0.0,True,0.010653495788574219,-1.2049999237060547,-0.8299996256828308,-0.7177030444145203,0.0,0.0,0.0
1759681445.1336627,0,-1.2049999237060547,-0.8299996256828308,-0.717689282193609,0.0,True,0.011554241180419922,-1.2049999237060547,-0.8299996256828308,-0.7177030444145203,0.0,0.0,0.0
1759681445.1448557,0,-1.2049999237060547,-0.8299996256828308,-0.7176899265057486,0.0,True,0.011193037033081055,-1.2049999237060547,-0.8299996256828308,-0.7177030444145203,0.0,0.0,0.0
1759681445.1558642,0,-1.2049999237060547,-0.8299996256828308,-0.7176905931716746,0.0,True,0.011008501052856445,-1.2049999237060547,-0.8299996256828308,-0.7177030444145203,0.0,0.0,0.0
1759681445.1673145,0,-1.2049999237060547,-0.8299996256828308,-0.7176911044697984,0.0,True,0.01145029067993164,-1.2049999237060547,-0.8299996256828308,-0.7177030444145203,0.0,0.0,0.0
1759681445.1787832,0,-1.2049999237060547,-0.8299996256828308,-0.7176916007090846,0.0,True,0.011468648910522461,-1.2049999237060547,-0.8299996256828308,-0.7177030444145203,0.0,0.0,0.0
1759681445.1900895,0,-1.2049999237060547,-0.8299996256828308,-0.7176921246405676,0.0,True,0.011306285858154297,-1.2049999237060547,-0.8299996256828308,-0.7177030444145203,0.0,0.0,0.0
1759681445.201329,0,-1.2049999237060547,-0.8299996256828308,-0.7176926366155918,0.0,True,0.01123952865600586,-1.2049999237060547,-0.8299996256828308,-0.7177030444145203,0.0,0.0,0.0
1759681445.2117321,0,-1.2049999237060547,-0.8299996256828308,-0.7176932800210736,0.0,True,0.010403156280517578,-1.2049999237060547,-0.8299996256828308,-0.7177030444145203,0.0,0.0,0.0
1759681445.2278292,0,-1.2049999237060547,-0.8299996256828308,-0.7176927727430193,0.0,True,0.016097068786621094,-1.2049999237060547,-0.8299996256828308,-0.7177030444145203,0.0,0.0,0.0
1759681445.2390637,0,-1.2049999237060547,-0.8299996256828308,-0.7176934272588511,0.0,True,0.011234521865844727,-1.2049999237060547,-0.8299996256828308,-0.7177030444145203,0.0,0.0,0.0
1759681445.2492955,0,-1.2049999237060547,-0.8299996256828308,-0.7176942207437556,0.0,True,0.010231733322143555,-1.2049999237060547,-0.8299996256828308,-0.7177030444145203,0.0,0.0,0.0
1759681445.2604103,0,-1.2049999237060547,-0.8299996256828308,-0.7176947190037701,0.0,True,0.011114835739135742,-1.2049999237060547,-0.8299996256828308,-0.7177030444145203,0.0,0.0,0.0
1759681445.2704294,0,-1.2049999237060547,-0.8299996256828308,-0.7176953106814707,0.0,True,0.010019063949584961,-1.2049999237060547,-0.8299996256828308,-0.7177030444145203,0.0,0.0,0.0
1759681445.2816799,0,-1.2049999237060547,-0.8299996256828308,-0.7176956125904645,0.0,True,0.011250495910644531,-1.2049999237060547,-0.8299996256828308,-0.7177030444145203,0.0,0.0,0.0
1759681445.2931712,0,-1.2049999237060547,-0.8299996256828308,-0.7176958530780198,0.0,True,0.01149129867553711,-1.2049999237060547,-0.8299996256828308,-0.7177030444145203,0.0,0.0,0.0
1759681445.303263,0,-1.2049999237060547,-0.8299996256828308,-0.7176962929538018,0.0,True,0.010091781616210938,-1.2049999237060547,-0.8299996256828308,-0.7177030444145203,0.0,0.0,0.0
1759681445.3137233,0,-1.2049999237060547,-0.8299996256828308,-0.7176966228899531,0.0,True,0.010460376739501953,-1.2049999237060547,-0.8299996256828308,-0.7177030444145203,0.0,0.0,0.0
1759681445.3257024,0,-1.2049999237060547,-0.8299996256828308,-0.7176967113863721,0.0,True,0.011979103088378906,-1.2049999237060547,-0.8299996256828308,-0.7177030444145203,0.0,0.0,0.0
1759681445.3370173,0,-1.2049999237060547,-0.8299996256828308,-0.7176969166115725,0.0,True,0.011314868927001953,-1.2049999237060547,-0.8299996256828308,-0.7177030444145203,0.0,0.0,0.0
1759681445.3482587,0,-1.2049999237060547,-0.8299996256828308,-0.7176971407640753,0.0,True,0.011241436004638672,-1.2049999237060547,-0.8299996256828308,-0.7177030444145203,0.0,0.0,0.0
1759681445.3594387,0,-1.2049999237060547,-0.8299996256828308,-0.7176973675143667,0.0,True,0.011179924011230469,-1.2049999237060547,-0.8299996256828308,-0.7177030444145203,0.0,0.0,0.0
1759681445.3704557,0,-1.2049999237060547,-0.8299996256828308,-0.7176976029097286,0.0,True,0.011017084121704102,-1.2049999237060547,-0.8299996256828308,-0.7177030444145203,0.0,0.0,0.0
1759681445.3817556,0,-1.2049999237060547,-0.8299996256828308,-0.7176977925835146,0.0,True,0.011299848556518555,-1.2049999237060547,-0.8299996256828308,-0.7177030444145203,0.0,0.0,0.0
1759681445.3919046,0,-1.2049999237060547,-0.8299996256828308,-0.7176980956774397,0.0,True,0.010149002075195312,-1.2049999237060547,-0.8299996256828308,-0.7177030444145203,0.0,0.0,0.0
1759681445.4021657,0,-1.2049999237060547,-0.8299996256828308,-0.7176983466685947,0.0,True,0.010261058807373047,-1.2049999237060547,-0.8299996256828308,-0.7177030444145203,0.0,0.0,0.0
1759681445.4132137,0,-1.2049999237060547,-0.8299996256828308,-0.71769848561018,0.0,True,0.011048078536987305,-1.2049999237060547,-0.8299996256828308,-0.7177030444145203,0.0,0.0,0.0
1759681445.4294376,0,-1.2049999237060547,-0.8299996256828308,-0.7176981491231231,0.0,True,0.016223907470703125,-1.2049999237060547,-0.8299996256828308,-0.7177030444145203,0.0,0.0,0.0
1759681445.4395385,0,-1.2049999237060547,-0.8299996256828308,-0.7176985084503134,0.0,True,0.010100841522216797,-1.2049999237060547,-0.8299996256828308,-0.7177030444145203,0.0,0.0,0.0
1759681445.4500744,0,-1.2049999237060547,-0.8299996256828308,-0.7176988002804947,0.0,True,0.010535955429077148,-1.2049999237060547,-0.8299996256828308,-0.7177030444145203,0.0,0.0,0.0
1759681445.4612682,0,-1.2049999237060547,-0.8299996256828308,-0.7176989856409399,0.0,True,0.01119375228881836,-1.2049999237060547,-0.8299996256828308,-0.7177030444145203,0.0,0.0,0.0
1759681445.4718504,0,-1.2049999237060547,-0.8299996256828308,-0.7176991977810179,0.0,True,0.010582208633422852,-1.2049999237060547,-0.8299996256828308,-0.7177030444145203,0.0,0.0,0.0
1759681445.4820735,0,-1.2049999237060547,-0.8299996256828308,-0.7176994102898817,0.0,True,0.010223150253295898,-1.2049999237060547,-0.8299996256828308,-0.7177030444145203,0.0,0.0,0.0
1759681445.4925106,0,-1.2049999237060547,-0.8299996256828308,-0.7176995750185462,0.0,True,0.01043701171875,-1.2049999237060547,-0.8299996256828308,-0.7177030444145203,0.0,0.0,0.0
1759681445.5032873,0,-1.2049999237060547,-0.8299996256828308,-0.7176996945516372,0.0,True,0.010776758193969727,-1.2049999237060547,-0.8299996256828308,-0.7177030444145203,0.0,0.0,0.0
1759681445.5148518,0,-1.2049999237060547,-0.8299996256828308,-0.7176997529991365,0.0,True,0.011564493179321289,-1.2049999237060547,-0.8299996256828308,-0.7177030444145203,0.0,0.0,0.0
1759681445.526283,0,-1.2049999237060547,-0.8299996256828308,-0.7176998335606797,0.0,True,0.011431217193603516,-1.2049999237060547,-0.8299996256828308,-0.7177030444145203,0.0,0.0,0.0
1759681445.5366747,0,-1.2049999237060547,-0.8299996256828308,-0.7176999903242773,0.0,True,0.010391712188720703,-1.2049999237060547,-0.8299996256828308,-0.7177030444145203,0.0,0.0,0.0
1759681445.5468056,0,-1.2049999237060547,-0.8299996256828308,-0.7177001477033365,0.0,True,0.010130882263183594,-1.2049999237060547,-0.8299996256828308,-0.7177030444145203,0.0,0.0,0.0
1759681445.5570285,0,-1.2049999237060547,-0.8299996256828308,-0.7177002773038019,0.0,True,0.010222911834716797,-1.2049999237060547,-0.8299996256828308,-0.7177030444145203,0.0,0.0,0.0
1759681445.5675356,0,-1.2049999237060547,-0.8299996256828308,-0.717700373996621,0.0,True,0.01050710678100586,-1.2049999237060547,-0.8299996256828308,-0.7177030444145203,0.0,0.0,0.0
1759681445.57823,0,-1.2049999237060547,-0.8299996256828308,-0.7177004533597948,0.0,True,0.010694265365600586,-1.2049999237060547,-0.8299996256828308,-0.7177030444145203,0.0,0.0,0.0
1759681445.5897949,0,-1.2049999237060547,-0.8299996256828308,-0.7177004847096349,0.0,True,0.011564970016479492,-1.2049999237060547,-0.8299996256828308,-0.7177030444145203,0.0,0.0,0.0
1759681445.6000443,0,-1.2049999237060547,-0.8299996256828308,-0.7177005991658945,0.0,True,0.01024937629699707,-1.2049999237060547,-0.8299996256828308,-0.7177030444145203,0.0,0.0,0.0
1759681445.6102393,0,-1.2049999237060547,-0.8299996256828308,-0.717700708142516,0.0,True,0.010195016860961914,-1.2049999237060547,-0.8299996256828308,-0.7177030444145203,0.0,0.0,0.0
1759681445.6202931,0,-1.2049999237060547,-0.8299996256828308,-0.7177008113359093,0.0,True,0.010053873062133789,-1.2049999237060547,-0.8299996256828308,-0.7177030444145203,0.0,0.0,0.0
1759681445.642949,0,-1.2049999237060547,-0.8299996256828308,-0.7177003217733162,0.0,True,0.022655963897705078,-1.2049999237060547,-0.8299996256828308,-0.7177030444145203,0.0,0.0,0.0
1759681445.654245,0,-1.2049999237060547,-0.8299996256828308,-0.7177005171328759,0.0,True,0.011295795440673828,-1.2049999237060547,-0.8299996256828308,-0.7177030444145203,0.0,0.0,0.0
1759681445.6649973,0,-1.2049999237060547,-0.8299996256828308,-0.7177007374228594,0.0,True,0.010752439498901367,-1.2049999237060547,-0.8299996256828308,-0.7177030444145203,0.0,0.0,0.0
1759681445.6762676,0,-1.2049999237060547,-0.8299996256828308,-0.7177008921102281,0.0,True,0.011270284652709961,-1.2049999237060547,-0.8299996256828308,-0.7177030444145203,0.0,0.0,0.0
1759681445.6873956,0,-1.2049999237060547,-0.8299996256828308,-0.7177010227003926,0.0,True,0.011127948760986328,-1.2049999237060547,-0.8299996256828308,-0.7177030444145203,0.0,0.0,0.0
1759681445.6986105,0,-1.2049999237060547,-0.8299996256828308,-0.7177011286140083,0.0,True,0.011214971542358398,-1.2049999237060547,-0.8299996256828308,-0.7177030444145203,0.0,0.0,0.0
1759681445.7097316,0,-1.2049999237060547,-0.8299996256828308,-0.7177012231310762,0.0,True,0.011121034622192383,-1.2049999237060547,-0.8299996256828308,-0.7177030444145203,0.0,0.0,0.0
1759681445.721168,0,-1.2049999237060547,-0.8299996256828308,-0.7177012950545869,0.0,True,0.01143646240234375,-1.2049999237060547,-0.8299996256828308,-0.7177030444145203,0.0,0.0,0.0
1759681445.731319,0,-1.2049999237060547,-0.8299996256828308,-0.7177014044513204,0.0,True,0.010150909423828125,-1.2049999237060547,-0.8299996256828308,-0.7177030444145203,0.0,0.0,0.0
1759681445.7425704,0,-1.2049999237060547,-0.8299996256828308,-0.7177014612050634,0.0,True,0.011251449584960938,-1.2049999237060547,-0.8299996256828308,-0.7177030444145203,0.0,0.0,0.0
1759681445.7538295,0,-1.2049999237060547,-0.8299996256828308,-0.7177015130340294,0.0,True,0.011259078979492188,-1.2049999237060547,-0.8299996256828308,-0.7177030444145203,0.0,0.0,0.0
1759681445.7650788,0,-1.2049999237060547,-0.8299996256828308,-0.7177015641814037,0.0,True,0.011249303817749023,-1.2049999237060547,-0.8299996256828308,-0.7177030444145203,0.0,0.0,0.0
1759681445.776167,0,-1.2049999237060547,-0.8299996256828308,-0.7177016189847105,0.0,True,0.011088132858276367,-1.2049999237060547,-0.8299996256828308,-0.7177030444145203,0.0,0.0,0.0
1759681445.7873518,0,-1.2049999237060547,-0.8299996256828308,-0.7177016683674999,0.0,True,0.011184930801391602,-1.2049999237060547,-0.8299996256828308,-0.7177030444145203,0.0,0.0,0.0
1759681445.7982118,0,-1.2049999237060547,-0.8299996256828308,-0.7177017246866271,0.0,True,0.010859966278076172,-1.2049999237060547,-0.8299996256828308,-0.7177030444145203,0.0,0.0,0.0
1759681445.8086123,0,-1.2049999237060547,-0.8299996256828308,-0.7177017887632005,0.0,True,0.010400533676147461,-1.2049999237060547,-0.8299996256828308,-0.7177030444145203,0.0,0.0,0.0
1759681445.819799,0,-1.2049999237060547,-0.8299996256828308,-0.7177018249524956,0.0,True,0.011186599731445312,-1.2049999237060547,-0.8299996256828308,-0.7177030444145203,0.0,0.0,0.0
1759681445.8333795,0,-1.2049999237060547,-0.8299996256828308,-0.7177018020377908,0.0,True,0.013580560684204102,-1.2049999237060547,-0.8299996256828308,-0.7177030444145203,0.0,0.0,0.0
1759681445.843711,0,-1.2049999237060547,-0.8299996256828308,-0.7177018747763384,0.0,True,0.010331392288208008,-1.2049999237060547,-0.8299996256828308,-0.7177030444145203,0.0,0.0,0.0
1759681445.854084,0,-1.2049999237060547,-0.8299996256828308,-0.7177019402014668,0.0,True,0.010373115539550781,-1.2049999237060547,-0.8299996256828308,-0.7177030444145203,0.0,0.0,0.0
1759681445.8651536,0,-1.2049999237060547,-0.8299996256828308,-0.7177019798127766,0.0,True,0.011069536209106445,-1.2049999237060547,-0.8299996256828308,-0.7177030444145203,0.0,0.0,0.0
1759681445.8753114,0,-1.2049999237060547,-0.8299996256828308,-0.7177020355869068,0.0,True,0.01015782356262207,-1.2049999237060547,-0.8299996256828308,-0.7177030444145203,0.0,0.0,0.0
1759681445.885955,0,-1.2049999237060547,-0.8299996256828308,-0.7177020740207407,0.0,True,0.010643720626831055,-1.2049999237060547,-0.8299996256828308,-0.7177030444145203,0.0,0.0,0.0
1759681445.8968945,0,-1.2049999237060547,-0.8299996256828308,-0.7177021027410788,0.0,True,0.010939359664916992,-1.2049999237060547,-0.8299996256828308,-0.7177030444145203,0.0,0.0,0.0
1759681445.9079938,0,-1.2049999237060547,-0.8299996256828308,-0.7177021279911067,0.0,True,0.01109933853149414,-1.2049999237060547,-0.8299996256828308,-0.7177030444145203,0.0,0.0,0.0
1759681445.918092,0,-1.2049999237060547,-0.8299996256828308,-0.7177021729039854,0.0,True,0.01009821891784668,-1.2049999237060547,-0.8299996256828308,-0.7177030444145203,0.0,0.0,0.0
1759681445.9282715,0,-1.2049999237060547,-0.8299996256828308,-0.7177022113230045,0.0,True,0.010179519653320312,-1.2049999237060547,-0.8299996256828308,-0.7177030444145203,0.0,0.0,0.0
1759681445.9391644,0,-1.2049999237060547,-0.8299996256828308,-0.7177022323873263,0.0,True,0.010892868041992188,-1.2049999237060547,-0.8299996256828308,-0.7177030444145203,0.0,0.0,0.0
1759681445.9505692,0,-1.2049999237060547,-0.8299996256828308,-0.717702245019245,0.0,True,0.011404752731323242,-1.2049999237060547,-0.8299996256828308,-0.7177030444145203,0.0,0.0,0.0
1759681445.9610426,0,-1.2049999237060547,-0.8299996256828308,-0.7177022765731778,0.0,True,0.010473489761352539,-1.2049999237060547,-0.8299996256828308,-0.7177030444145203,0.0,0.0,0.0
1759681445.971109,0,-1.2049999237060547,-0.8299996256828308,-0.7177023130116034,0.0,True,0.01006627082824707,-1.2049999237060547,-0.8299996256828308,-0.7177030444145203,0.0,0.0,0.0
1759681445.9822795,0,-1.2049999237060547,-0.8299996256828308,-0.7177023279715637,0.0,True,0.011170625686645508,-1.2049999237060547,-0.8299996256828308,-0.7177030444145203,0.0,0.0,0.0
1759681445.993441,0,-1.2049999237060547,-0.8299996256828308,-0.7177023443017134,0.0,True,0.011161565780639648,-1.2049999237060547,-0.8299996256828308,-0.7177030444145203,0.0,0.0,0.0
1759681446.0045998,0,-1.2049999237060547,-0.8299996256828308,-0.7177023626581569,0.0,True,0.01115870475769043,-1.2049999237060547,-0.8299996256828308,-0.7177030444145203,0.0,0.0,0.0
1759681446.015298,0,-1.2049999237060547,-0.8299996256828308,-0.717702388616992,0.0,True,0.010698080062866211,-1.2049999237060547,-0.8299996256828308,-0.7177030444145203,0.0,0.0,0.0
1759681446.0330696,0,-1.2049999237060547,-0.8299996256828308,-0.7177023206185957,0.0,True,0.01777172088623047,-1.2049999237060547,-0.8299996256828308,-0.7177030444145203,0.0,0.0,0.0
1759681446.0443459,0,-1.2049999237060547,-0.8299996256828308,-0.7177023629949186,0.0,True,0.0112762451171875,-1.2049999237060547,-0.8299996256828308,-0.7177030444145203,0.0,0.0,0.0
1759681446.0555556,0,-1.2049999237060547,-0.8299996256828308,-0.7177024061573078,0.0,True,0.011209726333618164,-1.2049999237060547,-0.8299996256828308,-0.7177030444145203,0.0,0.0,0.0
1759681446.0666325,0,-1.2049999237060547,-0.8299996256828308,-0.7177024440207909,0.0,True,0.011076927185058594,-1.2049999237060547,-0.8299996256828308,-0.7177030444145203,0.0,0.0,0.0
1759681446.0780365,0,-1.2049999237060547,-0.8299996256828308,-0.7177024722430385,0.0,True,0.011404037475585938,-1.2049999237060547,-0.8299996256828308,-0.7177030444145203,0.0,0.0,0.0
1759681446.0889404,0,-1.2049999237060547,-0.8299996256828308,-0.7177025024682404,0.0,True,0.01090383529663086,-1.2049999237060547,-0.8299996256828308,-0.7177030444145203,0.0,0.0,0.0
1759681446.09993,0,-1.2049999237060547,-0.8299996256828308,-0.717702527860471,0.0,True,0.010989665985107422,-1.2049999237060547,-0.8299996256828308,-0.7177030444145203,0.0,0.0,0.0
1759681446.1112578,0,-1.2049999237060547,-0.8299996256828308,-0.7177025468166889,0.0,True,0.011327743530273438,-1.2049999237060547,-0.8299996256828308,-0.7177030444145203,0.0,0.0,0.0
1759681446.1213186,0,-1.2049999237060547,-0.8299996256828308,-0.7177025768609404,0.0,True,0.010060787200927734,-1.2049999237060547,-0.8299996256828308,-0.7177030444145203,0.0,0.0,0.0
1759681446.1316054,0,-1.2049999237060547,-0.8299996256828308,-0.7177026002863407,0.0,True,0.010286808013916016,-1.2049999237060547,-0.8299996256828308,-0.7177030444145203,0.0,0.0,0.0
1759681446.1430273,0,-1.2049999237060547,-0.8299996256828308,-0.7177026097780157,0.0,True,0.011421918869018555,-1.2049999237060547,-0.8299996256828308,-0.7177030444145203,0.0,0.0,0.0
1759681446.154342,0,-1.2049999237060547,-0.8299996256828308,-0.7177026208723625,0.0,True,0.011314630508422852,-1.2049999237060547,-0.8299996256828308,-0.7177030444145203,0.0,0.0,0.0
1759681446.1656501,0,-1.2049999237060547,-0.8299996256828308,-0.717702632933932,0.0,True,0.01130819320678711,-1.2049999237060547,-0.8299996256828308,-0.7177030444145203,0.0,0.0,0.0
1759681446.176469,0,-1.2049999237060547,-0.8299996256828308,-0.7177026494607475,0.0,True,0.010818958282470703,-1.2049999237060547,-0.8299996256828308,-0.7177030444145203,0.0,0.0,0.0
1759681446.1878757,0,-1.2049999237060547,-0.8299996256828308,-0.7177026602823453,0.0,True,0.011406660079956055,-1.2049999237060547,-0.8299996256828308,-0.7177030444145203,0.0,0.0,0.0
1759681446.1980278,0,-1.2049999237060547,-0.8299996256828308,-0.7177026809119429,0.0,True,0.010152101516723633,-1.2049999237060547,-0.8299996256828308,-0.7177030444145203,0.0,0.0,0.0
1759681446.2092319,0,-1.2049999237060547,-0.8299996256828308,-0.7177026912040603,0.0,True,0.011204004287719727,-1.2049999237060547,-0.8299996256828308,-0.7177030444145203,0.0,0.0,0.0
1759681446.2206018,0,-1.2049999237060547,-0.8299996256828308,-0.7177027000584122,0.0,True,0.011369943618774414,-1.2049999237060547,-0.8299996256828308,-0.7177030444145203,0.0,0.0,0.0
1759681446.238353,0,-1.2049999237060547,-0.8299996256828308,-0.7177026666061153,0.0,True,0.017751216888427734,-1.2049999237060547,-0.8299996256828308,-0.7177030444145203,0.0,0.0,0.0
1759681446.248392,0,-1.2049999237060547,-0.8299996256828308,-0.7177026976892904,0.0,True,0.010039091110229492,-1.2049999237060547,-0.8299996256828308,-0.7177030444145203,0.0,0.0,0.0
1759681446.259734,0,-1.2049999237060547,-0.8299996256828308,-0.7177027177014139,0.0,True,0.01134181022644043,-1.2049999237060547,-0.8299996256828308,-0.7177030444145203,0.0,0.0,0.0
1759681446.2711673,0,-1.2049999237060547,-0.8299996256828308,-0.7177027337061386,0.0,True,0.01143336296081543,-1.2049999237060547,-0.8299996256828308,-0.7177030444145203,0.0,0.0,0.0
1759681446.2826443,0,-1.2049999237060547,-0.8299996256828308,-0.7177027474916056,0.0,True,0.011476993560791016,-1.2049999237060547,-0.8299996256828308,-0.7177030444145203,0.0,0.0,0.0
1759681446.2939503,0,-1.2049999237060547,-0.8299996256828308,-0.7177027609087538,0.0,True,0.011306047439575195,-1.2049999237060547,-0.8299996256828308,-0.7177030444145203,0.0,0.0,0.0
1759681446.3054163,0,-1.2049999237060547,-0.8299996256828308,-0.7177027721713269,0.0,True,0.011466026306152344,-1.2049999237060547,-0.8299996256828308,-0.7177030444145203,0.0,0.0,0.0
1759681446.3167136,0,-1.2049999237060547,-0.8299996256828308,-0.7177027835016858,0.0,True,0.011297225952148438,-1.2049999237060547,-0.8299996256828308,-0.7177030444145203,0.0,0.0,0.0
1759681446.3281412,0,-1.2049999237060547,-0.8299996256828308,-0.717702793314329,0.0,True,0.011427640914916992,-1.2049999237060547,-0.8299996256828308,-0.7177030444145203,0.0,0.0,0.0
1759681446.339651,0,-1.2049999237060547,-0.8299996256828308,-0.7177028021770653,0.0,True,0.011509895324707031,-1.2049999237060547,-0.8299996256828308,-0.7177030444145203,0.0,0.0,0.0
1759681446.351097,0,-1.2049999237060547,-0.8299996256828308,-0.7177028110366468,0.0,True,0.011445999145507812,-1.2049999237060547,-0.8299996256828308,-0.7177030444145203,0.0,0.0,0.0
1759681446.362477,0,-1.2049999237060547,-0.8299996256828308,-0.7177028198387756,0.0,True,0.01137995719909668,-1.2049999237060547,-0.8299996256828308,-0.7177030444145203,0.0,0.0,0.0
1759681446.373688,0,-1.2049999237060547,-0.8299996256828308,-0.7177028289248994,0.0,True,0.011210918426513672,-1.2049999237060547,-0.8299996256828308,-0.7177030444145203,0.0,0.0,0.0
1759681446.3840134,0,-1.2049999237060547,-0.8299996256828308,-0.7177028410603299,0.0,True,0.010325431823730469,-1.2049999237060547,-0.8299996256828308,-0.7177030444145203,0.0,0.0,0.0
1759681446.3950276,0,-1.2049999237060547,-0.8299996256828308,-0.7177028486786128,0.0,True,0.011014223098754883,-1.2049999237060547,-0.8299996256828308,-0.7177030444145203,0.0,0.0,0.0
1759681446.406398,0,-1.2049999237060547,-0.8299996256828308,-0.7177028541922041,0.0,True,0.011370420455932617,-1.2049999237060547,-0.8299996256828308,-0.7177030444145203,0.0,0.0,0.0
1759681446.4166362,0,-1.2049999237060547,-0.8299996256828308,-0.7177028640656165,0.0,True,0.010238170623779297,-1.2049999237060547,-0.8299996256828308,-0.7177030444145203,0.0,0.0,0.0
1759681446.4457326,0,-1.2049999237060547,-0.8299996256828308,-0.7177028072088234,0.0,True,0.029096364974975586,-1.2049999237060547,-0.8299996256828308,-0.7177030444145203,0.0,0.0,0.0
1759681446.4570682,0,-1.2049999237060547,-0.8299996256828308,-0.7177028307521329,0.0,True,0.011335611343383789,-1.2049999237060547,-0.8299996256828308,-0.7177030444145203,0.0,0.0,0.0
1759681446.4683228,0,-1.2049999237060547,-0.8299996256828308,-0.7177028534613363,0.0,True,0.011254549026489258,-1.2049999237060547,-0.8299996256828308,-0.7177030444145203,0.0,0.0,0.0
1759681446.4783804,0,-1.2049999237060547,-0.8299996256828308,-0.7177028743882552,0.0,True,0.010057687759399414,-1.2049999237060547,-0.8299996256828308,-0.7177030444145203,0.0,0.0,0.0
1759681446.4896452,0,-1.2049999237060547,-0.8299996256828308,-0.7177028866882544,0.0,True,0.011264801025390625,-1.2049999237060547,-0.8299996256828308,-0.7177030444145203,0.0,0.0,0.0
1759681446.5009253,0,-1.2049999237060547,-0.8299996256828308,-0.7177028962108647,0.0,True,0.011280059814453125,-1.2049999237060547,-0.8299996256828308,-0.7177030444145203,0.0,0.0,0.0
1759681446.510944,0,-1.2049999237060547,-0.8299996256828308,-0.717702907499163,0.0,True,0.010018587112426758,-1.2049999237060547,-0.8299996256828308,-0.7177030444145203,0.0,0.0,0.0
1759681446.5220418,0,-1.2049999237060547,-0.8299996256828308,-0.7177029137622633,0.0,True,0.011097908020019531,-1.2049999237060547,-0.8299996256828308,-0.7177030444145203,0.0,0.0,0.0
1759681446.5334249,0,-1.2049999237060547,-0.8299996256828308,-0.7177029183355508,0.0,True,0.011383056640625,-1.2049999237060547,-0.8299996256828308,-0.7177030444145203,0.0,0.0,0.0
1759681446.544918,0,-1.2049999237060547,-0.8299996256828308,-0.717702922369508,0.0,True,0.011493206024169922,-1.2049999237060547,-0.8299996256828308,-0.7177030444145203,0.0,0.0,0.0
1759681446.555166,0,-1.2049999237060547,-0.8299996256828308,-0.717702929286876,0.0,True,0.010247945785522461,-1.2049999237060547,-0.8299996256828308,-0.7177030444145203,0.0,0.0,0.0
1759681446.5666833,0,-1.2049999237060547,-0.8299996256828308,-0.7177029323343671,0.0,True,0.01151728630065918,-1.2049999237060547,-0.8299996256828308,-0.7177030444145203,0.0,0.0,0.0
1759681446.5782375,0,-1.2049999237060547,-0.8299996256828308,-0.7177029352530724,0.0,True,0.011554241180419922,-1.2049999237060547,-0.8299996256828308,-0.7177030444145203,0.0,0.0,0.0
1759681446.5897622,0,-1.2049999237060547,-0.8299996256828308,-0.7177029384199898,0.0,True,0.011524677276611328,-1.2049999237060547,-0.8299996256828308,-0.7177030444145203,0.0,0.0,0.0
1759681446.6011987,0,-1.2049999237060547,-0.8299996256828308,-0.7177029418689873,0.0,True,0.01143646240234375,-1.2049999237060547,-0.8299996256828308,-0.7177030444145203,0.0,0.0,0.0
1759681446.6119606,0,-1.2049999237060547,-0.8299996256828308,-0.7177029466344429,0.0,True,0.01076197624206543,-1.2049999237060547,-0.8299996256828308,-0.7177030444145203,0.0,0.0,0.0
1759681446.6403127,0,-1.2049999237060547,-0.8299996256828308,-0.7177029186570394,0.0,True,0.028352022171020508,-1.2049999237060547,-0.8299996256828308,-0.7177030444145203,0.0,0,0
1759681446.6451662,0,-1.2049999237060547,-0.8299996256828308,-0.7177029422823882,0.0,True,0.004853487014770508,-1.2049999237060547,-0.8299996256828308,-0.7177030444145203,0.0,0,0
1759681446.6553798,0,-1.2049999237060547,-0.8299996256828308,-0.7177029526440748,0.0,True,0.010213613510131836,-1.2049999237060547,-0.8299996256828308,-0.7177030444145203,0.0,0,0
1759681446.6662166,0,-1.2049999237060547,-0.8299996256828308,-0.717702958844594,0.0,True,0.01083683967590332,-1.2049999237060547,-0.8299996256828308,-0.7177030444145203,0.0,0,0
1759681446.6768353,0,-1.2049999237060547,-0.8299996256828308,-0.7177029640483497,0.0,True,0.01061868667602539,-1.2049999237060547,-0.8299996256828308,-0.7177030444145203,0.0,0,0
1759681446.687172,0,-1.2049999237060547,-0.8299996256828308,-0.717702968763092,0.0,True,0.010336637496948242,-1.2049999237060547,-0.8299996256828308,-0.7177030444145203,0.0,0,0
1759681446.6973486,0,-1.2049999237060547,-0.8299996256828308,-0.7177029729090876,0.0,True,0.010176658630371094,-1.2049999237060547,-0.8299996256828308,-0.7177030444145203,0.0,0,0
1759681446.708594,0,-1.2049999237060547,-0.8299996256828308,-0.7177029748082688,0.0,True,0.011245489120483398,-1.2049999237060547,-0.8299996256828308,-0.7177030444145203,0.0,0,0
1759681446.7200086,0,-1.2049999237060547,-0.8299996256828308,-0.7177029764209308,0.0,True,0.011414527893066406,-1.2049999237060547,-0.8299996256828308,-0.7177030444145203,0.0,0,0
1759681446.730346,0,-1.2049999237060547,-0.8299996256828308,-0.7177029796488252,0.0,True,0.010337352752685547,-1.2049999237060547,-0.8299996256828308,-0.7177030444145203,0.0,0,0
1759681446.7406912,0,-1.2049999237060547,-0.8299996256828308,-0.7177029825359362,0.0,True,0.010345220565795898,-1.2049999237060547,-0.8299996256828308,-0.7177030444145203,0.0,0,0
1759681446.7518396,0,-1.2049999237060547,-0.8299996256828308,-0.7177029840304741,0.0,True,0.011148452758789062,-1.2049999237060547,-0.8299996256828308,-0.7177030444145203,0.0,0,0
1759681446.7626774,0,-1.2049999237060547,-0.8299996256828308,-0.717702985943367,0.0,True,0.010837793350219727,-1.2049999237060547,-0.8299996256828308,-0.7177030444145203,0.0,0,0
1759681446.772957,0,-1.2049999237060547,-0.8299996256828308,-0.7177029885019124,0.0,True,0.010279655456542969,-1.2049999237060547,-0.8299996256828308,-0.7177030444145203,0.0,0,0
1759681446.7832425,0,-1.2049999237060547,-0.8299996256828308,-0.7177029907943542,0.0,True,0.010285377502441406,-1.2049999237060547,-0.8299996256828308,-0.7177030444145203,0.0,0,0
1759681446.7932837,0,-1.2049999237060547,-0.8299996256828308,-0.7177029931127166,0.0,True,0.010041236877441406,-1.2049999237060547,-0.8299996256828308,-0.7177030444145203,0.0,0,0
1759681446.8039627,0,-1.2049999237060547,-0.8299996256828308,-0.7177029944571309,0.0,True,0.010679006576538086,-1.2049999237060547,-0.8299996256828308,-0.7177030444145203,0.0,0,0
1759681446.8145902,0,-1.2049999237060547,-0.8299996256828308,-0.7177029958393941,0.0,True,0.010627508163452148,-1.2049999237060547,-0.8299996256828308,-0.7177030444145203,0.0,0,0
1759681446.8253856,0,-1.2049999237060547,-0.8299996256828308,-0.7177029970656559,0.0,True,0.010795354843139648,-1.2049999237060547,-0.8299996256828308,-0.7177030444145203,0.0,0,0
1759681446.8481839,0,-1.2049999237060547,-0.8299996256828308,-0.7177029868020384,0.0,True,0.02279829978942871,-1.2049999237060547,-0.8299996256828308,-0.7177030444145203,0.0,0,0
1759681446.8506813,0,-1.2049999237060547,-0.8299996256828308,-0.7177029991102017,0.0,True,0.002497434616088867,-1.2049999237060547,-0.8299996256828308,-0.7177030444145203,0.0,0,0
1759681446.8607726,0,-1.2049999237060547,-0.8299996256828308,-0.7177030021180357,0.0,True,0.010091304779052734,-1.2049999237060547,-0.8299996256828308,-0.7177030444145203,0.0,0,0
1759681446.8711917,0,-1.2049999237060547,-0.8299996256828308,-0.7177030037570375,0.0,True,0.010419130325317383,-1.2049999237060547,-0.8299996256828308,-0.7177030444145203,0.0,0,0
1759681446.8821945,0,-1.2049999237060547,-0.8299996256828308,-0.7177030046767534,0.0,True,0.011002779006958008,-1.2049999237060547,-0.8299996256828308,-0.7177030444145203,0.0,0,0
1759681446.8923213,0,-1.2049999237060547,-0.8299996256828308,-0.7177030063747498,0.0,True,0.010126829147338867,-1.2049999237060547,-0.8299996256828308,-0.7177030444145203,0.0,0,0
1759681446.9024873,0,-1.2049999237060547,-0.8299996256828308,-0.7177030078948565,0.0,True,0.010165929794311523,-1.2049999237060547,-0.8299996256828308,-0.7177030444145203,0.0,0,0
1759681446.9138498,0,-1.2049999237060547,-0.8299996256828308,-0.7177030083231415,0.0,True,0.011362552642822266,-1.2049999237060547,-0.8299996256828308,-0.7177030444145203,0.0,0,0
1759681446.9244945,0,-1.2049999237060547,-0.8299996256828308,-0.7177030094534871,0.0,True,0.010644674301147461,-1.2049999237060547,-0.8299996256828308,-0.7177030444145203,0.0,0,0
1759681446.9347212,0,-1.2049999237060547,-0.8299996256828308,-0.7177030109038647,0.0,True,0.010226726531982422,-1.2049999237060547,-0.8299996256828308,-0.7177030444145203,0.0,0,0
1759681446.9450507,0,-1.2049999237060547,-0.8299996256828308,-0.7177030121512331,0.0,True,0.010329484939575195,-1.2049999237060547,-0.8299996256828308,-0.7177030444145203,0.0,0,0
1759681446.9552572,0,-1.2049999237060547,-0.8299996256828308,-0.7177030133766316,0.0,True,0.010206460952758789,-1.2049999237060547,-0.8299996256828308,-0.7177030444145203,0.0,0,0
1759681446.9662237,0,-1.2049999237060547,-0.8299996256828308,-0.7177030139933134,0.0,True,0.01096653938293457,-1.2049999237060547,-0.8299996256828308,-0.7177030444145203,0.0,0,0
1759681446.976439,0,-1.2049999237060547,-0.8299996256828308,-0.7177030151582571,0.0,True,0.010215282440185547,-1.2049999237060547,-0.8299996256828308,-0.7177030444145203,0.0,0,0
1759681446.9866433,0,-1.2049999237060547,-0.8299996256828308,-0.7177030162628526,0.0,True,0.010204315185546875,-1.2049999237060547,-0.8299996256828308,-0.7177030444145203,0.0,0,0
1759681446.996729,0,-1.2049999237060547,-0.8299996256828308,-0.7177030173457801,0.0,True,0.010085582733154297,-1.2049999237060547,-0.8299996256828308,-0.7177030444145203,0.0,0,0
1759681447.00825,0,-1.2049999237060547,-0.8299996256828308,-0.7177030174924859,0.0,True,0.011521100997924805,-1.2049999237060547,-0.8299996256828308,-0.7177030444145203,0.0,0,0
1759681447.0189302,0,-1.2049999237060547,-0.8299996256828308,-0.7177030182884252,0.0,True,0.010680198669433594,-1.2049999237060547,-0.8299996256828308,-0.7177030444145203,0.0,0,0
1759681447.0291696,0,-1.2049999237060547,-0.8299996256828308,-0.7177030193625971,0.0,True,0.010239362716674805,-1.2049999237060547,-0.8299996256828308,-0.7177030444145203,0.0,0,0
1759681447.0404494,0,-1.2049999237060547,-0.8299996256828308,-0.7177030197991208,0.0,True,0.011279821395874023,-1.2049999237060547,-0.8299996256828308,-0.7177030444145203,0.0,0,0
1759681447.0506716,0,-1.2049999237060547,-0.8299996256828308,-0.7177030208509692,0.0,True,0.010222196578979492,-1.2049999237060547,-0.8299996256828308,-0.7177030444145203,0.0,0,0
1759681447.0610201,0,-1.2049999237060547,-0.8299996256828308,-0.7177030217643381,0.0,True,0.01034855842590332,-1.2049999237060547,-0.8299996256828308,-0.7177030444145203,0.0,0,0
1759681447.0719104,0,-1.2049999237060547,-0.8299996256828308,-0.7177030223368845,0.0,True,0.01089024543762207,-1.2049999237060547,-0.8299996256828308,-0.7177030444145203,0.0,0,0
1759681447.0821354,0,-1.2049999237060547,-0.8299996256828308,-0.7177030232341011,0.0,True,0.010225057601928711,-1.2049999237060547,-0.8299996256828308,-0.7177030444145203,0.0,0,0
1759681447.0923223,0,-1.2049999237060547,-0.8299996256828308,-0.7177030240818265,0.0,True,0.010186910629272461,-1.2049999237060547,-0.8299996256828308,-0.7177030444145203,0.0,0,0
1759681447.1030447,0,-1.2049999237060547,-0.8299996256828308,-0.7177030246160641,0.0,True,0.01072239875793457,-1.2049999237060547,-0.8299996256828308,-0.7177030444145203,0.0,0,0
1759681447.1131341,0,-1.2049999237060547,-0.8299996256828308,-0.7177030254209988,0.0,True,0.010089397430419922,-1.2049999237060547,-0.8299996256828308,-0.7177030444145203,0.0,0,0
1759681447.1245215,0,-1.2049999237060547,-0.8299996256828308,-0.7177030256355437,0.0,True,0.011387348175048828,-1.2049999237060547,-0.8299996256828308,-0.7177030444145203,0.0,0,0
1759681447.1352777,0,-1.2049999237060547,-0.8299996256828308,-0.7177030261888628,0.0,True,0.010756254196166992,-1.2049999237060547,-0.8299996256828308,-0.7177030444145203,0.0,0,0
1759681447.1463926,0,-1.2049999237060547,-0.8299996256828308,-0.7177030266308009,0.0,True,0.011114835739135742,-1.2049999237060547,-0.8299996256828308,-0.7177030444145203,0.0,0,0
1759681447.156963,0,-1.2049999237060547,-0.8299996256828308,-0.7177030273068024,0.0,True,0.010570526123046875,-1.2049999237060547,-0.8299996256828308,-0.7177030444145203,0.0,0,0
1759681447.167478,0,-1.2049999237060547,-0.8299996256828308,-0.7177030279693106,0.0,True,0.010514974594116211,-1.2049999237060547,-0.8299996256828308,-0.7177030444145203,0.0,0,0
1759681447.1775594,0,-1.2049999237060547,-0.8299996256828308,-0.7177030287296304,0.0,True,0.010081291198730469,-1.2049999237060547,-0.8299996256828308,-0.7177030444145203,0.0,0,0
1759681447.1879432,0,-1.2049999237060547,-0.8299996256828308,-0.7177030293016067,0.0,True,0.010383844375610352,-1.2049999237060547,-0.8299996256828308,-0.7177030444145203,0.0,0,0
1759681447.1994233,0,-1.2049999237060547,-0.8299996256828308,-0.7177030294754019,0.0,True,0.011480093002319336,-1.2049999237060547,-0.8299996256828308,-0.7177030444145203,0.0,0,0
1759681447.2097135,0,-1.2049999237060547,-0.8299996256828308,-0.7177030300945368,0.0,True,0.010290145874023438,-1.2049999237060547,-0.8299996256828308,-0.7177030444145203,0.0,0,0
1759681447.2199845,0,-1.2049999237060547,-0.8299996256828308,-0.7177030306851968,0.0,True,0.010271072387695312,-1.2049999237060547,-0.8299996256828308,-0.7177030444145203,0.0,0,0
1759681447.2307906,0,-1.2049999237060547,-0.8299996256828308,-0.7177030310629924,0.0,True,0.010806083679199219,-1.2049999237060547,-0.8299996256828308,-0.7177030444145203,0.0,0,0
1759681447.2521243,0,-1.2049999237060547,-0.8299996256828308,-0.7177030285918278,0.0,True,0.021333694458007812,-1.2049999237060547,-0.8299996256828308,-0.7177030444145203,0.0,0,0
1759681447.262402,0,-1.2049999237060547,-0.8299996256828308,-0.7177030299503464,0.0,True,0.010277748107910156,-1.2049999237060547,-0.8299996256828308,-0.7177030444145203,0.0,0,0
1759681447.2725918,0,-1.2049999237060547,-0.8299996256828308,-0.7177030312498687,0.0,True,0.01018977165222168,-1.2049999237060547,-0.8299996256828308,-0.7177030444145203,0.0,0,0
1759681447.2840397,0,-1.2049999237060547,-0.8299996256828308,-0.7177030319633744,0.0,True,0.011447906494140625,-1.2049999237060547,-0.8299996256828308,-0.7177030444145203,0.0,0,0
1759681447.2945077,0,-1.2049999237060547,-0.8299996256828308,-0.7177030327787772,0.0,True,0.010468006134033203,-1.2049999237060547,-0.8299996256828308,-0.7177030444145203,0.0,0,0
1759681447.304929,0,-1.2049999237060547,-0.8299996256828308,-0.7177030334675756,0.0,True,0.010421276092529297,-1.2049999237060547,-0.8299996256828308,-0.7177030444145203,0.0,0,0
1759681447.3151917,0,-1.2049999237060547,-0.8299996256828308,-0.7177030340727004,0.0,True,0.010262727737426758,-1.2049999237060547,-0.8299996256828308,-0.7177030444145203,0.0,0,0
1759681447.325456,0,-1.2049999237060547,-0.8299996256828308,-0.7177030345802677,0.0,True,0.010264158248901367,-1.2049999237060547,-0.8299996256828308,-0.7177030444145203,0.0,0,0
1759681447.3365536,0,-1.2049999237060547,-0.8299996256828308,-0.7177030348457851,0.0,True,0.01109766960144043,-1.2049999237060547,-0.8299996256828308,-0.7177030444145203,0.0,0,0
1759681447.3478436,0,-1.2049999237060547,-0.8299996256828308,-0.7177030350719136,0.0,True,0.01129007339477539,-1.2049999237060547,-0.8299996256828308,-0.7177030444145203,0.0,0,0
1759681447.358131,0,-1.2049999237060547,-0.8299996256828308,-0.7177030355090324,0.0,True,0.010287284851074219,-1.2049999237060547,-0.8299996256828308,-0.7177030444145203,0.0,0,0
1759681447.3687127,0,-1.2049999237060547,-0.8299996256828308,-0.7177030358501622,0.0,True,0.010581731796264648,-1.2049999237060547,-0.8299996256828308,-0.7177030444145203,0.0,0,0
1759681447.378844,0,-1.2049999237060547,-0.8299996256828308,-0.7177030362403123,0.0,True,0.010131359100341797,-1.2049999237060547,-0.8299996256828308,-0.7177030444145203,0.0,0,0
1759681447.389382,0,-1.2049999237060547,-0.8299996256828308,-0.7177030365156369,0.0,True,0.010537862777709961,-1.2049999237060547,-0.8299996256828308,-0.7177030444145203,0.0,0,0
1759681447.3996646,0,-1.2049999237060547,-0.8299996256828308,-0.7177030368147967,0.0,True,0.010282754898071289,-1.2049999237060547,-0.8299996256828308,-0.7177030444145203,0.0,0,0
1759681447.4104378,0,-1.2049999237060547,-0.8299996256828308,-0.7177030370121766,0.0,True,0.010773181915283203,-1.2049999237060547,-0.8299996256828308,-0.7177030444145203,0.0,0,0
1759681447.42073,0,-1.2049999237060547,-0.8299996256828308,-0.7177030372877429,0.0,True,0.010292291641235352,-1.2049999237060547,-0.8299996256828308,-0.7177030444145203,0.0,0,0
1759681447.431001,0,-1.2049999237060547,-0.8299996256828308,-0.7177030375502369,0.0,True,0.010270833969116211,-1.2049999237060547,-0.8299996256828308,-0.7177030444145203,0.0,0,0
1759681447.4417813,0,-1.2049999237060547,-0.8299996256828308,-0.7177030377180635,0.0,True,0.01078033447265625,-1.2049999237060547,-0.8299996256828308,-0.7177030444145203,0.0,0,0
1759681447.4519434,0,-1.2049999237060547,-0.8299996256828308,-0.7177030379797049,0.0,True,0.010162115097045898,-1.2049999237060547,-0.8299996256828308,-0.7177030444145203,0.0,0,0
1759681447.462085,0,-1.2049999237060547,-0.8299996256828308,-0.7177030382261851,0.0,True,0.010141611099243164,-1.2049999237060547,-0.8299996256828308,-0.7177030444145203,0.0,0,0
1759681447.4723134,0,-1.2049999237060547,-0.8299996256828308,-0.717703038439204,0.0,True,0.010228395462036133,-1.2049999237060547,-0.8299996256828308,-0.7177030444145203,0.0,0,0
1759681447.4825954,0,-1.2049999237060547,-0.8299996256828308,-0.7177030386311305,0.0,True,0.010282039642333984,-1.2049999237060547,-0.8299996256828308,-0.7177030444145203,0.0,0,0
1759681447.4928079,0,-1.2049999237060547,-0.8299996256828308,-0.7177030388233732,0.0,True,0.010212421417236328,-1.2049999237060547,-0.8299996256828308,-0.7177030444145203,0.0,0,0
1759681447.5037212,0,-1.2049999237060547,-0.8299996256828308,-0.7177030389213517,0.0,True,0.010913372039794922,-1.2049999237060547,-0.8299996256828308,-0.7177030444145203,0.0,0,0
1759681447.5143166,0,-1.2049999237060547,-0.8299996256828308,-0.7177030390738359,0.0,True,0.010595321655273438,-1.2049999237060547,-0.8299996256828308,-0.7177030444145203,0.0,0,0
1759681447.5247335,0,-1.2049999237060547,-0.8299996256828308,-0.7177030392526529,0.0,True,0.010416984558105469,-1.2049999237060547,-0.8299996256828308,-0.7177030444145203,0.0,0,0
1759681447.5351822,0,-1.2049999237060547,-0.8299996256828308,-0.7177030394219965,0.0,True,0.010448694229125977,-1.2049999237060547,-0.8299996256828308,-0.7177030444145203,0.0,0,0
1759681447.546749,0,-1.2049999237060547,-0.8299996256828308,-0.7177030394665724,0.0,True,0.011566877365112305,-1.2049999237060547,-0.8299996256828308,-0.7177030444145203,0.0,0,0
1759681447.5579786,0,-1.2049999237060547,-0.8299996256828308,-0.7177030395766195,0.0,True,0.011229515075683594,-1.2049999237060547,-0.8299996256828308,-0.7177030444145203,0.0,0,0
1759681447.569103,0,-1.2049999237060547,-0.8299996256828308,-0.717703039716131,0.0,True,0.011124372482299805,-1.2049999237060547,-0.8299996256828308,-0.7177030444145203,0.0,0,0
1759681447.5805573,0,-1.2049999237060547,-0.8299996256828308,-0.7177030398307238,0.0,True,0.011454343795776367,-1.2049999237060547,-0.8299996256828308,-0.7177030444145203,0.0,0,0
1759681447.591843,0,-1.2049999237060547,-0.8299996256828308,-0.7177030399721858,0.0,True,0.011285543441772461,-1.2049999237060547,-0.8299996256828308,-0.7177030444145203,0.0,0,0
1759681447.6026893,0,-1.2049999237060547,-0.8299996256828308,-0.7177030401559676,0.0,True,0.010846376419067383,-1.2049999237060547,-0.8299996256828308,-0.7177030444145203,0.0,0,0
1759681447.6135628,0,-1.2049999237060547,-0.8299996256828308,-0.7177030403250413,0.0,True,0.010873556137084961,-1.2049999237060547,-0.8299996256828308,-0.7177030444145203,0.0,0,0
1759681447.6241584,0,-1.2049999237060547,-0.8299996256828308,-0.7177030405041549,0.0,True,0.010595560073852539,-1.2049999237060547,-0.8299996256828308,-0.7177030444145203,0.0,0,0
1759681447.6357977,0,-1.2049999237060547,-0.8299996256828308,-0.7177030405833769,0.0,True,0.01163935661315918,-1.2049999237060547,-0.8299996256828308,-0.7177030444145203,0.0,0.5235987755982988,0.030776290003038824
1759681447.6484745,0,-1.2049999237060547,-0.8299996256828308,-0.7177030405950937,0.0,True,0.012676715850830078,-1.2049999237060547,-0.8299996256828308,-0.7177030444145203,0.0,0.5235987755982988,0.03031500696268482
1759681447.65888,0,-1.2049999237060547,-0.8299996256828308,-0.7177030408104521,0.0,True,0.010405540466308594,-1.2049999237060547,-0.8299996256828308,-0.7177030444145203,0.0,0.5235987755982988,0.032049591759119166
1759681447.6690474,0,-1.2049999237060547,-0.8299996256828308,-0.7177030410214158,0.0,True,0.010167360305786133,-1.2049999237060547,-0.8299996256828308,-0.7177030444145203,0.0,0.5235987755982988,0.031765640761645335
1759681447.679988,0,-1.2049999237060547,-0.8299996256828308,-0.7177030411450893,0.0,True,0.0109405517578125,-1.2049999237060547,-0.8299996256828308,-0.7177030444145203,0.0,0.5235987755982988,0.03041682396956289
1759681447.6914124,0,-1.2049999237060547,-0.8299996256828308,-0.717703041225942,0.0,True,0.011424541473388672,-1.2049999237060547,-0.8299996256828308,-0.7177030444145203,0.0,0.5235987755982988,0.03284179863021995
1759681447.7017477,0,-1.2049999237060547,-0.8299996256828308,-0.7177030413817,0.0,True,0.010335206985473633,-1.2049999237060547,-0.8299996256828308,-0.7177030444145203,0.0,0.5235987755982988,0.03155062765559412
1759681447.7120395,0,-1.2049999237060547,-0.8299996256828308,-0.7177030415242989,0.0,True,0.010291814804077148,-1.2049999237060547,-0.8299996256828308,-0.7177030444145203,0.0,0.5235987755982988,0.034626021099853826
1759681447.7223215,0,-1.2049999237060547,-0.8299996256828308,-0.7177030416492016,0.0,True,0.010282039642333984,-1.2049999237060547,-0.8299996256828308,-0.7177030444145203,0.0,0.5235987755982988,0.031168662211684642
1759681447.7330828,0,-1.2049999237060547,-0.8299996256828308,-0.7177030417319781,0.0,True,0.010761260986328125,-1.2049999237060547,-0.8299996256828308,-0.7177030444145203,0.0,0.5235987755982988,0.032639324806949026
1759681447.7439127,0,-1.2049999237060547,-0.8299996256828308,-0.7177030418085408,0.0,True,0.010829925537109375,-1.2049999237060547,-0.8299996256828308,-0.7177030444145203,0.0,0.5235987755982988,0.03315047452476692
1759681447.7547038,0,-1.2049999237060547,-0.8299996256828308,-0.7177030418882815,0.0,True,0.01079106330871582,-1.2049999237060547,-0.8299996256828308,-0.7177030444145203,0.0,0.5235987755982988,0.029400863427391236
1759681447.7654893,0,-1.2049999237060547,-0.8299996256828308,-0.7177030419681358,0.0,True,0.010785579681396484,-1.2049999237060547,-0.8299996256828308,-0.7177030444145203,0.0,0.5235987755982988,0.030718362515112386
1759681447.776504,0,-1.2049999237060547,-0.8299996256828308,-0.7177030420353105,0.0,True,0.011014699935913086,-1.2049999237060547,-0.8299996256828308,-0.7177030444145203,0.0,0.5235987755982988,0.030934407814217035
1759681447.7870095,0,-1.2049999237060547,-0.8299996256828308,-0.7177030421293136,0.0,True,0.010505437850952148,-1.2049999237060547,-0.8299996256828308,-0.7177030444145203,0.0,0.5235987755982988,0.0316290059357941
1759681447.797449,0,-1.2049999237060547,-0.8299996256828308,-0.7177030422203217,0.0,True,0.010439634323120117,-1.2049999237060547,-0.8299996256828308,-0.7177030444145203,0.0,0.5235987755982988,0.029194637228527227
1759681447.8083565,0,-1.2049999237060547,-0.8299996256828308,-0.717703042282082,0.0,True,0.010907411575317383,-1.2049999237060547,-0.8299996256828308,-0.7177030444145203,0.0,0.5235987755982988,0.031236368318996822
1759681447.8187437,0,-1.2049999237060547,-0.8299996256828308,-0.7177030423668214,0.0,True,0.010387182235717773,-1.2049999237060547,-0.8299996256828308,-0.7177030444145203,0.0,0.5235987755982988,0.029889629999813185
1759681447.8293998,0,-1.2049999237060547,-0.8299996256828308,-0.7177030424341133,0.0,True,0.010656118392944336,-1.2049999237060547,-0.8299996256828308,-0.7177030444145203,0.0,0.5235987755982988,0.02824127504409372
1759681447.8429866,0,-1.2004931254334241,-0.8338862567236418,-0.7141194761716161,0.049029746439048574,True,0.013586759567260742,-1.198017954826355,-0.8360176086425781,-0.7051008939743042,0.049029746439048574,0.5235987755982988,0.02917775556809005
1759681447.8510637,0,-1.198849065054135,-0.8353025614557013,-0.7114513683086727,0.049029746439048574,True,0.008077144622802734,-1.198017954826355,-0.8360176086425781,-0.7051008939743042,0.049029746439048574,0.5235987755982988,0.02985628604032402
1759681447.8618176,0,-1.198182864963798,-0.8358759757424753,-0.7094027580489488,0.049029746439048574,True,0.010753870010375977,-1.198017954826355,-0.8360176086425781,-0.7051008939743042,0.049029746439048574,0.5235987755982988,0.02917554285114876
1759681447.8730767,0,-1.1979209584305994,-0.8361008590391399,-0.7079113133381867,0.049029746439048574,True,0.011259078979492188,-1.198017954826355,-0.8360176086425781,-0.7051008939743042,0.049029746439048574,0.5235987755982988,0.027415589579597985
1759681447.8838415,0,-1.197827750384011,-0.8361805040515529,-0.7068480123568026,0.049029746439048574,True,0.010764837265014648,-1.198017954826355,-0.8360176086425781,-0.7051008939743042,0.049029746439048574,0.5235987755982988,0.028464668569734973
1759681447.894478,0,-1.1977938384769553,-0.8362092063145896,-0.7060810518112977,0.049029746439048574,True,0.010636568069458008,-1.198017954826355,-0.8360176086425781,-0.7051008939743042,0.049029746439048574,0.5235987755982988,0.027450331511235368
1759681447.9049711,0,-1.1977828334690748,-0.8362183117461839,-0.7055327629270192,0.049029746439048574,True,0.010493040084838867,-1.198017954826355,-0.8360176086425781,-0.7051008939743042,0.049029746439048574,0.5235987755982988,0.02807949687936203
1759681447.9157956,0,-1.1977738378060188,-0.8362257351053253,-0.7051286960017347,0.049029746439048574,True,0.010824441909790039,-1.198017954826355,-0.8360176086425781,-0.7051008939743042,0.049029746439048574,0.5235987755982988,0.027053701869488293
1759681447.9266138,0,-1.1977704384164929,-0.8362284345580463,-0.704843620451939,0.049029746439048574,True,0.010818243026733398,-1.198017954826355,-0.8360176086425781,-0.7051008939743042,0.049029746439048574,0.5235987755982988,0.02752401354582579
1759681447.9374907,0,-1.197768266988435,-0.8362301346564718,-0.7046415481083237,0.049029746439048574,True,0.010876893997192383,-1.198017954826355,-0.8360176086425781,-0.7051008939743042,0.049029746439048574,0.5235987755982988,0.026634610193397332
1759681447.9484613,0,-1.1977660750283508,-0.8362318904896272,-0.7044992308462632,0.049029746439048574,True,0.010970592498779297,-1.198017954826355,-0.8360176086425781,-0.7051008939743042,0.049029746439048574,0.5235987755982988,0.028682672170471112
1759681447.959378,0,-1.1977659880948315,-0.8362318858037469,-0.7044052902287188,0.049029746439048574,True,0.010916709899902344,-1.198017954826355,-0.8360176086425781,-0.7051008939743042,0.049029746439048574,0.5235987755982988,0.03035219392801175
1759681447.9702551,0,-1.197766507498105,-0.8362313897041024,-0.7043450369891957,0.049029746439048574,True,0.010877132415771484,-1.198017954826355,-0.8360176086425781,-0.7051008939743042,0.049029746439048574,0.5235987755982988,0.027097596157033117
1759681447.9810362,0,-1.1977680691492993,-0.83623002567193,-0.7043107063092506,0.049029746439048574,True,0.010781049728393555,-1.198017954826355,-0.8360176086425781,-0.7051008939743042,0.049029746439048574,0.5235987755982988,0.026007664212279923
1759681447.9918256,0,-1.1977685422592546,-0.8362296007934045,-0.7042914862026208,0.049029746439048574,True,0.01078939437866211,-1.198017954826355,-0.8360176086425781,-0.7051008939743042,0.049029746439048574,0.5235987755982988,0.029702000241072852
1759681448.0022573,0,-1.1977738235930646,-0.8362250979049958,-0.7042940119933228,0.049029746439048574,True,0.010431766510009766,-1.198017954826355,-0.8360176086425781,-0.7051008939743042,0.049029746439048574,0.5235987755982988,0.030329077404573766
1759681448.0129306,0,-1.1977723949918222,-0.8362263078103152,-0.7042925439954413,0.049029746439048574,True,0.010673284530639648,-1.198017954826355,-0.8360176086425781,-0.7051008939743042,0.049029746439048574,0.5235987755982988,0.028959123638866553
1759681448.0238864,0,-1.197767817871423,-0.836230196729768,-0.7042910427335141,0.049029746439048574,True,0.010955810546875,-1.198017954826355,-0.8360176086425781,-0.7051008939743042,0.049029746439048574,0.5235987755982988,0.02801831676442133
1759681448.0339246,0,-1.1977791637856106,-0.8362205512735932,-0.7043225745808659,0.049029746439048574,True,0.010038137435913086,-1.198017954826355,-0.8360176086425781,-0.7051008939743042,0.049029746439048574,0.5235987755982988,0.02709060626959576
1759681448.0695467,0,-1.1875424331047637,-0.8445591931282453,-0.6901662851470629,0.08467017298655923,True,0.03562211990356445,-1.1826368570327759,-0.8485063910484314,-0.6613406538963318,0.08467017298655923,0.5235987755982988,0.026986161467651835
1759681448.0811076,0,-1.1842221495014429,-0.8472365629731488,-0.68066279120597,0.08467017298655923,True,0.011560916900634766,-1.1826368570327759,-0.8485063910484314,-0.6613406538963318,0.08467017298655923,0.5235987755982988,0.02972593364602331
1759681448.0919917,0,-1.182968743660163,-0.8482427784665076,-0.6738276682175375,0.08467017298655923,True,0.01088404655456543,-1.1826368570327759,-0.8485063910484314,-0.6613406538963318,0.08467017298655923,0.5235987755982988,0.029505792237107017
1759681448.1027658,0,-1.182491294692436,-0.8486230734880401,-0.6690140859497085,0.08467017298655923,True,0.01077413558959961,-1.1826368570327759,-0.8485063910484314,-0.6613406538963318,0.08467017298655923,0.5235987755982988,0.027446738814382268
1759681448.1131527,0,-1.1823177309988229,-0.8487592861815785,-0.665648393315923,0.08467017298655923,True,0.010386943817138672,-1.1826368570327759,-0.8485063910484314,-0.6613406538963318,0.08467017298655923,0.5235987755982988,0.02727339888635022
1759681448.1232119,0,-1.1822590914240423,-0.8488039002913861,-0.663292268321511,0.08467017298655923,True,0.010059118270874023,-1.1826368570327759,-0.8485063910484314,-0.6613406538963318,0.08467017298655923,0.5235987755982988,0.02817992398929963
1759681448.1336565,0,-1.1822264090134835,-0.8488280316763354,-0.6615695710599372,0.08467017298655923,True,0.01044464111328125,-1.1826368570327759,-0.8485063910484314,-0.6613406538963318,0.08467017298655923,0.5235987755982988,0.028966501445415186
1759681448.144533,0,-1.1822025604878017,-0.8488453833971178,-0.6603002210185434,0.08467017298655923,True,0.01087641716003418,-1.1826368570327759,-0.8485063910484314,-0.6613406538963318,0.08467017298655923,0.5235987755982988,0.02756191547276629
1759681448.155074,0,-1.1822017510032914,-0.8488450113380704,-0.6594486062547134,0.08467017298655923,True,0.010540962219238281,-1.1826368570327759,-0.8485063910484314,-0.6613406538963318,0.08467017298655923,0.5235987755982988,0.028650630487241174
1759681448.1657994,0,-1.182196552761824,-0.8488483038146308,-0.6588359883197583,0.08467017298655923,True,0.01072549819946289,-1.1826368570327759,-0.8485063910484314,-0.6613406538963318,0.08467017298655923,0.5235987755982988,0.028927971955754354
1759681448.1763573,0,-1.1821987257975854,-0.8488460783654337,-0.6584393075266917,0.08467017298655923,True,0.010557889938354492,-1.1826368570327759,-0.8485063910484314,-0.6613406538963318,0.08467017298655923,0.5235987755982988,0.02734086227275845
1759681448.1868048,0,-1.182202298380721,-0.8488429390059185,-0.6581900554268216,0.08467017298655923,True,0.010447502136230469,-1.1826368570327759,-0.8485063910484314,-0.6613406538963318,0.08467017298655923,0.5235987755982988,0.028716749024016837
1759681448.19756,0,-1.1821957401021062,-0.8488477671135949,-0.6580032981318169,0.08467017298655923,True,0.010755300521850586,-1.1826368570327759,-0.8485063910484314,-0.6613406538963318,0.08467017298655923,0.5235987755982988,0.03088563841714566
1759681448.2079241,0,-1.182203205724246,-0.8488418205304429,-0.6579385943129594,0.08467017298655923,True,0.010364055633544922,-1.1826368570327759,-0.8485063910484314,-0.6613406538963318,0.08467017298655923,0.5235987755982988,0.03137747264820138
