timestamp,observer_vehicle_id,vehicle_0_x,vehicle_0_y,vehicle_0_theta,vehicle_0_velocity,vehicle_1_x,vehicle_1_y,vehicle_1_theta,vehicle_1_velocity,vehicle_2_x,vehicle_2_y,vehicle_2_theta,vehicle_2_velocity
1759839620.68419,0,-1.205,-0.83,-0.7801621756414646,0.0,0.0,0.0,0.0,0.0,0.0,0.0,0.0,0.0
1759839620.6947286,0,-1.205,-0.83,-0.7801621756414646,0.0,0.0,0.0,0.0,0.0,0.0,0.0,0.0,0.0
1759839620.7057838,0,-1.205,-0.83,-0.7801621756414646,0.0,0.0,0.0,0.0,0.0,0.0,0.0,0.0,0.0
1759839620.7171583,0,-1.205,-0.83,-0.7801621756414646,0.0,0.0,0.0,0.0,0.0,0.0,0.0,0.0,0.0
1759839620.7293253,0,-1.205,-0.83,-0.7801621756414646,0.0,0.0,0.0,0.0,0.0,0.0,0.0,0.0,0.0
1759839620.7393796,0,-1.205,-0.83,-0.7801621756414646,0.0,0.0,0.0,0.0,0.0,0.0,0.0,0.0,0.0
1759839620.750506,0,-1.205,-0.83,-0.7801621756414646,0.0,0.0,0.0,0.0,0.0,0.0,0.0,0.0,0.0
1759839620.7619834,0,-1.205,-0.83,-0.7801621756414646,0.0,0.0,0.0,0.0,0.0,0.0,0.0,0.0,0.0
1759839620.7733219,0,-1.205,-0.83,-0.7801621756414646,0.0,0.0,0.0,0.0,0.0,0.0,0.0,0.0,0.0
1759839620.7843268,0,-1.205,-0.83,-0.7801621756414646,0.0,0.0,0.0,0.0,0.0,0.0,0.0,0.0,0.0
1759839620.7952168,0,-1.205,-0.83,-0.7801621756414646,0.0,0.0,0.0,0.0,0.0,0.0,0.0,0.0,0.0
1759839620.805946,0,-1.205,-0.83,-0.7801621756414646,0.0,0.0,0.0,0.0,0.0,0.0,0.0,0.0,0.0
1759839620.8173118,0,-1.205,-0.83,-0.7801621756414646,0.0,0.0,0.0,0.0,0.0,0.0,0.0,0.0,0.0
1759839620.8279064,0,-1.205,-0.83,-0.7801621756414646,0.0,0.0,0.0,0.0,0.0,0.0,0.0,0.0,0.0
1759839620.838682,0,-1.205,-0.83,-0.7801621756414646,0.0,0.0,0.0,0.0,0.0,0.0,0.0,0.0,0.0
1759839620.8491907,0,-1.205,-0.83,-0.7801621756414646,0.0,0.0,0.0,0.0,0.0,0.0,0.0,0.0,0.0
1759839620.8604736,0,-1.205,-0.83,-0.7801621756414646,0.0,0.0,0.0,0.0,0.0,0.0,0.0,0.0,0.0
1759839620.8710184,0,-1.205,-0.83,-0.7801621756414646,0.0,0.0,0.0,0.0,0.0,0.0,0.0,0.0,0.0
1759839620.88248,0,-1.2049998061259588,-0.8299995105862618,-0.7229993013409235,0.0,0.0,0.0,0.0,0.0,0.0,0.0,0.0,0.0
1759839620.8927486,0,-1.2049998050413424,-0.8299995078482668,-0.7181188062499899,0.0,0.0,0.0,0.0,0.0,0.0,0.0,0.0,0.0
1759839620.9030912,0,-1.2049998047010528,-0.8299995069892429,-0.7176594919226211,0.0,0.0,0.0,0.0,0.0,0.0,0.0,0.0,0.0
1759839620.9142814,0,-1.2049998045745929,-0.8299995066700088,-0.7175950795697652,0.0,0.0,0.0,0.0,0.0,0.0,0.0,0.0,0.0
1759839620.9256496,0,-1.2049998045264814,-0.8299995065485567,-0.7175865470804048,0.0,-0.3446534109115601,-0.06952662467956544,1.7423857159666503,0.0,0.0,0.0,0.0,0.0
1759839620.93601,0,-1.2049998045081152,-0.829999506502193,-0.7175962822923694,0.0,-0.6179614185650276,-0.12466080489784419,-3.1394370181105025,0.0,0.0,0.0,0.0,0.0
1759839620.9463072,0,-1.2049998045011003,-0.8299995064844852,-0.7176087070107435,0.0,-0.8352432854537108,-0.16849288179181487,-0.7834154037472076,0.0,0.0,0.0,0.0,0.0
1759839620.9577587,0,-1.204999804498421,-0.8299995064777215,-0.7176187573767194,0.0,-1.0081996449291064,-0.2033832136744595,1.1141718297477896,0.0,0.0,0.0,0.0,0.0
1759839620.9683313,0,-1.2049998044973975,-0.829999506475138,-0.7176298878938567,0.0,-1.1463725037223291,-0.23125670103908658,2.6508676010992143,0.0,0.0,0.0,0.0,0.0
1759839620.9794137,0,-1.2049998044970067,-0.8299995064741511,-0.7176386422393469,0.0,-1.2632772681613762,-0.2548397947299606,-2.4163793405126386,0.0,0.0,0.0,0.0,0.0
1759839620.9901016,0,-1.2049998044968575,-0.8299995064737742,-0.7176465261609977,0.0,-1.3559557440189731,-0.27353574086838073,-0.19768798047228373,0.0,0.0,0.0,0.0,0.0
1759839621.0016227,0,-1.2049998044968004,-0.8299995064736302,-0.7176522806946899,0.0,-1.4295524530062194,-0.28838233922315665,1.586299499386372,0.0,0.0,0.0,0.0,0.0
1759839621.0130286,0,-1.2049998044967787,-0.8299995064735752,-0.7176574664072106,0.0,-1.488162554769294,-0.30020570269121205,3.029156886876717,0.0,0.0,0.0,0.0,0.0
1759839621.0243666,0,-1.2049998044967702,-0.8299995064735542,-0.7176620358748291,0.0,-1.5376316553183056,-0.3101850601506668,-0.2531370586949995,0.0,0.0,0.0,0.0,0.0
1759839621.0347707,0,-1.2049998044967671,-0.8299995064735463,-0.7176665755190506,0.0,-1.5767758832362737,-0.3180815902782108,1.5396808138210176,0.0,0.0,0.0,0.0,0.0
1759839621.045339,0,-1.2049998044967658,-0.8299995064735431,-0.717670131514561,0.0,-1.6078221693522758,-0.3243445298405167,2.981699004736312,0.0,0.0,0.0,0.0,0.0
1759839621.0566275,0,-1.2049998044967654,-0.8299995064735419,-0.7176726409335537,0.0,-1.632489514560847,-0.3293206513523322,-2.134064750183789,0.0,0.0,0.0,0.0,0.0
1759839621.0674121,0,-1.2049998044967651,-0.8299995064735415,-0.7176751487547985,0.0,-1.6521512870044315,-0.3332870031421043,0.022552665294115284,0.0,0.0,0.0,0.0,0.0
1759839621.082689,0,-1.2049998044967651,-0.8299995064735414,-0.7176751702294162,0.0,-1.6687395102038733,-0.33663333058867756,-2.6487485709729373,0.0,0.0,0.0,0.0,0.0
1759839621.0934687,0,-1.2049998044967651,-0.8299995064735413,-0.7176779218679208,0.0,-1.6818635359511709,-0.339280828578046,-0.38131627448728417,0.0,0.0,0.0,0.0,0.0
1759839621.1042113,0,-1.2049998044967651,-0.8299995064735413,-0.7176802970987186,0.0,-1.692273958006345,-0.34138091371885926,1.4377349281895733,0.0,0.0,0.0,0.0,0.0
1759839621.1151183,0,-1.2049998044967651,-0.8299995064735413,-0.7176821460719545,0.0,-1.7005515826364486,-0.34305075154049397,2.9051019957167346,0.0,0.0,0.0,0.0,0.0
1759839621.1264038,0,-1.2049998044967651,-0.8299995064735413,-0.7176835406543045,0.0,-1.7071477694540556,-0.34438139441436283,-2.186822797146358,0.0,0.0,0.0,0.0,0.0
1759839621.1366668,0,-1.2049998044967651,-0.8299995064735413,-0.717685121827289,0.0,-1.7124237483806617,-0.3454457129298165,-0.023575458470728814,0.0,0.0,0.0,0.0,0.0
1759839621.1476948,0,-1.2049998044967651,-0.8299995064735413,-0.7176861821441083,0.0,-1.716898508366708,-0.346348386415518,-0.16115752332762262,0.0,0.0,0.0,0.0,0.0
1759839621.1579416,0,-1.2049998044967651,-0.8299995064735413,-0.7176873641917556,0.0,-1.720449237153464,-0.3470646591856143,-0.2703290989544763,0.0,0.0,0.0,0.0,0.0
1759839621.1691775,0,-1.2049998044967651,-0.8299995064735413,-0.7176880734883557,0.0,-1.7232707602584652,-0.3476338325276752,-0.3570803383590415,0.0,0.0,0.0,0.0,0.0
1759839621.1799242,0,-1.2049998044967651,-0.8299995064735413,-0.7176888841145015,0.0,-1.7255199466782436,-0.34808755092863186,-0.4262343740718288,0.0,0.0,0.0,0.0,0.0
1759839621.1909225,0,-1.2049998044967651,-0.8299995064735413,-0.717689557700183,0.0,-1.7274138367821528,-0.34846959697958474,-0.48446438236732586,0.0,0.0,0.0,0.0,0.0
1759839621.2020895,0,-1.2049998044967651,-0.8299995064735413,-0.7176901441182846,0.0,-1.728912421046962,-0.3487718997368613,-0.5305402206597517,0.0,0.0,0.0,0.0,0.0
1759839621.2135606,0,-1.2049998044967651,-0.8299995064735413,-0.7176906357239918,0.0,-1.730100997897388,-0.3490116660733673,-0.5670844951756236,0.0,0.0,0.0,0.0,0.0
1759839621.223691,0,-1.2049998044967651,-0.8299995064735413,-0.7176914517048694,0.0,-1.7310475757315584,-0.3492026150216288,-0.596188208755576,0.0,0.0,0.0,0.0,0.0
1759839621.2340646,0,-1.2049998044967651,-0.8299995064735413,-0.7176921012899626,0.0,-1.7318030491471939,-0.34935501332311825,-0.6194161791476691,0.0,0.0,0.0,0.0,0.0
1759839621.2441118,0,-1.2049998044967651,-0.8299995064735413,-0.7176927326897768,0.0,-1.732443064128001,-0.34948412070662654,-0.6390942362665656,0.0,0.0,0.0,0.0,0.0
1759839621.2545202,0,-1.2049998044967651,-0.8299995064735413,-0.7176931989551552,0.0,-1.7329496197892928,-0.34958630593352275,-0.6546689205094735,0.0,0.0,0.0,0.0,0.0
1759839621.265087,0,-1.2049998044967651,-0.8299995064735413,-0.7176935866804417,0.0,-1.7333514800131684,-0.34966737141417015,-0.6670246132297721,0.0,0.0,0.0,0.0,0.0
1759839621.2764559,0,-1.2049998044967651,-0.8299995064735413,-0.7176937982134515,0.0,-1.7336708219336463,-0.3497317908434551,-0.6768431780135215,0.0,0.0,0.0,0.0,0.0
1759839621.2866418,0,-1.2049998044967651,-0.8299995064735413,-0.7176942670262765,0.0,-1.733925587008052,-0.3497831834719907,-0.6846762472953296,0.0,0.0,0.0,0.0,0.0
1759839621.297755,0,-1.2049998044967651,-0.8299995064735413,-0.7176945289024168,0.0,-1.73414054382209,-0.3498265457567184,-0.6912853620685498,0.0,0.0,0.0,0.0,0.0
1759839621.3079362,0,-1.2049998044967651,-0.8299995064735413,-0.7176949567632533,0.0,-1.7343107358517236,-0.3498608778400273,-0.6965181278330141,0.0,0.0,0.0,0.0,0.0
1759839621.3191702,0,-1.2049998044967651,-0.8299995064735413,-0.7176951685677082,0.0,-1.734445669025342,-0.3498880973106909,-0.7006668161877033,0.0,0.0,0.0,0.0,0.0
1759839621.3305569,0,-1.2049998044967651,-0.8299995064735413,-0.7176953691435912,0.0,-1.7345529166541553,-0.34990973189919083,-0.7039642780111579,0.0,0.0,0.0,0.0,0.0
1759839621.3417394,0,-1.2049998044967651,-0.8299995064735413,-0.7176956276055222,0.0,-1.734638407051992,-0.3499269774979827,-0.7065927866901661,0.0,0.0,0.0,0.0,0.0
1759839621.3530414,0,-1.2049998044967651,-0.8299995064735413,-0.7176958755887579,0.0,-1.734706725107768,-0.3499407589963728,-0.7086933103405934,0.0,0.0,0.0,0.0,0.0
1759839621.3642793,0,-1.2049998044967651,-0.8299995064735413,-0.7176961368015924,0.0,-1.7347647958069006,-0.34995247334095586,-0.7104787662576173,0.0,0.0,0.0,0.0,0.0
1759839621.375224,0,-1.2049998044967651,-0.8299995064735413,-0.7176964347699304,0.0,-1.7348108449004533,-0.3499617626203631,-0.711894602949536,0.0,0.0,0.0,0.0,0.0
1759839621.3853729,0,-1.2049998044967651,-0.8299995064735413,-0.7176968169338664,0.0,-1.734847486260679,-0.34996915411945106,-0.7130211871718695,0.0,0.0,0.0,0.0,0.0
1759839621.3966002,0,-1.2049998044967651,-0.8299995064735413,-0.7176970104511611,0.0,-1.734876679416685,-0.3499750431253358,-0.7139187670857685,0.0,0.0,0.0,0.0,0.0
1759839621.4079175,0,-1.2049998044967651,-0.8299995064735413,-0.7176971887543857,0.0,-1.734899997768602,-0.3499797470330473,-0.7146357188364295,0.0,0.0,0.0,0.0,0.0
1759839621.419107,0,-1.2049998044967651,-0.8299995064735413,-0.7176973903762319,0.0,-1.7349197694702458,-0.34998373549072925,-0.7152436244104423,0.0,0.0,0.0,0.0,0.0
1759839621.430061,0,-1.2049998044967651,-0.8299995064735413,-0.7176976182637667,0.0,-1.7349354479966015,-0.34998689825031415,-0.7157256802160407,0.0,-0.384164092540741,0.03881042370796204,1.17103396531701,0.0
1759839621.4405751,0,-1.2049998044967651,-0.8299995064735413,-0.717697881184863,0.0,-1.7349479187980648,-0.3499894139297833,-0.7161091105276257,0.0,-0.689352436220984,0.06964227176181223,2.1147419368980493,0.0
1759839621.4518297,0,-1.2049998044967651,-0.8299995064735413,-0.7176980390875158,0.0,-1.7349578552461904,-0.34999141836539394,-0.7164146189917101,0.0,-0.9322206179808107,0.09417818550883063,2.8802552041826344,0.0
1759839621.4630425,0,-1.2049998044967651,-0.8299995064735413,-0.7176982001092931,0.0,-1.734965793740377,-0.34999301976261776,-0.7166586978753755,0.0,-1.1260169547620598,0.11375658466057734,-2.7774620620094876,0.0
1759839621.473423,0,-1.2049998044967651,-0.8299995064735413,-0.717698442994493,0.0,-1.7349721583748512,-0.349994303672102,-0.7168543864834173,0.0,-1.2812016751027333,0.12943422051037873,-1.0795669041536662,0.0
1759839621.4851913,0,-1.2049998044967651,-0.8299995064735413,-0.7176985311439772,0.0,-1.7349772659523146,-0.34999533400105076,-0.7170114253091926,0.0,-1.405585575601286,0.14200018379151455,0.29703719760196745,0.0
1759839621.4958997,0,-1.2049998044967651,-0.8299995064735413,-0.71769872843538,0.0,-1.7349816362135302,-0.349996215594463,-0.7171457944292947,0.0,-1.505670457638461,0.15211132315629583,1.4191855926987362,0.0
1759839621.506459,0,-1.2049998044967651,-0.8299995064735413,-0.7176989266684295,0.0,-1.7349851196882606,-0.3499969183003706,-0.7172528981952578,0.0,-1.5911431802630913,0.16074625974965592,2.319238095145907,0.0
1759839621.5174115,0,-1.2049998044967651,-0.8299995064735413,-0.7176990711613982,0.0,-1.734987902105254,-0.3499974795850102,-0.7173384470685952,0.0,-1.6593880090818995,0.16764073732776116,3.052185562938119,0.0
1759839621.5275784,0,-1.2049998044967651,-0.8299995064735413,-0.7176992713379846,0.0,-1.734990132148329,-0.3499979294417091,-0.7174070125183444,0.0,-1.7140635997695903,0.17316437392544068,-2.6303492140000646,0.0
1759839621.5387845,0,-1.2049998044967651,-0.8299995064735413,-0.717699367083986,0.0,-1.7349919217478798,-0.34999829044968933,-0.7174620359837915,0.0,-1.757923765170566,0.17759537525056487,-0.9655108737116131,0.0
1759839621.5495095,0,-1.2049998044967651,-0.8299995064735413,-0.7176995013802098,0.0,-1.73499336240223,-0.3499985810665019,-0.7175063306947668,0.0,-1.793218397958041,0.1811610381526841,0.3886979391287391,0.0
1759839621.5607378,0,-1.2049998044967651,-0.8299995064735413,-0.7176995948066568,0.0,-1.7349945244003766,-0.34999881547123435,-0.7175420577739561,0.0,-1.8233289743538548,0.18420297843472275,1.4872329507777728,0.0
1759839621.5717182,0,-1.2049998044967651,-0.8299995064735413,-0.71769971007609,0.0,-1.7349955214380766,-0.3499990165992275,-0.717572712938906,0.0,-1.8473785070428577,0.18663259789099637,2.3790099262235342,0.0
1759839621.58199,0,-1.2049998044967651,-0.8299995064735413,-0.7176998722209192,0.0,-1.734996320439837,-0.3499991777783089,-0.717597279242432,0.0,-1.866651217552133,0.18857963582449752,3.107255723283003,0.0
1759839621.5934258,0,-1.2049998044967651,-0.8299995064735413,-0.7176999408807028,0.0,-1.734996961482875,-0.3499993070930779,-0.7176169889084547,0.0,-1.8821138078880673,0.19014175392510219,-2.5763505797490223,0.0
1759839621.6035724,0,-1.2049998044967651,-0.8299995064735413,-0.7177000964749087,0.0,-1.7349974778903943,-0.34999941126567635,-0.7176328665003278,0.0,-1.8945700665771106,0.191400155443944,-0.9267142124169208,0.0
1759839621.6137176,0,-1.2049998044967651,-0.8299995064735413,-0.7177002360685023,0.0,-1.7349978948809368,-0.3499994953833291,-0.7176456873935253,0.0,-1.9046282897365987,0.19241629388621023,0.4192360348381972,0.0
1759839621.624829,0,-1.2049998044967651,-0.8299995064735413,-0.7177003004807183,0.0,-1.7349982320249138,-0.34999956339388827,-0.7176560533046937,0.0,-1.9127605349847738,0.19323785917538486,1.5228496939683762,0.0
1759839621.6356597,0,-1.2049998044967651,-0.8299995064735413,-0.7177003842937602,0.0,-1.7349985221647606,-0.34999962192251277,-0.7176649740153781,0.0,-1.9193545234211946,0.19390402108408994,2.432895929831437,0.0
1759839621.6457596,0,-1.2049998044967651,-0.8299995064735413,-0.7177005094336764,0.0,-1.734998755245773,-0.3499996689409116,-0.7176721403811862,0.0,-1.9250518630129583,0.19447959846848864,-3.126736807524595,0.0
1759839621.6564026,0,-1.2049998044967651,-0.8299995064735413,-0.7177005924114592,0.0,-1.7349989428218606,-0.3499997067798038,-0.7176779076414427,0.0,-1.929636898311865,0.1949428045986859,-1.375316493589464,0.0
1759839621.6676955,0,-1.2049998044967651,-0.8299995064735413,-0.7177006375299335,0.0,-1.7349990940431643,-0.3499997372850067,-0.7176825571286299,0.0,-1.933333291733899,0.19531623511362983,0.05209823753985645,0.0
1759839621.6778047,0,-1.2049998044967651,-0.8299995064735413,-0.7177007497926802,0.0,-1.7349992164355827,-0.34999976197468646,-0.7176863202358605,0.0,-1.9363250033471584,0.1956184746971232,1.2213866721631883,0.0
1759839621.6895514,0,-1.2049998044967651,-0.8299995064735413,-0.7177007736934016,0.0,-1.7349993155439525,-0.3499997819673783,-0.7176893674460357,0.0,-1.9387475689320446,0.19586321593826297,2.184675467102036,0.0
1759839621.7002797,0,-1.2049998044967651,-0.8299995064735413,-0.7177008565660401,0.0,-1.7349993961072412,-0.34999979821905325,-0.717691844464609,0.0,-1.940716825925711,0.19606216138839236,2.9829347681325347,0.0
1759839621.7106507,0,-1.2049998044967651,-0.8299995064735413,-0.7177009543451494,0.0,-1.7349994658942618,-0.34999981229687943,-0.717693990153409,0.0,-1.9423221935689161,0.19622434468362898,-2.634603942497752,0.0
1759839621.7217724,0,-1.2049998044967651,-0.8299995064735413,-0.7177010099970822,0.0,-1.7349995221679129,-0.34999982364871346,-0.7176957203568445,0.0,-1.9436328619542889,0.1963567557974333,-1.0023929830525489,0.0
1759839621.7319493,0,-1.2049998044967651,-0.8299995064735413,-0.7177011058682581,0.0,-1.7349995677096577,-0.3499998328356476,-0.7176971205944642,0.0,-1.9447769865551452,0.19647236069050725,-0.9003468552563995,0.0
1759839621.7431796,0,-1.2049998044967651,-0.8299995064735413,-0.7177011497517611,0.0,-1.7349996046092186,-0.34999984027923237,-0.7176982551173892,0.0,-1.9457037841095988,0.1965660063756919,-0.8176844410297028,0.0
1759839621.7544832,0,-1.2049998044967651,-0.8299995064735413,-0.7177011936250572,0.0,-1.734999634581083,-0.34999984632532366,-0.7176991766396636,0.0,-1.9464564079135886,0.19664205315793926,-0.7505568354988975,0.0
1759839621.7646549,0,-1.2049998044967651,-0.8299995064735413,-0.7177012853163323,0.0,-1.7349996590207006,-0.3499998512554194,-0.7176999280661279,0.0,-1.9470699705513064,0.19670404889081175,-0.6958322964997211,0.0
1759839621.7753773,0,-1.2049998044967651,-0.8299995064735413,-0.717701347525427,0.0,-1.734999678982725,-0.34999985528226996,-0.7177005418234065,0.0,-1.947571007908947,0.1967546748192401,-0.6511440499659316,0.0
1759839621.7868803,0,-1.2049998044967651,-0.8299995064735413,-0.7177013779849464,0.0,-1.73499969531207,-0.3499998585763163,-0.7177010438894452,0.0,-1.947980774212428,0.1967960785174595,-0.6145964007498467,0.0
1759839621.7982554,0,-1.2049998044967651,-0.8299995064735413,-0.7177014190634878,0.0,-1.734999708706433,-0.3499998612783018,-0.7177014557158083,0.0,-1.9483378124191344,0.19683215445156557,-0.5827516467410642,0.0
1759839621.808494,0,-1.2049998044967651,-0.8299995064735413,-0.7177015018153732,0.0,-1.7349997204622527,-0.3499998636497511,-0.7177018171631144,0.0,-1.9486283100756123,0.19686150698055604,-0.5568417406388467,0.0
1759839621.8197923,0,-1.2049998044967651,-0.8299995064735413,-0.7177015423162239,0.0,-1.7349997300356874,-0.34999986558095764,-0.7177021115102793,0.0,-1.9488649330424286,0.196885415891139,-0.535736996021727,0.0
1759839621.83045,0,-1.2049998044967651,-0.8299995064735413,-0.717701602737332,0.0,-1.7349997378577693,-0.34999986715887155,-0.7177023520099227,0.0,-1.9490583127034382,0.19690495540197284,-0.5184891843884507,0.0
1759839621.841125,0,-1.2049998044967651,-0.8299995064735413,-0.7177016589640051,0.0,-1.7349997442642253,-0.34999986845121756,-0.7177025489843887,0.0,-1.9492167309371533,0.19692096233247314,-0.5043596330171807,0.0
1759839621.8513474,0,-1.2049998044967651,-0.8299995064735413,-0.7177017237101264,0.0,-1.7349997495267766,-0.34999986951280865,-0.7177027107880743,0.0,-1.9493468923851354,0.19693411413452777,-0.4927503452307282,0.0
1759839621.8617413,0,-1.2049998044967651,-0.8299995064735413,-0.7177017763072175,0.0,-1.7349997538587436,-0.3499998703866772,-0.7177028439797944,0.0,-1.9494540614366325,0.1969449427337292,-0.4831917825386322,0.0
1759839621.871841,0,-1.2049998044967651,-0.8299995064735413,-0.7177018315440176,0.0,-1.7349997574343001,-0.3499998711079583,-0.717702953914724,0.0,-1.9495485129472314,0.19695448632432702,-0.4747675157114777,0.0
1759839621.8826203,0,-1.2049998044967651,-0.8299995064735413,-0.717701863222441,0.0,-1.7349997605935998,-0.3499998717452698,-0.7177030510513261,0.0,-1.9496256449804226,0.19696227991642615,-0.46788799812193366,0.0
1759839621.8994968,0,-1.2049998044967651,-0.8299995064735413,-0.7177017460095811,0.0,-1.734999763160362,-0.34999987226305135,-0.7177031299696206,0.0,-1.949688331296762,0.19696861388118153,-0.46229691490997993,0.0
1759839621.9103565,0,-1.2049998044967651,-0.8299995064735413,-0.7177018197818246,0.0,-1.7349997652686788,-0.34999987268835275,-0.7177031947924475,0.0,-1.9497398388301375,0.19697381831685573,-0.4577028835174382,0.0
1759839621.9210558,0,-1.2049998044967651,-0.8299995064735413,-0.7177018971015948,0.0,-1.734999767004995,-0.34999987303861213,-0.7177032481776457,0.0,-1.9497822725248195,0.19697810591169704,-0.45391816092067205,0.0
1759839621.9317722,0,-1.2049998044967651,-0.8299995064735413,-0.7177019614889275,0.0,-1.7349997684383391,-0.34999987332775434,-0.7177032922475975,0.0,-1.9498173137325416,0.19698164655322234,-0.45079278492695235,0.0
1759839621.9425995,0,-1.2049998044967651,-0.8299995064735413,-0.7177020134319658,0.0,-1.734999769624235,-0.3499998735669798,-0.7177033287094372,0.0,-1.9498482030614865,0.19698476767968628,-0.4480377210058655,0.0
1759839621.952837,0,-1.2049998044967651,-0.8299995064735413,-0.7177020706631687,0.0,-1.7349997706746079,-0.3499998737788668,-0.7177033610044551,0.0,-1.9498735536273988,0.19698732915722067,-0.44577666736988125,0.0
1759839621.9632635,0,-1.2049998044967651,-0.8299995064735413,-0.7177021157094039,0.0,-1.7349997715379337,-0.3499998739530217,-0.7177033875484807,0.0,-1.9498944019613964,0.1969894357192339,-0.4439171743095442,0.0
1759839621.9745235,0,-1.2049998044967651,-0.8299995064735413,-0.717702138919325,0.0,-1.7349997722484614,-0.3499998740963533,-0.7177034093945417,0.0,-1.949911570274909,0.19699117044379663,-0.4423859075983499,0.0
1759839621.985258,0,-1.2049998044967651,-0.8299995064735413,-0.7177021724854383,0.0,-1.7349997728350837,-0.3499998742146901,-0.7177034274309791,0.0,-1.9499257528419336,0.19699260348189682,-0.44112094393443385,0.0
1759839621.995952,0,-1.2049998044967651,-0.8299995064735413,-0.7177022053303102,0.0,-1.7349997733205897,-0.3499998743126291,-0.717703442358466,0.0,-1.949937497470017,0.19699379018522684,-0.4400734235704492,0.0
1759839622.0060866,0,-1.2049998044967651,-0.8299995064735413,-0.7177022455838244,0.0,-1.7349997737236473,-0.34999987439393615,-0.7177034547509804,0.0,-1.9499472532121402,0.1969947759270981,-0.43920329482160725,0.0
1759839622.01682,0,-1.2049998044967651,-0.8299995064735413,-0.717702271022528,0.0,-1.734999774081125,-0.3499998744660485,-0.7177034657420769,0.0,-1.9499553687421225,0.19699559593828844,-0.4384794589657219,0.0
1759839622.0276554,0,-1.2049998044967651,-0.8299995064735413,-0.7177022934634357,0.0,-1.734999774375607,-0.34999987452545306,-0.7177034747962938,0.0,-1.9499626309225055,0.19699632972513825,-0.43783173459471997,0.0
1759839622.0378382,0,-1.2049998044967651,-0.8299995064735413,-0.717702326173649,0.0,-1.7349997746189787,-0.34999987457454734,-0.7177034822790604,0.0,-1.9499686306483888,0.19699693595077897,-0.43729661036632134,0.0
1759839622.0489562,0,-1.2049998044967651,-0.8299995064735413,-0.7177023417235091,0.0,-1.734999774820331,-0.34999987461516524,-0.717703488469887,0.0,-1.9499735928287076,0.19699743734050934,-0.4368540263273342,0.0
1759839622.059765,0,-1.2049998044967651,-0.8299995064735413,-0.7177023629370058,0.0,-1.7349997749873933,-0.349999874648866,-0.7177034936064293,0.0,-1.9499777085871597,0.19699785320589272,-0.43648693587873205,0.0
1759839622.0707266,0,-1.2049998044967651,-0.8299995064735413,-0.7177023823270972,0.0,-1.7349997751263078,-0.3499998746768886,-0.7177034978775256,0.0,-1.949981129754937,0.19699819888829026,-0.4361817969769314,0.0
1759839622.0807886,0,-1.2049998044967651,-0.8299995064735413,-0.7177024143361522,0.0,-1.7349997752422304,-0.34999987470027316,-0.7177035014417141,0.0,-1.9499839837380322,0.19699848726108662,-0.4359272460972304,0.0
1759839622.0910914,0,-1.2049998044967651,-0.8299995064735413,-0.7177024396287273,0.0,-1.734999775346163,-0.349999874721239,-0.7177035046372511,0.0,-1.949986369060714,0.19699872827939302,-0.43571449571754534,0.0
1759839622.1014664,0,-1.2049998044967651,-0.8299995064735413,-0.7177024613171952,0.0,-1.734999775432209,-0.34999987473859673,-0.7177035072828424,0.0,-1.9499885141381095,0.1969989450227816,-0.4355231731624084,0.0
1759839622.1122737,0,-1.2049998044967651,-0.8299995064735413,-0.717702476092116,0.0,-1.7349997755035718,-0.3499998747529924,-0.717703509476971,0.0,-1.9499902924439272,0.1969991247067546,-0.43536456349471664,0.0
1759839622.1236205,0,-1.2049998044967651,-0.8299995064735413,-0.7177024849152112,0.0,-1.7349997755628561,-0.34999987476495154,-0.71770351129974,0.0,-1.9499917691759907,0.1969992739190451,-0.43523285162629094,0.0
1759839622.1343575,0,-1.2049998044967651,-0.8299995064735413,-0.7177025033879475,0.0,-1.7349997756122677,-0.3499998747749192,-0.7177035128189667,0.0,-1.9499929994972722,0.1969993982334424,-0.4351231174918925,0.0
1759839622.1449971,0,-1.2049998044967651,-0.8299995064735413,-0.7177025229809129,0.0,-1.7349997756535527,-0.34999987478324746,-0.7177035140883297,0.0,-1.949994027059951,0.19699950206065972,-0.43503146769051615,0.0
1759839622.155819,0,-1.2049998044967651,-0.8299995064735413,-0.717702539589034,0.0,-1.734999775688119,-0.3499998747902203,-0.7177035151511132,0.0,-1.9499948870533472,0.19699958895630426,-0.4349547636357688,0.0
1759839622.1660135,0,-1.2049998044967651,-0.8299995064735413,-0.7177025623175872,0.0,-1.7349997757171525,-0.3499998747960771,-0.7177035160437794,0.0,-1.9499956600782085,0.19699966706445468,-0.434885816430432,0.0
1759839622.1784377,0,-1.2049998044967651,-0.8299995064735413,-0.7177025603683376,0.0,-1.7349997757435083,-0.3499998748013937,-0.7177035168541254,0.0,-1.949996301390759,0.19699973186410047,-0.4348286168365561,0.0
1759839622.1898496,0,-1.2049998044967651,-0.8299995064735413,-0.7177025729557922,0.0,-1.734999775765437,-0.3499998748058173,-0.7177035175283452,0.0,-1.9499968355735382,0.19699978583911598,-0.43478097230194485,0.0
1759839622.2010145,0,-1.2049998044967651,-0.8299995064735413,-0.7177025896908766,0.0,-1.734999775783733,-0.34999987480950806,-0.7177035180908815,0.0,-1.9499972817702091,0.1969998309238195,-0.43474117537558327,0.0
1759839622.2113285,0,-1.2049998044967651,-0.8299995064735413,-0.7177026137399238,0.0,-1.7349997757990527,-0.3499998748125984,-0.7177035185619074,0.0,-1.9499976558022223,0.1969998687168456,-0.4347078149193875,0.0
1759839622.2220564,0,-1.2049998044967651,-0.8299995064735413,-0.717702631173406,0.0,-1.7349997758119018,-0.3499998748151904,-0.7177035189569693,0.0,-1.9499979698625887,0.19699990045020316,-0.4346798034211164,0.0
1759839622.2332337,0,-1.2049998044967651,-0.8299995064735413,-0.7177026430675929,0.0,-1.734999775822697,-0.34999987481736805,-0.7177035192888764,0.0,-1.9499982340085769,0.196999927140101,-0.43465624385842105,0.0
1759839622.2435524,0,-1.2049998044967651,-0.8299995064735413,-0.7177026619703071,0.0,-1.7349997758317988,-0.34999987481920414,-0.7177035195687258,0.0,-1.9499984742642114,0.19699995141606438,-0.43463481511092733,0.0
1759839622.25387,0,-1.2049998044967651,-0.8299995064735413,-0.7177026789677097,0.0,-1.7349997758400728,-0.34999987482087325,-0.7177035198231257,0.0,-1.9499986751216456,0.19699997171114605,-0.43461690034588435,0.0
1759839622.2644634,0,-1.2049998044967651,-0.8299995064735413,-0.717702691868439,0.0,-1.7349997758469977,-0.3499998748222702,-0.7177035200360432,0.0,-1.9499988433562037,0.19699998870993982,-0.43460189526233967,0.0
1759839622.2758777,0,-1.2049998044967651,-0.8299995064735413,-0.7177026978504308,0.0,-1.7349997758528002,-0.34999987482344075,-0.7177035202144514,0.0,-1.9499989844304506,0.19700000296439535,-0.43458931264623285,0.0
1759839622.2869785,0,-1.2049998044967651,-0.8299995064735413,-0.7177027073702895,0.0,-1.7349997758576763,-0.34999987482442435,-0.7177035203643733,0.0,-1.9499991030690698,0.19700001495190514,-0.4345787310962261,0.0
1759839622.2974358,0,-1.2049998044967651,-0.8299995064735413,-0.7177027219104826,0.0,-1.7349997758617872,-0.34999987482525363,-0.7177035204907697,0.0,-1.9499992031665379,0.19700002506597586,-0.4345698032582732,0.0
1759839622.308167,0,-1.2049998044967651,-0.8299995064735413,-0.717702733449439,0.0,-1.7349997758652596,-0.34999987482595407,-0.7177035205975278,0.0,-1.94999928777518,0.19700003361502116,-0.4345622568911194,0.0
1759839622.3182874,0,-1.2049998044967651,-0.8299995064735413,-0.7177027481467011,0.0,-1.7349997758682016,-0.3499998748265476,-0.7177035206879835,0.0,-1.9499993652138843,0.19700004143959998,-0.4345553500210941,0.0
1759839622.3291488,0,-1.2049998044967651,-0.8299995064735413,-0.7177027565575376,0.0,-1.734999775870902,-0.34999987482709227,-0.7177035207710059,0.0,-1.949999430188717,0.19700004800480153,-0.43454955482180674,0.0
1759839622.3394644,0,-1.2049998044967651,-0.8299995064735413,-0.7177027680662782,0.0,-1.7349997758731723,-0.34999987482755024,-0.7177035208408088,0.0,-1.9499994848741642,0.19700005353034067,-0.4345446773476786,0.0
1759839622.349854,0,-1.2049998044967651,-0.8299995064735413,-0.7177027782966121,0.0,-1.734999775875085,-0.3499998748279361,-0.7177035208996213,0.0,-1.9499995309966494,0.1970000581906591,-0.43454056361651944,0.0
1759839622.361153,0,-1.2049998044967651,-0.8299995064735413,-0.7177027826439719,0.0,-1.7349997758766982,-0.3499998748282615,-0.7177035209492197,0.0,-1.9499995699325325,0.1970000621248273,-0.43453709086880643,0.0
1759839622.3719451,0,-1.2049998044967651,-0.8299995064735413,-0.7177027907049247,0.0,-1.7349997758780629,-0.3499998748285368,-0.7177035209911777,0.0,-1.9499996029038413,0.19700006545632162,-0.434534150110101,0.0
1759839622.3822582,0,-1.2049998044967651,-0.8299995064735413,-0.7177028014430995,0.0,-1.7349997758792208,-0.3499998748287704,-0.7177035210267779,0.0,-1.9499996309072634,0.19700006828584965,-0.43453165244439296,0.0
1759839622.3934596,0,-1.2049998044967651,-0.8299995064735413,-0.7177028067551952,0.0,-1.734999775880204,-0.3499998748289687,-0.7177035210570091,0.0,-1.9499996566228526,0.19700007088420995,-0.43452935883379534,0.0
1759839622.4043255,0,-1.2049998044967651,-0.8299995064735413,-0.7177028141514636,0.0,-1.7349997758811118,-0.3499998748291518,-0.717703521084912,0.0,-1.9499996782990552,0.19700007307442166,-0.4345274255019288,0.0
1759839622.414987,0,-1.2049998044967651,-0.8299995064735413,-0.7177028225919031,0.0,-1.7349997758818776,-0.3499998748293063,-0.7177035211084598,0.0,-1.9499996966178337,0.19700007492539176,-0.43452579162358207,0.0
1759839622.4257133,0,-1.2049998044967651,-0.8299995064735413,-0.7177028303107278,0.0,-1.7349997758825253,-0.34999987482943695,-0.7177035211283754,0.0,-1.9499997121326316,0.1970000764930414,-0.4345244078363252,0.0
1759839622.4370005,0,-1.2049998044967651,-0.8299995064735413,-0.7177028351965404,0.0,-1.734999775883074,-0.3499998748295476,-0.7177035211452433,0.0,-1.949999725291321,0.19700007782262466,-0.4345232341937732,0.0
1759839622.4472024,0,-1.2049998044967651,-0.8299995064735413,-0.7177028451589678,0.0,-1.7349997758835405,-0.3499998748296417,-0.7177035211595864,0.0,-1.9499997364960437,0.19700007895477475,-0.43452223482835356,0.0
1759839622.458386,0,-1.2049998044967651,-0.8299995064735413,-0.717702850112051,0.0,-1.7349997758839375,-0.3499998748297218,-0.7177035211717906,0.0,-1.9499997468320558,0.19700007999914837,-0.4345213129444976,0.0
1759839622.469709,0,-1.2049998044967651,-0.8299995064735413,-0.7177028546623774,0.0,-1.734999775884276,-0.34999987482979006,-0.7177035211821967,0.0,-1.9499997555585706,0.19700008088089482,-0.4345205346140212,0.0
1759839622.4813101,0,-1.2049998044967651,-0.8299995064735413,-0.7177028586780985,0.0,-1.7349997758845894,-0.3499998748298533,-0.7177035211918329,0.0,-1.9499997629407342,0.19700008162680505,-0.4345198761881705,0.0
1759839622.4970803,0,-1.2049998044967651,-0.8299995064735413,-0.717702848335195,0.0,-1.7349997758848532,-0.34999987482990647,-0.7177035211999439,0.0,-1.9499997691620834,0.197000082255424,-0.4345193212970293,0.0
1759839622.503237,0,-1.2049998044967651,-0.8299995064735413,-0.7177028769948581,0.0,-1.7349997758850793,-0.3499998748299521,-0.7177035212068917,0.0,-1.9499997744985276,0.1970000827946302,-0.4345188453318586,0.0
1759839622.5140069,0,-1.2049998044967651,-0.8299995064735413,-0.717702884161998,0.0,-1.7349997758852718,-0.3499998748299909,-0.7177035212128101,0.0,-1.9499997790499741,0.19700008325451845,-0.43451843938176005,0.0
1759839622.5241692,0,-1.2049998044967651,-0.8299995064735413,-0.7177028914577851,0.0,-1.734999775885436,-0.3499998748300241,-0.7177035212178675,0.0,-1.9499997829441598,0.19700008364799565,-0.43451809205371167,0.0
1759839622.5344217,0,-1.2049998044967651,-0.8299995064735413,-0.7177028975938313,0.0,-1.7349997758855769,-0.3499998748300525,-0.7177035212221974,0.0,-1.9499997862824845,0.1970000839853074,-0.4345177943036946,0.0
1759839622.5456347,0,-1.2049998044967651,-0.8299995064735413,-0.717702900108371,0.0,-1.7349997758856974,-0.3499998748300769,-0.7177035212259066,0.0,-1.9499997893870435,0.19700008429899898,-0.4345175174035688,0.0
1759839622.5562284,0,-1.2049998044967651,-0.8299995064735413,-0.7177029049358659,0.0,-1.7349997758858102,-0.34999987483009964,-0.7177035212293701,0.0,-1.949999792030114,0.19700008456606072,-0.43451728166428144,0.0
1759839622.5668883,0,-1.2049998044967651,-0.8299995064735413,-0.7177029095219982,0.0,-1.7349997758859061,-0.349999874830119,-0.7177035212323206,0.0,-1.9499997942850065,0.19700008479390008,-0.4345170805471557,0.0
1759839622.5773304,0,-1.2049998044967651,-0.8299995064735413,-0.7177029145681998,0.0,-1.7349997758859883,-0.34999987483013556,-0.7177035212348404,0.0,-1.9499997962136024,0.1970000849887697,-0.43451690853290165,0.0
1759839622.5882556,0,-1.2049998044967651,-0.8299995064735413,-0.7177029179721011,0.0,-1.7349997758860585,-0.3499998748301497,-0.7177035212369953,0.0,-1.9499997978653858,0.19700008515566952,-0.4345167612079765,0.0
1759839622.599049,0,-1.2049998044967651,-0.8299995064735413,-0.7177029218089519,0.0,-1.7349997758861186,-0.3499998748301618,-0.7177035212388428,0.0,-1.949999799283513,0.19700008529896026,-0.43451663472314883,0.0
1759839622.6097262,0,-1.2049998044967651,-0.8299995064735413,-0.7177029259613228,0.0,-1.7349997758861702,-0.34999987483017225,-0.7177035212404305,0.0,-1.9499998005039105,0.19700008542227196,-0.434516525874127,0.0
1759839622.6203003,0,-1.2049998044967651,-0.8299995064735413,-0.7177029302305495,0.0,-1.7349997758862148,-0.34999987483018125,-0.7177035212417979,0.0,-1.9499998016480504,0.1970000855378784,-0.4345164238266373,0.0
1759839622.6308138,0,-1.2049998044967651,-0.8299995064735413,-0.7177029344081092,0.0,-1.7349997758862568,-0.3499998748301897,-0.7177035212430851,0.0,-1.949999802626759,0.19700008563676927,-0.43451633653419774,0.0
1759839622.6413374,0,-1.2049998044967651,-0.8299995064735413,-0.7177029382970233,0.0,-1.7349997758862925,-0.3499998748301969,-0.7177035212441866,0.0,-1.949999803465743,0.19700008572154207,-0.43451626170401175,0.0
1759839622.6525311,0,-1.2049998044967651,-0.8299995064735413,-0.7177029404750375,0.0,-1.7349997758863231,-0.34999987483020306,-0.7177035212451299,0.0,-1.9499998041857096,0.19700008579428907,-0.43451619748916254,0.0
1759839622.663164,0,-1.2049998044967651,-0.8299995064735413,-0.7177029441288899,0.0,-1.7349997758863496,-0.34999987483020834,-0.7177035212459406,0.0,-1.949999804805494,0.19700008585691348,-0.43451614220968954,0.0
1759839622.6743174,0,-1.2049998044967651,-0.8299995064735413,-0.717702946614871,0.0,-1.7349997758863722,-0.34999987483021294,-0.717703521246638,0.0,-1.9499998053397054,0.19700008591089135,-0.4345160945626235,0.0
1759839622.6848128,0,-1.2049998044967651,-0.8299995064735413,-0.7177029505644867,0.0,-1.7349997758863918,-0.34999987483021694,-0.7177035212472402,0.0,-1.9499998058016847,0.19700008595757076,-0.4345160533580196,0.0
1759839622.6950276,0,-1.2049998044967651,-0.8299995064735413,-0.717702954802343,0.0,-1.7349997758864086,-0.3499998748302203,-0.7177035212477615,0.0,-1.949999806240612,0.19700008600192095,-0.43451601420944364,0.0
1759839622.705859,0,-1.2049998044967651,-0.8299995064735413,-0.7177029574093511,0.0,-1.7349997758864246,-0.34999987483022355,-0.7177035212482562,0.0,-1.9499998066173618,0.1970000860399886,-0.4345159806065909,0.0
1759839622.7164717,0,-1.2049998044967651,-0.8299995064735413,-0.7177029603563287,0.0,-1.7349997758864384,-0.3499998748302263,-0.7177035212486812,0.0,-1.9499998069415618,0.19700008607274647,-0.43451595169073326,0.0
1759839622.7267394,0,-1.2049998044967651,-0.8299995064735413,-0.7177029638126502,0.0,-1.7349997758864504,-0.3499998748302287,-0.7177035212490472,0.0,-1.9499998072212943,0.19700008610101125,-0.4345159267409856,0.0
1759839622.738047,0,-1.2049998044967651,-0.8299995064735413,-0.7177029652059588,0.0,-1.7349997758864606,-0.34999987483023076,-0.7177035212493625,0.0,-1.949999807462728,0.19700008612540626,-0.4345159052071645,0.0
1759839622.7489028,0,-1.2049998044967651,-0.8299995064735413,-0.7177029675954465,0.0,-1.7349997758864695,-0.34999987483023254,-0.7177035212496351,0.0,-1.9499998076717284,0.19700008614652412,-0.43451588656611473,0.0
1759839622.7596848,0,-1.2049998044967651,-0.8299995064735413,-0.7177029701693023,0.0,-1.7349997758864772,-0.3499998748302341,-0.7177035212498712,0.0,-1.9499998078704648,0.1970000861666049,-0.4345158688405241,0.0
1759839622.7709396,0,-1.2049998044967651,-0.8299995064735413,-0.7177029719594721,0.0,-1.7349997758864844,-0.34999987483023554,-0.7177035212500952,0.0,-1.9499998080412746,0.19700008618386392,-0.4345158536057448,0.0
1759839622.7813034,0,-1.2049998044967651,-0.8299995064735413,-0.7177029752002291,0.0,-1.7349997758864906,-0.3499998748302368,-0.7177035212502881,0.0,-1.9499998081886283,0.19700008619875284,-0.4345158404630756,0.0
1759839622.792867,0,-1.2049998044967651,-0.8299995064735413,-0.7177029764624869,0.0,-1.734999775886496,-0.3499998748302379,-0.7177035212504543,0.0,-1.9499998083157506,0.19700008621159756,-0.4345158291248443,0.0
1759839622.8042564,0,-1.2049998044967651,-0.8299995064735413,-0.7177029781791333,0.0,-1.7349997758865006,-0.3499998748302389,-0.7177035212505979,0.0,-1.9499998084256989,0.19700008622270695,-0.4345158193184043,0.0
1759839622.8155677,0,-1.2049998044967651,-0.8299995064735413,-0.7177029801840717,0.0,-1.7349997758865046,-0.34999987483023975,-0.7177035212507221,0.0,-1.9499998085210148,0.19700008623233792,-0.4345158108170227,0.0
1759839622.826261,0,-1.2049998044967651,-0.8299995064735413,-0.7177029830336785,0.0,-1.734999775886508,-0.3499998748302404,-0.7177035212508301,0.0,-1.9499998086114398,0.19700008624147466,-0.43451580275188406,0.0
1759839622.8365297,0,-1.2049998044967651,-0.8299995064735413,-0.7177029861653583,0.0,-1.734999775886511,-0.34999987483024103,-0.7177035212509242,0.0,-1.949999808689534,0.19700008624936546,-0.4345157957865552,0.0
1759839622.8480358,0,-1.2049998044967651,-0.8299995064735413,-0.7177029874130483,0.0,-1.7349997758865139,-0.34999987483024164,-0.7177035212510139,0.0,-1.9499998087569739,0.19700008625617974,-0.4345157897714836,0.0
1759839622.8581157,0,-1.2049998044967651,-0.8299995064735413,-0.7177029903976351,0.0,-1.7349997758865165,-0.34999987483024214,-0.7177035212510917,0.0,-1.949999808815488,0.19700008626209212,-0.43451578455253415,0.0
1759839622.8691046,0,-1.2049998044967651,-0.8299995064735413,-0.7177029920358216,0.0,-1.7349997758865188,-0.3499998748302426,-0.717703521251159,0.0,-1.949999808866276,0.19700008626722387,-0.4345157800226791,0.0
1759839622.8796594,0,-1.2049998044967651,-0.8299995064735413,-0.7177029940736581,0.0,-1.7349997758865208,-0.349999874830243,-0.7177035212512176,0.0,-1.9499998089104855,0.19700008627169088,-0.4345157760795702,0.0
1759839622.8908503,0,-1.2049998044967651,-0.8299995064735413,-0.7177029953201881,0.0,-1.7349997758865225,-0.3499998748302433,-0.7177035212512685,0.0,-1.9499998089494972,0.1970000862756327,-0.43451577260006535,0.0
1759839622.9023798,0,-1.2049998044967651,-0.8299995064735413,-0.7177029962945766,0.0,-1.734999775886524,-0.3499998748302436,-0.7177035212513135,0.0,-1.9499998089865265,0.1970000862793742,-0.43451576929737146,0.0
1759839622.9126441,0,-1.2049998044967651,-0.8299995064735413,-0.7177029986744223,0.0,-1.7349997758865254,-0.34999987483024386,-0.7177035212513562,0.0,-1.9499998090186397,0.197000086282619,-0.43451576643314643,0.0
1759839622.9238522,0,-1.2049998044967651,-0.8299995064735413,-0.7177029999394335,0.0,-1.7349997758865268,-0.34999987483024414,-0.7177035212513931,0.0,-1.9499998090464987,0.19700008628543397,-0.4345157639483408,0.0
1759839622.934293,0,-1.2049998044967651,-0.8299995064735413,-0.7177030018904826,0.0,-1.7349997758865277,-0.3499998748302443,-0.7177035212514252,0.0,-1.9499998090707529,0.19700008628788465,-0.4345157617850898,0.0
1759839622.9452693,0,-1.2049998044967651,-0.8299995064735413,-0.7177030032085998,0.0,-1.7349997758865285,-0.3499998748302445,-0.7177035212514531,0.0,-1.949999809092135,0.19700008629004515,-0.43451575987797786,0.0
1759839622.9565275,0,-1.2049998044967651,-0.8299995064735413,-0.7177030042535328,0.0,-1.7349997758865292,-0.34999987483024464,-0.7177035212514778,0.0,-1.9499998091111652,0.197000086291968,-0.43451575818064814,0.0
1759839622.967836,0,-1.2049998044967651,-0.8299995064735413,-0.7177030053283247,0.0,-1.7349997758865299,-0.34999987483024475,-0.7177035212514999,0.0,-1.9499998091281021,0.19700008629367932,-0.43451575667002473,0.0
1759839622.9781513,0,-1.2049998044967651,-0.8299995064735413,-0.7177030072486872,0.0,-1.7349997758865305,-0.34999987483024486,-0.7177035212515196,0.0,-1.94999980914353,0.1970000862952382,-0.4345157552939913,0.0
1759839622.9888933,0,-1.2049998044967651,-0.8299995064735413,-0.717703008644115,0.0,-1.734999775886531,-0.349999874830245,-0.717703521251537,0.0,-1.9499998091569597,0.19700008629659518,-0.4345157540961788,0.0
1759839622.9991393,0,-1.2049998044967651,-0.8299995064735413,-0.717703010285792,0.0,-1.7349997758865314,-0.3499998748302451,-0.7177035212515526,0.0,-1.9499998091688593,0.19700008629779753,-0.434515753034847,0.0
1759839623.0094001,0,-1.2049998044967651,-0.8299995064735413,-0.7177030117351375,0.0,-1.7349997758865319,-0.3499998748302452,-0.7177035212515663,0.0,-1.94999980917945,0.19700008629886762,-0.4345157520902618,0.0
1759839623.0207653,0,-1.2049998044967651,-0.8299995064735413,-0.7177030122652361,0.0,-1.7349997758865323,-0.34999987483024525,-0.7177035212515787,0.0,-1.9499998091888755,0.19700008629982,-0.43451575124958086,0.0
1759839623.0319705,0,-1.2049998044967651,-0.8299995064735413,-0.7177030130127662,0.0,-1.7349997758865328,-0.3499998748302453,-0.7177035212515896,0.0,-1.9499998091972643,0.19700008630066762,-0.4345157505013749,0.0
1759839623.0431623,0,-1.2049998044967651,-0.8299995064735413,-0.7177030138670553,0.0,-1.734999775886533,-0.34999987483024536,-0.7177035212515994,0.0,-1.9499998091972643,0.19700008630066762,-0.434515750501375,0.0
1759839623.0532916,0,-1.2049998044967651,-0.8299995064735413,-0.7177030154264229,0.0,-1.734999775886533,-0.34999987483024536,-0.7177035212515994,0.0,-1.9499998092047304,0.19700008630142202,-0.43451574983547164,0.0
1759839623.064193,0,-1.2049998044967651,-0.8299995064735413,-0.7177030163454674,0.0,-1.734999775886533,-0.34999987483024536,-0.7177035212515994,0.0,-1.949999809211375,0.19700008630209342,-0.43451574924281766,0.0
1759839623.0748203,0,-1.2049998044967651,-0.8299995064735413,-0.7177030173763619,0.0,-1.7349997758865332,-0.3499998748302454,-0.7177035212516081,0.0,-1.9499998092172888,0.19700008630269097,-0.43451574871535564,0.0
1759839623.0859778,0,-1.2049998044967651,-0.8299995064735413,-0.7177030180564081,0.0,-1.7349997758865334,-0.34999987483024547,-0.7177035212516157,0.0,-1.9499998092225521,0.1970000863032228,-0.43451574824591443,0.0
1759839623.0998404,0,-1.2049998044967651,-0.8299995064735413,-0.717703017331683,0.0,-1.7349997758865336,-0.3499998748302455,-0.7177035212516227,0.0,-1.9499998092225521,0.1970000863032228,-0.43451574824591443,0.0
1759839623.1106923,0,-1.2049998044967651,-0.8299995064735413,-0.7177030186520064,0.0,-1.7349997758865336,-0.3499998748302455,-0.7177035212516227,0.0,-1.9499998092225521,0.1970000863032228,-0.43451574824591443,0.0
1759839623.1214702,0,-1.2049998044967651,-0.8299995064735413,-0.7177030199694237,0.0,-1.7349997758865336,-0.3499998748302455,-0.7177035212516227,0.0,-1.9499998092225521,0.1970000863032228,-0.43451574824591443,0.0
1759839623.1319509,0,-1.2049998044967651,-0.8299995064735413,-0.7177030212599593,0.0,-1.7349997758865336,-0.3499998748302455,-0.7177035212516227,0.0,-1.9499998092272364,0.19700008630369611,-0.43451574782811175,0.0
1759839623.1421394,0,-1.2049998044967651,-0.8299995064735413,-0.7177030225033985,0.0,-1.7349997758865339,-0.3499998748302456,-0.7177035212516288,0.0,-1.9499998092314055,0.19700008630411736,-0.43451574745626736,0.0
1759839623.1529968,0,-1.2049998044967651,-0.8299995064735413,-0.7177030232599044,0.0,-1.734999775886534,-0.34999987483024564,-0.7177035212516344,0.0,-1.9499998092314055,0.19700008630411736,-0.43451574745626736,0.0
1759839623.1633713,0,-1.2049998044967651,-0.8299995064735413,-0.717703024168884,0.0,-1.734999775886534,-0.34999987483024564,-0.7177035212516344,0.0,-1.9499998092314055,0.19700008630411736,-0.43451574745626736,0.0
1759839623.1740127,0,-1.2049998044967651,-0.8299995064735413,-0.7177030248801994,0.0,-1.734999775886534,-0.34999987483024564,-0.7177035212516344,0.0,-1.9499998092314055,0.19700008630411736,-0.43451574745626736,0.0
1759839623.1842215,0,-1.2049998044967651,-0.8299995064735413,-0.7177030257203523,0.0,-1.734999775886534,-0.34999987483024564,-0.7177035212516344,0.0,-1.9499998092314055,0.19700008630411736,-0.43451574745626736,0.0
1759839623.1944945,0,-1.2049998044967651,-0.8299995064735413,-0.7177030264517388,0.0,-1.734999775886534,-0.34999987483024564,-0.7177035212516344,0.0,-1.9499998092314055,0.19700008630411736,-0.43451574745626736,0.0
1759839623.2051575,0,-1.2049998044967651,-0.8299995064735413,-0.717703026964875,0.0,-1.734999775886534,-0.34999987483024564,-0.7177035212516344,0.0,-1.9499998092314055,0.19700008630411736,-0.43451574745626736,0.0
1759839623.216036,0,-1.2049998044967651,-0.8299995064735413,-0.7177030273916252,0.0,-1.734999775886534,-0.34999987483024564,-0.7177035212516344,0.0,-1.9499998092314055,0.19700008630411736,-0.43451574745626736,0.0
1759839623.2273974,0,-1.2049998044967651,-0.8299995064735413,-0.7177030276742683,0.0,-1.734999775886534,-0.34999987483024564,-0.7177035212516344,0.0,-1.9499998092314055,0.19700008630411736,-0.43451574745626736,0.0
1759839623.2386584,0,-1.2049998044967651,-0.8299995064735413,-0.7177030280667402,0.0,-1.734999775886534,-0.34999987483024564,-0.7177035212516344,0.0,-1.9499998092314055,0.19700008630411736,-0.43451574745626736,0.0
1759839623.2494073,0,-1.2049998044967651,-0.8299995064735413,-0.7177030286794501,0.0,-1.734999775886534,-0.34999987483024564,-0.7177035212516344,0.0,-1.9499998092314055,0.19700008630411736,-0.43451574745626736,0.0
1759839623.2595649,0,-1.2049998044967651,-0.8299995064735413,-0.7177030294562616,0.0,-1.734999775886534,-0.34999987483024564,-0.7177035212516344,0.0,-1.9499998092314055,0.19700008630411736,-0.43451574745626736,0.0
1759839623.2708392,0,-1.2049998044967651,-0.8299995064735413,-0.7177030297923626,0.0,-1.734999775886534,-0.34999987483024564,-0.7177035212516344,0.0,-1.9499998092314055,0.19700008630411736,-0.43451574745626736,0.0
1759839623.28152,0,-1.2049998044967651,-0.8299995064735413,-0.717703030325108,0.0,-1.734999775886534,-0.34999987483024564,-0.7177035212516344,0.0,-1.9499998092314055,0.19700008630411736,-0.43451574745626736,0.0
1759839623.2923715,0,-1.2049998044967651,-0.8299995064735413,-0.7177030307896981,0.0,-1.734999775886534,-0.34999987483024564,-0.7177035212516344,0.0,-1.9499998092314055,0.19700008630411736,-0.43451574745626736,0.0
1759839623.3028007,0,-1.2049998044967651,-0.8299995064735413,-0.717703031357244,0.0,-1.734999775886534,-0.34999987483024564,-0.7177035212516344,0.0,-1.9499998092314055,0.19700008630411736,-0.43451574745626736,0.0
1759839623.313019,0,-1.2049998044967651,-0.8299995064735413,-0.7177030319337785,0.0,-1.734999775886534,-0.34999987483024564,-0.7177035212516344,0.0,-1.9499998092314055,0.19700008630411736,-0.43451574745626736,0.0
1759839623.323602,0,-1.2049998044967651,-0.8299995064735413,-0.7177030323506095,0.0,-1.734999775886534,-0.34999987483024564,-0.7177035212516344,0.0,-1.9499998092314055,0.19700008630411736,-0.43451574745626736,0.0
1759839623.335073,0,-1.2049998044967651,-0.8299995064735413,-0.7177030325185162,0.0,-1.734999775886534,-0.34999987483024564,-0.7177035212516344,0.0,-1.9499998092314055,0.19700008630411736,-0.43451574745626736,0.0
1759839623.3451493,0,-1.2049998044967651,-0.8299995064735413,-0.7177030330833105,0.0,-1.734999775886534,-0.34999987483024564,-0.7177035212516344,0.0,-1.9499998092314055,0.19700008630411736,-0.43451574745626736,0.0
1759839623.355397,0,-1.2049998044967651,-0.8299995064735413,-0.7177030335572763,0.0,-1.734999775886534,-0.34999987483024564,-0.7177035212516344,0.0,-1.9499998092314055,0.19700008630411736,-0.43451574745626736,0.0
1759839623.36553,0,-1.2049998044967651,-0.8299995064735413,-0.7177030340048702,0.0,-1.734999775886534,-0.34999987483024564,-0.7177035212516344,0.0,-1.9499998092314055,0.19700008630411736,-0.43451574745626736,0.0
1759839623.3760126,0,-1.2049998044967651,-0.8299995064735413,-0.7177030343282702,0.0,-1.734999775886534,-0.34999987483024564,-0.7177035212516344,0.0,-1.9499998092314055,0.19700008630411736,-0.43451574745626736,0.0
1759839623.3874981,0,-1.2049998044967651,-0.8299995064735413,-0.717703034422799,0.0,-1.734999775886534,-0.34999987483024564,-0.7177035212516344,0.0,-1.9499998092314055,0.19700008630411736,-0.43451574745626736,0.0
1759839623.398166,0,-1.2049998044967651,-0.8299995064735413,-0.7177030347473856,0.0,-1.734999775886534,-0.34999987483024564,-0.7177035212516344,0.0,-1.9499998092314055,0.19700008630411736,-0.43451574745626736,0.0
1759839623.4188774,0,-1.2049998044967651,-0.8299995064735413,-0.717703033125197,0.0,-1.734999775886534,-0.34999987483024564,-0.7177035212516344,0.0,-1.9499998092314055,0.19700008630411736,-0.43451574745626736,0.0
1759839623.429731,0,-1.2049998044967651,-0.8299995064735413,-0.7177030339790882,0.0,-1.734999775886534,-0.34999987483024564,-0.7177035212516344,0.0,-1.9499998092314055,0.19700008630411736,-0.43451574745626736,0.0
1759839623.4410632,0,-1.2049998044967651,-0.8299995064735413,-0.7177030347212252,0.0,-1.734999775886534,-0.34999987483024564,-0.7177035212516344,0.0,-1.9499998092314055,0.19700008630411736,-0.43451574745626736,0.0
1759839623.4511883,0,-1.2049998044967651,-0.8299995064735413,-0.7177030355320078,0.0,-1.734999775886534,-0.34999987483024564,-0.7177035212516344,0.0,-1.9499998092314055,0.19700008630411736,-0.43451574745626736,0.0
1759839623.4622772,0,-1.2049998044967651,-0.8299995064735413,-0.7177030360171166,0.0,-1.734999775886534,-0.34999987483024564,-0.7177035212516344,0.0,-1.9499998092314055,0.19700008630411736,-0.43451574745626736,0.0
1759839623.472579,0,-1.2049998044967651,-0.8299995064735413,-0.7177030365433249,0.0,-1.734999775886534,-0.34999987483024564,-0.7177035212516344,0.0,-1.9499998092314055,0.19700008630411736,-0.43451574745626736,0.0
1759839623.4825833,0,-1.2049998044967651,-0.8299995064735413,-0.7177030370276576,0.0,-1.734999775886534,-0.34999987483024564,-0.7177035212516344,0.0,-1.9499998092314055,0.19700008630411736,-0.43451574745626736,0.0
1759839623.4926348,0,-1.2049998044967651,-0.8299995064735413,-0.7177030374186302,0.0,-1.734999775886534,-0.34999987483024564,-0.7177035212516344,0.0,-1.9499998092314055,0.19700008630411736,-0.43451574745626736,0.0
1759839623.5028076,0,-1.2049998044967651,-0.8299995064735413,-0.7177030377278513,0.0,-1.734999775886534,-0.34999987483024564,-0.7177035212516344,0.0,-1.9499998092314055,0.19700008630411736,-0.43451574745626736,0.0
1759839623.5136375,0,-1.2049998044967651,-0.8299995064735413,-0.7177030379035293,0.0,-1.734999775886534,-0.34999987483024564,-0.7177035212516344,0.0,-1.9499998092314055,0.19700008630411736,-0.43451574745626736,0.0
1759839623.524138,0,-1.2049998044967651,-0.8299995064735413,-0.717703038123771,0.0,-1.734999775886534,-0.34999987483024564,-0.7177035212516344,0.0,-1.9499998092314055,0.19700008630411736,-0.43451574745626736,0.0
1759839623.5342114,0,-1.2049998044967651,-0.8299995064735413,-0.7177030383927221,0.0,-1.734999775886534,-0.34999987483024564,-0.7177035212516344,0.0,-1.9499998092314055,0.19700008630411736,-0.43451574745626736,0.0
1759839623.5458837,0,-1.2049998044967651,-0.8299995064735413,-0.7177030384294856,0.0,-1.734999775886534,-0.34999987483024564,-0.7177035212516344,0.0,-1.9499998092314055,0.19700008630411736,-0.43451574745626736,0.0
1759839623.5565722,0,-1.2049998044967651,-0.8299995064735413,-0.7177030386248937,0.0,-1.734999775886534,-0.34999987483024564,-0.7177035212516344,0.0,-1.9499998092314055,0.19700008630411736,-0.43451574745626736,0.0
1759839623.5667017,0,-1.2049998044967651,-0.8299995064735413,-0.7177030388904146,0.0,-1.734999775886534,-0.34999987483024564,-0.7177035212516344,0.0,-1.9499998092314055,0.19700008630411736,-0.43451574745626736,0.0
1759839623.5778444,0,-1.2049998044967651,-0.8299995064735413,-0.7177030390098764,0.0,-1.734999775886534,-0.34999987483024564,-0.7177035212516344,0.0,-1.9499998092314055,0.19700008630411736,-0.43451574745626736,0.0
1759839623.588996,0,-1.2049998044967651,-0.8299995064735413,-0.7177030391365573,0.0,-1.734999775886534,-0.34999987483024564,-0.7177035212516344,0.0,-1.9499998092314055,0.19700008630411736,-0.43451574745626736,0.0
1759839623.6004128,0,-1.2049998044967651,-0.8299995064735413,-0.7177030392484767,0.0,-1.734999775886534,-0.34999987483024564,-0.7177035212516344,0.0,-1.9499998092314055,0.19700008630411736,-0.43451574745626736,0.0
1759839623.6112905,0,-1.2049998044967651,-0.8299995064735413,-0.7177030394340598,0.0,-1.734999775886534,-0.34999987483024564,-0.7177035212516344,0.0,-1.9499998092314055,0.19700008630411736,-0.43451574745626736,0.0
1759839623.622447,0,-1.2049998044967651,-0.8299995064735413,-0.7177030395870609,0.0,-1.734999775886534,-0.34999987483024564,-0.7177035212516344,0.0,-1.9499998092314055,0.19700008630411736,-0.43451574745626736,0.0
1759839623.6327858,0,-1.2049998044967651,-0.8299995064735413,-0.7177030398185806,0.0,-1.734999775886534,-0.34999987483024564,-0.7177035212516344,0.0,-1.9499998092314055,0.19700008630411736,-0.43451574745626736,0.0
1759839623.642931,0,-1.2049998044967651,-0.8299995064735413,-0.7177030400435758,0.0,-1.734999775886534,-0.34999987483024564,-0.7177035212516344,0.0,-1.9499998092314055,0.19700008630411736,-0.43451574745626736,0.0
1759839623.6543763,0,-1.2049998044967651,-0.8299995064735413,-0.7177030401198685,0.0,-1.734999775886534,-0.34999987483024564,-0.7177035212516344,0.0,-1.9499998092314055,0.19700008630411736,-0.43451574745626736,0.0
1759839623.6651194,0,-1.2049998044967651,-0.8299995064735413,-0.7177030402696687,0.0,-1.734999775886534,-0.34999987483024564,-0.7177035212516344,0.0,-1.9499998092314055,0.19700008630411736,-0.43451574745626736,0.0
1759839623.6753788,0,-1.2049998044967651,-0.8299995064735413,-0.717703040458046,0.0,-1.734999775886534,-0.34999987483024564,-0.7177035212516344,0.0,-1.9499998092314055,0.19700008630411736,-0.43451574745626736,0.0
1759839623.6866298,0,-1.2049998044967651,-0.8299995064735413,-0.7177030405450786,0.0,-1.734999775886534,-0.34999987483024564,-0.7177035212516344,0.0,-1.9499998092314055,0.19700008630411736,-0.43451574745626736,0.0
1759839623.7030034,0,-1.2049998044967651,-0.8299995064735413,-0.7177030402398845,0.0,-1.734999775886534,-0.34999987483024564,-0.7177035212516344,0.0,-1.9499998092314055,0.19700008630411736,-0.43451574745626736,0.0
1759839623.7080383,0,-1.2049998044967651,-0.8299995064735413,-0.7177030409255956,0.0,-1.734999775886534,-0.34999987483024564,-0.7177035212516344,0.0,-1.9499998092314055,0.19700008630411736,-0.43451574745626736,0.0
1759839623.7195249,0,-1.2049998044967651,-0.8299995064735413,-0.7177030409967209,0.0,-1.734999775886534,-0.34999987483024564,-0.7177035212516344,0.0,-1.9499998092314055,0.19700008630411736,-0.43451574745626736,0.0
1759839623.7299483,0,-1.2049998044967651,-0.8299995064735413,-0.7177030411216663,0.0,-1.734999775886534,-0.34999987483024564,-0.7177035212516344,0.0,-1.9499998092314055,0.19700008630411736,-0.43451574745626736,0.0
1759839623.7412329,0,-1.2049998044967651,-0.8299995064735413,-0.7177030411819167,0.0,-1.734999775886534,-0.34999987483024564,-0.7177035212516344,0.0,-1.9499998092314055,0.19700008630411736,-0.43451574745626736,0.0
1759839623.7517512,0,-1.2049998044967651,-0.8299995064735413,-0.717703041303313,0.0,-1.734999775886534,-0.34999987483024564,-0.7177035212516344,0.0,-1.9499998092314055,0.19700008630411736,-0.43451574745626736,0.0
1759839623.7626173,0,-1.2049998044967651,-0.8299995064735413,-0.7177030413973053,0.0,-1.734999775886534,-0.34999987483024564,-0.7177035212516344,0.0,-1.9499998092314055,0.19700008630411736,-0.43451574745626736,0.0
1759839623.7737536,0,-1.2049998044967651,-0.8299995064735413,-0.7177030414731256,0.0,-1.734999775886534,-0.34999987483024564,-0.7177035212516344,0.0,-1.9499998092314055,0.19700008630411736,-0.43451574745626736,0.0
1759839623.7852407,0,-1.2049998044967651,-0.8299995064735413,-0.7177030415328751,0.0,-1.734999775886534,-0.34999987483024564,-0.7177035212516344,0.0,-1.9499998092314055,0.19700008630411736,-0.43451574745626736,0.0
1759839623.7965238,0,-1.2049998044967651,-0.8299995064735413,-0.7177030416150245,0.0,-1.734999775886534,-0.34999987483024564,-0.7177035212516344,0.0,-1.9499998092314055,0.19700008630411736,-0.43451574745626736,0.0
1759839623.8066595,0,-1.2049998044967651,-0.8299995064735413,-0.7177030417655778,0.0,-1.734999775886534,-0.34999987483024564,-0.7177035212516344,0.0,-1.9499998092314055,0.19700008630411736,-0.43451574745626736,0.0
1759839623.8172512,0,-1.2049998044967651,-0.8299995064735413,-0.7177030418728343,0.0,-1.734999775886534,-0.34999987483024564,-0.7177035212516344,0.0,-1.9499998092314055,0.19700008630411736,-0.43451574745626736,0.0
1759839623.8285124,0,-1.2049998044967651,-0.8299995064735413,-0.7177030419335857,0.0,-1.734999775886534,-0.34999987483024564,-0.7177035212516344,0.0,-1.9499998092314055,0.19700008630411736,-0.43451574745626736,0.0
1759839623.8399117,0,-1.2049998044967651,-0.8299995064735413,-0.7177030419911254,0.0,-1.734999775886534,-0.34999987483024564,-0.7177035212516344,0.0,-1.9499998092314055,0.19700008630411736,-0.43451574745626736,0.0
1759839623.8510358,0,-1.2049998044967651,-0.8299995064735413,-0.71770304206904,0.0,-1.734999775886534,-0.34999987483024564,-0.7177035212516344,0.0,-1.9499998092314055,0.19700008630411736,-0.43451574745626736,0.0
1759839623.8619235,0,-1.2049998044967651,-0.8299995064735413,-0.7177030421586501,0.0,-1.734999775886534,-0.34999987483024564,-0.7177035212516344,0.0,-1.9499998092314055,0.19700008630411736,-0.43451574745626736,0.0
1759839623.872583,0,-1.2049998044967651,-0.8299995064735413,-0.7177030422536514,0.0,-1.734999775886534,-0.34999987483024564,-0.7177035212516344,0.0,-1.9499998092314055,0.19700008630411736,-0.43451574745626736,0.0
1759839623.8832738,0,-1.2049998044967651,-0.8299995064735413,-0.717703042338858,0.0,-1.734999775886534,-0.34999987483024564,-0.7177035212516344,0.0,-1.9499998092314055,0.19700008630411736,-0.43451574745626736,0.0
1759839623.8940992,0,-1.2049998044967651,-0.8299995064735413,-0.7177030424113333,0.0,-1.734999775886534,-0.34999987483024564,-0.7177035212516344,0.0,-1.9499998092314055,0.19700008630411736,-0.43451574745626736,0.0
1759839623.9054136,0,-1.2049998044967651,-0.8299995064735413,-0.7177030424601263,0.0,-1.734999775886534,-0.34999987483024564,-0.7177035212516344,0.0,-1.9499998092314055,0.19700008630411736,-0.43451574745626736,0.0
1759839623.9164872,0,-1.2049998044967651,-0.8299995064735413,-0.7177030425219044,0.0,-1.734999775886534,-0.34999987483024564,-0.7177035212516344,0.0,-1.9499998092314055,0.19700008630411736,-0.43451574745626736,0.0
1759839623.9276202,0,-1.2049998044967651,-0.8299995064735413,-0.71770304258194,0.0,-1.734999775886534,-0.34999987483024564,-0.7177035212516344,0.0,-1.9499998092314055,0.19700008630411736,-0.43451574745626736,0.0
1759839623.937822,0,-1.2049998044967651,-0.8299995064735413,-0.7177030426758737,0.0,-1.734999775886534,-0.34999987483024564,-0.7177035212516344,0.0,-1.9499998092314055,0.19700008630411736,-0.43451574745626736,0.0
1759839623.9488409,0,-1.2049998044967651,-0.8299995064735413,-0.7177030427294876,0.0,-1.734999775886534,-0.34999987483024564,-0.7177035212516344,0.0,-1.9499998092314055,0.19700008630411736,-0.43451574745626736,0.0
1759839623.9596488,0,-1.2049998044967651,-0.8299995064735413,-0.7177030427881039,0.0,-1.734999775886534,-0.34999987483024564,-0.7177035212516344,0.0,-1.9499998092314055,0.19700008630411736,-0.43451574745626736,0.0
1759839623.971089,0,-1.2049998044967651,-0.8299995064735413,-0.7177030428236719,0.0,-1.734999775886534,-0.34999987483024564,-0.7177035212516344,0.0,-1.9499998092314055,0.19700008630411736,-0.43451574745626736,0.0
