timestamp,observer_vehicle_id,vehicle_0_x,vehicle_0_y,vehicle_0_theta,vehicle_0_velocity,vehicle_1_x,vehicle_1_y,vehicle_1_theta,vehicle_1_velocity,vehicle_2_x,vehicle_2_y,vehicle_2_theta,vehicle_2_velocity
1759839620.9084961,1,-0.24108695362587015,-0.16605982157005317,-0.1435924221233961,0.0,-1.735,-0.35,-0.7801621756414646,0.0,0.0,0.0,0.0,0.0
1759839620.9185472,1,-0.43200145176721866,-0.29756103729194205,-0.2573019148781594,0.0,-1.735,-0.35,-0.7801621756414646,0.0,0.0,0.0,0.0,0.0
1759839620.9289045,1,-0.583501796823642,-0.40191392694234046,-0.34753616924988884,0.0,-1.735,-0.35,-0.7801621756414646,0.0,0.0,0.0,0.0,0.0
1759839620.9399955,1,-0.7039309051467999,-0.48486506112531536,-0.4192642619492503,0.0,-1.735,-0.35,-0.7801621756414646,0.0,0.0,0.0,0.0,0.0
1759839620.9514549,1,-0.7998758014018209,-0.5509515586028644,-0.47640945307815785,0.0,-1.735,-0.35,-0.7801621756414646,0.0,0.0,0.0,0.0,0.0
1759839620.9621656,1,-0.8810481901490735,-0.606862806345875,-0.5247560754667249,0.0,-1.735,-0.35,-0.7801621756414646,0.0,0.0,0.0,0.0,0.0
1759839620.9731627,1,-0.9452440268832163,-0.6510806664717914,-0.5629913907679361,0.0,-1.735,-0.35,-0.7801621756414646,0.0,0.0,0.0,0.0,0.0
1759839620.984488,1,-0.9961301370468078,-0.6861308350813852,-0.5932993759199124,0.0,-1.735,-0.35,-0.7801621756414646,0.0,0.0,0.0,0.0,0.0
1759839620.9953635,1,-1.0365933564838479,-0.7140017542614091,-0.6173994427152797,0.0,-1.735,-0.35,-0.7801621756414646,0.0,0.0,0.0,0.0,0.0
1759839621.0058253,1,-1.068865482596603,-0.7362306779894301,-0.6366208592453236,0.0,-1.735,-0.35,-0.7801621756414646,0.0,0.0,0.0,0.0,0.0
1759839621.016739,1,-1.0946560814288515,-0.7539951491723635,-0.6519818503675656,0.0,-1.735,-0.35,-0.7801621756414646,0.0,0.0,0.0,0.0,0.0
1759839621.0280612,1,-1.116518371431336,-0.769053815443286,-0.6650031239263684,0.0,-1.735,-0.35,-0.7801621756414646,0.0,0.0,0.0,0.0,0.0
1759839621.0391908,1,-1.1338521551715948,-0.7809932629818209,-0.6753271997603907,0.0,-1.735,-0.35,-0.7801621756414646,0.0,0.0,0.0,0.0,0.0
1759839621.0499659,1,-1.1476368731323905,-0.7904881268495504,-0.6835374368159812,0.0,-1.735,-0.35,-0.7801621756414646,0.0,0.0,0.0,0.0,0.0
1759839621.0608013,1,-1.1586265187714109,-0.7980577550126979,-0.6900829168257937,0.0,-1.735,-0.35,-0.7801621756414646,0.0,0.0,0.0,0.0,0.0
1759839621.0720167,1,-1.1679203518814958,-0.8044593136402027,-0.6956183636304295,0.0,-1.735,-0.35,-0.7801621756414646,0.0,0.0,0.0,0.0,0.0
1759839621.0821297,1,-1.175276578339737,-0.8095262558148512,-0.6999997636147118,0.0,-1.735,-0.35,-0.7801621756414646,0.0,0.0,0.0,0.0,0.0
1759839621.0934265,1,-1.181106241148865,-0.8135417064700521,-0.7034719357515105,0.0,-1.735,-0.35,-0.7801621756414646,0.0,0.0,0.0,0.0,0.0
1759839621.1051674,1,-1.18573641658124,-0.816730954559069,-0.7062296880694675,0.0,-1.734999777754148,-0.34999987587332726,-0.7229997728626075,0.0,0.0,0.0,0.0,0.0
1759839621.1158936,1,-1.1894280163326831,-0.819273715114184,-0.708428420692065,0.0,-1.7349997765108072,-0.34999987517890824,-0.7181174423870029,0.0,0.0,0.0,0.0,0.0
1759839621.1263807,1,-1.1925662838752566,-0.8214353424454065,-0.7102975862812104,0.0,-1.734999776120719,-0.34999987496103985,-0.7176589966527249,0.0,0.0,0.0,0.0,0.0
1759839621.1372757,1,-1.1950449865388006,-0.8231426638738074,-0.7117739122035759,0.0,-1.7349997759757527,-0.34999987488007467,-0.7175972202169696,0.0,0.0,0.0,0.0,0.0
1759839621.1481466,1,-1.1970079001796616,-0.8244947116891556,-0.7129430319749747,0.0,-1.7349997759206006,-0.3499998748492716,-0.7175897454212183,0.0,0.0,0.0,0.0,0.0
1759839621.1594036,1,-1.1985657691787903,-0.8255677662204525,-0.7138709054230044,0.0,-1.7349997758995466,-0.3499998748375127,-0.7175961465166978,0.0,0.0,0.0,0.0,0.0
1759839621.1698306,1,-1.1998065438568861,-0.826422407330452,-0.7146099161353536,0.0,-1.7349997758915052,-0.3499998748330216,-0.7176090903854409,0.0,0.0,0.0,0.0,0.0
1759839621.1804879,1,-1.200851583950611,-0.8271422271667705,-0.715232346490946,0.0,-1.734999775888434,-0.3499998748313062,-0.7176209235801494,0.0,0.0,0.0,0.0,0.0
1759839621.1913772,1,-1.2016772963381643,-0.8277109748724554,-0.7157241443253907,0.0,-1.7349997758872606,-0.3499998748306509,-0.7176310465063871,0.0,0.0,0.0,0.0,0.0
1759839621.2029278,1,-1.2023309734303458,-0.8281612252889939,-0.7161134772011073,0.0,-1.7349997758868125,-0.3499998748304006,-0.7176391178224879,0.0,0.0,0.0,0.0,0.0
1759839621.21365,1,-1.2028503216193518,-0.8285189504429354,-0.7164228032067795,0.0,-1.7349997758866413,-0.34999987483030504,-0.7176472009114434,0.0,0.0,0.0,0.0,0.0
1759839621.223684,1,-1.2032642922653616,-0.8288040919264449,-0.716669365896525,0.0,-1.734999775886576,-0.3499998748302685,-0.7176544295644547,0.0,0.0,0.0,0.0,0.0
1759839621.2351735,1,-1.2036131920820836,-0.8290444128581224,-0.7168771721216567,0.0,-1.7349997758865512,-0.3499998748302546,-0.7176588978729566,0.0,0.0,0.0,0.0,0.0
1759839621.2466056,1,-1.203888780201929,-0.8292342369581829,-0.7170413135861443,0.0,-1.7349997758865416,-0.34999987483024925,-0.7176629430413861,0.0,0.0,0.0,0.0,0.0
1759839621.2572477,1,-1.2041072306855003,-0.8293847048610626,-0.7171714236297543,0.0,-1.7349997758865379,-0.34999987483024725,-0.7176671014686349,0.0,0.0,0.0,0.0,0.0
1759839621.268199,1,-1.2042807742953925,-0.8295042410717945,-0.7172747869470707,0.0,-1.7349997758865365,-0.34999987483024647,-0.717670375628801,0.0,0.0,0.0,0.0,0.0
1759839621.2785447,1,-1.2044190879533767,-0.82959951101909,-0.7173571671541453,0.0,-1.734999775886536,-0.34999987483024614,-0.7176735138404277,0.0,0.0,0.0,0.0,0.0
1759839621.288811,1,-1.2045356532686673,-0.8296798007866086,-0.7174265939551663,0.0,-1.7349997758865359,-0.349999874830246,-0.7176761547695385,0.0,0.0,0.0,0.0,0.0
1759839621.299555,1,-1.2046278234359413,-0.8297432872644185,-0.7174814909015474,0.0,-1.7349997758865356,-0.34999987483024597,-0.7176781079539722,0.0,0.0,0.0,0.0,0.0
1759839621.312565,1,-1.2047007227501376,-0.8297935000483371,-0.717524910045301,0.0,-1.7349997758865356,-0.34999987483024597,-0.7176787814881997,0.0,0.0,0.0,0.0,0.0
1759839621.323893,1,-1.2047586579588598,-0.8298334056105349,-0.7175594165037448,0.0,-1.7349997758865356,-0.34999987483024597,-0.7176804776848815,0.0,0.0,0.0,0.0,0.0
1759839621.335401,1,-1.2048048154998177,-0.8298651987577803,-0.717586908132826,0.0,-1.7349997758865356,-0.34999987483024597,-0.7176819991055866,0.0,0.0,0.0,0.0,0.0
1759839621.3463333,1,-1.204843890219906,-0.8298921132836315,-0.7176101812034625,0.0,-1.7349997758865356,-0.34999987483024597,-0.7176836000880549,0.0,0.0,0.0,0.0,0.0
1759839621.3576906,1,-1.2048747804282174,-0.8299133903473769,-0.7176285795438315,0.0,-1.7349997758865356,-0.34999987483024597,-0.7176848349996092,0.0,0.0,0.0,0.0,0.0
1759839621.3685522,1,-1.2048992789818227,-0.8299302648624812,-0.7176431709872829,0.0,-1.7349997758865356,-0.34999987483024597,-0.7176861114228998,0.0,0.0,0.0,0.0,0.0
1759839621.3792114,1,-1.204918762722056,-0.829943685192275,-0.7176547755864121,0.0,-1.7349997758865356,-0.34999987483024597,-0.7176872904615905,0.0,0.0,0.0,0.0,0.0
1759839621.389953,1,-1.2049342960444656,-0.829954384488562,-0.7176640272997665,0.0,-1.7349997758865356,-0.34999987483024597,-0.7176882795550306,0.0,0.0,0.0,0.0,0.0
1759839621.4011838,1,-1.2049474246579788,-0.8299634274300596,-0.7176718467582031,0.0,-1.7349997758865356,-0.34999987483024597,-0.7176890044353073,0.0,0.0,0.0,0.0,0.0
1759839621.4114714,1,-1.2049578143813515,-0.8299705838339358,-0.7176780349219417,0.0,-1.7349997758865356,-0.34999987483024597,-0.7176899476849208,0.0,-0.3914140892028809,0.03954285926818848,2.389604295084269,0.0
1759839621.4228806,1,-1.2049660474515043,-0.8299762547428755,-0.7176829385737858,0.0,-1.7349997758865356,-0.34999987483024597,-0.7176904706674581,0.0,-0.7007050478151378,0.07078917662542675,3.0858132502779707,0.0
1759839621.4342985,1,-1.2049725891635334,-0.8299807606504577,-0.7176868348454876,0.0,-1.7349997758865356,-0.34999987483024597,-0.7176909831342079,0.0,-0.9457664261443965,0.09554665946176726,-2.6312821835095366,0.0
1759839621.4456646,1,-1.204977801303337,-0.8299843507535004,-0.7176899392182775,0.0,-1.7349997758865356,-0.34999987483024597,-0.7176915152573784,0.0,-1.1404737775183742,0.11521709444672806,-0.9487220739241182,0.0
1759839621.4563515,1,-1.2049819682120209,-0.829987220905129,-0.7176924210469361,0.0,-1.7349997758865356,-0.34999987483024597,-0.717692193250949,0.0,-1.2956997374013446,0.13089889654772557,0.4065132660357114,0.0
1759839621.4673233,1,-1.2049853068629852,-0.8299895205558363,-0.7176944095617495,0.0,-1.7349997758865356,-0.34999987483024597,-0.7176927374251214,0.0,-1.4197254841042937,0.14342867711207477,1.503728911954542,0.0
1759839621.4780579,1,-1.2049881510386489,-0.8299914796137451,-0.717696103564956,0.0,-1.7349997758865356,-0.34999987483024597,-0.7176932831570184,0.0,-1.519103104327327,0.15346836489870944,2.397123324004683,0.0
1759839621.4887378,1,-1.2049904123463773,-0.8299930371943284,-0.7176974504095237,0.0,-1.7349997758865356,-0.34999987483024597,-0.7176937870624425,0.0,-1.6035190778921073,0.16199654274089495,3.099020439672375,0.0
1759839621.4995806,1,-1.2049922144887901,-0.8299942785035034,-0.7176985237732632,0.0,-1.7349997758865356,-0.34999987483024597,-0.7176942097911283,0.0,-1.6706459566060112,0.16877807869301756,-2.6121120369186315,0.0
1759839621.5121396,1,-1.2049936517761208,-0.8299952685018177,-0.717699379827753,0.0,-1.7349997758865356,-0.34999987483024597,-0.7176942870851342,0.0,-1.7240660607962675,0.17417487896249473,-0.9390595788796074,0.0
1759839621.5234747,1,-1.204994802942117,-0.8299960614207917,-0.7177000654671507,0.0,-1.7349997758865356,-0.34999987483024597,-0.7176946646830126,0.0,-1.766758587298857,0.178487918819423,0.4129158559455342,0.0
1759839621.5336642,1,-1.2049957285337574,-0.8299966989649655,-0.717700616753496,0.0,-1.7349997758865356,-0.34999987483024597,-0.7176952390578039,0.0,-1.8010104957753075,0.181948239829608,1.5111487074501906,0.0
1759839621.5444195,1,-1.2049965175089516,-0.8299972424082255,-0.7177010866705008,0.0,-1.7349997758865356,-0.34999987483024597,-0.7176956377333301,0.0,-1.8285394729578581,0.18472937239625542,2.4082825805225636,0.0
1759839621.5550413,1,-1.2049971467812166,-0.8299976758486854,-0.7177014614677569,0.0,-1.7349997758865356,-0.34999987483024597,-0.7176960086967554,0.0,-1.8507238610209675,0.18697056442109264,-3.137494279258908,0.0
1759839621.5656114,1,-1.2049976499649955,-0.8299980224398523,-0.7177017611661708,0.0,-1.7349997758865356,-0.34999987483024597,-0.7176963498219315,0.0,-1.8696935028554558,0.18888698464744863,-1.364373588328707,0.0
1759839621.5758214,1,-1.2049980534817049,-0.829998300380702,-0.7177020015024511,0.0,-1.7349997758865356,-0.34999987483024597,-0.7176967101821212,0.0,-1.8848744472415717,0.1904206492854306,0.06804119246720688,0.0
1759839621.5870192,1,-1.204998377503303,-0.8299985235656068,-0.7177021944911028,0.0,-1.7349997758865356,-0.34999987483024597,-0.7176968887703267,0.0,-1.897039770267603,0.19164965884241938,1.2308012871481877,0.0
1759839621.5974286,1,-1.2049986385945801,-0.8299987034043339,-0.7177023499981856,0.0,-1.7349997758865356,-0.34999987483024597,-0.7176971810056862,0.0,-1.906822378910768,0.1926379531514981,2.1798271003044305,0.0
1759839621.6085815,1,-1.2049988493143748,-0.8299988485473663,-0.7177024755037977,0.0,-1.7349997758865356,-0.34999987483024597,-0.7176973558728647,0.0,-1.9147016700985726,0.19343396359457377,2.9593840867667547,0.0
1759839621.6201415,1,-1.2049990303152418,-0.8299989732201085,-0.7177025833086892,0.0,-1.7349997758865356,-0.34999987483024597,-0.7176974862806151,0.0,-1.9210614951570726,0.19407646899791967,-2.6786554303365886,0.0
1759839621.6304238,1,-1.2049991754255485,-0.8299990731715629,-0.7177026697370092,0.0,-1.7349997758865356,-0.34999987483024597,-0.7176977954636818,0.0,-1.926215937269576,0.19459719981646487,-1.022299071107385,0.0
1759839621.641171,1,-1.2049992919846562,-0.8299991534570547,-0.7177027391601131,0.0,-1.7349997758865356,-0.34999987483024597,-0.717698020831433,0.0,-1.930659489800595,0.1950461125593422,0.34415262243961325,0.0
1759839621.652322,1,-1.204999385803792,-0.8299992180793362,-0.7177027950391923,0.0,-1.7349997758865356,-0.34999987483024597,-0.7176981828852185,0.0,-1.9342297243817619,0.19540679779651648,1.4570481216440545,0.0
1759839621.6630907,1,-1.2049994615468889,-0.8299992702509073,-0.7177028401521052,0.0,-1.7349997758865356,-0.34999987483024597,-0.7176983892325596,0.0,-1.9371069330941835,0.19569746965105342,2.3685783922461634,0.0
1759839621.6742232,1,-1.204999522824205,-0.8299993124585007,-0.7177028766491369,0.0,-1.7349997758865356,-0.34999987483024597,-0.7176985487608949,0.0,-1.9394305029626842,0.19593220978648657,3.120045558868199,0.0
1759839621.684965,1,-1.204999572547534,-0.8299993467077498,-0.7177029062645647,0.0,-1.7349997758865356,-0.34999987483024597,-0.7176987478393819,0.0,-1.9413126155346219,0.19612235141554898,-2.5394644898194216,0.0
1759839621.695109,1,-1.2049996130226832,-0.8299993745868862,-0.7177029303717369,0.0,-1.7349997758865356,-0.34999987483024597,-0.7176989933108935,0.0,-1.9428419549655649,0.1962768539119058,-0.9122695948593191,0.0
1759839621.7075763,1,-1.2049996479677403,-0.8299993986569152,-0.7177029511851626,0.0,-1.7349997758865356,-0.34999987483024597,-0.7176989921055572,0.0,-1.9440842189034058,0.1964023544225492,0.42728034892669275,0.0
1759839621.7166727,1,-1.2049996762503656,-0.8299994181378851,-0.7177029680304153,0.0,-1.7349997758865356,-0.34999987483024597,-0.7176993331950872,0.0,-1.9451653098876702,0.1965115916266727,0.2697846587503395,0.0
1759839621.7278686,1,-1.2049996991355458,-0.8299994339011145,-0.7177029816609266,0.0,-1.7349997758865356,-0.34999987483024597,-0.7176994406040134,0.0,-1.946038003103532,0.1965997715933414,0.14264880955270975,0.0
1759839621.7385938,1,-1.20499971771093,-0.8299994466957719,-0.7177029927245049,0.0,-1.7349997758865356,-0.34999987483024597,-0.7176995834662919,0.0,-1.9467446649858504,0.19667117517491658,0.03970076679130012,0.0
1759839621.748821,1,-1.2049997328339233,-0.8299994571124348,-0.7177030017318244,0.0,-1.7349997758865356,-0.34999987483024597,-0.7176997633352576,0.0,-1.9473186223616579,0.1967291698302526,-0.043914594311839354,0.0
1759839621.759551,1,-1.2049997451678482,-0.8299994656079976,-0.717703009077963,0.0,-1.7349997758865356,-0.34999987483024597,-0.7176998854819949,0.0,-1.94778562390821,0.19677635729551615,-0.11194839716305358,0.0
1759839621.7707071,1,-1.2049997552465999,-0.8299994725502053,-0.7177030150809107,0.0,-1.7349997758865356,-0.34999987483024597,-0.7176999702177334,0.0,-1.9481663441203427,0.19681482659378244,-0.16741254721766818,0.0
1759839621.781718,1,-1.2049997640386814,-0.8299994786061593,-0.7177030203175121,0.0,-1.7349997758865356,-0.34999987483024597,-0.7177000737630869,0.0,-1.9484775634177738,0.19684627327719345,-0.2127516525830179,0.0
1759839621.7919521,1,-1.2049997711784002,-0.8299994835239718,-0.7177030245699592,0.0,-1.7349997758865356,-0.34999987483024597,-0.7177002358460384,0.0,-1.9487486704156367,0.1968736668739359,-0.252247110746606,0.0
1759839621.8022535,1,-1.2049997769895138,-0.8299994875266459,-0.7177030280310833,0.0,-1.7349997758865356,-0.34999987483024597,-0.7177003772027781,0.0,-1.9489689164612223,0.19689592130264655,-0.28433303456153747,0.0
1759839621.8126717,1,-1.204999781729786,-0.8299994907917282,-0.7177030308544097,0.0,-1.7349997758865356,-0.34999987483024597,-0.7177004954036903,0.0,-1.9491482431694334,0.19691404109877358,-0.31045774014862865,0.0
1759839621.8233228,1,-1.2049997856046772,-0.8299994934607394,-0.7177030331623117,0.0,-1.7349997758865356,-0.34999987483024597,-0.7177005894522512,0.0,-1.9492945614663189,0.19692882560987998,-0.3317737084517951,0.0
1759839621.8340185,1,-1.2049997887796575,-0.8299994956476544,-0.7177030350533435,0.0,-1.7349997758865356,-0.34999987483024597,-0.7177006785851816,0.0,-1.9494142303504556,0.19694091737136346,-0.34920733223930195,0.0
1759839621.8441763,1,-1.2049997913891244,-0.8299994974450458,-0.717703036607553,0.0,-1.7349997758865356,-0.34999987483024597,-0.7177007994051489,0.0,-1.9495124037632463,0.19695083715544143,-0.363509448924679,0.0
1759839621.855639,1,-1.2049997936783896,-0.8299994990218833,-0.7177030379710491,0.0,-1.7349997758865356,-0.34999987483024597,-0.7177008346175384,0.0,-1.9495930008221842,0.19695898096341607,-0.375251004083661,0.0
1759839621.8662243,1,-1.2049997955449285,-0.8299995003075487,-0.7177030390827678,0.0,-1.7349997758865356,-0.34999987483024597,-0.7177009308670108,0.0,-1.9496638633460734,0.1969661411600133,-0.38557441096617623,0.0
1759839621.8764539,1,-1.2049997970711113,-0.8299995013587776,-0.7177030399917688,0.0,-1.7349997758865356,-0.34999987483024597,-0.7177010447600907,0.0,-1.9497216949115297,0.1969719846631157,-0.393999439431019,0.0
1759839621.8876946,1,-1.2049997983204037,-0.8299995022192859,-0.7177030407358528,0.0,-1.7349997758865356,-0.34999987483024597,-0.7177010949869889,0.0,-1.9497689457942733,0.19697675905712914,-0.40088305098401983,0.0
1759839621.8990562,1,-1.2049997993454806,-0.8299995029253551,-0.717703041346393,0.0,-1.7349997758865356,-0.34999987483024597,-0.7177011450321409,0.0,-1.9498076442831362,0.19698066928743238,-0.4065207311617214,0.0
1759839621.9149342,1,-1.2049998001840694,-0.8299995035029719,-0.71770304184586,0.0,-1.7349997758865356,-0.34999987483024597,-0.7177009911662716,0.0,-1.9498392457002167,0.19698386240484658,-0.4111244944583303,0.0
1759839621.9261558,1,-1.2049998008764635,-0.8299995039798904,-0.7177030422582528,0.0,-1.7349997758865356,-0.34999987483024597,-0.7177011258570332,0.0,-1.9498652899255022,0.1969864940042172,-0.4149186739456835,0.0
1759839621.9369853,1,-1.2049998014885337,-0.8299995044014822,-0.7177030426228045,0.0,-1.7349997758865356,-0.34999987483024597,-0.7177012768493647,0.0,-1.9498868182911828,0.19698866930538103,-0.4180549731661729,0.0
1759839621.947664,1,-1.204999801990699,-0.8299995047473717,-0.7177030429218962,0.0,-1.7349997758865356,-0.34999987483024597,-0.7177014106164386,0.0,-1.9499058287788054,0.19699059019136297,-0.4208244624249293,0.0
1759839621.9580894,1,-1.204999802403812,-0.8299995050319225,-0.7177030431679482,0.0,-1.7349997758865356,-0.34999987483024597,-0.7177015328670553,0.0,-1.949921444837393,0.19699216809239475,-0.42309944386579906,0.0
1759839621.9693727,1,-1.2049998027441022,-0.8299995052663134,-0.7177030433706265,0.0,-1.7349997758865356,-0.34999987483024597,-0.7177016017890682,0.0,-1.9499342892449205,0.19699346593613531,-0.42497064514106336,0.0
1759839621.979594,1,-1.2049998030254823,-0.829999505460127,-0.7177030435382178,0.0,-1.7349997758865356,-0.34999987483024597,-0.7177017063144735,0.0,-1.949944894436528,0.1969945375216885,-0.42651563256211406,0.0
1759839621.9903538,1,-1.2049998032585223,-0.8299995056206441,-0.7177030436770174,0.0,-1.7349997758865356,-0.34999987483024597,-0.717701777433156,0.0,-1.9499536648773657,0.19699542371762388,-0.4277933294932389,0.0
1759839622.0009942,1,-1.2049998034520155,-0.8299995057539215,-0.7177030437922628,0.0,-1.7349997758865356,-0.34999987483024597,-0.7177018457430417,0.0,-1.949960936393336,0.19699615845696208,-0.4288526597836748,0.0
1759839622.0117223,1,-1.204999803624279,-0.8299995058725761,-0.7177030438948637,0.0,-1.7349997758865356,-0.34999987483024597,-0.717701905700654,0.0,-1.949966978644113,0.19699676898705726,-0.42973290804232,0.0
1759839622.0225182,1,-1.2049998037662553,-0.8299995059703686,-0.7177030439794253,0.0,-1.7349997758865356,-0.34999987483024597,-0.7177019598806318,0.0,-1.9499723773415716,0.19699731449028027,-0.43051940205131634,0.0
1759839622.0337296,1,-1.2049998038834902,-0.8299995060511197,-0.717703044049251,0.0,-1.7349997758865356,-0.34999987483024597,-0.7177019987428537,0.0,-1.9499768267622368,0.1969977640752648,-0.4311676033486534,0.0
1759839622.0448756,1,-1.2049998039805438,-0.8299995061179699,-0.7177030441070564,0.0,-1.7349997758865356,-0.34999987483024597,-0.7177020420950075,0.0,-1.9499805032600155,0.19699813556142476,-0.4317032035557624,0.0
1759839622.055685,1,-1.204999804061122,-0.829999506173472,-0.7177030441550493,0.0,-1.7349997758865356,-0.34999987483024597,-0.7177020971808794,0.0,-1.949983549893208,0.19699844340386982,-0.4321470437175829,0.0
1759839622.066602,1,-1.2049998041281715,-0.8299995062196553,-0.7177030441949842,0.0,-1.7349997758865356,-0.34999987483024597,-0.717702146629879,0.0,-1.949986080244164,0.19699869907935683,-0.43251567075822617,0.0
1759839622.0777142,1,-1.2049998041879189,-0.8299995062608091,-0.7177030442305701,0.0,-1.7349997758865356,-0.34999987483024597,-0.7177021885358936,0.0,-1.9499881862994386,0.19699891188252813,-0.43282248547952445,0.0
1759839622.088017,1,-1.204999804237345,-0.8299995062948536,-0.7177030442600086,0.0,-1.7349997758865356,-0.34999987483024597,-0.7177022521286105,0.0,-1.9499899453324594,0.19699908962136042,-0.43307874524272744,0.0
1759839622.098392,1,-1.204999804278323,-0.8299995063230792,-0.7177030442844153,0.0,-1.7349997758865356,-0.34999987483024597,-0.7177023070902369,0.0,-1.9499915256965077,0.1969992493068565,-0.4333089761207348,0.0
1759839622.1112995,1,-1.2049998043122643,-0.8299995063464577,-0.7177030443046308,0.0,-1.7349997758865356,-0.34999987483024597,-0.7177022923161402,0.0,-1.9499928314762343,0.1969993812473949,-0.43349920495646616,0.0
1759839622.1221447,1,-1.2049998043405317,-0.8299995063659281,-0.7177030443214669,0.0,-1.7349997758865356,-0.34999987483024597,-0.7177023425437863,0.0,-1.9499939162843891,0.19699949086019491,-0.43365724217215235,0.0
1759839622.1328454,1,-1.2049998043641337,-0.8299995063821851,-0.7177030443355245,0.0,-1.7349997758865356,-0.34999987483024597,-0.7177023958061213,0.0,-1.9499948198300727,0.19699958215760255,-0.43378887267609245,0.0
1759839622.143434,1,-1.2049998043838894,-0.8299995063957927,-0.717703044347291,0.0,-1.7349997758865356,-0.34999987483024597,-0.717702446137645,0.0,-1.949995574272666,0.19699965838911385,-0.433898781516932,0.0
1759839622.1537862,1,-1.2049998044004688,-0.8299995064072125,-0.7177030443571657,0.0,-1.7349997758865356,-0.34999987483024597,-0.717702496097779,0.0,-1.9499962058692466,0.1969997222078355,-0.433990793882976,0.0
1759839622.1650229,1,-1.2049998044155628,-0.8299995064176092,-0.7177030443661556,0.0,-1.7349997758865356,-0.34999987483024597,-0.7177025214221082,0.0,-1.9499967351730014,0.1969997756905332,-0.43406790400728096,0.0
1759839622.1764,1,-1.2049998044281058,-0.829999506426249,-0.7177030443736264,0.0,-1.7349997758865356,-0.34999987483024597,-0.7177025447625773,0.0,-1.9499972115680715,0.19699982382715284,-0.4341373062790791,0.0
1759839622.1867752,1,-1.204999804438569,-0.829999506433456,-0.7177030443798585,0.0,-1.7349997758865356,-0.34999987483024597,-0.717702590414472,0.0,-1.9499976087453736,0.19699986395933286,-0.4341951679338462,0.0
1759839622.1974256,1,-1.2049998044473138,-0.8299995064394794,-0.7177030443850669,0.0,-1.7349997758865356,-0.34999987483024597,-0.7177026266201842,0.0,-1.9499979405086023,0.19699989748184674,-0.4342434999238588,0.0
1759839622.208254,1,-1.2049998044546375,-0.8299995064445238,-0.7177030443894289,0.0,-1.7349997758865356,-0.34999987483024597,-0.7177026563331097,0.0,-1.949998218206102,0.1969999255413708,-0.43428395550070936,0.0
1759839622.218982,1,-1.2049998044607861,-0.829999506448759,-0.717703044393091,0.0,-1.7349997758865356,-0.34999987483024597,-0.7177026866317622,0.0,-1.9499984512239732,0.1969999490863093,-0.43431790205189347,0.0
1759839622.229654,1,-1.2049998044663446,-0.8299995064525875,-0.7177030443964015,0.0,-1.7349997758865356,-0.34999987483024597,-0.7177027165337435,0.0,-1.9499986472166833,0.1969999688900964,-0.4343464546969628,0.0
1759839622.2399607,1,-1.2049998044709813,-0.8299995064557815,-0.7177030443991633,0.0,-1.7349997758865356,-0.34999987483024597,-0.7177027508838165,0.0,-1.9499988125283423,0.19699998559376308,-0.434370537659654,0.0
1759839622.2513013,1,-1.2049998044748529,-0.8299995064584482,-0.7177030444014693,0.0,-1.7349997758865356,-0.34999987483024597,-0.7177027653178918,0.0,-1.9499989630043477,0.19700000079838356,-0.43439245933198223,0.0
1759839622.2618954,1,-1.2049998044780967,-0.8299995064606827,-0.7177030444034013,0.0,-1.7349997758865356,-0.34999987483024597,-0.7177027933945617,0.0,-1.9499990889701146,0.19700001352640406,-0.43441081029940115,0.0
1759839622.2728033,1,-1.2049998044808197,-0.8299995064625582,-0.7177030444050231,0.0,-1.7349997758865356,-0.34999987483024597,-0.7177028157403811,0.0,-1.94999919461452,0.19700002420108334,-0.4344262008066069,0.0
1759839622.283904,1,-1.20499980448311,-0.8299995064641358,-0.7177030444063872,0.0,-1.7349997758865356,-0.34999987483024597,-0.7177028349541281,0.0,-1.9499992833996276,0.19700003317224027,-0.4344391352144998,0.0
1759839622.2943614,1,-1.204999804485043,-0.8299995064654672,-0.7177030444075384,0.0,-1.7349997758865356,-0.34999987483024597,-0.7177028638758821,0.0,-1.9499993582600714,0.19700004073640065,-0.43445004104708335,0.0
1759839622.304587,1,-1.2049998044868013,-0.8299995064666784,-0.7177030444085858,0.0,-1.7349997758865356,-0.34999987483024597,-0.7177028936832563,0.0,-1.9499994215412808,0.1970000471305548,-0.43445925999157065,0.0
1759839622.3167589,1,-1.2049998044882717,-0.8299995064676913,-0.7177030444094615,0.0,-1.7349997758865356,-0.34999987483024597,-0.7177028946169806,0.0,-1.9499994792349016,0.1970000529601195,-0.43446766492395744,0.0
1759839622.327596,1,-1.2049998044895067,-0.8299995064685419,-0.7177030444101972,0.0,-1.7349997758865356,-0.34999987483024597,-0.7177029173604659,0.0,-1.9499995276283526,0.1970000578499626,-0.4344747149873517,0.0
1759839622.3384552,1,-1.2049998044905463,-0.829999506469258,-0.7177030444108164,0.0,-1.7349997758865356,-0.34999987483024597,-0.7177029399284827,0.0,-1.9499995683140352,0.19700006196098588,-0.4344806421662327,0.0
1759839622.3493178,1,-1.2049998044914236,-0.8299995064698622,-0.7177030444113389,0.0,-1.7349997758865356,-0.34999987483024597,-0.717702961158059,0.0,-1.949999602598731,0.19700006542523113,-0.43448563683541563,0.0
1759839622.3595917,1,-1.2049998044921661,-0.8299995064703737,-0.7177030444117812,0.0,-1.7349997758865356,-0.34999987483024597,-0.717702987894036,0.0,-1.9499996315804358,0.19700006835364367,-0.43448985895330133,0.0
1759839622.3703828,1,-1.2049998044927954,-0.8299995064708071,-0.717703044412156,0.0,-1.7349997758865356,-0.34999987483024597,-0.717703005893803,0.0,-1.949999656114432,0.19700007083264423,-0.4344934331193263,0.0
1759839622.3812282,1,-1.2049998044933714,-0.8299995064712038,-0.7177030444124991,0.0,-1.7349997758865356,-0.34999987483024597,-0.7177030222265941,0.0,-1.949999676928675,0.19700007293578792,-0.43449646538357667,0.0
1759839622.3919113,1,-1.2049998044938564,-0.8299995064715379,-0.7177030444127881,0.0,-1.7349997758865356,-0.34999987483024597,-0.7177030399166888,0.0,-1.9499996960498887,0.19700007486786206,-0.43449925100367126,0.0
1759839622.4027753,1,-1.2049998044942658,-0.82999950647182,-0.7177030444130319,0.0,-1.7349997758865356,-0.34999987483024597,-0.7177030550135868,0.0,-1.9499997121622956,0.19700007649591586,-0.43450159829421603,0.0
1759839622.4129212,1,-1.2049998044946126,-0.8299995064720588,-0.7177030444132384,0.0,-1.7349997758865356,-0.34999987483024597,-0.7177030767097232,0.0,-1.9499997257846007,0.1970000778723611,-0.4345035828212994,0.0
1759839622.4236474,1,-1.2049998044949066,-0.8299995064722613,-0.7177030444134136,0.0,-1.7349997758865356,-0.34999987483024597,-0.7177030906960962,0.0,-1.949999737316782,0.1970000790376129,-0.4345052628545993,0.0
1759839622.4344406,1,-1.2049998044951564,-0.8299995064724334,-0.7177030444135623,0.0,-1.7349997758865356,-0.34999987483024597,-0.7177031034290025,0.0,-1.949999747100572,0.1970000800262012,-0.43450668817847077,0.0
1759839622.4451349,1,-1.2049998044953694,-0.8299995064725799,-0.717703044413689,0.0,-1.7349997758865356,-0.34999987483024597,-0.7177031170304495,0.0,-1.949999755420967,0.19700008086692294,-0.4345079003117632,0.0
1759839622.455832,1,-1.2049998044955663,-0.8299995064727155,-0.7177030444138063,0.0,-1.7349997758865356,-0.34999987483024597,-0.7177031303070258,0.0,-1.949999762512526,0.19700008158347881,-0.4345089334255425,0.0
1759839622.466094,1,-1.2049998044957329,-0.8299995064728303,-0.7177030444139055,0.0,-1.7349997758865356,-0.34999987483024597,-0.7177031467238795,0.0,-1.9499997690811217,0.19700008224719262,-0.4345098903528645,0.0
1759839622.4761114,1,-1.2049998044958743,-0.8299995064729276,-0.7177030444139899,0.0,-1.7349997758865356,-0.34999987483024597,-0.7177031635913291,0.0,-1.9499997746463424,0.19700008280952191,-0.4345107011063333,0.0
1759839622.486898,1,-1.2049998044959944,-0.8299995064730104,-0.7177030444140614,0.0,-1.7349997758865356,-0.34999987483024597,-0.7177031725803307,0.0,-1.9499997793661334,0.19700008328642607,-0.4345113886957677,0.0
1759839622.4981039,1,-1.2049998044960966,-0.8299995064730807,-0.7177030444141222,0.0,-1.7349997758865356,-0.34999987483024597,-0.7177031785930161,0.0,-1.9499997833754374,0.19700008369154012,-0.4345119727799141,0.0
1759839622.509417,1,-1.2049998044961836,-0.8299995064731408,-0.7177030444141742,0.0,-1.7349997758865356,-0.34999987483024597,-0.7177031852628986,0.0,-1.9499997867885352,0.19700008403641142,-0.43451247000742543,0.0
1759839622.5205834,1,-1.2049998044962582,-0.8299995064731921,-0.7177030444142186,0.0,-1.7349997758865356,-0.34999987483024597,-0.7177031943547938,0.0,-1.9499997897014802,0.19700008433074553,-0.43451289437160845,0.0
1759839622.5307996,1,-1.2049998044963277,-0.8299995064732401,-0.71770304441426,0.0,-1.7349997758865356,-0.34999987483024597,-0.7177032103532888,0.0,-1.9499997921969372,0.1970000845828952,-0.434513257915208,0.0
1759839622.5420463,1,-1.2049998044963868,-0.8299995064732807,-0.7177030444142951,0.0,-1.7349997758865356,-0.34999987483024597,-0.7177032180661183,0.0,-1.9499997945148058,0.1970000848171007,-0.43451359558733926,0.0
1759839622.553154,1,-1.204999804496437,-0.8299995064733153,-0.7177030444143252,0.0,-1.7349997758865356,-0.34999987483024597,-0.7177032268724535,0.0,-1.9499997964851385,0.19700008501619,-0.43451388262968493,0.0
1759839622.5633018,1,-1.20499980449648,-0.829999506473345,-0.7177030444143507,0.0,-1.7349997758865356,-0.34999987483024597,-0.7177032416865288,0.0,-1.9499997981663386,0.19700008518606432,-0.4345141275505625,0.0
1759839622.5737374,1,-1.2049998044965167,-0.8299995064733703,-0.7177030444143726,0.0,-1.7349997758865356,-0.34999987483024597,-0.7177032531459488,0.0,-1.9499997996032132,0.19700008533125116,-0.43451433687761515,0.0
1759839622.5851812,1,-1.2049998044965482,-0.8299995064733919,-0.7177030444143913,0.0,-1.7349997758865356,-0.34999987483024597,-0.717703257759485,0.0,-1.9499998008319532,0.19700008545540734,-0.4345145158831231,0.0
1759839622.5959747,1,-1.2049998044965753,-0.8299995064734106,-0.7177030444144072,0.0,-1.7349997758865356,-0.34999987483024597,-0.7177032667774963,0.0,-1.9499998018862255,0.19700008556193468,-0.43451466947179823,0.0
1759839622.6071687,1,-1.2049998044966006,-0.829999506473428,-0.7177030444144223,0.0,-1.7349997758865356,-0.34999987483024597,-0.717703273653715,0.0,-1.949999802792178,0.19700008565347532,-0.4345148014529719,0.0
1759839622.6182315,1,-1.2049998044966221,-0.8299995064734428,-0.7177030444144351,0.0,-1.7349997758865356,-0.34999987483024597,-0.7177032814515325,0.0,-1.9499998036401682,0.19700008573915923,-0.4345149249900433,0.0
1759839622.628747,1,-1.2049998044966403,-0.8299995064734554,-0.7177030444144461,0.0,-1.7349997758865356,-0.34999987483024597,-0.7177032919349564,0.0,-1.9499998043652378,0.1970000858124228,-0.43451503061974117,0.0
1759839622.639784,1,-1.2049998044966561,-0.8299995064734662,-0.7177030444144555,0.0,-1.7349997758865356,-0.34999987483024597,-0.7177032990630519,0.0,-1.949999804986028,0.1970000858751496,-0.43451512105784434,0.0
1759839622.6499622,1,-1.2049998044966697,-0.8299995064734755,-0.7177030444144635,0.0,-1.7349997758865356,-0.34999987483024597,-0.7177033098850991,0.0,-1.9499998055194572,0.19700008592904913,-0.43451519876895045,0.0
1759839622.6606367,1,-1.2049998044966814,-0.8299995064734835,-0.7177030444144704,0.0,-1.7349997758865356,-0.34999987483024597,-0.7177033173253466,0.0,-1.949999805978393,0.1970000859754216,-0.43451526562770715,0.0
1759839622.6717482,1,-1.2049998044966916,-0.8299995064734904,-0.7177030444144764,0.0,-1.7349997758865356,-0.34999987483024597,-0.7177033223756268,0.0,-1.949999806373794,0.19700008601537428,-0.43451532323057857,0.0
1759839622.6832962,1,-1.204999804496701,-0.829999506473497,-0.7177030444144821,0.0,-1.7349997758865356,-0.34999987483024597,-0.7177033259439529,0.0,-1.9499998067149495,0.19700008604984584,-0.43451537293087855,0.0
1759839622.694495,1,-1.2049998044967092,-0.8299995064735025,-0.7177030444144868,0.0,-1.7349997758865356,-0.34999987483024597,-0.7177033317479946,0.0,-1.9499998070384095,0.19700008608252936,-0.43451542005323,0.0
1759839622.7058227,1,-1.204999804496716,-0.8299995064735073,-0.717703044414491,0.0,-1.7349997758865356,-0.34999987483024597,-0.7177033373277109,0.0,-1.9499998073157978,0.19700008611055767,-0.4345154604637579,0.0
1759839622.7226343,1,-1.204999804496722,-0.8299995064735114,-0.7177030444144943,0.0,-1.7349997758865356,-0.34999987483024597,-0.7177033234811816,0.0,-1.9499998075520768,0.19700008613443212,-0.4345154948854127,0.0
1759839622.733463,1,-1.2049998044967272,-0.829999506473515,-0.7177030444144973,0.0,-1.7349997758865356,-0.34999987483024597,-0.7177033367385377,0.0,-1.9499998077560066,0.1970000861550379,-0.4345155245943348,0.0
1759839622.7437737,1,-1.2049998044967316,-0.8299995064735181,-0.7177030444145,0.0,-1.7349997758865356,-0.34999987483024597,-0.7177033509031928,0.0,-1.9499998079325476,0.1970000861728762,-0.43451555031321837,0.0
1759839622.7550611,1,-1.2049998044967358,-0.8299995064735209,-0.7177030444145025,0.0,-1.7349997758865356,-0.34999987483024597,-0.7177033592045204,0.0,-1.9499998080854282,0.1970000861883238,-0.4345155725851993,0.0
1759839622.7652853,1,-1.2049998044967394,-0.8299995064735234,-0.7177030444145048,0.0,-1.7349997758865356,-0.34999987483024597,-0.7177033695394499,0.0,-1.949999808231245,0.19700008620305762,-0.4345155938280948,0.0
1759839622.7766576,1,-1.2049998044967425,-0.8299995064735255,-0.7177030444145067,0.0,-1.7349997758865356,-0.34999987483024597,-0.7177033747643016,0.0,-1.9499998083566865,0.19700008621573267,-0.4345156121027041,0.0
1759839622.7879698,1,-1.2049998044967452,-0.8299995064735274,-0.7177030444145084,0.0,-1.7349997758865356,-0.34999987483024597,-0.7177033797607457,0.0,-1.949999808464853,0.1970000862266622,-0.4345156278606395,0.0
1759839622.7991326,1,-1.2049998044967474,-0.829999506473529,-0.7177030444145098,0.0,-1.7349997758865356,-0.34999987483024597,-0.7177033850540795,0.0,-1.9499998085583539,0.19700008623610984,-0.4345156414820367,0.0
1759839622.8093243,1,-1.2049998044967494,-0.8299995064735305,-0.7177030444145109,0.0,-1.7349997758865356,-0.34999987483024597,-0.7177033926885272,0.0,-1.9499998086394899,0.19700008624430812,-0.43451565330210545,0.0
1759839622.820089,1,-1.2049998044967514,-0.8299995064735318,-0.717703044414512,0.0,-1.7349997758865356,-0.34999987483024597,-0.7177033977738887,0.0,-1.9499998087099646,0.19700008625142915,-0.43451566356904164,0.0
1759839622.8308656,1,-1.204999804496753,-0.829999506473533,-0.717703044414513,0.0,-1.7349997758865356,-0.34999987483024597,-0.7177034022919795,0.0,-1.9499998087769173,0.1970000862581943,-0.43451567332286106,0.0
1759839622.84191,1,-1.2049998044967545,-0.8299995064735339,-0.7177030444145139,0.0,-1.7349997758865356,-0.34999987483024597,-0.7177034058666116,0.0,-1.9499998088347172,0.1970000862640346,-0.43451568174328337,0.0
1759839622.85351,1,-1.2049998044967558,-0.8299995064735348,-0.7177030444145147,0.0,-1.7349997758865356,-0.34999987483024597,-0.7177034081161828,0.0,-1.9499998088846757,0.19700008626908255,-0.43451568902134313,0.0
1759839622.8645132,1,-1.204999804496757,-0.8299995064735356,-0.7177030444145154,0.0,-1.7349997758865356,-0.34999987483024597,-0.7177034121170074,0.0,-1.9499998089279982,0.19700008627346002,-0.43451569533266937,0.0
1759839622.87558,1,-1.2049998044967578,-0.8299995064735363,-0.7177030444145158,0.0,-1.7349997758865356,-0.34999987483024597,-0.7177034159142739,0.0,-1.9499998089656416,0.19700008627726362,-0.43451570081662294,0.0
1759839622.8862648,1,-1.2049998044967585,-0.8299995064735368,-0.7177030444145163,0.0,-1.7349997758865356,-0.34999987483024597,-0.717703420371425,0.0,-1.9499998089985862,0.19700008628059243,-0.43451570561604236,0.0
1759839622.897234,1,-1.2049998044967594,-0.8299995064735374,-0.7177030444145168,0.0,-1.7349997758865356,-0.34999987483024597,-0.7177034238689348,0.0,-1.9499998090279067,0.1970000862835551,-0.4345157098875256,0.0
1759839622.9080572,1,-1.20499980449676,-0.8299995064735379,-0.7177030444145173,0.0,-1.7349997758865356,-0.34999987483024597,-0.7177034274686633,0.0,-1.949999809055468,0.19700008628633997,-0.43451571390271077,0.0
1759839622.9187405,1,-1.2049998044967605,-0.8299995064735383,-0.7177030444145176,0.0,-1.7349997758865356,-0.34999987483024597,-0.7177034311291575,0.0,-1.949999809079379,0.19700008628875604,-0.43451571738614947,0.0
1759839622.9297092,1,-1.204999804496761,-0.8299995064735386,-0.7177030444145178,0.0,-1.7349997758865356,-0.34999987483024597,-0.7177034339914313,0.0,-1.949999809100156,0.19700008629085541,-0.4345157204129609,0.0
1759839622.9411564,1,-1.2049998044967614,-0.8299995064735388,-0.717703044414518,0.0,-1.7349997758865356,-0.34999987483024597,-0.7177034359273691,0.0,-1.949999809118304,0.19700008629268914,-0.4345157230567831,0.0
1759839622.951944,1,-1.2049998044967618,-0.829999506473539,-0.7177030444145183,0.0,-1.7349997758865356,-0.34999987483024597,-0.7177034392148052,0.0,-1.9499998091344557,0.19700008629432114,-0.4345157254097849,0.0
1759839622.9620872,1,-1.2049998044967623,-0.8299995064735393,-0.7177030444145185,0.0,-1.7349997758865356,-0.34999987483024597,-0.7177034434181593,0.0,-1.9499998091488306,0.19700008629577362,-0.4345157275039564,0.0
1759839622.973487,1,-1.2049998044967625,-0.8299995064735395,-0.7177030444145186,0.0,-1.7349997758865356,-0.34999987483024597,-0.7177034450606978,0.0,-1.9499998091616244,0.19700008629706633,-0.4345157293677691,0.0
1759839622.9847882,1,-1.2049998044967627,-0.8299995064735397,-0.7177030444145188,0.0,-1.7349997758865356,-0.34999987483024597,-0.7177034469792059,0.0,-1.9499998091731408,0.19700008629823001,-0.4345157310455075,0.0
1759839622.996065,1,-1.204999804496763,-0.8299995064735398,-0.7177030444145189,0.0,-1.7349997758865356,-0.34999987483024597,-0.7177034491099974,0.0,-1.9499998091832602,0.19700008629925253,-0.43451573251974956,0.0
1759839623.0063257,1,-1.2049998044967631,-0.8299995064735399,-0.717703044414519,0.0,-1.7349997758865356,-0.34999987483024597,-0.7177034527852904,0.0,-1.9499998091922666,0.19700008630016258,-0.434515733831825,0.0
1759839623.017691,1,-1.2049998044967634,-0.82999950647354,-0.7177030444145192,0.0,-1.7349997758865356,-0.34999987483024597,-0.7177034545006968,0.0,-1.9499998092002824,0.19700008630097252,-0.43451573499957213,0.0
1759839623.0283797,1,-1.2049998044967636,-0.8299995064735401,-0.7177030444145192,0.0,-1.7349997758865356,-0.34999987483024597,-0.7177034571631289,0.0,-1.9499998092074164,0.19700008630169336,-0.4345157360388671,0.0
1759839623.0390816,1,-1.2049998044967638,-0.8299995064735403,-0.7177030444145192,0.0,-1.7349997758865356,-0.34999987483024597,-0.7177034596494405,0.0,-1.9499998092137656,0.1970000863023349,-0.4345157369638396,0.0
1759839623.0502172,1,-1.204999804496764,-0.8299995064735404,-0.7177030444145192,0.0,-1.7349997758865356,-0.34999987483024597,-0.7177034614000918,0.0,-1.9499998092194166,0.19700008630290589,-0.43451573778706515,0.0
1759839623.0611186,1,-1.2049998044967642,-0.8299995064735405,-0.7177030444145192,0.0,-1.7349997758865356,-0.34999987483024597,-0.7177034634472079,0.0,-1.949999809224446,0.19700008630341403,-0.4345157385197359,0.0
1759839623.0722513,1,-1.2049998044967642,-0.8299995064735406,-0.7177030444145192,0.0,-1.7349997758865356,-0.34999987483024597,-0.717703465170608,0.0,-1.9499998092289221,0.1970000863038663,-0.43451573917181285,0.0
1759839623.0829034,1,-1.2049998044967642,-0.8299995064735407,-0.7177030444145192,0.0,-1.7349997758865356,-0.34999987483024597,-0.7177034674450908,0.0,-1.9499998092329058,0.19700008630426882,-0.43451573975216135,0.0
1759839623.0937521,1,-1.2049998044967642,-0.8299995064735408,-0.7177030444145192,0.0,-1.7349997758865356,-0.34999987483024597,-0.7177034693438564,0.0,-1.9499998092364514,0.19700008630462706,-0.4345157402686715,0.0
1759839623.1044161,1,-1.2049998044967642,-0.8299995064735408,-0.7177030444145192,0.0,-1.7349997758865356,-0.34999987483024597,-0.7177034713318307,0.0,-1.9499998092364514,0.19700008630462706,-0.4345157402686715,0.0
1759839623.1158755,1,-1.2049998044967642,-0.8299995064735408,-0.7177030444145192,0.0,-1.7349997758865356,-0.34999987483024597,-0.7177034723732216,0.0,-1.9499998092364514,0.19700008630462706,-0.4345157402686715,0.0
1759839623.1262846,1,-1.2049998044967642,-0.8299995064735408,-0.7177030444145192,0.0,-1.7349997758865356,-0.34999987483024597,-0.717703474575849,0.0,-1.9499998092364514,0.19700008630462706,-0.4345157402686715,0.0
1759839623.1375082,1,-1.2049998044967642,-0.8299995064735408,-0.7177030444145192,0.0,-1.7349997758865356,-0.34999987483024597,-0.7177034758205103,0.0,-1.949999809239607,0.1970000863049459,-0.4345157407283655,0.0
1759839623.1478415,1,-1.2049998044967642,-0.8299995064735408,-0.7177030444145192,0.0,-1.7349997758865356,-0.34999987483024597,-0.7177034779016793,0.0,-1.9499998092424153,0.19700008630522967,-0.4345157411374932,0.0
1759839623.1586623,1,-1.2049998044967642,-0.8299995064735408,-0.7177030444145192,0.0,-1.7349997758865356,-0.34999987483024597,-0.7177034793510497,0.0,-1.9499998092424153,0.19700008630522967,-0.4345157411374932,0.0
1759839623.1694155,1,-1.2049998044967642,-0.8299995064735408,-0.7177030444145192,0.0,-1.7349997758865356,-0.34999987483024597,-0.7177034807784732,0.0,-1.9499998092424153,0.19700008630522967,-0.4345157411374932,0.0
1759839623.180141,1,-1.2049998044967642,-0.8299995064735408,-0.7177030444145192,0.0,-1.7349997758865356,-0.34999987483024597,-0.7177034821735155,0.0,-1.9499998092424153,0.19700008630522967,-0.4345157411374932,0.0
1759839623.19142,1,-1.2049998044967642,-0.8299995064735408,-0.7177030444145192,0.0,-1.7349997758865356,-0.34999987483024597,-0.7177034830636835,0.0,-1.9499998092424153,0.19700008630522967,-0.4345157411374932,0.0
1759839623.202083,1,-1.2049998044967642,-0.8299995064735408,-0.7177030444145192,0.0,-1.7349997758865356,-0.34999987483024597,-0.717703484514006,0.0,-1.9499998092424153,0.19700008630522967,-0.4345157411374932,0.0
1759839623.2124426,1,-1.2049998044967642,-0.8299995064735408,-0.7177030444145192,0.0,-1.7349997758865356,-0.34999987483024597,-0.7177034861252061,0.0,-1.9499998092424153,0.19700008630522967,-0.4345157411374932,0.0
1759839623.2227435,1,-1.2049998044967642,-0.8299995064735408,-0.7177030444145192,0.0,-1.7349997758865356,-0.34999987483024597,-0.7177034876140098,0.0,-1.9499998092424153,0.19700008630522967,-0.4345157411374932,0.0
1759839623.2334716,1,-1.2049998044967642,-0.8299995064735408,-0.7177030444145192,0.0,-1.7349997758865356,-0.34999987483024597,-0.7177034886417992,0.0,-1.9499998092424153,0.19700008630522967,-0.4345157411374932,0.0
1759839623.2447937,1,-1.2049998044967642,-0.8299995064735408,-0.7177030444145192,0.0,-1.7349997758865356,-0.34999987483024597,-0.7177034892320897,0.0,-1.9499998092424153,0.19700008630522967,-0.4345157411374932,0.0
1759839623.2554529,1,-1.2049998044967642,-0.8299995064735408,-0.7177030444145192,0.0,-1.7349997758865356,-0.34999987483024597,-0.717703490374408,0.0,-1.9499998092424153,0.19700008630522967,-0.4345157411374932,0.0
1759839623.266757,1,-1.2049998044967642,-0.8299995064735408,-0.7177030444145192,0.0,-1.7349997758865356,-0.34999987483024597,-0.7177034910800568,0.0,-1.9499998092424153,0.19700008630522967,-0.4345157411374932,0.0
1759839623.2774386,1,-1.2049998044967642,-0.8299995064735408,-0.7177030444145192,0.0,-1.7349997758865356,-0.34999987483024597,-0.7177034922307932,0.0,-1.9499998092424153,0.19700008630522967,-0.4345157411374932,0.0
1759839623.2877486,1,-1.2049998044967642,-0.8299995064735408,-0.7177030444145192,0.0,-1.7349997758865356,-0.34999987483024597,-0.7177034935486954,0.0,-1.9499998092424153,0.19700008630522967,-0.4345157411374932,0.0
1759839623.2981877,1,-1.2049998044967642,-0.8299995064735408,-0.7177030444145192,0.0,-1.7349997758865356,-0.34999987483024597,-0.71770349464947,0.0,-1.9499998092424153,0.19700008630522967,-0.4345157411374932,0.0
1759839623.3089151,1,-1.2049998044967642,-0.8299995064735408,-0.7177030444145192,0.0,-1.7349997758865356,-0.34999987483024597,-0.7177034954847201,0.0,-1.9499998092424153,0.19700008630522967,-0.4345157411374932,0.0
1759839623.3190172,1,-1.2049998044967642,-0.8299995064735408,-0.7177030444145192,0.0,-1.7349997758865356,-0.34999987483024597,-0.7177034966283369,0.0,-1.9499998092424153,0.19700008630522967,-0.4345157411374932,0.0
1759839623.3304586,1,-1.2049998044967642,-0.8299995064735408,-0.7177030444145192,0.0,-1.7349997758865356,-0.34999987483024597,-0.7177034969604392,0.0,-1.9499998092424153,0.19700008630522967,-0.4345157411374932,0.0
1759839623.3410702,1,-1.2049998044967642,-0.8299995064735408,-0.7177030444145192,0.0,-1.7349997758865356,-0.34999987483024597,-0.7177034978086159,0.0,-1.9499998092424153,0.19700008630522967,-0.4345157411374932,0.0
1759839623.3523226,1,-1.2049998044967642,-0.8299995064735408,-0.7177030444145192,0.0,-1.7349997758865356,-0.34999987483024597,-0.7177034983358777,0.0,-1.9499998092424153,0.19700008630522967,-0.4345157411374932,0.0
1759839623.3624556,1,-1.2049998044967642,-0.8299995064735408,-0.7177030444145192,0.0,-1.7349997758865356,-0.34999987483024597,-0.717703499437448,0.0,-1.9499998092424153,0.19700008630522967,-0.4345157411374932,0.0
1759839623.3729382,1,-1.2049998044967642,-0.8299995064735408,-0.7177030444145192,0.0,-1.7349997758865356,-0.34999987483024597,-0.7177035002700798,0.0,-1.9499998092424153,0.19700008630522967,-0.4345157411374932,0.0
1759839623.3838913,1,-1.2049998044967642,-0.8299995064735408,-0.7177030444145192,0.0,-1.7349997758865356,-0.34999987483024597,-0.7177035008199546,0.0,-1.9499998092424153,0.19700008630522967,-0.4345157411374932,0.0
1759839623.3945873,1,-1.2049998044967642,-0.8299995064735408,-0.7177030444145192,0.0,-1.7349997758865356,-0.34999987483024597,-0.7177035014927853,0.0,-1.9499998092424153,0.19700008630522967,-0.4345157411374932,0.0
1759839623.4056973,1,-1.2049998044967642,-0.8299995064735408,-0.7177030444145192,0.0,-1.7349997758865356,-0.34999987483024597,-0.7177035019843423,0.0012114239706944119,-1.9499998092424153,0.19700008630522967,-0.4345157411374932,0.0
1759839623.418006,1,-1.2049998044967642,-0.8299995064735408,-0.7177030444145192,0.0,-1.7349997758865356,-0.34999987483024597,-0.7177035020364055,0.0012114239706944119,-1.9499998092424153,0.19700008630522967,-0.4345157411374932,0.0
1759839623.4293292,1,-1.2049998044967642,-0.8299995064735408,-0.7177030444145192,0.0,-1.7349997758865356,-0.34999987483024597,-0.7177035026396865,0.0012114239706944119,-1.9499998092424153,0.19700008630522967,-0.4345157411374932,0.0
1759839623.4400272,1,-1.2049998044967642,-0.8299995064735408,-0.7177030444145192,0.0,-1.7349997758865356,-0.34999987483024597,-0.7177035035079893,0.0012114239706944119,-1.9499998092424153,0.19700008630522967,-0.4345157411374932,0.0
1759839623.4520488,1,-1.2049998044967642,-0.8299995064735408,-0.7177030444145192,0.0,-1.7349997758865356,-0.34999987483024597,-0.7177035038305454,0.0012114239706944119,-1.9499998092424153,0.19700008630522967,-0.4345157411374932,0.0
1759839623.463292,1,-1.2049998044967642,-0.8299995064735408,-0.7177030444145192,0.0,-1.7349997758865356,-0.34999987483024597,-0.7177035044796565,0.0012114239706944119,-1.9499998092424153,0.19700008630522967,-0.4345157411374932,0.0
1759839623.4754007,1,-1.2049998044967642,-0.8299995064735408,-0.7177030444145192,0.0,-1.7349997758865356,-0.34999987483024597,-0.7177035048384202,0.0012114239706944119,-1.9499998092424153,0.19700008630522967,-0.4345157411374932,0.0
1759839623.48621,1,-1.2049998044967642,-0.8299995064735408,-0.7177030444145192,0.0,-1.7349997758865356,-0.34999987483024597,-0.7177035056604311,0.0012114239706944119,-1.9499998092424153,0.19700008630522967,-0.4345157411374932,0.0
1759839623.4981825,1,-1.2049998044967642,-0.8299995064735408,-0.7177030444145192,0.0,-1.7349997758865356,-0.34999987483024597,-0.7177035060571164,0.0012114239706944119,-1.9499998092424153,0.19700008630522967,-0.4345157411374932,0.0
1759839623.509535,1,-1.2049998044967642,-0.8299995064735408,-0.7177030444145192,0.0,-1.7349997758865356,-0.34999987483024597,-0.7177035066550861,0.0012114239706944119,-1.9499998092424153,0.19700008630522967,-0.4345157411374932,0.0
1759839623.5210636,1,-1.2049998044967642,-0.8299995064735408,-0.7177030444145192,0.0,-1.7349997758865356,-0.34999987483024597,-0.7177035071818043,0.0012114239706944119,-1.9499998092424153,0.19700008630522967,-0.4345157411374932,0.0
1759839623.5336506,1,-1.2049998044967642,-0.8299995064735408,-0.7177030444145192,0.0,-1.7349997758865356,-0.34999987483024597,-0.7177035074074585,0.0012114239706944119,-1.9499998092424153,0.19700008630522967,-0.4345157411374932,0.0
1759839623.5444262,1,-1.2049998044967642,-0.8299995064735408,-0.7177030444145192,0.0,-1.7349997758865356,-0.34999987483024597,-0.7177035081755392,0.0012114239706944119,-1.9499998092424153,0.19700008630522967,-0.4345157411374932,0.0
1759839623.5560572,1,-1.2049998044967642,-0.8299995064735408,-0.7177030444145192,0.0,-1.7349997758865356,-0.34999987483024597,-0.7177035086510006,0.0012114239706944119,-1.9499998092424153,0.19700008630522967,-0.4345157411374932,0.0
1759839623.5674877,1,-1.2049998044967642,-0.8299995064735408,-0.7177030444145192,0.0,-1.7349997758865356,-0.34999987483024597,-0.7177035091447941,0.0012114239706944119,-1.9499998092424153,0.19700008630522967,-0.4345157411374932,0.0
1759839623.5788138,1,-1.2049998044967642,-0.8299995064735408,-0.7177030444145192,0.0,-1.7349997758865356,-0.34999987483024597,-0.7177035096366051,0.0012114239706944119,-1.9499998092424153,0.19700008630522967,-0.4345157411374932,0.0
1759839623.5896235,1,-1.2049998044967642,-0.8299995064735408,-0.7177030444145192,0.0,-1.7349997758865356,-0.34999987483024597,-0.7177035102099971,0.0012114239706944119,-1.9499998092424153,0.19700008630522967,-0.4345157411374932,0.0
1759839623.6011112,1,-1.2049998044967642,-0.8299995064735408,-0.7177030444145192,0.0,-1.7349997758865356,-0.34999987483024597,-0.7177035105717682,0.0012114239706944119,-1.9499998092424153,0.19700008630522967,-0.4345157411374932,0.0
1759839623.6127026,1,-1.2049998044967642,-0.8299995064735408,-0.7177030444145192,0.0,-1.7349997758865356,-0.34999987483024597,-0.7177035108990086,0.0012114239706944119,-1.9499998092424153,0.19700008630522967,-0.4345157411374932,0.0
1759839623.6234796,1,-1.2049998044967642,-0.8299995064735408,-0.7177030444145192,0.0,-1.7349997758865356,-0.34999987483024597,-0.7177035113940562,0.0012114239706944119,-1.9499998092424153,0.19700008630522967,-0.4345157411374932,0.0
1759839623.6342592,1,-1.2049998044967642,-0.8299995064735408,-0.7177030444145192,0.0,-1.7349997758865356,-0.34999987483024597,-0.7177035118397512,0.0012114239706944119,-1.9499998092424153,0.19700008630522967,-0.4345157411374932,0.0
1759839623.645165,1,-1.2049998044967642,-0.8299995064735408,-0.7177030444145192,0.0,-1.7349997758865356,-0.34999987483024597,-0.7177035122115214,0.0012114239706944119,-1.9499998092424153,0.19700008630522967,-0.4345157411374932,0.0
1759839623.6563582,1,-1.2049998044967642,-0.8299995064735408,-0.7177030444145192,0.0,-1.7349997758865356,-0.34999987483024597,-0.7177035124997957,0.0012114239706944119,-1.9499998092424153,0.19700008630522967,-0.4345157411374932,0.0
1759839623.6671762,1,-1.2049998044967642,-0.8299995064735408,-0.7177030444145192,0.0,-1.7349997758865356,-0.34999987483024597,-0.7177035128467679,0.0012114239706944119,-1.9499998092424153,0.19700008630522967,-0.4345157411374932,0.0
1759839623.6784606,1,-1.2049998044967642,-0.8299995064735408,-0.7177030444145192,0.0,-1.7349997758865356,-0.34999987483024597,-0.717703513091834,0.0012114239706944119,-1.9499998092424153,0.19700008630522967,-0.4345157411374932,0.0
1759839623.6891015,1,-1.2049998044967642,-0.8299995064735408,-0.7177030444145192,0.0,-1.7349997758865356,-0.34999987483024597,-0.7177035134420251,0.0012114239706944119,-1.9499998092424153,0.19700008630522967,-0.4345157411374932,0.0
1759839623.701436,1,-1.2049998044967642,-0.8299995064735408,-0.7177030444145192,0.0,-1.7349997758865356,-0.34999987483024597,-0.7177035134978061,0.0012114239706944119,-1.9499998092424153,0.19700008630522967,-0.4345157411374932,0.0
1759839623.7123907,1,-1.2049998044967642,-0.8299995064735408,-0.7177030444145192,0.0,-1.7349997758865356,-0.34999987483024597,-0.7177035138149286,0.0012114239706944119,-1.9499998092424153,0.19700008630522967,-0.4345157411374932,0.0
1759839623.7238078,1,-1.2049998044967642,-0.8299995064735408,-0.7177030444145192,0.0,-1.7349997758865356,-0.34999987483024597,-0.7177035140541895,0.0012114239706944119,-1.9499998092424153,0.19700008630522967,-0.4345157411374932,0.0
1759839623.7361233,1,-1.2049998044967642,-0.8299995064735408,-0.7177030444145192,0.0,-1.7349997758865356,-0.34999987483024597,-0.7177035141634978,0.0012114239706944119,-1.9499998092424153,0.19700008630522967,-0.4345157411374932,0.0
1759839623.7466521,1,-1.2049998044967642,-0.8299995064735408,-0.7177030444145192,0.0,-1.7349997758865356,-0.34999987483024597,-0.7177035145525981,0.0012114239706944119,-1.9499998092424153,0.19700008630522967,-0.4345157411374932,0.0
1759839623.7575257,1,-1.2049998044967642,-0.8299995064735408,-0.7177030444145192,0.0,-1.7349997758865356,-0.34999987483024597,-0.717703514854998,0.0012114239706944119,-1.9499998092424153,0.19700008630522967,-0.4345157411374932,0.0
1759839623.767654,1,-1.2049998044967642,-0.8299995064735408,-0.7177030444145192,0.0,-1.7349997758865356,-0.34999987483024597,-0.7177035152152981,0.0012114239706944119,-1.9499998092424153,0.19700008630522967,-0.4345157411374932,0.0
1759839623.7801535,1,-1.2049998044967642,-0.8299995064735408,-0.7177030444145192,0.0,-1.7349997758865356,-0.34999987483024597,-0.7177035152318645,0.0012114239706944119,-1.9499998092424153,0.19700008630522967,-0.4345157411374932,0.0
1759839623.7913673,1,-1.2049998044967642,-0.8299995064735408,-0.7177030444145192,0.0,-1.7349997758865356,-0.34999987483024597,-0.7177035154432296,0.0012114239706944119,-1.9499998092424153,0.19700008630522967,-0.4345157411374932,0.0
1759839623.8025775,1,-1.2049998044967642,-0.8299995064735408,-0.7177030444145192,0.0,-1.7349997758865356,-0.34999987483024597,-0.7177035156590003,0.0012114239706944119,-1.9499998092424153,0.19700008630522967,-0.4345157411374932,0.0
1759839623.8125987,1,-1.2049998044967642,-0.8299995064735408,-0.7177030444145192,0.0,-1.7349997758865356,-0.34999987483024597,-0.7177035159946676,0.0012114239706944119,-1.9499998092424153,0.19700008630522967,-0.4345157411374932,0.0
1759839623.8233361,1,-1.2049998044967642,-0.8299995064735408,-0.7177030444145192,0.0,-1.7349997758865356,-0.34999987483024597,-0.7177035162039385,0.0012114239706944119,-1.9499998092424153,0.19700008630522967,-0.4345157411374932,0.0
1759839623.833764,1,-1.2049998044967642,-0.8299995064735408,-0.7177030444145192,0.0,-1.7349997758865356,-0.34999987483024597,-0.7177035164210466,0.0012114239706944119,-1.9499998092424153,0.19700008630522967,-0.4345157411374932,0.0
1759839623.84489,1,-1.2049998044967642,-0.8299995064735408,-0.7177030444145192,0.0,-1.7349997758865356,-0.34999987483024597,-0.7177035165462726,0.0012114239706944119,-1.9499998092424153,0.19700008630522967,-0.4345157411374932,0.0
1759839623.8553035,1,-1.2049998044967642,-0.8299995064735408,-0.7177030444145192,0.0,-1.7349997758865356,-0.34999987483024597,-0.7177035167422705,0.0012114239706944119,-1.9499998092424153,0.19700008630522967,-0.4345157411374932,0.0
1759839623.8659306,1,-1.2049998044967642,-0.8299995064735408,-0.7177030444145192,0.0,-1.7349997758865356,-0.34999987483024597,-0.717703516903077,0.0012114239706944119,-1.9499998092424153,0.19700008630522967,-0.4345157411374932,0.0
1759839623.876659,1,-1.2049998044967642,-0.8299995064735408,-0.7177030444145192,0.0,-1.7349997758865356,-0.34999987483024597,-0.7177035170436472,0.0012114239706944119,-1.9499998092424153,0.19700008630522967,-0.4345157411374932,0.0
1759839623.8873491,1,-1.2049998044967642,-0.8299995064735408,-0.7177030444145192,0.0,-1.7349997758865356,-0.34999987483024597,-0.717703517182624,0.0012114239706944119,-1.9499998092424153,0.19700008630522967,-0.4345157411374932,0.0
1759839623.8976765,1,-1.2049998044967642,-0.8299995064735408,-0.7177030444145192,0.0,-1.7349997758865356,-0.34999987483024597,-0.7177035173474682,0.0012114239706944119,-1.9499998092424153,0.19700008630522967,-0.4345157411374932,0.0
1759839623.909326,1,-1.2049998044967642,-0.8299995064735408,-0.7177030444145192,0.0,-1.7349997758865356,-0.34999987483024597,-0.7177035173903157,0.0012114239706944119,-1.9499998092424153,0.19700008630522967,-0.4345157411374932,0.0
1759839623.9204667,1,-1.2049998044967642,-0.8299995064735408,-0.7177030444145192,0.0,-1.7349997758865356,-0.34999987483024597,-0.7177035174931738,0.0012114239706944119,-1.9499998092424153,0.19700008630522967,-0.4345157411374932,0.0
1759839623.9366572,1,-1.2049998044967642,-0.8299995064735408,-0.7177030444145192,0.0,-1.7349997758865356,-0.34999987483024597,-0.7177035172278359,0.0012114239706944119,-1.9499998092424153,0.19700008630522967,-0.4345157411374932,0.0
1759839623.9447591,1,-1.2049998044967642,-0.8299995064735408,-0.7177030444145192,0.0,-1.7349997758865356,-0.34999987483024597,-0.7177035176684292,0.0012114239706944119,-1.9499998092424153,0.19700008630522967,-0.4345157411374932,0.0
1759839623.9549894,1,-1.2049998044967642,-0.8299995064735408,-0.7177030444145192,0.0,-1.7349997758865356,-0.34999987483024597,-0.717703517889305,0.0012114239706944119,-1.9499998092424153,0.19700008630522967,-0.4345157411374932,0.0
1759839623.9659202,1,-1.2049998044967642,-0.8299995064735408,-0.7177030444145192,0.0,-1.7349997758865356,-0.34999987483024597,-0.7177035180128044,0.0012114239706944119,-1.9499998092424153,0.19700008630522967,-0.4345157411374932,0.0
1759839623.976122,1,-1.2049998044967642,-0.8299995064735408,-0.7177030444145192,0.0,-1.7349997758865356,-0.34999987483024597,-0.7177035181719056,0.0012114239706944119,-1.9499998092424153,0.19700008630522967,-0.4345157411374932,0.0
1759839623.9873676,1,-1.2049998044967642,-0.8299995064735408,-0.7177030444145192,0.0,-1.7349997758865356,-0.34999987483024597,-0.7177035182453473,0.0012114239706944119,-1.9499998092424153,0.19700008630522967,-0.4345157411374932,0.0
1759839623.998644,1,-1.2049998044967642,-0.8299995064735408,-0.7177030444145192,0.0,-1.7349997758865356,-0.34999987483024597,-0.717703518319416,0.0012114239706944119,-1.9499998092424153,0.19700008630522967,-0.4345157411374932,0.0
1759839624.0087953,1,-1.2049998044967642,-0.8299995064735408,-0.7177030444145192,0.0,-1.7349997758865356,-0.34999987483024597,-0.7177035184666547,0.0012114239706944119,-1.9499998092424153,0.19700008630522967,-0.4345157411374932,0.0
1759839624.0201054,1,-1.2049998044967642,-0.8299995064735408,-0.7177030444145192,0.0,-1.7349997758865356,-0.34999987483024597,-0.7177035185312022,0.0012114239706944119,-1.9499998092424153,0.19700008630522967,-0.4345157411374932,0.0
1759839624.0310361,1,-1.2049998044967642,-0.8299995064735408,-0.7177030444145192,0.0,-1.7349997758865356,-0.34999987483024597,-0.717703518619512,0.0012114239706944119,-1.9499998092424153,0.19700008630522967,-0.4345157411374932,0.0
1759839624.0411985,1,-1.2049998044967642,-0.8299995064735408,-0.7177030444145192,0.0,-1.7349997758865356,-0.34999987483024597,-0.717703518748543,0.0012114239706944119,-1.9499998092424153,0.19700008630522967,-0.4345157411374932,0.0
1759839624.0523179,1,-1.2049998044967642,-0.8299995064735408,-0.7177030444145192,0.0,-1.7349997758865356,-0.34999987483024597,-0.7177035188130034,0.0012114239706944119,-1.9499998092424153,0.19700008630522967,-0.4345157411374932,0.0
