timestamp,vehicle_id,x,y,theta,velocity,gps_available,dt,gps_x,gps_y,gps_theta,gps_velocity,control_steering,control_acceleration
1759839620.9084961,1,-1.735,-0.35,-0.7801621756414647,0.0,False,0.01,nan,nan,nan,nan,0.0,0.0
1759839620.9185472,1,-1.735,-0.35,-0.7801621756414647,0.0,False,0.01005101203918457,nan,nan,nan,nan,0.0,0.0
1759839620.9289045,1,-1.735,-0.35,-0.7801621756414647,0.0,False,0.010357379913330078,nan,nan,nan,nan,0.0,0.0
1759839620.9399955,1,-1.735,-0.35,-0.7801621756414647,0.0,False,0.011090993881225586,nan,nan,nan,nan,0.0,0.0
1759839620.9514549,1,-1.735,-0.35,-0.7801621756414647,0.0,False,0.0114593505859375,nan,nan,nan,nan,0.0,0.0
1759839620.9621656,1,-1.735,-0.35,-0.7801621756414647,0.0,False,0.010710716247558594,nan,nan,nan,nan,0.0,0.0
1759839620.9731627,1,-1.735,-0.35,-0.7801621756414647,0.0,False,0.01099705696105957,nan,nan,nan,nan,0.0,0.0
1759839620.984488,1,-1.735,-0.35,-0.7801621756414647,0.0,False,0.011325359344482422,nan,nan,nan,nan,0.0,0.0
1759839620.9953635,1,-1.735,-0.35,-0.7801621756414647,0.0,False,0.010875463485717773,nan,nan,nan,nan,0.0,0.0
1759839621.0058253,1,-1.735,-0.35,-0.7801621756414647,0.0,False,0.010461807250976562,nan,nan,nan,nan,0.0,0.0
1759839621.016739,1,-1.735,-0.35,-0.7801621756414647,0.0,False,0.010913610458374023,nan,nan,nan,nan,0.0,0.0
1759839621.0280612,1,-1.735,-0.35,-0.7801621756414647,0.0,False,0.011322259902954102,nan,nan,nan,nan,0.0,0.0
1759839621.0391908,1,-1.735,-0.35,-0.7801621756414647,0.0,False,0.011129617691040039,nan,nan,nan,nan,0.0,0.0
1759839621.0499659,1,-1.735,-0.35,-0.7801621756414647,0.0,False,0.010775089263916016,nan,nan,nan,nan,0.0,0.0
1759839621.0608013,1,-1.735,-0.35,-0.7801621756414647,0.0,False,0.010835409164428711,nan,nan,nan,nan,0.0,0.0
1759839621.0720167,1,-1.735,-0.35,-0.7801621756414647,0.0,False,0.011215448379516602,nan,nan,nan,nan,0.0,0.0
1759839621.0821297,1,-1.735,-0.35,-0.7801621756414647,0.0,False,0.010113000869750977,nan,nan,nan,nan,0.0,0.0
1759839621.0934265,1,-1.735,-0.35,-0.7801621756414647,0.0,False,0.011296749114990234,nan,nan,nan,nan,0.0,0.0
1759839621.1051674,1,-1.734999777754148,-0.34999987587332726,-0.7229997728626074,0.0,True,0.011740922927856445,-1.7349997758865356,-0.34999987483024597,-0.7177035212516785,0.0,0.0,0.0
1759839621.1158936,1,-1.7349997765108072,-0.34999987517890824,-0.7181174423870029,0.0,True,0.010726213455200195,-1.7349997758865356,-0.34999987483024597,-0.7177035212516785,0.0,0.0,0.0
1759839621.1263807,1,-1.734999776120719,-0.34999987496103985,-0.7176589966527249,0.0,True,0.010487079620361328,-1.7349997758865356,-0.34999987483024597,-0.7177035212516785,0.0,0.0,0.0
1759839621.1372757,1,-1.7349997759757527,-0.34999987488007467,-0.7175972202169696,0.0,True,0.010895013809204102,-1.7349997758865356,-0.34999987483024597,-0.7177035212516785,0.0,0.0,0.0
1759839621.1481466,1,-1.7349997759206006,-0.3499998748492716,-0.7175897454212183,0.0,True,0.010870933532714844,-1.7349997758865356,-0.34999987483024597,-0.7177035212516785,0.0,0.0,0.0
1759839621.1594036,1,-1.7349997758995466,-0.3499998748375127,-0.7175961465166978,0.0,True,0.011256933212280273,-1.7349997758865356,-0.34999987483024597,-0.7177035212516785,0.0,0.0,0.0
1759839621.1698306,1,-1.7349997758915052,-0.3499998748330216,-0.7176090903854409,0.0,True,0.010426998138427734,-1.7349997758865356,-0.34999987483024597,-0.7177035212516785,0.0,0.0,0.0
1759839621.1804879,1,-1.734999775888434,-0.3499998748313062,-0.7176209235801494,0.0,True,0.010657310485839844,-1.7349997758865356,-0.34999987483024597,-0.7177035212516785,0.0,0.0,0.0
1759839621.1913772,1,-1.7349997758872606,-0.3499998748306509,-0.7176310465063871,0.0,True,0.010889291763305664,-1.7349997758865356,-0.34999987483024597,-0.7177035212516785,0.0,0.0,0.0
1759839621.2029278,1,-1.7349997758868125,-0.3499998748304006,-0.7176391178224879,0.0,True,0.011550664901733398,-1.7349997758865356,-0.34999987483024597,-0.7177035212516785,0.0,0.0,0.0
1759839621.21365,1,-1.7349997758866413,-0.34999987483030504,-0.7176472009114434,0.0,True,0.010722160339355469,-1.7349997758865356,-0.34999987483024597,-0.7177035212516785,0.0,0.0,0.0
1759839621.223684,1,-1.734999775886576,-0.3499998748302685,-0.7176544295644547,0.0,True,0.01003408432006836,-1.7349997758865356,-0.34999987483024597,-0.7177035212516785,0.0,0.0,0.0
1759839621.2351735,1,-1.7349997758865512,-0.3499998748302546,-0.7176588978729566,0.0,True,0.011489391326904297,-1.7349997758865356,-0.34999987483024597,-0.7177035212516785,0.0,0.0,0.0
1759839621.2466056,1,-1.7349997758865416,-0.34999987483024925,-0.7176629430413861,0.0,True,0.011432170867919922,-1.7349997758865356,-0.34999987483024597,-0.7177035212516785,0.0,0.0,0.0
1759839621.2572477,1,-1.7349997758865379,-0.34999987483024725,-0.7176671014686349,0.0,True,0.010642051696777344,-1.7349997758865356,-0.34999987483024597,-0.7177035212516785,0.0,0.0,0.0
1759839621.268199,1,-1.7349997758865365,-0.34999987483024647,-0.717670375628801,0.0,True,0.01095128059387207,-1.7349997758865356,-0.34999987483024597,-0.7177035212516785,0.0,0.0,0.0
1759839621.2785447,1,-1.734999775886536,-0.34999987483024614,-0.7176735138404275,0.0,True,0.010345697402954102,-1.7349997758865356,-0.34999987483024597,-0.7177035212516785,0.0,0.0,0.0
1759839621.288811,1,-1.7349997758865359,-0.349999874830246,-0.7176761547695385,0.0,True,0.010266304016113281,-1.7349997758865356,-0.34999987483024597,-0.7177035212516785,0.0,0.0,0.0
1759839621.299555,1,-1.7349997758865356,-0.34999987483024597,-0.7176781079539722,0.0,True,0.010744094848632812,-1.7349997758865356,-0.34999987483024597,-0.7177035212516785,0.0,0.0,0.0
1759839621.312565,1,-1.7349997758865356,-0.34999987483024597,-0.7176787814881997,0.0,True,0.013010025024414062,-1.7349997758865356,-0.34999987483024597,-0.7177035212516785,0.0,0.0,0.0
1759839621.323893,1,-1.7349997758865356,-0.34999987483024597,-0.7176804776848815,0.0,True,0.011327981948852539,-1.7349997758865356,-0.34999987483024597,-0.7177035212516785,0.0,0.0,0.0
1759839621.335401,1,-1.7349997758865356,-0.34999987483024597,-0.7176819991055865,0.0,True,0.011507987976074219,-1.7349997758865356,-0.34999987483024597,-0.7177035212516785,0.0,0.0,0.0
1759839621.3463333,1,-1.7349997758865356,-0.34999987483024597,-0.7176836000880549,0.0,True,0.010932207107543945,-1.7349997758865356,-0.34999987483024597,-0.7177035212516785,0.0,0.0,0.0
1759839621.3576906,1,-1.7349997758865356,-0.34999987483024597,-0.7176848349996092,0.0,True,0.011357307434082031,-1.7349997758865356,-0.34999987483024597,-0.7177035212516785,0.0,0.0,0.0
1759839621.3685522,1,-1.7349997758865356,-0.34999987483024597,-0.7176861114228998,0.0,True,0.010861635208129883,-1.7349997758865356,-0.34999987483024597,-0.7177035212516785,0.0,0.0,0.0
1759839621.3792114,1,-1.7349997758865356,-0.34999987483024597,-0.7176872904615905,0.0,True,0.010659217834472656,-1.7349997758865356,-0.34999987483024597,-0.7177035212516785,0.0,0.0,0.0
1759839621.389953,1,-1.7349997758865356,-0.34999987483024597,-0.7176882795550306,0.0,True,0.010741472244262695,-1.7349997758865356,-0.34999987483024597,-0.7177035212516785,0.0,0.0,0.0
1759839621.4011838,1,-1.7349997758865356,-0.34999987483024597,-0.7176890044353073,0.0,True,0.011230945587158203,-1.7349997758865356,-0.34999987483024597,-0.7177035212516785,0.0,0.0,0.0
1759839621.4114714,1,-1.7349997758865356,-0.34999987483024597,-0.7176899476849208,0.0,True,0.01028752326965332,-1.7349997758865356,-0.34999987483024597,-0.7177035212516785,0.0,0.0,0.0
1759839621.4228806,1,-1.7349997758865356,-0.34999987483024597,-0.7176904706674581,0.0,True,0.011409282684326172,-1.7349997758865356,-0.34999987483024597,-0.7177035212516785,0.0,0.0,0.0
1759839621.4342985,1,-1.7349997758865356,-0.34999987483024597,-0.717690983134208,0.0,True,0.011417865753173828,-1.7349997758865356,-0.34999987483024597,-0.7177035212516785,0.0,0.0,0.0
1759839621.4456646,1,-1.7349997758865356,-0.34999987483024597,-0.7176915152573784,0.0,True,0.011366128921508789,-1.7349997758865356,-0.34999987483024597,-0.7177035212516785,0.0,0.0,0.0
1759839621.4563515,1,-1.7349997758865356,-0.34999987483024597,-0.717692193250949,0.0,True,0.010686874389648438,-1.7349997758865356,-0.34999987483024597,-0.7177035212516785,0.0,0.0,0.0
1759839621.4673233,1,-1.7349997758865356,-0.34999987483024597,-0.7176927374251214,0.0,True,0.010971784591674805,-1.7349997758865356,-0.34999987483024597,-0.7177035212516785,0.0,0.0,0.0
1759839621.4780579,1,-1.7349997758865356,-0.34999987483024597,-0.7176932831570184,0.0,True,0.01073455810546875,-1.7349997758865356,-0.34999987483024597,-0.7177035212516785,0.0,0.0,0.0
1759839621.4887378,1,-1.7349997758865356,-0.34999987483024597,-0.7176937870624425,0.0,True,0.010679960250854492,-1.7349997758865356,-0.34999987483024597,-0.7177035212516785,0.0,0.0,0.0
1759839621.4995806,1,-1.7349997758865356,-0.34999987483024597,-0.7176942097911283,0.0,True,0.01084280014038086,-1.7349997758865356,-0.34999987483024597,-0.7177035212516785,0.0,0.0,0.0
1759839621.5121396,1,-1.7349997758865356,-0.34999987483024597,-0.7176942870851342,0.0,True,0.012558937072753906,-1.7349997758865356,-0.34999987483024597,-0.7177035212516785,0.0,0.0,0.0
1759839621.5234747,1,-1.7349997758865356,-0.34999987483024597,-0.7176946646830125,0.0,True,0.011335134506225586,-1.7349997758865356,-0.34999987483024597,-0.7177035212516785,0.0,0.0,0.0
1759839621.5336642,1,-1.7349997758865356,-0.34999987483024597,-0.7176952390578037,0.0,True,0.010189533233642578,-1.7349997758865356,-0.34999987483024597,-0.7177035212516785,0.0,0.0,0.0
1759839621.5444195,1,-1.7349997758865356,-0.34999987483024597,-0.7176956377333301,0.0,True,0.010755300521850586,-1.7349997758865356,-0.34999987483024597,-0.7177035212516785,0.0,0.0,0.0
1759839621.5550413,1,-1.7349997758865356,-0.34999987483024597,-0.7176960086967554,0.0,True,0.010621786117553711,-1.7349997758865356,-0.34999987483024597,-0.7177035212516785,0.0,0.0,0.0
1759839621.5656114,1,-1.7349997758865356,-0.34999987483024597,-0.7176963498219315,0.0,True,0.010570049285888672,-1.7349997758865356,-0.34999987483024597,-0.7177035212516785,0.0,0.0,0.0
1759839621.5758214,1,-1.7349997758865356,-0.34999987483024597,-0.7176967101821212,0.0,True,0.010210037231445312,-1.7349997758865356,-0.34999987483024597,-0.7177035212516785,0.0,0.0,0.0
1759839621.5870192,1,-1.7349997758865356,-0.34999987483024597,-0.7176968887703268,0.0,True,0.011197805404663086,-1.7349997758865356,-0.34999987483024597,-0.7177035212516785,0.0,0.0,0.0
1759839621.5974286,1,-1.7349997758865356,-0.34999987483024597,-0.7176971810056862,0.0,True,0.010409355163574219,-1.7349997758865356,-0.34999987483024597,-0.7177035212516785,0.0,0.0,0.0
1759839621.6085815,1,-1.7349997758865356,-0.34999987483024597,-0.7176973558728648,0.0,True,0.011152982711791992,-1.7349997758865356,-0.34999987483024597,-0.7177035212516785,0.0,0.0,0.0
1759839621.6201415,1,-1.7349997758865356,-0.34999987483024597,-0.7176974862806151,0.0,True,0.01155996322631836,-1.7349997758865356,-0.34999987483024597,-0.7177035212516785,0.0,0.0,0.0
1759839621.6304238,1,-1.7349997758865356,-0.34999987483024597,-0.7176977954636818,0.0,True,0.010282278060913086,-1.7349997758865356,-0.34999987483024597,-0.7177035212516785,0.0,0.0,0.0
1759839621.641171,1,-1.7349997758865356,-0.34999987483024597,-0.717698020831433,0.0,True,0.010747194290161133,-1.7349997758865356,-0.34999987483024597,-0.7177035212516785,0.0,0.0,0.0
1759839621.652322,1,-1.7349997758865356,-0.34999987483024597,-0.7176981828852185,0.0,True,0.01115107536315918,-1.7349997758865356,-0.34999987483024597,-0.7177035212516785,0.0,0.0,0.0
1759839621.6630907,1,-1.7349997758865356,-0.34999987483024597,-0.7176983892325595,0.0,True,0.010768651962280273,-1.7349997758865356,-0.34999987483024597,-0.7177035212516785,0.0,0.0,0.0
1759839621.6742232,1,-1.7349997758865356,-0.34999987483024597,-0.7176985487608949,0.0,True,0.011132478713989258,-1.7349997758865356,-0.34999987483024597,-0.7177035212516785,0.0,0.0,0.0
1759839621.684965,1,-1.7349997758865356,-0.34999987483024597,-0.7176987478393819,0.0,True,0.010741710662841797,-1.7349997758865356,-0.34999987483024597,-0.7177035212516785,0.0,0.0,0.0
1759839621.695109,1,-1.7349997758865356,-0.34999987483024597,-0.7176989933108935,0.0,True,0.01014399528503418,-1.7349997758865356,-0.34999987483024597,-0.7177035212516785,0.0,0.0,0.0
1759839621.7075763,1,-1.7349997758865356,-0.34999987483024597,-0.7176989921055572,0.0,True,0.012467384338378906,-1.7349997758865356,-0.34999987483024597,-0.7177035212516785,0.0,0.0,0.0
1759839621.7166727,1,-1.7349997758865356,-0.34999987483024597,-0.7176993331950872,0.0,True,0.009096384048461914,-1.7349997758865356,-0.34999987483024597,-0.7177035212516785,0.0,0.0,0.0
1759839621.7278686,1,-1.7349997758865356,-0.34999987483024597,-0.7176994406040134,0.0,True,0.011195898056030273,-1.7349997758865356,-0.34999987483024597,-0.7177035212516785,0.0,0.0,0.0
1759839621.7385938,1,-1.7349997758865356,-0.34999987483024597,-0.7176995834662918,0.0,True,0.010725259780883789,-1.7349997758865356,-0.34999987483024597,-0.7177035212516785,0.0,0.0,0.0
1759839621.748821,1,-1.7349997758865356,-0.34999987483024597,-0.7176997633352578,0.0,True,0.010227203369140625,-1.7349997758865356,-0.34999987483024597,-0.7177035212516785,0.0,0.0,0.0
1759839621.759551,1,-1.7349997758865356,-0.34999987483024597,-0.7176998854819949,0.0,True,0.01073002815246582,-1.7349997758865356,-0.34999987483024597,-0.7177035212516785,0.0,0.0,0.0
1759839621.7707071,1,-1.7349997758865356,-0.34999987483024597,-0.7176999702177334,0.0,True,0.011156082153320312,-1.7349997758865356,-0.34999987483024597,-0.7177035212516785,0.0,0.0,0.0
1759839621.781718,1,-1.7349997758865356,-0.34999987483024597,-0.717700073763087,0.0,True,0.011010885238647461,-1.7349997758865356,-0.34999987483024597,-0.7177035212516785,0.0,0.0,0.0
1759839621.7919521,1,-1.7349997758865356,-0.34999987483024597,-0.7177002358460385,0.0,True,0.01023411750793457,-1.7349997758865356,-0.34999987483024597,-0.7177035212516785,0.0,0.0,0.0
1759839621.8022535,1,-1.7349997758865356,-0.34999987483024597,-0.7177003772027781,0.0,True,0.010301351547241211,-1.7349997758865356,-0.34999987483024597,-0.7177035212516785,0.0,0.0,0.0
1759839621.8126717,1,-1.7349997758865356,-0.34999987483024597,-0.7177004954036903,0.0,True,0.010418176651000977,-1.7349997758865356,-0.34999987483024597,-0.7177035212516785,0.0,0.0,0.0
1759839621.8233228,1,-1.7349997758865356,-0.34999987483024597,-0.7177005894522512,0.0,True,0.010651111602783203,-1.7349997758865356,-0.34999987483024597,-0.7177035212516785,0.0,0.0,0.0
1759839621.8340185,1,-1.7349997758865356,-0.34999987483024597,-0.7177006785851816,0.0,True,0.010695695877075195,-1.7349997758865356,-0.34999987483024597,-0.7177035212516785,0.0,0.0,0.0
1759839621.8441763,1,-1.7349997758865356,-0.34999987483024597,-0.717700799405149,0.0,True,0.01015782356262207,-1.7349997758865356,-0.34999987483024597,-0.7177035212516785,0.0,0.0,0.0
1759839621.855639,1,-1.7349997758865356,-0.34999987483024597,-0.7177008346175384,0.0,True,0.011462688446044922,-1.7349997758865356,-0.34999987483024597,-0.7177035212516785,0.0,0.0,0.0
1759839621.8662243,1,-1.7349997758865356,-0.34999987483024597,-0.7177009308670108,0.0,True,0.010585308074951172,-1.7349997758865356,-0.34999987483024597,-0.7177035212516785,0.0,0.0,0.0
1759839621.8764539,1,-1.7349997758865356,-0.34999987483024597,-0.7177010447600907,0.0,True,0.01022958755493164,-1.7349997758865356,-0.34999987483024597,-0.7177035212516785,0.0,0.0,0.0
1759839621.8876946,1,-1.7349997758865356,-0.34999987483024597,-0.7177010949869889,0.0,True,0.011240720748901367,-1.7349997758865356,-0.34999987483024597,-0.7177035212516785,0.0,0.0,0.0
1759839621.8990562,1,-1.7349997758865356,-0.34999987483024597,-0.7177011450321409,0.0,True,0.01136159896850586,-1.7349997758865356,-0.34999987483024597,-0.7177035212516785,0.0,0.0,0.0
1759839621.9149342,1,-1.7349997758865356,-0.34999987483024597,-0.7177009911662715,0.0,True,0.015877962112426758,-1.7349997758865356,-0.34999987483024597,-0.7177035212516785,0.0,0.0,0.0
1759839621.9261558,1,-1.7349997758865356,-0.34999987483024597,-0.7177011258570332,0.0,True,0.011221647262573242,-1.7349997758865356,-0.34999987483024597,-0.7177035212516785,0.0,0.0,0.0
1759839621.9369853,1,-1.7349997758865356,-0.34999987483024597,-0.7177012768493647,0.0,True,0.010829448699951172,-1.7349997758865356,-0.34999987483024597,-0.7177035212516785,0.0,0.0,0.0
1759839621.947664,1,-1.7349997758865356,-0.34999987483024597,-0.7177014106164386,0.0,True,0.010678768157958984,-1.7349997758865356,-0.34999987483024597,-0.7177035212516785,0.0,0.0,0.0
1759839621.9580894,1,-1.7349997758865356,-0.34999987483024597,-0.7177015328670553,0.0,True,0.010425329208374023,-1.7349997758865356,-0.34999987483024597,-0.7177035212516785,0.0,0.0,0.0
1759839621.9693727,1,-1.7349997758865356,-0.34999987483024597,-0.7177016017890683,0.0,True,0.011283397674560547,-1.7349997758865356,-0.34999987483024597,-0.7177035212516785,0.0,0.0,0.0
1759839621.979594,1,-1.7349997758865356,-0.34999987483024597,-0.7177017063144735,0.0,True,0.010221242904663086,-1.7349997758865356,-0.34999987483024597,-0.7177035212516785,0.0,0.0,0.0
1759839621.9903538,1,-1.7349997758865356,-0.34999987483024597,-0.717701777433156,0.0,True,0.010759830474853516,-1.7349997758865356,-0.34999987483024597,-0.7177035212516785,0.0,0.0,0.0
1759839622.0009942,1,-1.7349997758865356,-0.34999987483024597,-0.7177018457430417,0.0,True,0.010640382766723633,-1.7349997758865356,-0.34999987483024597,-0.7177035212516785,0.0,0.0,0.0
1759839622.0117223,1,-1.7349997758865356,-0.34999987483024597,-0.717701905700654,0.0,True,0.010728120803833008,-1.7349997758865356,-0.34999987483024597,-0.7177035212516785,0.0,0.0,0.0
1759839622.0225182,1,-1.7349997758865356,-0.34999987483024597,-0.7177019598806318,0.0,True,0.010795831680297852,-1.7349997758865356,-0.34999987483024597,-0.7177035212516785,0.0,0.0,0.0
1759839622.0337296,1,-1.7349997758865356,-0.34999987483024597,-0.7177019987428537,0.0,True,0.011211395263671875,-1.7349997758865356,-0.34999987483024597,-0.7177035212516785,0.0,0.0,0.0
1759839622.0448756,1,-1.7349997758865356,-0.34999987483024597,-0.7177020420950075,0.0,True,0.011146068572998047,-1.7349997758865356,-0.34999987483024597,-0.7177035212516785,0.0,0.0,0.0
1759839622.055685,1,-1.7349997758865356,-0.34999987483024597,-0.7177020971808794,0.0,True,0.01080942153930664,-1.7349997758865356,-0.34999987483024597,-0.7177035212516785,0.0,0.0,0.0
1759839622.066602,1,-1.7349997758865356,-0.34999987483024597,-0.717702146629879,0.0,True,0.010916948318481445,-1.7349997758865356,-0.34999987483024597,-0.7177035212516785,0.0,0.0,0.0
1759839622.0777142,1,-1.7349997758865356,-0.34999987483024597,-0.7177021885358936,0.0,True,0.011112213134765625,-1.7349997758865356,-0.34999987483024597,-0.7177035212516785,0.0,0.0,0.0
1759839622.088017,1,-1.7349997758865356,-0.34999987483024597,-0.7177022521286105,0.0,True,0.01030278205871582,-1.7349997758865356,-0.34999987483024597,-0.7177035212516785,0.0,0.0,0.0
1759839622.098392,1,-1.7349997758865356,-0.34999987483024597,-0.7177023070902369,0.0,True,0.010375022888183594,-1.7349997758865356,-0.34999987483024597,-0.7177035212516785,0.0,0.0,0.0
1759839622.1112995,1,-1.7349997758865356,-0.34999987483024597,-0.7177022923161402,0.0,True,0.01290750503540039,-1.7349997758865356,-0.34999987483024597,-0.7177035212516785,0.0,0.0,0.0
1759839622.1221447,1,-1.7349997758865356,-0.34999987483024597,-0.7177023425437863,0.0,True,0.010845184326171875,-1.7349997758865356,-0.34999987483024597,-0.7177035212516785,0.0,0.0,0.0
1759839622.1328454,1,-1.7349997758865356,-0.34999987483024597,-0.7177023958061213,0.0,True,0.010700702667236328,-1.7349997758865356,-0.34999987483024597,-0.7177035212516785,0.0,0.0,0.0
1759839622.143434,1,-1.7349997758865356,-0.34999987483024597,-0.7177024461376451,0.0,True,0.010588645935058594,-1.7349997758865356,-0.34999987483024597,-0.7177035212516785,0.0,0.0,0.0
1759839622.1537862,1,-1.7349997758865356,-0.34999987483024597,-0.7177024960977789,0.0,True,0.010352134704589844,-1.7349997758865356,-0.34999987483024597,-0.7177035212516785,0.0,0.0,0.0
1759839622.1650229,1,-1.7349997758865356,-0.34999987483024597,-0.7177025214221082,0.0,True,0.01123666763305664,-1.7349997758865356,-0.34999987483024597,-0.7177035212516785,0.0,0.0,0.0
1759839622.1764,1,-1.7349997758865356,-0.34999987483024597,-0.7177025447625773,0.0,True,0.011377096176147461,-1.7349997758865356,-0.34999987483024597,-0.7177035212516785,0.0,0.0,0.0
1759839622.1867752,1,-1.7349997758865356,-0.34999987483024597,-0.717702590414472,0.0,True,0.010375261306762695,-1.7349997758865356,-0.34999987483024597,-0.7177035212516785,0.0,0.0,0.0
1759839622.1974256,1,-1.7349997758865356,-0.34999987483024597,-0.7177026266201842,0.0,True,0.010650396347045898,-1.7349997758865356,-0.34999987483024597,-0.7177035212516785,0.0,0.0,0.0
1759839622.208254,1,-1.7349997758865356,-0.34999987483024597,-0.7177026563331097,0.0,True,0.010828495025634766,-1.7349997758865356,-0.34999987483024597,-0.7177035212516785,0.0,0.0,0.0
1759839622.218982,1,-1.7349997758865356,-0.34999987483024597,-0.7177026866317622,0.0,True,0.010727882385253906,-1.7349997758865356,-0.34999987483024597,-0.7177035212516785,0.0,0.0,0.0
1759839622.229654,1,-1.7349997758865356,-0.34999987483024597,-0.7177027165337435,0.0,True,0.01067209243774414,-1.7349997758865356,-0.34999987483024597,-0.7177035212516785,0.0,0.0,0.0
1759839622.2399607,1,-1.7349997758865356,-0.34999987483024597,-0.7177027508838165,0.0,True,0.010306596755981445,-1.7349997758865356,-0.34999987483024597,-0.7177035212516785,0.0,0.0,0.0
1759839622.2513013,1,-1.7349997758865356,-0.34999987483024597,-0.7177027653178918,0.0,True,0.011340618133544922,-1.7349997758865356,-0.34999987483024597,-0.7177035212516785,0.0,0.0,0.0
1759839622.2618954,1,-1.7349997758865356,-0.34999987483024597,-0.7177027933945617,0.0,True,0.01059412956237793,-1.7349997758865356,-0.34999987483024597,-0.7177035212516785,0.0,0.0,0.0
1759839622.2728033,1,-1.7349997758865356,-0.34999987483024597,-0.7177028157403811,0.0,True,0.010907888412475586,-1.7349997758865356,-0.34999987483024597,-0.7177035212516785,0.0,0.0,0.0
1759839622.283904,1,-1.7349997758865356,-0.34999987483024597,-0.7177028349541281,0.0,True,0.01110076904296875,-1.7349997758865356,-0.34999987483024597,-0.7177035212516785,0.0,0.0,0.0
1759839622.2943614,1,-1.7349997758865356,-0.34999987483024597,-0.717702863875882,0.0,True,0.010457277297973633,-1.7349997758865356,-0.34999987483024597,-0.7177035212516785,0.0,0.0,0.0
1759839622.304587,1,-1.7349997758865356,-0.34999987483024597,-0.7177028936832563,0.0,True,0.010225534439086914,-1.7349997758865356,-0.34999987483024597,-0.7177035212516785,0.0,0.0,0.0
1759839622.3167589,1,-1.7349997758865356,-0.34999987483024597,-0.7177028946169806,0.0,True,0.01217198371887207,-1.7349997758865356,-0.34999987483024597,-0.7177035212516785,0.0,0.0,0.0
1759839622.327596,1,-1.7349997758865356,-0.34999987483024597,-0.7177029173604659,0.0,True,0.010837078094482422,-1.7349997758865356,-0.34999987483024597,-0.7177035212516785,0.0,0.0,0.0
1759839622.3384552,1,-1.7349997758865356,-0.34999987483024597,-0.7177029399284827,0.0,True,0.010859251022338867,-1.7349997758865356,-0.34999987483024597,-0.7177035212516785,0.0,0.0,0.0
1759839622.3493178,1,-1.7349997758865356,-0.34999987483024597,-0.717702961158059,0.0,True,0.010862588882446289,-1.7349997758865356,-0.34999987483024597,-0.7177035212516785,0.0,0.0,0.0
1759839622.3595917,1,-1.7349997758865356,-0.34999987483024597,-0.717702987894036,0.0,True,0.010273933410644531,-1.7349997758865356,-0.34999987483024597,-0.7177035212516785,0.0,0.0,0.0
1759839622.3703828,1,-1.7349997758865356,-0.34999987483024597,-0.717703005893803,0.0,True,0.01079106330871582,-1.7349997758865356,-0.34999987483024597,-0.7177035212516785,0.0,0.0,0.0
1759839622.3812282,1,-1.7349997758865356,-0.34999987483024597,-0.7177030222265941,0.0,True,0.010845422744750977,-1.7349997758865356,-0.34999987483024597,-0.7177035212516785,0.0,0.0,0.0
1759839622.3919113,1,-1.7349997758865356,-0.34999987483024597,-0.7177030399166888,0.0,True,0.010683059692382812,-1.7349997758865356,-0.34999987483024597,-0.7177035212516785,0.0,0.0,0.0
1759839622.4027753,1,-1.7349997758865356,-0.34999987483024597,-0.7177030550135868,0.0,True,0.010864019393920898,-1.7349997758865356,-0.34999987483024597,-0.7177035212516785,0.0,0.0,0.0
1759839622.4129212,1,-1.7349997758865356,-0.34999987483024597,-0.7177030767097232,0.0,True,0.010145902633666992,-1.7349997758865356,-0.34999987483024597,-0.7177035212516785,0.0,0.0,0.0
1759839622.4236474,1,-1.7349997758865356,-0.34999987483024597,-0.7177030906960962,0.0,True,0.010726213455200195,-1.7349997758865356,-0.34999987483024597,-0.7177035212516785,0.0,0.0,0.0
1759839622.4344406,1,-1.7349997758865356,-0.34999987483024597,-0.7177031034290025,0.0,True,0.010793209075927734,-1.7349997758865356,-0.34999987483024597,-0.7177035212516785,0.0,0.0,0.0
1759839622.4451349,1,-1.7349997758865356,-0.34999987483024597,-0.7177031170304495,0.0,True,0.010694265365600586,-1.7349997758865356,-0.34999987483024597,-0.7177035212516785,0.0,0.0,0.0
1759839622.455832,1,-1.7349997758865356,-0.34999987483024597,-0.7177031303070258,0.0,True,0.010697126388549805,-1.7349997758865356,-0.34999987483024597,-0.7177035212516785,0.0,0.0,0.0
1759839622.466094,1,-1.7349997758865356,-0.34999987483024597,-0.7177031467238795,0.0,True,0.010262012481689453,-1.7349997758865356,-0.34999987483024597,-0.7177035212516785,0.0,0.0,0.0
1759839622.4761114,1,-1.7349997758865356,-0.34999987483024597,-0.7177031635913291,0.0,True,0.01001739501953125,-1.7349997758865356,-0.34999987483024597,-0.7177035212516785,0.0,0.0,0.0
1759839622.486898,1,-1.7349997758865356,-0.34999987483024597,-0.7177031725803307,0.0,True,0.01078653335571289,-1.7349997758865356,-0.34999987483024597,-0.7177035212516785,0.0,0.0,0.0
1759839622.4981039,1,-1.7349997758865356,-0.34999987483024597,-0.7177031785930161,0.0,True,0.011205911636352539,-1.7349997758865356,-0.34999987483024597,-0.7177035212516785,0.0,0.0,0.0
1759839622.509417,1,-1.7349997758865356,-0.34999987483024597,-0.7177031852628986,0.0,True,0.011313199996948242,-1.7349997758865356,-0.34999987483024597,-0.7177035212516785,0.0,0.0,0.0
1759839622.5205834,1,-1.7349997758865356,-0.34999987483024597,-0.7177031943547938,0.0,True,0.01116633415222168,-1.7349997758865356,-0.34999987483024597,-0.7177035212516785,0.0,0.0,0.0
1759839622.5307996,1,-1.7349997758865356,-0.34999987483024597,-0.7177032103532888,0.0,True,0.010216236114501953,-1.7349997758865356,-0.34999987483024597,-0.7177035212516785,0.0,0.0,0.0
1759839622.5420463,1,-1.7349997758865356,-0.34999987483024597,-0.7177032180661183,0.0,True,0.011246681213378906,-1.7349997758865356,-0.34999987483024597,-0.7177035212516785,0.0,0.0,0.0
1759839622.553154,1,-1.7349997758865356,-0.34999987483024597,-0.7177032268724535,0.0,True,0.011107683181762695,-1.7349997758865356,-0.34999987483024597,-0.7177035212516785,0.0,0.0,0.0
1759839622.5633018,1,-1.7349997758865356,-0.34999987483024597,-0.7177032416865288,0.0,True,0.010147809982299805,-1.7349997758865356,-0.34999987483024597,-0.7177035212516785,0.0,0.0,0.0
1759839622.5737374,1,-1.7349997758865356,-0.34999987483024597,-0.7177032531459488,0.0,True,0.01043558120727539,-1.7349997758865356,-0.34999987483024597,-0.7177035212516785,0.0,0.0,0.0
1759839622.5851812,1,-1.7349997758865356,-0.34999987483024597,-0.7177032577594851,0.0,True,0.011443853378295898,-1.7349997758865356,-0.34999987483024597,-0.7177035212516785,0.0,0.0,0.0
1759839622.5959747,1,-1.7349997758865356,-0.34999987483024597,-0.7177032667774963,0.0,True,0.010793447494506836,-1.7349997758865356,-0.34999987483024597,-0.7177035212516785,0.0,0.0,0.0
1759839622.6071687,1,-1.7349997758865356,-0.34999987483024597,-0.717703273653715,0.0,True,0.011193990707397461,-1.7349997758865356,-0.34999987483024597,-0.7177035212516785,0.0,0.0,0.0
1759839622.6182315,1,-1.7349997758865356,-0.34999987483024597,-0.7177032814515325,0.0,True,0.011062860488891602,-1.7349997758865356,-0.34999987483024597,-0.7177035212516785,0.0,0.0,0.0
1759839622.628747,1,-1.7349997758865356,-0.34999987483024597,-0.7177032919349564,0.0,True,0.010515451431274414,-1.7349997758865356,-0.34999987483024597,-0.7177035212516785,0.0,0.0,0.0
1759839622.639784,1,-1.7349997758865356,-0.34999987483024597,-0.7177032990630519,0.0,True,0.011037111282348633,-1.7349997758865356,-0.34999987483024597,-0.7177035212516785,0.0,0.0,0.0
1759839622.6499622,1,-1.7349997758865356,-0.34999987483024597,-0.7177033098850991,0.0,True,0.010178089141845703,-1.7349997758865356,-0.34999987483024597,-0.7177035212516785,0.0,0.0,0.0
1759839622.6606367,1,-1.7349997758865356,-0.34999987483024597,-0.7177033173253466,0.0,True,0.010674476623535156,-1.7349997758865356,-0.34999987483024597,-0.7177035212516785,0.0,0.0,0.0
1759839622.6717482,1,-1.7349997758865356,-0.34999987483024597,-0.7177033223756268,0.0,True,0.01111149787902832,-1.7349997758865356,-0.34999987483024597,-0.7177035212516785,0.0,0.0,0.0
1759839622.6832962,1,-1.7349997758865356,-0.34999987483024597,-0.7177033259439529,0.0,True,0.011548042297363281,-1.7349997758865356,-0.34999987483024597,-0.7177035212516785,0.0,0.0,0.0
1759839622.694495,1,-1.7349997758865356,-0.34999987483024597,-0.7177033317479946,0.0,True,0.011198759078979492,-1.7349997758865356,-0.34999987483024597,-0.7177035212516785,0.0,0.0,0.0
1759839622.7058227,1,-1.7349997758865356,-0.34999987483024597,-0.7177033373277109,0.0,True,0.011327743530273438,-1.7349997758865356,-0.34999987483024597,-0.7177035212516785,0.0,0.0,0.0
1759839622.7226343,1,-1.7349997758865356,-0.34999987483024597,-0.7177033234811816,0.0,True,0.016811609268188477,-1.7349997758865356,-0.34999987483024597,-0.7177035212516785,0.0,0.0,0.0
1759839622.733463,1,-1.7349997758865356,-0.34999987483024597,-0.7177033367385377,0.0,True,0.010828733444213867,-1.7349997758865356,-0.34999987483024597,-0.7177035212516785,0.0,0.0,0.0
1759839622.7437737,1,-1.7349997758865356,-0.34999987483024597,-0.7177033509031929,0.0,True,0.010310649871826172,-1.7349997758865356,-0.34999987483024597,-0.7177035212516785,0.0,0.0,0.0
1759839622.7550611,1,-1.7349997758865356,-0.34999987483024597,-0.7177033592045206,0.0,True,0.011287450790405273,-1.7349997758865356,-0.34999987483024597,-0.7177035212516785,0.0,0.0,0.0
1759839622.7652853,1,-1.7349997758865356,-0.34999987483024597,-0.7177033695394499,0.0,True,0.010224103927612305,-1.7349997758865356,-0.34999987483024597,-0.7177035212516785,0.0,0.0,0.0
1759839622.7766576,1,-1.7349997758865356,-0.34999987483024597,-0.7177033747643016,0.0,True,0.01137232780456543,-1.7349997758865356,-0.34999987483024597,-0.7177035212516785,0.0,0.0,0.0
1759839622.7879698,1,-1.7349997758865356,-0.34999987483024597,-0.7177033797607457,0.0,True,0.011312246322631836,-1.7349997758865356,-0.34999987483024597,-0.7177035212516785,0.0,0.0,0.0
1759839622.7991326,1,-1.7349997758865356,-0.34999987483024597,-0.7177033850540795,0.0,True,0.011162757873535156,-1.7349997758865356,-0.34999987483024597,-0.7177035212516785,0.0,0.0,0.0
1759839622.8093243,1,-1.7349997758865356,-0.34999987483024597,-0.7177033926885272,0.0,True,0.010191679000854492,-1.7349997758865356,-0.34999987483024597,-0.7177035212516785,0.0,0.0,0.0
1759839622.820089,1,-1.7349997758865356,-0.34999987483024597,-0.7177033977738887,0.0,True,0.010764837265014648,-1.7349997758865356,-0.34999987483024597,-0.7177035212516785,0.0,0.0,0.0
1759839622.8308656,1,-1.7349997758865356,-0.34999987483024597,-0.7177034022919795,0.0,True,0.010776519775390625,-1.7349997758865356,-0.34999987483024597,-0.7177035212516785,0.0,0.0,0.0
1759839622.84191,1,-1.7349997758865356,-0.34999987483024597,-0.7177034058666116,0.0,True,0.01104426383972168,-1.7349997758865356,-0.34999987483024597,-0.7177035212516785,0.0,0.0,0.0
1759839622.85351,1,-1.7349997758865356,-0.34999987483024597,-0.7177034081161828,0.0,True,0.011600017547607422,-1.7349997758865356,-0.34999987483024597,-0.7177035212516785,0.0,0.0,0.0
1759839622.8645132,1,-1.7349997758865356,-0.34999987483024597,-0.7177034121170074,0.0,True,0.011003255844116211,-1.7349997758865356,-0.34999987483024597,-0.7177035212516785,0.0,0.0,0.0
1759839622.87558,1,-1.7349997758865356,-0.34999987483024597,-0.7177034159142739,0.0,True,0.011066913604736328,-1.7349997758865356,-0.34999987483024597,-0.7177035212516785,0.0,0.0,0.0
1759839622.8862648,1,-1.7349997758865356,-0.34999987483024597,-0.717703420371425,0.0,True,0.010684728622436523,-1.7349997758865356,-0.34999987483024597,-0.7177035212516785,0.0,0.0,0.0
1759839622.897234,1,-1.7349997758865356,-0.34999987483024597,-0.7177034238689348,0.0,True,0.010969161987304688,-1.7349997758865356,-0.34999987483024597,-0.7177035212516785,0.0,0.0,0.0
1759839622.9080572,1,-1.7349997758865356,-0.34999987483024597,-0.7177034274686633,0.0,True,0.010823249816894531,-1.7349997758865356,-0.34999987483024597,-0.7177035212516785,0.0,0.0,0.0
1759839622.9187405,1,-1.7349997758865356,-0.34999987483024597,-0.7177034311291575,0.0,True,0.010683298110961914,-1.7349997758865356,-0.34999987483024597,-0.7177035212516785,0.0,0.0,0.0
1759839622.9297092,1,-1.7349997758865356,-0.34999987483024597,-0.7177034339914314,0.0,True,0.010968685150146484,-1.7349997758865356,-0.34999987483024597,-0.7177035212516785,0.0,0.0,0.0
1759839622.9411564,1,-1.7349997758865356,-0.34999987483024597,-0.7177034359273691,0.0,True,0.01144719123840332,-1.7349997758865356,-0.34999987483024597,-0.7177035212516785,0.0,0.0,0.0
1759839622.951944,1,-1.7349997758865356,-0.34999987483024597,-0.7177034392148052,0.0,True,0.010787725448608398,-1.7349997758865356,-0.34999987483024597,-0.7177035212516785,0.0,0.0,0.0
1759839622.9620872,1,-1.7349997758865356,-0.34999987483024597,-0.7177034434181593,0.0,True,0.010143041610717773,-1.7349997758865356,-0.34999987483024597,-0.7177035212516785,0.0,0.0,0.0
1759839622.973487,1,-1.7349997758865356,-0.34999987483024597,-0.7177034450606978,0.0,True,0.01139974594116211,-1.7349997758865356,-0.34999987483024597,-0.7177035212516785,0.0,0.0,0.0
1759839622.9847882,1,-1.7349997758865356,-0.34999987483024597,-0.7177034469792059,0.0,True,0.011301279067993164,-1.7349997758865356,-0.34999987483024597,-0.7177035212516785,0.0,0.0,0.0
1759839622.996065,1,-1.7349997758865356,-0.34999987483024597,-0.7177034491099974,0.0,True,0.011276721954345703,-1.7349997758865356,-0.34999987483024597,-0.7177035212516785,0.0,0.0,0.0
1759839623.0063257,1,-1.7349997758865356,-0.34999987483024597,-0.7177034527852904,0.0,True,0.010260820388793945,-1.7349997758865356,-0.34999987483024597,-0.7177035212516785,0.0,0.0,0.0
1759839623.017691,1,-1.7349997758865356,-0.34999987483024597,-0.7177034545006968,0.0,True,0.011365175247192383,-1.7349997758865356,-0.34999987483024597,-0.7177035212516785,0.0,0.0,0.0
1759839623.0283797,1,-1.7349997758865356,-0.34999987483024597,-0.7177034571631289,0.0,True,0.01068878173828125,-1.7349997758865356,-0.34999987483024597,-0.7177035212516785,0.0,0.0,0.0
1759839623.0390816,1,-1.7349997758865356,-0.34999987483024597,-0.7177034596494405,0.0,True,0.010701894760131836,-1.7349997758865356,-0.34999987483024597,-0.7177035212516785,0.0,0.0,0.0
1759839623.0502172,1,-1.7349997758865356,-0.34999987483024597,-0.7177034614000917,0.0,True,0.011135578155517578,-1.7349997758865356,-0.34999987483024597,-0.7177035212516785,0.0,0.0,0.0
1759839623.0611186,1,-1.7349997758865356,-0.34999987483024597,-0.7177034634472079,0.0,True,0.010901451110839844,-1.7349997758865356,-0.34999987483024597,-0.7177035212516785,0.0,0.0,0.0
1759839623.0722513,1,-1.7349997758865356,-0.34999987483024597,-0.717703465170608,0.0,True,0.01113271713256836,-1.7349997758865356,-0.34999987483024597,-0.7177035212516785,0.0,0.0,0.0
1759839623.0829034,1,-1.7349997758865356,-0.34999987483024597,-0.7177034674450908,0.0,True,0.01065206527709961,-1.7349997758865356,-0.34999987483024597,-0.7177035212516785,0.0,0.0,0.0
1759839623.0937521,1,-1.7349997758865356,-0.34999987483024597,-0.7177034693438564,0.0,True,0.010848760604858398,-1.7349997758865356,-0.34999987483024597,-0.7177035212516785,0.0,0.0,0.0
1759839623.1044161,1,-1.7349997758865356,-0.34999987483024597,-0.7177034713318307,0.0,True,0.010663986206054688,-1.7349997758865356,-0.34999987483024597,-0.7177035212516785,0.0,0.0,0.0
1759839623.1158755,1,-1.7349997758865356,-0.34999987483024597,-0.7177034723732216,0.0,True,0.0114593505859375,-1.7349997758865356,-0.34999987483024597,-0.7177035212516785,0.0,0.0,0.0
1759839623.1262846,1,-1.7349997758865356,-0.34999987483024597,-0.717703474575849,0.0,True,0.010409116744995117,-1.7349997758865356,-0.34999987483024597,-0.7177035212516785,0.0,0.0,0.0
1759839623.1375082,1,-1.7349997758865356,-0.34999987483024597,-0.7177034758205103,0.0,True,0.011223554611206055,-1.7349997758865356,-0.34999987483024597,-0.7177035212516785,0.0,0.0,0.0
1759839623.1478415,1,-1.7349997758865356,-0.34999987483024597,-0.7177034779016793,0.0,True,0.01033329963684082,-1.7349997758865356,-0.34999987483024597,-0.7177035212516785,0.0,0.0,0.0
1759839623.1586623,1,-1.7349997758865356,-0.34999987483024597,-0.7177034793510497,0.0,True,0.010820865631103516,-1.7349997758865356,-0.34999987483024597,-0.7177035212516785,0.0,0.0,0.0
1759839623.1694155,1,-1.7349997758865356,-0.34999987483024597,-0.7177034807784732,0.0,True,0.010753154754638672,-1.7349997758865356,-0.34999987483024597,-0.7177035212516785,0.0,0.0,0.0
1759839623.180141,1,-1.7349997758865356,-0.34999987483024597,-0.7177034821735155,0.0,True,0.01072549819946289,-1.7349997758865356,-0.34999987483024597,-0.7177035212516785,0.0,0.0,0.0
1759839623.19142,1,-1.7349997758865356,-0.34999987483024597,-0.7177034830636835,0.0,True,0.011279106140136719,-1.7349997758865356,-0.34999987483024597,-0.7177035212516785,0.0,0.0,0.0
1759839623.202083,1,-1.7349997758865356,-0.34999987483024597,-0.717703484514006,0.0,True,0.010663032531738281,-1.7349997758865356,-0.34999987483024597,-0.7177035212516785,0.0,0.0,0.0
1759839623.2124426,1,-1.7349997758865356,-0.34999987483024597,-0.7177034861252061,0.0,True,0.010359525680541992,-1.7349997758865356,-0.34999987483024597,-0.7177035212516785,0.0,0.0,0.0
1759839623.2227435,1,-1.7349997758865356,-0.34999987483024597,-0.7177034876140098,0.0,True,0.010300874710083008,-1.7349997758865356,-0.34999987483024597,-0.7177035212516785,0.0,0.0,0.0
1759839623.2334716,1,-1.7349997758865356,-0.34999987483024597,-0.7177034886417992,0.0,True,0.010728120803833008,-1.7349997758865356,-0.34999987483024597,-0.7177035212516785,0.0,0.0,0.0
1759839623.2447937,1,-1.7349997758865356,-0.34999987483024597,-0.7177034892320897,0.0,True,0.011322021484375,-1.7349997758865356,-0.34999987483024597,-0.7177035212516785,0.0,0.0,0.0
1759839623.2554529,1,-1.7349997758865356,-0.34999987483024597,-0.717703490374408,0.0,True,0.010659217834472656,-1.7349997758865356,-0.34999987483024597,-0.7177035212516785,0.0,0.0,0.0
1759839623.266757,1,-1.7349997758865356,-0.34999987483024597,-0.7177034910800568,0.0,True,0.011304140090942383,-1.7349997758865356,-0.34999987483024597,-0.7177035212516785,0.0,0.0,0.0
1759839623.2774386,1,-1.7349997758865356,-0.34999987483024597,-0.7177034922307932,0.0,True,0.010681629180908203,-1.7349997758865356,-0.34999987483024597,-0.7177035212516785,0.0,0.0,0.0
1759839623.2877486,1,-1.7349997758865356,-0.34999987483024597,-0.7177034935486954,0.0,True,0.010309934616088867,-1.7349997758865356,-0.34999987483024597,-0.7177035212516785,0.0,0.0,0.0
1759839623.2981877,1,-1.7349997758865356,-0.34999987483024597,-0.71770349464947,0.0,True,0.010439157485961914,-1.7349997758865356,-0.34999987483024597,-0.7177035212516785,0.0,0.0,0.0
1759839623.3089151,1,-1.7349997758865356,-0.34999987483024597,-0.7177034954847201,0.0,True,0.010727405548095703,-1.7349997758865356,-0.34999987483024597,-0.7177035212516785,0.0,0.0,0.0
1759839623.3190172,1,-1.7349997758865356,-0.34999987483024597,-0.7177034966283369,0.0,True,0.010102033615112305,-1.7349997758865356,-0.34999987483024597,-0.7177035212516785,0.0,0.0,0.0
1759839623.3304586,1,-1.7349997758865356,-0.34999987483024597,-0.7177034969604392,0.0,True,0.011441469192504883,-1.7349997758865356,-0.34999987483024597,-0.7177035212516785,0.0,0.0,0.0
1759839623.3410702,1,-1.7349997758865356,-0.34999987483024597,-0.7177034978086159,0.0,True,0.010611534118652344,-1.7349997758865356,-0.34999987483024597,-0.7177035212516785,0.0,0.0,0.0
1759839623.3523226,1,-1.7349997758865356,-0.34999987483024597,-0.7177034983358777,0.0,True,0.011252403259277344,-1.7349997758865356,-0.34999987483024597,-0.7177035212516785,0.0,0.0,0.0
1759839623.3624556,1,-1.7349997758865356,-0.34999987483024597,-0.717703499437448,0.0,True,0.010133028030395508,-1.7349997758865356,-0.34999987483024597,-0.7177035212516785,0.0,0.0,0.0
1759839623.3729382,1,-1.7349997758865356,-0.34999987483024597,-0.7177035002700798,0.0,True,0.010482549667358398,-1.7349997758865356,-0.34999987483024597,-0.7177035212516785,0.0,0.0,0.0
1759839623.3838913,1,-1.7349997758865356,-0.34999987483024597,-0.7177035008199546,0.0,True,0.010953187942504883,-1.7349997758865356,-0.34999987483024597,-0.7177035212516785,0.0,0.0,0.0
1759839623.3945873,1,-1.7349997758865356,-0.34999987483024597,-0.7177035014927853,0.0,True,0.010695934295654297,-1.7349997758865356,-0.34999987483024597,-0.7177035212516785,0.0,0.0,0.0
1759839623.4056973,1,-1.7349997758865356,-0.34999987483024597,-0.7177035019843423,0.0,True,0.011110067367553711,-1.7349997758865356,-0.34999987483024597,-0.7177035212516785,0.0,0.12114239706944119,0.0
1759839623.418006,1,-1.7349997758865356,-0.34999987483024597,-0.7177035020364055,0.0,True,0.012308597564697266,-1.7349997758865356,-0.34999987483024597,-0.7177035212516785,0.0,0.12114239706944119,0.0
1759839623.4293292,1,-1.7349997758865356,-0.34999987483024597,-0.7177035026396865,0.0,True,0.011323213577270508,-1.7349997758865356,-0.34999987483024597,-0.7177035212516785,0.0,0.12114239706944119,0.0
1759839623.4400272,1,-1.7349997758865356,-0.34999987483024597,-0.7177035035079893,0.0,True,0.010698080062866211,-1.7349997758865356,-0.34999987483024597,-0.7177035212516785,0.0,0.12114239706944119,0.0
1759839623.4520488,1,-1.7349997758865356,-0.34999987483024597,-0.7177035038305455,0.0,True,0.012021541595458984,-1.7349997758865356,-0.34999987483024597,-0.7177035212516785,0.0,0.12114239706944119,0.0
1759839623.463292,1,-1.7349997758865356,-0.34999987483024597,-0.7177035044796565,0.0,True,0.011243104934692383,-1.7349997758865356,-0.34999987483024597,-0.7177035212516785,0.0,0.12114239706944119,0.0
1759839623.4754007,1,-1.7349997758865356,-0.34999987483024597,-0.7177035048384202,0.0,True,0.012108802795410156,-1.7349997758865356,-0.34999987483024597,-0.7177035212516785,0.0,0.12114239706944119,0.0
1759839623.48621,1,-1.7349997758865356,-0.34999987483024597,-0.7177035056604311,0.0,True,0.01080942153930664,-1.7349997758865356,-0.34999987483024597,-0.7177035212516785,0.0,0.12114239706944119,0.0
1759839623.4981825,1,-1.7349997758865356,-0.34999987483024597,-0.7177035060571164,0.0,True,0.011972427368164062,-1.7349997758865356,-0.34999987483024597,-0.7177035212516785,0.0,0.12114239706944119,0.0
1759839623.509535,1,-1.7349997758865356,-0.34999987483024597,-0.7177035066550861,0.0,True,0.0113525390625,-1.7349997758865356,-0.34999987483024597,-0.7177035212516785,0.0,0.12114239706944119,0.0
1759839623.5210636,1,-1.7349997758865356,-0.34999987483024597,-0.7177035071818043,0.0,True,0.011528491973876953,-1.7349997758865356,-0.34999987483024597,-0.7177035212516785,0.0,0.12114239706944119,0.0
1759839623.5336506,1,-1.7349997758865356,-0.34999987483024597,-0.7177035074074585,0.0,True,0.01258707046508789,-1.7349997758865356,-0.34999987483024597,-0.7177035212516785,0.0,0.12114239706944119,0.0
1759839623.5444262,1,-1.7349997758865356,-0.34999987483024597,-0.7177035081755392,0.0,True,0.010775566101074219,-1.7349997758865356,-0.34999987483024597,-0.7177035212516785,0.0,0.12114239706944119,0.0
1759839623.5560572,1,-1.7349997758865356,-0.34999987483024597,-0.7177035086510006,0.0,True,0.011631011962890625,-1.7349997758865356,-0.34999987483024597,-0.7177035212516785,0.0,0.12114239706944119,0.0
1759839623.5674877,1,-1.7349997758865356,-0.34999987483024597,-0.7177035091447941,0.0,True,0.011430501937866211,-1.7349997758865356,-0.34999987483024597,-0.7177035212516785,0.0,0.12114239706944119,0.0
1759839623.5788138,1,-1.7349997758865356,-0.34999987483024597,-0.7177035096366051,0.0,True,0.011326074600219727,-1.7349997758865356,-0.34999987483024597,-0.7177035212516785,0.0,0.12114239706944119,0.0
1759839623.5896235,1,-1.7349997758865356,-0.34999987483024597,-0.7177035102099971,0.0,True,0.010809659957885742,-1.7349997758865356,-0.34999987483024597,-0.7177035212516785,0.0,0.12114239706944119,0.0
1759839623.6011112,1,-1.7349997758865356,-0.34999987483024597,-0.7177035105717682,0.0,True,0.011487722396850586,-1.7349997758865356,-0.34999987483024597,-0.7177035212516785,0.0,0.12114239706944119,0.0
1759839623.6127026,1,-1.7349997758865356,-0.34999987483024597,-0.7177035108990086,0.0,True,0.011591434478759766,-1.7349997758865356,-0.34999987483024597,-0.7177035212516785,0.0,0.12114239706944119,0.0
1759839623.6234796,1,-1.7349997758865356,-0.34999987483024597,-0.7177035113940562,0.0,True,0.010776996612548828,-1.7349997758865356,-0.34999987483024597,-0.7177035212516785,0.0,0.12114239706944119,0.0
1759839623.6342592,1,-1.7349997758865356,-0.34999987483024597,-0.7177035118397512,0.0,True,0.010779619216918945,-1.7349997758865356,-0.34999987483024597,-0.7177035212516785,0.0,0.12114239706944119,0.0
1759839623.645165,1,-1.7349997758865356,-0.34999987483024597,-0.7177035122115214,0.0,True,0.010905742645263672,-1.7349997758865356,-0.34999987483024597,-0.7177035212516785,0.0,0.12114239706944119,0.0
1759839623.6563582,1,-1.7349997758865356,-0.34999987483024597,-0.7177035124997957,0.0,True,0.011193275451660156,-1.7349997758865356,-0.34999987483024597,-0.7177035212516785,0.0,0.12114239706944119,0.0
1759839623.6671762,1,-1.7349997758865356,-0.34999987483024597,-0.7177035128467679,0.0,True,0.010818004608154297,-1.7349997758865356,-0.34999987483024597,-0.7177035212516785,0.0,0.12114239706944119,0.0
1759839623.6784606,1,-1.7349997758865356,-0.34999987483024597,-0.7177035130918341,0.0,True,0.011284351348876953,-1.7349997758865356,-0.34999987483024597,-0.7177035212516785,0.0,0.12114239706944119,0.0
1759839623.6891015,1,-1.7349997758865356,-0.34999987483024597,-0.7177035134420251,0.0,True,0.010640859603881836,-1.7349997758865356,-0.34999987483024597,-0.7177035212516785,0.0,0.12114239706944119,0.0
1759839623.701436,1,-1.7349997758865356,-0.34999987483024597,-0.7177035134978063,0.0,True,0.012334585189819336,-1.7349997758865356,-0.34999987483024597,-0.7177035212516785,0.0,0.12114239706944119,0.0
1759839623.7123907,1,-1.7349997758865356,-0.34999987483024597,-0.7177035138149286,0.0,True,0.010954618453979492,-1.7349997758865356,-0.34999987483024597,-0.7177035212516785,0.0,0.12114239706944119,0.0
1759839623.7238078,1,-1.7349997758865356,-0.34999987483024597,-0.7177035140541896,0.0,True,0.011417150497436523,-1.7349997758865356,-0.34999987483024597,-0.7177035212516785,0.0,0.12114239706944119,0.0
1759839623.7361233,1,-1.7349997758865356,-0.34999987483024597,-0.7177035141634978,0.0,True,0.012315511703491211,-1.7349997758865356,-0.34999987483024597,-0.7177035212516785,0.0,0.12114239706944119,0.0
1759839623.7466521,1,-1.7349997758865356,-0.34999987483024597,-0.7177035145525981,0.0,True,0.010528802871704102,-1.7349997758865356,-0.34999987483024597,-0.7177035212516785,0.0,0.12114239706944119,0.0
1759839623.7575257,1,-1.7349997758865356,-0.34999987483024597,-0.717703514854998,0.0,True,0.010873556137084961,-1.7349997758865356,-0.34999987483024597,-0.7177035212516785,0.0,0.12114239706944119,0.0
1759839623.767654,1,-1.7349997758865356,-0.34999987483024597,-0.7177035152152982,0.0,True,0.010128259658813477,-1.7349997758865356,-0.34999987483024597,-0.7177035212516785,0.0,0.12114239706944119,0.0
1759839623.7801535,1,-1.7349997758865356,-0.34999987483024597,-0.7177035152318645,0.0,True,0.012499570846557617,-1.7349997758865356,-0.34999987483024597,-0.7177035212516785,0.0,0.12114239706944119,0.0
1759839623.7913673,1,-1.7349997758865356,-0.34999987483024597,-0.7177035154432296,0.0,True,0.01121377944946289,-1.7349997758865356,-0.34999987483024597,-0.7177035212516785,0.0,0.12114239706944119,0.0
1759839623.8025775,1,-1.7349997758865356,-0.34999987483024597,-0.7177035156590001,0.0,True,0.011210203170776367,-1.7349997758865356,-0.34999987483024597,-0.7177035212516785,0.0,0.12114239706944119,0.0
1759839623.8125987,1,-1.7349997758865356,-0.34999987483024597,-0.7177035159946676,0.0,True,0.010021209716796875,-1.7349997758865356,-0.34999987483024597,-0.7177035212516785,0.0,0.12114239706944119,0.0
1759839623.8233361,1,-1.7349997758865356,-0.34999987483024597,-0.7177035162039385,0.0,True,0.010737419128417969,-1.7349997758865356,-0.34999987483024597,-0.7177035212516785,0.0,0.12114239706944119,0.0
1759839623.833764,1,-1.7349997758865356,-0.34999987483024597,-0.7177035164210466,0.0,True,0.01042795181274414,-1.7349997758865356,-0.34999987483024597,-0.7177035212516785,0.0,0.12114239706944119,0.0
1759839623.84489,1,-1.7349997758865356,-0.34999987483024597,-0.7177035165462726,0.0,True,0.011126041412353516,-1.7349997758865356,-0.34999987483024597,-0.7177035212516785,0.0,0.12114239706944119,0.0
1759839623.8553035,1,-1.7349997758865356,-0.34999987483024597,-0.7177035167422705,0.0,True,0.010413408279418945,-1.7349997758865356,-0.34999987483024597,-0.7177035212516785,0.0,0.12114239706944119,0.0
1759839623.8659306,1,-1.7349997758865356,-0.34999987483024597,-0.717703516903077,0.0,True,0.010627031326293945,-1.7349997758865356,-0.34999987483024597,-0.7177035212516785,0.0,0.12114239706944119,0.0
1759839623.876659,1,-1.7349997758865356,-0.34999987483024597,-0.7177035170436472,0.0,True,0.01072835922241211,-1.7349997758865356,-0.34999987483024597,-0.7177035212516785,0.0,0.12114239706944119,0.0
1759839623.8873491,1,-1.7349997758865356,-0.34999987483024597,-0.717703517182624,0.0,True,0.01069021224975586,-1.7349997758865356,-0.34999987483024597,-0.7177035212516785,0.0,0.12114239706944119,0.0
1759839623.8976765,1,-1.7349997758865356,-0.34999987483024597,-0.7177035173474682,0.0,True,0.010327339172363281,-1.7349997758865356,-0.34999987483024597,-0.7177035212516785,0.0,0.12114239706944119,0.0
1759839623.909326,1,-1.7349997758865356,-0.34999987483024597,-0.7177035173903157,0.0,True,0.011649608612060547,-1.7349997758865356,-0.34999987483024597,-0.7177035212516785,0.0,0.12114239706944119,0.0
1759839623.9204667,1,-1.7349997758865356,-0.34999987483024597,-0.7177035174931738,0.0,True,0.011140584945678711,-1.7349997758865356,-0.34999987483024597,-0.7177035212516785,0.0,0.12114239706944119,0.0
1759839623.9366572,1,-1.7349997758865356,-0.34999987483024597,-0.7177035172278359,0.0,True,0.016190528869628906,-1.7349997758865356,-0.34999987483024597,-0.7177035212516785,0.0,0.12114239706944119,0.0
1759839623.9447591,1,-1.7349997758865356,-0.34999987483024597,-0.7177035176684292,0.0,True,0.008101940155029297,-1.7349997758865356,-0.34999987483024597,-0.7177035212516785,0.0,0.12114239706944119,0.0
1759839623.9549894,1,-1.7349997758865356,-0.34999987483024597,-0.717703517889305,0.0,True,0.010230302810668945,-1.7349997758865356,-0.34999987483024597,-0.7177035212516785,0.0,0.12114239706944119,0.0
1759839623.9659202,1,-1.7349997758865356,-0.34999987483024597,-0.7177035180128044,0.0,True,0.010930776596069336,-1.7349997758865356,-0.34999987483024597,-0.7177035212516785,0.0,0.12114239706944119,0.0
1759839623.976122,1,-1.7349997758865356,-0.34999987483024597,-0.7177035181719056,0.0,True,0.010201692581176758,-1.7349997758865356,-0.34999987483024597,-0.7177035212516785,0.0,0.12114239706944119,0.0
1759839623.9873676,1,-1.7349997758865356,-0.34999987483024597,-0.7177035182453473,0.0,True,0.0112457275390625,-1.7349997758865356,-0.34999987483024597,-0.7177035212516785,0.0,0.12114239706944119,0.0
1759839623.998644,1,-1.7349997758865356,-0.34999987483024597,-0.717703518319416,0.0,True,0.011276483535766602,-1.7349997758865356,-0.34999987483024597,-0.7177035212516785,0.0,0.12114239706944119,0.0
1759839624.0087953,1,-1.7349997758865356,-0.34999987483024597,-0.7177035184666547,0.0,True,0.010151147842407227,-1.7349997758865356,-0.34999987483024597,-0.7177035212516785,0.0,0.12114239706944119,0.0
1759839624.0201054,1,-1.7349997758865356,-0.34999987483024597,-0.7177035185312022,0.0,True,0.011310100555419922,-1.7349997758865356,-0.34999987483024597,-0.7177035212516785,0.0,0.12114239706944119,0.0
1759839624.0310361,1,-1.7349997758865356,-0.34999987483024597,-0.717703518619512,0.0,True,0.010930776596069336,-1.7349997758865356,-0.34999987483024597,-0.7177035212516785,0.0,0.12114239706944119,0.0
1759839624.0411985,1,-1.7349997758865356,-0.34999987483024597,-0.717703518748543,0.0,True,0.010162353515625,-1.7349997758865356,-0.34999987483024597,-0.7177035212516785,0.0,0.12114239706944119,0.0
1759839624.0523179,1,-1.7349997758865356,-0.34999987483024597,-0.7177035188130034,0.0,True,0.011119365692138672,-1.7349997758865356,-0.34999987483024597,-0.7177035212516785,0.0,0.12114239706944119,0.0
1759839624.063466,1,-1.7349997758865356,-0.34999987483024597,-0.7177035188765686,0.0,True,0.011148214340209961,-1.7349997758865356,-0.34999987483024597,-0.7177035212516785,0.0,0.12114239706944119,0.0
1759839624.074262,1,-1.7349997758865356,-0.34999987483024597,-0.7177035189610503,0.0,True,0.010795831680297852,-1.7349997758865356,-0.34999987483024597,-0.7177035212516785,0.0,0.12114239706944119,0.0
1759839624.0849288,1,-1.7349997758865356,-0.34999987483024597,-0.7177035190486514,0.0,True,0.010666847229003906,-1.7349997758865356,-0.34999987483024597,-0.7177035212516785,0.0,0.12114239706944119,0.0
1759839624.095874,1,-1.7349997758865356,-0.34999987483024597,-0.7177035191177215,0.0,True,0.010945320129394531,-1.7349997758865356,-0.34999987483024597,-0.7177035212516785,0.0,0.12114239706944119,0.0
1759839624.1072931,1,-1.7349997758865356,-0.34999987483024597,-0.7177035191646546,0.0,True,0.011419057846069336,-1.7349997758865356,-0.34999987483024597,-0.7177035212516785,0.0,0.12114239706944119,0.0
1759839624.11759,1,-1.7349997758865356,-0.34999987483024597,-0.7177035192643455,0.0,True,0.010296821594238281,-1.7349997758865356,-0.34999987483024597,-0.7177035212516785,0.0,0.12114239706944119,0.0
1759839624.1303513,1,-1.7349997758865356,-0.34999987483024597,-0.7177035192547159,0.0,True,0.012761354446411133,-1.7349997758865356,-0.34999987483024597,-0.7177035212516785,0.0,0.12114239706944119,0.0
1759839624.1453028,1,-1.7349997758865356,-0.34999987483024597,-0.7177035191823489,0.0,True,0.014951467514038086,-1.7349997758865356,-0.34999987483024597,-0.7177035212516785,0.0,0.12114239706944119,0.0
1759839624.1566718,1,-1.7349997758865356,-0.34999987483024597,-0.7177035192914225,0.0,True,0.011368989944458008,-1.7349997758865356,-0.34999987483024597,-0.7177035212516785,0.0,0.12114239706944119,0.0
1759839624.1675224,1,-1.7349997758865356,-0.34999987483024597,-0.717703519415533,0.0,True,0.010850667953491211,-1.7349997758865356,-0.34999987483024597,-0.7177035212516785,0.0,0.12114239706944119,0.0
1759839624.178509,1,-1.7349997758865356,-0.34999987483024597,-0.7177035195154318,0.0,True,0.010986566543579102,-1.7349997758865356,-0.34999987483024597,-0.7177035212516785,0.0,0.12114239706944119,0.0
1759839624.1892812,1,-1.7349997758865356,-0.34999987483024597,-0.7177035196073582,0.0,True,0.010772228240966797,-1.7349997758865356,-0.34999987483024597,-0.7177035212516785,0.0,0.12114239706944119,0.0
1759839624.2004063,1,-1.7349997758865356,-0.34999987483024597,-0.7177035196750268,0.0,True,0.01112508773803711,-1.7349997758865356,-0.34999987483024597,-0.7177035212516785,0.0,0.12114239706944119,0.0
1759839624.2116187,1,-1.7349997758865356,-0.34999987483024597,-0.7177035197334565,0.0,True,0.011212348937988281,-1.7349997758865356,-0.34999987483024597,-0.7177035212516785,0.0,0.12114239706944119,0.0
1759839624.2219036,1,-1.7349997758865356,-0.34999987483024597,-0.7177035198161406,0.0,True,0.010284900665283203,-1.7349997758865356,-0.34999987483024597,-0.7177035212516785,0.0,0.12114239706944119,0.0
1759839624.232781,1,-1.7349997758865356,-0.34999987483024597,-0.7177035198706427,0.0,True,0.010877370834350586,-1.7349997758865356,-0.34999987483024597,-0.7177035212516785,0.0,0.12114239706944119,0.0
1759839624.243377,1,-1.7349997758865356,-0.34999987483024597,-0.7177035199278521,0.0,True,0.010596036911010742,-1.7349997758865356,-0.34999987483024597,-0.7177035212516785,0.0,0.12114239706944119,0.0
1759839624.254041,1,-1.7349997758865356,-0.34999987483024597,-0.7177035199780697,0.0,True,0.010663986206054688,-1.7349997758865356,-0.34999987483024597,-0.7177035212516785,0.0,0.12114239706944119,0.0
1759839624.2647567,1,-1.7349997758865356,-0.34999987483024597,-0.7177035200229795,0.0,True,0.010715723037719727,-1.7349997758865356,-0.34999987483024597,-0.7177035212516785,0.0,0.12114239706944119,0.0
1759839624.275748,1,-1.7349997758865356,-0.34999987483024597,-0.7177035200583308,0.0,True,0.010991334915161133,-1.7349997758865356,-0.34999987483024597,-0.7177035212516785,0.0,0.12114239706944119,0.0
1759839624.2889664,1,-1.7349997758865356,-0.34999987483024597,-0.7177035200398176,0.0,True,0.013218402862548828,-1.7349997758865356,-0.34999987483024597,-0.7177035212516785,0.0,0.12114239706944119,0.0
1759839624.300563,1,-1.7349997758865356,-0.34999987483024597,-0.717703520076677,0.0,True,0.0115966796875,-1.7349997758865356,-0.34999987483024597,-0.7177035212516785,0.0,0.12114239706944119,0.0
1759839624.3114526,1,-1.7349997758865356,-0.34999987483024597,-0.717703520133492,0.0,True,0.010889530181884766,-1.7349997758865356,-0.34999987483024597,-0.7177035212516785,0.0,0.12114239706944119,0.0
1759839624.3226988,1,-1.7349997758865356,-0.34999987483024597,-0.7177035201770856,0.0,True,0.011246204376220703,-1.7349997758865356,-0.34999987483024597,-0.7177035212516785,0.0,0.12114239706944119,0.0
1759839624.3341992,1,-1.7349997758865356,-0.34999987483024597,-0.7177035202120496,0.0,True,0.011500358581542969,-1.7349997758865356,-0.34999987483024597,-0.7177035212516785,0.0,0.12114239706944119,0.0
1759839624.352404,1,-1.7349997758865356,-0.34999987483024597,-0.7177035201146058,0.0,True,0.018204927444458008,-1.7349997758865356,-0.34999987483024597,-0.7177035212516785,0.0,0.12114239706944119,0.0
1759839624.3630712,1,-1.7349997758865356,-0.34999987483024597,-0.7177035202033721,0.0,True,0.010667085647583008,-1.7349997758865356,-0.34999987483024597,-0.7177035212516785,0.0,0.12114239706944119,0.0
1759839624.373747,1,-1.7349997758865356,-0.34999987483024597,-0.7177035202846263,0.0,True,0.010675907135009766,-1.7349997758865356,-0.34999987483024597,-0.7177035212516785,0.0,0.12114239706944119,0.0
1759839624.3873837,1,-1.7349997758865356,-0.34999987483024597,-0.7177035202980733,0.0,True,0.013636589050292969,-1.7349997758865356,-0.34999987483024597,-0.7177035212516785,0.0,0.12114239706944119,0.0
1759839624.3986897,1,-1.7349997758865356,-0.34999987483024597,-0.7177035203547071,0.0,True,0.011306047439575195,-1.7349997758865356,-0.34999987483024597,-0.7177035212516785,0.0,0.12114239706944119,0.0
1759839624.4114957,1,-1.7349997758865356,-0.34999987483024597,-0.7177035203813507,0.0,True,0.012805938720703125,-1.7349997758865356,-0.34999987483024597,-0.7177035212516785,0.0,0.12114239706944119,0.0
1759839624.4215708,1,-1.7349997758865356,-0.34999987483024597,-0.7177035204503959,0.0,True,0.010075092315673828,-1.7349997758865356,-0.34999987483024597,-0.7177035212516785,0.0,0.12114239706944119,0.0
1759839624.4347517,1,-1.7349997758865356,-0.34999987483024597,-0.7177035204613293,0.0,True,0.013180971145629883,-1.7349997758865356,-0.34999987483024597,-0.7177035212516785,0.0,0.12114239706944119,0.0
1759839624.4454143,1,-1.7349997758865356,-0.34999987483024597,-0.717703520511197,0.0,True,0.010662555694580078,-1.7349997758865356,-0.34999987483024597,-0.7177035212516785,0.0,0.12114239706944119,0.0
1759839624.457349,1,-1.7349997758865356,-0.34999987483024597,-0.7177035205372242,0.0,True,0.011934757232666016,-1.7349997758865356,-0.34999987483024597,-0.7177035212516785,0.0,0.12114239706944119,0.0
1759839624.467642,1,-1.7349997758865356,-0.34999987483024597,-0.7177035205833739,0.0,True,0.010293006896972656,-1.7349997758865356,-0.34999987483024597,-0.7177035212516785,0.0,0.12114239706944119,0.0
