timestamp,vehicle_id,x,y,theta,velocity,gps_available,dt,gps_x,gps_y,gps_theta,gps_velocity,control_steering,control_acceleration
1759839620.68419,0,-1.205,-0.83,-0.7801621756414647,0.0,False,0.01,nan,nan,nan,nan,0.0,0.0
1759839620.6947286,0,-1.205,-0.83,-0.7801621756414647,0.0,False,0.010538578033447266,nan,nan,nan,nan,0.0,0.0
1759839620.7057838,0,-1.205,-0.83,-0.7801621756414647,0.0,False,0.011055231094360352,nan,nan,nan,nan,0.0,0.0
1759839620.7171583,0,-1.205,-0.83,-0.7801621756414647,0.0,False,0.011374473571777344,nan,nan,nan,nan,0.0,0.0
1759839620.7293253,0,-1.205,-0.83,-0.7801621756414647,0.0,False,0.012166976928710938,nan,nan,nan,nan,0.0,0.0
1759839620.7393796,0,-1.205,-0.83,-0.7801621756414647,0.0,False,0.010054349899291992,nan,nan,nan,nan,0.0,0.0
1759839620.750506,0,-1.205,-0.83,-0.7801621756414647,0.0,False,0.011126279830932617,nan,nan,nan,nan,0.0,0.0
1759839620.7619834,0,-1.205,-0.83,-0.7801621756414647,0.0,False,0.011477470397949219,nan,nan,nan,nan,0.0,0.0
1759839620.7733219,0,-1.205,-0.83,-0.7801621756414647,0.0,False,0.011338472366333008,nan,nan,nan,nan,0.0,0.0
1759839620.7843268,0,-1.205,-0.83,-0.7801621756414647,0.0,False,0.011004924774169922,nan,nan,nan,nan,0.0,0.0
1759839620.7952168,0,-1.205,-0.83,-0.7801621756414647,0.0,False,0.010890007019042969,nan,nan,nan,nan,0.0,0.0
1759839620.805946,0,-1.205,-0.83,-0.7801621756414647,0.0,False,0.010729312896728516,nan,nan,nan,nan,0.0,0.0
1759839620.8173118,0,-1.205,-0.83,-0.7801621756414647,0.0,False,0.011365652084350586,nan,nan,nan,nan,0.0,0.0
1759839620.8279064,0,-1.205,-0.83,-0.7801621756414647,0.0,False,0.010594606399536133,nan,nan,nan,nan,0.0,0.0
1759839620.838682,0,-1.205,-0.83,-0.7801621756414647,0.0,False,0.010775566101074219,nan,nan,nan,nan,0.0,0.0
1759839620.8491907,0,-1.205,-0.83,-0.7801621756414647,0.0,False,0.01050877571105957,nan,nan,nan,nan,0.0,0.0
1759839620.8604736,0,-1.205,-0.83,-0.7801621756414647,0.0,False,0.011282920837402344,nan,nan,nan,nan,0.0,0.0
1759839620.8710184,0,-1.205,-0.83,-0.7801621756414647,0.0,False,0.010544776916503906,nan,nan,nan,nan,0.0,0.0
1759839620.88248,0,-1.2049998061259588,-0.8299995105862618,-0.7229993013409235,0.0,True,0.011461496353149414,-1.2049998044967651,-0.8299995064735413,-0.7177030444145203,0.0,0.0,0.0
1759839620.8927486,0,-1.2049998050413424,-0.8299995078482668,-0.7181188062499899,0.0,True,0.010268688201904297,-1.2049998044967651,-0.8299995064735413,-0.7177030444145203,0.0,0.0,0.0
1759839620.9030912,0,-1.2049998047010528,-0.8299995069892429,-0.7176594919226211,0.0,True,0.010342597961425781,-1.2049998044967651,-0.8299995064735413,-0.7177030444145203,0.0,0.0,0.0
1759839620.9142814,0,-1.2049998045745929,-0.8299995066700088,-0.7175950795697652,0.0,True,0.011190176010131836,-1.2049998044967651,-0.8299995064735413,-0.7177030444145203,0.0,0.0,0.0
1759839620.9256496,0,-1.2049998045264814,-0.8299995065485567,-0.7175865470804048,0.0,True,0.011368274688720703,-1.2049998044967651,-0.8299995064735413,-0.7177030444145203,0.0,0.0,0.0
1759839620.93601,0,-1.2049998045081152,-0.829999506502193,-0.7175962822923694,0.0,True,0.010360240936279297,-1.2049998044967651,-0.8299995064735413,-0.7177030444145203,0.0,0.0,0.0
1759839620.9463072,0,-1.2049998045011003,-0.8299995064844852,-0.7176087070107435,0.0,True,0.010297298431396484,-1.2049998044967651,-0.8299995064735413,-0.7177030444145203,0.0,0.0,0.0
1759839620.9577587,0,-1.204999804498421,-0.8299995064777215,-0.7176187573767194,0.0,True,0.011451482772827148,-1.2049998044967651,-0.8299995064735413,-0.7177030444145203,0.0,0.0,0.0
1759839620.9683313,0,-1.2049998044973975,-0.829999506475138,-0.7176298878938567,0.0,True,0.010572671890258789,-1.2049998044967651,-0.8299995064735413,-0.7177030444145203,0.0,0.0,0.0
1759839620.9794137,0,-1.2049998044970067,-0.8299995064741511,-0.717638642239347,0.0,True,0.01108241081237793,-1.2049998044967651,-0.8299995064735413,-0.7177030444145203,0.0,0.0,0.0
1759839620.9901016,0,-1.2049998044968575,-0.8299995064737742,-0.7176465261609977,0.0,True,0.010687828063964844,-1.2049998044967651,-0.8299995064735413,-0.7177030444145203,0.0,0.0,0.0
1759839621.0016227,0,-1.2049998044968004,-0.8299995064736302,-0.7176522806946899,0.0,True,0.011521100997924805,-1.2049998044967651,-0.8299995064735413,-0.7177030444145203,0.0,0.0,0.0
1759839621.0130286,0,-1.2049998044967787,-0.8299995064735752,-0.7176574664072106,0.0,True,0.01140594482421875,-1.2049998044967651,-0.8299995064735413,-0.7177030444145203,0.0,0.0,0.0
1759839621.0243666,0,-1.2049998044967702,-0.8299995064735542,-0.7176620358748291,0.0,True,0.011337995529174805,-1.2049998044967651,-0.8299995064735413,-0.7177030444145203,0.0,0.0,0.0
1759839621.0347707,0,-1.2049998044967671,-0.8299995064735463,-0.7176665755190506,0.0,True,0.010404109954833984,-1.2049998044967651,-0.8299995064735413,-0.7177030444145203,0.0,0.0,0.0
1759839621.045339,0,-1.2049998044967658,-0.8299995064735431,-0.717670131514561,0.0,True,0.010568380355834961,-1.2049998044967651,-0.8299995064735413,-0.7177030444145203,0.0,0.0,0.0
1759839621.0566275,0,-1.2049998044967654,-0.8299995064735419,-0.7176726409335537,0.0,True,0.01128840446472168,-1.2049998044967651,-0.8299995064735413,-0.7177030444145203,0.0,0.0,0.0
1759839621.0674121,0,-1.2049998044967651,-0.8299995064735415,-0.7176751487547985,0.0,True,0.010784626007080078,-1.2049998044967651,-0.8299995064735413,-0.7177030444145203,0.0,0.0,0.0
1759839621.082689,0,-1.2049998044967651,-0.8299995064735414,-0.7176751702294162,0.0,True,0.015276908874511719,-1.2049998044967651,-0.8299995064735413,-0.7177030444145203,0.0,0.0,0.0
1759839621.0934687,0,-1.2049998044967651,-0.8299995064735413,-0.7176779218679208,0.0,True,0.010779619216918945,-1.2049998044967651,-0.8299995064735413,-0.7177030444145203,0.0,0.0,0.0
1759839621.1042113,0,-1.2049998044967651,-0.8299995064735413,-0.7176802970987186,0.0,True,0.010742664337158203,-1.2049998044967651,-0.8299995064735413,-0.7177030444145203,0.0,0.0,0.0
1759839621.1151183,0,-1.2049998044967651,-0.8299995064735413,-0.7176821460719545,0.0,True,0.01090693473815918,-1.2049998044967651,-0.8299995064735413,-0.7177030444145203,0.0,0.0,0.0
1759839621.1264038,0,-1.2049998044967651,-0.8299995064735413,-0.7176835406543045,0.0,True,0.011285543441772461,-1.2049998044967651,-0.8299995064735413,-0.7177030444145203,0.0,0.0,0.0
1759839621.1366668,0,-1.2049998044967651,-0.8299995064735413,-0.717685121827289,0.0,True,0.01026296615600586,-1.2049998044967651,-0.8299995064735413,-0.7177030444145203,0.0,0.0,0.0
1759839621.1476948,0,-1.2049998044967651,-0.8299995064735413,-0.7176861821441083,0.0,True,0.011028051376342773,-1.2049998044967651,-0.8299995064735413,-0.7177030444145203,0.0,0.0,0.0
1759839621.1579416,0,-1.2049998044967651,-0.8299995064735413,-0.7176873641917556,0.0,True,0.010246753692626953,-1.2049998044967651,-0.8299995064735413,-0.7177030444145203,0.0,0.0,0.0
1759839621.1691775,0,-1.2049998044967651,-0.8299995064735413,-0.7176880734883557,0.0,True,0.011235952377319336,-1.2049998044967651,-0.8299995064735413,-0.7177030444145203,0.0,0.0,0.0
1759839621.1799242,0,-1.2049998044967651,-0.8299995064735413,-0.7176888841145015,0.0,True,0.01074671745300293,-1.2049998044967651,-0.8299995064735413,-0.7177030444145203,0.0,0.0,0.0
1759839621.1909225,0,-1.2049998044967651,-0.8299995064735413,-0.717689557700183,0.0,True,0.010998249053955078,-1.2049998044967651,-0.8299995064735413,-0.7177030444145203,0.0,0.0,0.0
1759839621.2020895,0,-1.2049998044967651,-0.8299995064735413,-0.7176901441182846,0.0,True,0.011167049407958984,-1.2049998044967651,-0.8299995064735413,-0.7177030444145203,0.0,0.0,0.0
1759839621.2135606,0,-1.2049998044967651,-0.8299995064735413,-0.7176906357239918,0.0,True,0.011471033096313477,-1.2049998044967651,-0.8299995064735413,-0.7177030444145203,0.0,0.0,0.0
1759839621.223691,0,-1.2049998044967651,-0.8299995064735413,-0.7176914517048694,0.0,True,0.01013040542602539,-1.2049998044967651,-0.8299995064735413,-0.7177030444145203,0.0,0.0,0.0
1759839621.2340646,0,-1.2049998044967651,-0.8299995064735413,-0.7176921012899626,0.0,True,0.010373592376708984,-1.2049998044967651,-0.8299995064735413,-0.7177030444145203,0.0,0.0,0.0
1759839621.2441118,0,-1.2049998044967651,-0.8299995064735413,-0.7176927326897768,0.0,True,0.010047197341918945,-1.2049998044967651,-0.8299995064735413,-0.7177030444145203,0.0,0.0,0.0
1759839621.2545202,0,-1.2049998044967651,-0.8299995064735413,-0.7176931989551552,0.0,True,0.010408401489257812,-1.2049998044967651,-0.8299995064735413,-0.7177030444145203,0.0,0.0,0.0
1759839621.265087,0,-1.2049998044967651,-0.8299995064735413,-0.7176935866804417,0.0,True,0.01056671142578125,-1.2049998044967651,-0.8299995064735413,-0.7177030444145203,0.0,0.0,0.0
1759839621.2764559,0,-1.2049998044967651,-0.8299995064735413,-0.7176937982134515,0.0,True,0.011368989944458008,-1.2049998044967651,-0.8299995064735413,-0.7177030444145203,0.0,0.0,0.0
1759839621.2866418,0,-1.2049998044967651,-0.8299995064735413,-0.7176942670262765,0.0,True,0.010185956954956055,-1.2049998044967651,-0.8299995064735413,-0.7177030444145203,0.0,0.0,0.0
1759839621.297755,0,-1.2049998044967651,-0.8299995064735413,-0.7176945289024168,0.0,True,0.011113166809082031,-1.2049998044967651,-0.8299995064735413,-0.7177030444145203,0.0,0.0,0.0
1759839621.3079362,0,-1.2049998044967651,-0.8299995064735413,-0.7176949567632533,0.0,True,0.010181188583374023,-1.2049998044967651,-0.8299995064735413,-0.7177030444145203,0.0,0.0,0.0
1759839621.3191702,0,-1.2049998044967651,-0.8299995064735413,-0.7176951685677082,0.0,True,0.011234045028686523,-1.2049998044967651,-0.8299995064735413,-0.7177030444145203,0.0,0.0,0.0
1759839621.3305569,0,-1.2049998044967651,-0.8299995064735413,-0.7176953691435912,0.0,True,0.011386632919311523,-1.2049998044967651,-0.8299995064735413,-0.7177030444145203,0.0,0.0,0.0
1759839621.3417394,0,-1.2049998044967651,-0.8299995064735413,-0.7176956276055222,0.0,True,0.011182546615600586,-1.2049998044967651,-0.8299995064735413,-0.7177030444145203,0.0,0.0,0.0
1759839621.3530414,0,-1.2049998044967651,-0.8299995064735413,-0.7176958755887579,0.0,True,0.011301994323730469,-1.2049998044967651,-0.8299995064735413,-0.7177030444145203,0.0,0.0,0.0
1759839621.3642793,0,-1.2049998044967651,-0.8299995064735413,-0.7176961368015924,0.0,True,0.011237859725952148,-1.2049998044967651,-0.8299995064735413,-0.7177030444145203,0.0,0.0,0.0
1759839621.375224,0,-1.2049998044967651,-0.8299995064735413,-0.7176964347699304,0.0,True,0.010944843292236328,-1.2049998044967651,-0.8299995064735413,-0.7177030444145203,0.0,0.0,0.0
1759839621.3853729,0,-1.2049998044967651,-0.8299995064735413,-0.7176968169338664,0.0,True,0.010148763656616211,-1.2049998044967651,-0.8299995064735413,-0.7177030444145203,0.0,0.0,0.0
1759839621.3966002,0,-1.2049998044967651,-0.8299995064735413,-0.7176970104511611,0.0,True,0.01122736930847168,-1.2049998044967651,-0.8299995064735413,-0.7177030444145203,0.0,0.0,0.0
1759839621.4079175,0,-1.2049998044967651,-0.8299995064735413,-0.7176971887543857,0.0,True,0.011317253112792969,-1.2049998044967651,-0.8299995064735413,-0.7177030444145203,0.0,0.0,0.0
1759839621.419107,0,-1.2049998044967651,-0.8299995064735413,-0.717697390376232,0.0,True,0.011189460754394531,-1.2049998044967651,-0.8299995064735413,-0.7177030444145203,0.0,0.0,0.0
1759839621.430061,0,-1.2049998044967651,-0.8299995064735413,-0.7176976182637667,0.0,True,0.010954141616821289,-1.2049998044967651,-0.8299995064735413,-0.7177030444145203,0.0,0.0,0.0
1759839621.4405751,0,-1.2049998044967651,-0.8299995064735413,-0.7176978811848631,0.0,True,0.010514020919799805,-1.2049998044967651,-0.8299995064735413,-0.7177030444145203,0.0,0.0,0.0
1759839621.4518297,0,-1.2049998044967651,-0.8299995064735413,-0.7176980390875158,0.0,True,0.011254549026489258,-1.2049998044967651,-0.8299995064735413,-0.7177030444145203,0.0,0.0,0.0
1759839621.4630425,0,-1.2049998044967651,-0.8299995064735413,-0.7176982001092931,0.0,True,0.011212825775146484,-1.2049998044967651,-0.8299995064735413,-0.7177030444145203,0.0,0.0,0.0
1759839621.473423,0,-1.2049998044967651,-0.8299995064735413,-0.717698442994493,0.0,True,0.01038050651550293,-1.2049998044967651,-0.8299995064735413,-0.7177030444145203,0.0,0.0,0.0
1759839621.4851913,0,-1.2049998044967651,-0.8299995064735413,-0.7176985311439772,0.0,True,0.011768341064453125,-1.2049998044967651,-0.8299995064735413,-0.7177030444145203,0.0,0.0,0.0
1759839621.4958997,0,-1.2049998044967651,-0.8299995064735413,-0.71769872843538,0.0,True,0.010708332061767578,-1.2049998044967651,-0.8299995064735413,-0.7177030444145203,0.0,0.0,0.0
1759839621.506459,0,-1.2049998044967651,-0.8299995064735413,-0.7176989266684295,0.0,True,0.010559320449829102,-1.2049998044967651,-0.8299995064735413,-0.7177030444145203,0.0,0.0,0.0
1759839621.5174115,0,-1.2049998044967651,-0.8299995064735413,-0.7176990711613982,0.0,True,0.010952472686767578,-1.2049998044967651,-0.8299995064735413,-0.7177030444145203,0.0,0.0,0.0
1759839621.5275784,0,-1.2049998044967651,-0.8299995064735413,-0.7176992713379846,0.0,True,0.01016688346862793,-1.2049998044967651,-0.8299995064735413,-0.7177030444145203,0.0,0.0,0.0
1759839621.5387845,0,-1.2049998044967651,-0.8299995064735413,-0.717699367083986,0.0,True,0.01120615005493164,-1.2049998044967651,-0.8299995064735413,-0.7177030444145203,0.0,0.0,0.0
1759839621.5495095,0,-1.2049998044967651,-0.8299995064735413,-0.7176995013802099,0.0,True,0.010725021362304688,-1.2049998044967651,-0.8299995064735413,-0.7177030444145203,0.0,0.0,0.0
1759839621.5607378,0,-1.2049998044967651,-0.8299995064735413,-0.7176995948066569,0.0,True,0.011228322982788086,-1.2049998044967651,-0.8299995064735413,-0.7177030444145203,0.0,0.0,0.0
1759839621.5717182,0,-1.2049998044967651,-0.8299995064735413,-0.71769971007609,0.0,True,0.010980367660522461,-1.2049998044967651,-0.8299995064735413,-0.7177030444145203,0.0,0.0,0.0
1759839621.58199,0,-1.2049998044967651,-0.8299995064735413,-0.7176998722209191,0.0,True,0.010271787643432617,-1.2049998044967651,-0.8299995064735413,-0.7177030444145203,0.0,0.0,0.0
1759839621.5934258,0,-1.2049998044967651,-0.8299995064735413,-0.7176999408807028,0.0,True,0.011435747146606445,-1.2049998044967651,-0.8299995064735413,-0.7177030444145203,0.0,0.0,0.0
1759839621.6035724,0,-1.2049998044967651,-0.8299995064735413,-0.7177000964749087,0.0,True,0.010146617889404297,-1.2049998044967651,-0.8299995064735413,-0.7177030444145203,0.0,0.0,0.0
1759839621.6137176,0,-1.2049998044967651,-0.8299995064735413,-0.7177002360685023,0.0,True,0.010145187377929688,-1.2049998044967651,-0.8299995064735413,-0.7177030444145203,0.0,0.0,0.0
1759839621.624829,0,-1.2049998044967651,-0.8299995064735413,-0.7177003004807183,0.0,True,0.01111149787902832,-1.2049998044967651,-0.8299995064735413,-0.7177030444145203,0.0,0.0,0.0
1759839621.6356597,0,-1.2049998044967651,-0.8299995064735413,-0.7177003842937602,0.0,True,0.01083064079284668,-1.2049998044967651,-0.8299995064735413,-0.7177030444145203,0.0,0.0,0.0
1759839621.6457596,0,-1.2049998044967651,-0.8299995064735413,-0.7177005094336764,0.0,True,0.01009988784790039,-1.2049998044967651,-0.8299995064735413,-0.7177030444145203,0.0,0.0,0.0
1759839621.6564026,0,-1.2049998044967651,-0.8299995064735413,-0.7177005924114592,0.0,True,0.01064300537109375,-1.2049998044967651,-0.8299995064735413,-0.7177030444145203,0.0,0.0,0.0
1759839621.6676955,0,-1.2049998044967651,-0.8299995064735413,-0.7177006375299335,0.0,True,0.01129293441772461,-1.2049998044967651,-0.8299995064735413,-0.7177030444145203,0.0,0.0,0.0
1759839621.6778047,0,-1.2049998044967651,-0.8299995064735413,-0.7177007497926802,0.0,True,0.010109186172485352,-1.2049998044967651,-0.8299995064735413,-0.7177030444145203,0.0,0.0,0.0
1759839621.6895514,0,-1.2049998044967651,-0.8299995064735413,-0.7177007736934016,0.0,True,0.011746644973754883,-1.2049998044967651,-0.8299995064735413,-0.7177030444145203,0.0,0.0,0.0
1759839621.7002797,0,-1.2049998044967651,-0.8299995064735413,-0.7177008565660401,0.0,True,0.01072835922241211,-1.2049998044967651,-0.8299995064735413,-0.7177030444145203,0.0,0.0,0.0
1759839621.7106507,0,-1.2049998044967651,-0.8299995064735413,-0.7177009543451494,0.0,True,0.010370969772338867,-1.2049998044967651,-0.8299995064735413,-0.7177030444145203,0.0,0.0,0.0
1759839621.7217724,0,-1.2049998044967651,-0.8299995064735413,-0.7177010099970822,0.0,True,0.011121749877929688,-1.2049998044967651,-0.8299995064735413,-0.7177030444145203,0.0,0.0,0.0
1759839621.7319493,0,-1.2049998044967651,-0.8299995064735413,-0.7177011058682581,0.0,True,0.010176897048950195,-1.2049998044967651,-0.8299995064735413,-0.7177030444145203,0.0,0.0,0.0
1759839621.7431796,0,-1.2049998044967651,-0.8299995064735413,-0.7177011497517611,0.0,True,0.011230230331420898,-1.2049998044967651,-0.8299995064735413,-0.7177030444145203,0.0,0.0,0.0
1759839621.7544832,0,-1.2049998044967651,-0.8299995064735413,-0.7177011936250572,0.0,True,0.01130366325378418,-1.2049998044967651,-0.8299995064735413,-0.7177030444145203,0.0,0.0,0.0
1759839621.7646549,0,-1.2049998044967651,-0.8299995064735413,-0.7177012853163323,0.0,True,0.010171651840209961,-1.2049998044967651,-0.8299995064735413,-0.7177030444145203,0.0,0.0,0.0
1759839621.7753773,0,-1.2049998044967651,-0.8299995064735413,-0.717701347525427,0.0,True,0.01072239875793457,-1.2049998044967651,-0.8299995064735413,-0.7177030444145203,0.0,0.0,0.0
1759839621.7868803,0,-1.2049998044967651,-0.8299995064735413,-0.7177013779849464,0.0,True,0.011502981185913086,-1.2049998044967651,-0.8299995064735413,-0.7177030444145203,0.0,0.0,0.0
1759839621.7982554,0,-1.2049998044967651,-0.8299995064735413,-0.7177014190634878,0.0,True,0.011375188827514648,-1.2049998044967651,-0.8299995064735413,-0.7177030444145203,0.0,0.0,0.0
1759839621.808494,0,-1.2049998044967651,-0.8299995064735413,-0.7177015018153732,0.0,True,0.0102386474609375,-1.2049998044967651,-0.8299995064735413,-0.7177030444145203,0.0,0.0,0.0
1759839621.8197923,0,-1.2049998044967651,-0.8299995064735413,-0.7177015423162239,0.0,True,0.011298179626464844,-1.2049998044967651,-0.8299995064735413,-0.7177030444145203,0.0,0.0,0.0
1759839621.83045,0,-1.2049998044967651,-0.8299995064735413,-0.717701602737332,0.0,True,0.010657787322998047,-1.2049998044967651,-0.8299995064735413,-0.7177030444145203,0.0,0.0,0.0
1759839621.841125,0,-1.2049998044967651,-0.8299995064735413,-0.7177016589640051,0.0,True,0.01067495346069336,-1.2049998044967651,-0.8299995064735413,-0.7177030444145203,0.0,0.0,0.0
1759839621.8513474,0,-1.2049998044967651,-0.8299995064735413,-0.7177017237101264,0.0,True,0.010222434997558594,-1.2049998044967651,-0.8299995064735413,-0.7177030444145203,0.0,0.0,0.0
1759839621.8617413,0,-1.2049998044967651,-0.8299995064735413,-0.7177017763072175,0.0,True,0.010393857955932617,-1.2049998044967651,-0.8299995064735413,-0.7177030444145203,0.0,0.0,0.0
1759839621.871841,0,-1.2049998044967651,-0.8299995064735413,-0.7177018315440176,0.0,True,0.010099649429321289,-1.2049998044967651,-0.8299995064735413,-0.7177030444145203,0.0,0.0,0.0
1759839621.8826203,0,-1.2049998044967651,-0.8299995064735413,-0.717701863222441,0.0,True,0.010779380798339844,-1.2049998044967651,-0.8299995064735413,-0.7177030444145203,0.0,0.0,0.0
1759839621.8994968,0,-1.2049998044967651,-0.8299995064735413,-0.7177017460095811,0.0,True,0.0168764591217041,-1.2049998044967651,-0.8299995064735413,-0.7177030444145203,0.0,0.0,0.0
1759839621.9103565,0,-1.2049998044967651,-0.8299995064735413,-0.7177018197818246,0.0,True,0.01085972785949707,-1.2049998044967651,-0.8299995064735413,-0.7177030444145203,0.0,0.0,0.0
1759839621.9210558,0,-1.2049998044967651,-0.8299995064735413,-0.7177018971015947,0.0,True,0.010699272155761719,-1.2049998044967651,-0.8299995064735413,-0.7177030444145203,0.0,0.0,0.0
1759839621.9317722,0,-1.2049998044967651,-0.8299995064735413,-0.7177019614889275,0.0,True,0.010716438293457031,-1.2049998044967651,-0.8299995064735413,-0.7177030444145203,0.0,0.0,0.0
1759839621.9425995,0,-1.2049998044967651,-0.8299995064735413,-0.7177020134319658,0.0,True,0.010827302932739258,-1.2049998044967651,-0.8299995064735413,-0.7177030444145203,0.0,0.0,0.0
1759839621.952837,0,-1.2049998044967651,-0.8299995064735413,-0.7177020706631687,0.0,True,0.010237455368041992,-1.2049998044967651,-0.8299995064735413,-0.7177030444145203,0.0,0.0,0.0
1759839621.9632635,0,-1.2049998044967651,-0.8299995064735413,-0.7177021157094039,0.0,True,0.010426521301269531,-1.2049998044967651,-0.8299995064735413,-0.7177030444145203,0.0,0.0,0.0
1759839621.9745235,0,-1.2049998044967651,-0.8299995064735413,-0.717702138919325,0.0,True,0.011260032653808594,-1.2049998044967651,-0.8299995064735413,-0.7177030444145203,0.0,0.0,0.0
1759839621.985258,0,-1.2049998044967651,-0.8299995064735413,-0.7177021724854384,0.0,True,0.01073455810546875,-1.2049998044967651,-0.8299995064735413,-0.7177030444145203,0.0,0.0,0.0
1759839621.995952,0,-1.2049998044967651,-0.8299995064735413,-0.7177022053303102,0.0,True,0.010693788528442383,-1.2049998044967651,-0.8299995064735413,-0.7177030444145203,0.0,0.0,0.0
1759839622.0060866,0,-1.2049998044967651,-0.8299995064735413,-0.7177022455838244,0.0,True,0.010134696960449219,-1.2049998044967651,-0.8299995064735413,-0.7177030444145203,0.0,0.0,0.0
1759839622.01682,0,-1.2049998044967651,-0.8299995064735413,-0.717702271022528,0.0,True,0.010733366012573242,-1.2049998044967651,-0.8299995064735413,-0.7177030444145203,0.0,0.0,0.0
1759839622.0276554,0,-1.2049998044967651,-0.8299995064735413,-0.7177022934634358,0.0,True,0.010835409164428711,-1.2049998044967651,-0.8299995064735413,-0.7177030444145203,0.0,0.0,0.0
1759839622.0378382,0,-1.2049998044967651,-0.8299995064735413,-0.717702326173649,0.0,True,0.010182857513427734,-1.2049998044967651,-0.8299995064735413,-0.7177030444145203,0.0,0.0,0.0
1759839622.0489562,0,-1.2049998044967651,-0.8299995064735413,-0.7177023417235091,0.0,True,0.011117935180664062,-1.2049998044967651,-0.8299995064735413,-0.7177030444145203,0.0,0.0,0.0
1759839622.059765,0,-1.2049998044967651,-0.8299995064735413,-0.7177023629370058,0.0,True,0.010808944702148438,-1.2049998044967651,-0.8299995064735413,-0.7177030444145203,0.0,0.0,0.0
1759839622.0707266,0,-1.2049998044967651,-0.8299995064735413,-0.7177023823270972,0.0,True,0.010961532592773438,-1.2049998044967651,-0.8299995064735413,-0.7177030444145203,0.0,0.0,0.0
1759839622.0807886,0,-1.2049998044967651,-0.8299995064735413,-0.7177024143361521,0.0,True,0.010061979293823242,-1.2049998044967651,-0.8299995064735413,-0.7177030444145203,0.0,0.0,0.0
1759839622.0910914,0,-1.2049998044967651,-0.8299995064735413,-0.7177024396287273,0.0,True,0.01030278205871582,-1.2049998044967651,-0.8299995064735413,-0.7177030444145203,0.0,0.0,0.0
1759839622.1014664,0,-1.2049998044967651,-0.8299995064735413,-0.7177024613171952,0.0,True,0.010375022888183594,-1.2049998044967651,-0.8299995064735413,-0.7177030444145203,0.0,0.0,0.0
1759839622.1122737,0,-1.2049998044967651,-0.8299995064735413,-0.717702476092116,0.0,True,0.010807275772094727,-1.2049998044967651,-0.8299995064735413,-0.7177030444145203,0.0,0.0,0.0
1759839622.1236205,0,-1.2049998044967651,-0.8299995064735413,-0.7177024849152112,0.0,True,0.011346817016601562,-1.2049998044967651,-0.8299995064735413,-0.7177030444145203,0.0,0.0,0.0
1759839622.1343575,0,-1.2049998044967651,-0.8299995064735413,-0.7177025033879474,0.0,True,0.010736942291259766,-1.2049998044967651,-0.8299995064735413,-0.7177030444145203,0.0,0.0,0.0
1759839622.1449971,0,-1.2049998044967651,-0.8299995064735413,-0.7177025229809129,0.0,True,0.010639667510986328,-1.2049998044967651,-0.8299995064735413,-0.7177030444145203,0.0,0.0,0.0
1759839622.155819,0,-1.2049998044967651,-0.8299995064735413,-0.717702539589034,0.0,True,0.010821819305419922,-1.2049998044967651,-0.8299995064735413,-0.7177030444145203,0.0,0.0,0.0
1759839622.1660135,0,-1.2049998044967651,-0.8299995064735413,-0.7177025623175872,0.0,True,0.010194540023803711,-1.2049998044967651,-0.8299995064735413,-0.7177030444145203,0.0,0.0,0.0
1759839622.1784377,0,-1.2049998044967651,-0.8299995064735413,-0.7177025603683376,0.0,True,0.012424230575561523,-1.2049998044967651,-0.8299995064735413,-0.7177030444145203,0.0,0.0,0.0
1759839622.1898496,0,-1.2049998044967651,-0.8299995064735413,-0.7177025729557922,0.0,True,0.011411905288696289,-1.2049998044967651,-0.8299995064735413,-0.7177030444145203,0.0,0.0,0.0
1759839622.2010145,0,-1.2049998044967651,-0.8299995064735413,-0.7177025896908766,0.0,True,0.01116490364074707,-1.2049998044967651,-0.8299995064735413,-0.7177030444145203,0.0,0.0,0.0
1759839622.2113285,0,-1.2049998044967651,-0.8299995064735413,-0.7177026137399238,0.0,True,0.010313987731933594,-1.2049998044967651,-0.8299995064735413,-0.7177030444145203,0.0,0.0,0.0
1759839622.2220564,0,-1.2049998044967651,-0.8299995064735413,-0.717702631173406,0.0,True,0.010727882385253906,-1.2049998044967651,-0.8299995064735413,-0.7177030444145203,0.0,0.0,0.0
1759839622.2332337,0,-1.2049998044967651,-0.8299995064735413,-0.717702643067593,0.0,True,0.011177301406860352,-1.2049998044967651,-0.8299995064735413,-0.7177030444145203,0.0,0.0,0.0
1759839622.2435524,0,-1.2049998044967651,-0.8299995064735413,-0.7177026619703071,0.0,True,0.010318756103515625,-1.2049998044967651,-0.8299995064735413,-0.7177030444145203,0.0,0.0,0.0
1759839622.25387,0,-1.2049998044967651,-0.8299995064735413,-0.7177026789677097,0.0,True,0.010317564010620117,-1.2049998044967651,-0.8299995064735413,-0.7177030444145203,0.0,0.0,0.0
1759839622.2644634,0,-1.2049998044967651,-0.8299995064735413,-0.717702691868439,0.0,True,0.010593414306640625,-1.2049998044967651,-0.8299995064735413,-0.7177030444145203,0.0,0.0,0.0
1759839622.2758777,0,-1.2049998044967651,-0.8299995064735413,-0.7177026978504308,0.0,True,0.011414289474487305,-1.2049998044967651,-0.8299995064735413,-0.7177030444145203,0.0,0.0,0.0
1759839622.2869785,0,-1.2049998044967651,-0.8299995064735413,-0.7177027073702895,0.0,True,0.01110076904296875,-1.2049998044967651,-0.8299995064735413,-0.7177030444145203,0.0,0.0,0.0
1759839622.2974358,0,-1.2049998044967651,-0.8299995064735413,-0.7177027219104826,0.0,True,0.010457277297973633,-1.2049998044967651,-0.8299995064735413,-0.7177030444145203,0.0,0.0,0.0
1759839622.308167,0,-1.2049998044967651,-0.8299995064735413,-0.717702733449439,0.0,True,0.010731220245361328,-1.2049998044967651,-0.8299995064735413,-0.7177030444145203,0.0,0.0,0.0
1759839622.3182874,0,-1.2049998044967651,-0.8299995064735413,-0.7177027481467011,0.0,True,0.010120391845703125,-1.2049998044967651,-0.8299995064735413,-0.7177030444145203,0.0,0.0,0.0
1759839622.3291488,0,-1.2049998044967651,-0.8299995064735413,-0.7177027565575376,0.0,True,0.010861396789550781,-1.2049998044967651,-0.8299995064735413,-0.7177030444145203,0.0,0.0,0.0
1759839622.3394644,0,-1.2049998044967651,-0.8299995064735413,-0.7177027680662782,0.0,True,0.010315656661987305,-1.2049998044967651,-0.8299995064735413,-0.7177030444145203,0.0,0.0,0.0
1759839622.349854,0,-1.2049998044967651,-0.8299995064735413,-0.7177027782966121,0.0,True,0.010389566421508789,-1.2049998044967651,-0.8299995064735413,-0.7177030444145203,0.0,0.0,0.0
1759839622.361153,0,-1.2049998044967651,-0.8299995064735413,-0.7177027826439719,0.0,True,0.011298894882202148,-1.2049998044967651,-0.8299995064735413,-0.7177030444145203,0.0,0.0,0.0
1759839622.3719451,0,-1.2049998044967651,-0.8299995064735413,-0.7177027907049247,0.0,True,0.010792255401611328,-1.2049998044967651,-0.8299995064735413,-0.7177030444145203,0.0,0.0,0.0
1759839622.3822582,0,-1.2049998044967651,-0.8299995064735413,-0.7177028014430995,0.0,True,0.010313034057617188,-1.2049998044967651,-0.8299995064735413,-0.7177030444145203,0.0,0.0,0.0
1759839622.3934596,0,-1.2049998044967651,-0.8299995064735413,-0.7177028067551952,0.0,True,0.01120138168334961,-1.2049998044967651,-0.8299995064735413,-0.7177030444145203,0.0,0.0,0.0
1759839622.4043255,0,-1.2049998044967651,-0.8299995064735413,-0.7177028141514636,0.0,True,0.010865926742553711,-1.2049998044967651,-0.8299995064735413,-0.7177030444145203,0.0,0.0,0.0
1759839622.414987,0,-1.2049998044967651,-0.8299995064735413,-0.7177028225919031,0.0,True,0.010661602020263672,-1.2049998044967651,-0.8299995064735413,-0.7177030444145203,0.0,0.0,0.0
1759839622.4257133,0,-1.2049998044967651,-0.8299995064735413,-0.7177028303107278,0.0,True,0.010726213455200195,-1.2049998044967651,-0.8299995064735413,-0.7177030444145203,0.0,0.0,0.0
1759839622.4370005,0,-1.2049998044967651,-0.8299995064735413,-0.7177028351965404,0.0,True,0.011287212371826172,-1.2049998044967651,-0.8299995064735413,-0.7177030444145203,0.0,0.0,0.0
1759839622.4472024,0,-1.2049998044967651,-0.8299995064735413,-0.7177028451589678,0.0,True,0.01020193099975586,-1.2049998044967651,-0.8299995064735413,-0.7177030444145203,0.0,0.0,0.0
1759839622.458386,0,-1.2049998044967651,-0.8299995064735413,-0.717702850112051,0.0,True,0.011183500289916992,-1.2049998044967651,-0.8299995064735413,-0.7177030444145203,0.0,0.0,0.0
1759839622.469709,0,-1.2049998044967651,-0.8299995064735413,-0.7177028546623774,0.0,True,0.011322975158691406,-1.2049998044967651,-0.8299995064735413,-0.7177030444145203,0.0,0.0,0.0
1759839622.4813101,0,-1.2049998044967651,-0.8299995064735413,-0.7177028586780985,0.0,True,0.01160120964050293,-1.2049998044967651,-0.8299995064735413,-0.7177030444145203,0.0,0.0,0.0
1759839622.4970803,0,-1.2049998044967651,-0.8299995064735413,-0.717702848335195,0.0,True,0.01577019691467285,-1.2049998044967651,-0.8299995064735413,-0.7177030444145203,0.0,0.0,0.0
1759839622.503237,0,-1.2049998044967651,-0.8299995064735413,-0.7177028769948581,0.0,True,0.0061566829681396484,-1.2049998044967651,-0.8299995064735413,-0.7177030444145203,0.0,0.0,0.0
1759839622.5140069,0,-1.2049998044967651,-0.8299995064735413,-0.7177028841619979,0.0,True,0.010769844055175781,-1.2049998044967651,-0.8299995064735413,-0.7177030444145203,0.0,0.0,0.0
1759839622.5241692,0,-1.2049998044967651,-0.8299995064735413,-0.717702891457785,0.0,True,0.010162353515625,-1.2049998044967651,-0.8299995064735413,-0.7177030444145203,0.0,0.0,0.0
1759839622.5344217,0,-1.2049998044967651,-0.8299995064735413,-0.7177028975938313,0.0,True,0.01025247573852539,-1.2049998044967651,-0.8299995064735413,-0.7177030444145203,0.0,0.0,0.0
1759839622.5456347,0,-1.2049998044967651,-0.8299995064735413,-0.717702900108371,0.0,True,0.011213064193725586,-1.2049998044967651,-0.8299995064735413,-0.7177030444145203,0.0,0.0,0.0
1759839622.5562284,0,-1.2049998044967651,-0.8299995064735413,-0.7177029049358659,0.0,True,0.010593652725219727,-1.2049998044967651,-0.8299995064735413,-0.7177030444145203,0.0,0.0,0.0
1759839622.5668883,0,-1.2049998044967651,-0.8299995064735413,-0.7177029095219982,0.0,True,0.010659933090209961,-1.2049998044967651,-0.8299995064735413,-0.7177030444145203,0.0,0.0,0.0
1759839622.5773304,0,-1.2049998044967651,-0.8299995064735413,-0.7177029145681999,0.0,True,0.010442018508911133,-1.2049998044967651,-0.8299995064735413,-0.7177030444145203,0.0,0.0,0.0
1759839622.5882556,0,-1.2049998044967651,-0.8299995064735413,-0.7177029179721011,0.0,True,0.01092529296875,-1.2049998044967651,-0.8299995064735413,-0.7177030444145203,0.0,0.0,0.0
1759839622.599049,0,-1.2049998044967651,-0.8299995064735413,-0.7177029218089519,0.0,True,0.010793447494506836,-1.2049998044967651,-0.8299995064735413,-0.7177030444145203,0.0,0.0,0.0
1759839622.6097262,0,-1.2049998044967651,-0.8299995064735413,-0.7177029259613228,0.0,True,0.010677099227905273,-1.2049998044967651,-0.8299995064735413,-0.7177030444145203,0.0,0.0,0.0
1759839622.6203003,0,-1.2049998044967651,-0.8299995064735413,-0.7177029302305495,0.0,True,0.010574102401733398,-1.2049998044967651,-0.8299995064735413,-0.7177030444145203,0.0,0.0,0.0
1759839622.6308138,0,-1.2049998044967651,-0.8299995064735413,-0.7177029344081092,0.0,True,0.010513544082641602,-1.2049998044967651,-0.8299995064735413,-0.7177030444145203,0.0,0.0,0.0
1759839622.6413374,0,-1.2049998044967651,-0.8299995064735413,-0.7177029382970233,0.0,True,0.010523557662963867,-1.2049998044967651,-0.8299995064735413,-0.7177030444145203,0.0,0.0,0.0
1759839622.6525311,0,-1.2049998044967651,-0.8299995064735413,-0.7177029404750375,0.0,True,0.01119375228881836,-1.2049998044967651,-0.8299995064735413,-0.7177030444145203,0.0,0.0,0.0
1759839622.663164,0,-1.2049998044967651,-0.8299995064735413,-0.7177029441288898,0.0,True,0.010632753372192383,-1.2049998044967651,-0.8299995064735413,-0.7177030444145203,0.0,0.0,0.0
1759839622.6743174,0,-1.2049998044967651,-0.8299995064735413,-0.717702946614871,0.0,True,0.011153459548950195,-1.2049998044967651,-0.8299995064735413,-0.7177030444145203,0.0,0.0,0.0
1759839622.6848128,0,-1.2049998044967651,-0.8299995064735413,-0.7177029505644867,0.0,True,0.010495424270629883,-1.2049998044967651,-0.8299995064735413,-0.7177030444145203,0.0,0.0,0.0
1759839622.6950276,0,-1.2049998044967651,-0.8299995064735413,-0.717702954802343,0.0,True,0.010214805603027344,-1.2049998044967651,-0.8299995064735413,-0.7177030444145203,0.0,0.0,0.0
1759839622.705859,0,-1.2049998044967651,-0.8299995064735413,-0.717702957409351,0.0,True,0.010831356048583984,-1.2049998044967651,-0.8299995064735413,-0.7177030444145203,0.0,0.0,0.0
1759839622.7164717,0,-1.2049998044967651,-0.8299995064735413,-0.7177029603563287,0.0,True,0.010612726211547852,-1.2049998044967651,-0.8299995064735413,-0.7177030444145203,0.0,0.0,0.0
1759839622.7267394,0,-1.2049998044967651,-0.8299995064735413,-0.7177029638126502,0.0,True,0.01026773452758789,-1.2049998044967651,-0.8299995064735413,-0.7177030444145203,0.0,0.0,0.0
1759839622.738047,0,-1.2049998044967651,-0.8299995064735413,-0.7177029652059588,0.0,True,0.011307477951049805,-1.2049998044967651,-0.8299995064735413,-0.7177030444145203,0.0,0.0,0.0
1759839622.7489028,0,-1.2049998044967651,-0.8299995064735413,-0.7177029675954465,0.0,True,0.010855913162231445,-1.2049998044967651,-0.8299995064735413,-0.7177030444145203,0.0,0.0,0.0
1759839622.7596848,0,-1.2049998044967651,-0.8299995064735413,-0.7177029701693023,0.0,True,0.010782003402709961,-1.2049998044967651,-0.8299995064735413,-0.7177030444145203,0.0,0.0,0.0
1759839622.7709396,0,-1.2049998044967651,-0.8299995064735413,-0.7177029719594721,0.0,True,0.01125478744506836,-1.2049998044967651,-0.8299995064735413,-0.7177030444145203,0.0,0.0,0.0
1759839622.7813034,0,-1.2049998044967651,-0.8299995064735413,-0.7177029752002291,0.0,True,0.01036381721496582,-1.2049998044967651,-0.8299995064735413,-0.7177030444145203,0.0,0.0,0.0
1759839622.792867,0,-1.2049998044967651,-0.8299995064735413,-0.7177029764624869,0.0,True,0.011563539505004883,-1.2049998044967651,-0.8299995064735413,-0.7177030444145203,0.0,0.0,0.0
1759839622.8042564,0,-1.2049998044967651,-0.8299995064735413,-0.7177029781791333,0.0,True,0.011389493942260742,-1.2049998044967651,-0.8299995064735413,-0.7177030444145203,0.0,0.0,0.0
1759839622.8155677,0,-1.2049998044967651,-0.8299995064735413,-0.7177029801840717,0.0,True,0.01131129264831543,-1.2049998044967651,-0.8299995064735413,-0.7177030444145203,0.0,0.0,0.0
1759839622.826261,0,-1.2049998044967651,-0.8299995064735413,-0.7177029830336785,0.0,True,0.01069331169128418,-1.2049998044967651,-0.8299995064735413,-0.7177030444145203,0.0,0.0,0.0
1759839622.8365297,0,-1.2049998044967651,-0.8299995064735413,-0.7177029861653583,0.0,True,0.010268688201904297,-1.2049998044967651,-0.8299995064735413,-0.7177030444145203,0.0,0.0,0.0
1759839622.8480358,0,-1.2049998044967651,-0.8299995064735413,-0.7177029874130483,0.0,True,0.011506080627441406,-1.2049998044967651,-0.8299995064735413,-0.7177030444145203,0.0,0.0,0.0
1759839622.8581157,0,-1.2049998044967651,-0.8299995064735413,-0.7177029903976351,0.0,True,0.01007986068725586,-1.2049998044967651,-0.8299995064735413,-0.7177030444145203,0.0,0.0,0.0
1759839622.8691046,0,-1.2049998044967651,-0.8299995064735413,-0.7177029920358216,0.0,True,0.010988950729370117,-1.2049998044967651,-0.8299995064735413,-0.7177030444145203,0.0,0.0,0.0
1759839622.8796594,0,-1.2049998044967651,-0.8299995064735413,-0.7177029940736581,0.0,True,0.010554790496826172,-1.2049998044967651,-0.8299995064735413,-0.7177030444145203,0.0,0.0,0.0
1759839622.8908503,0,-1.2049998044967651,-0.8299995064735413,-0.7177029953201881,0.0,True,0.01119089126586914,-1.2049998044967651,-0.8299995064735413,-0.7177030444145203,0.0,0.0,0.0
1759839622.9023798,0,-1.2049998044967651,-0.8299995064735413,-0.7177029962945767,0.0,True,0.01152944564819336,-1.2049998044967651,-0.8299995064735413,-0.7177030444145203,0.0,0.0,0.0
1759839622.9126441,0,-1.2049998044967651,-0.8299995064735413,-0.7177029986744223,0.0,True,0.010264396667480469,-1.2049998044967651,-0.8299995064735413,-0.7177030444145203,0.0,0.0,0.0
1759839622.9238522,0,-1.2049998044967651,-0.8299995064735413,-0.7177029999394335,0.0,True,0.011208057403564453,-1.2049998044967651,-0.8299995064735413,-0.7177030444145203,0.0,0.0,0.0
1759839622.934293,0,-1.2049998044967651,-0.8299995064735413,-0.7177030018904826,0.0,True,0.010440826416015625,-1.2049998044967651,-0.8299995064735413,-0.7177030444145203,0.0,0.0,0.0
1759839622.9452693,0,-1.2049998044967651,-0.8299995064735413,-0.7177030032085998,0.0,True,0.010976314544677734,-1.2049998044967651,-0.8299995064735413,-0.7177030444145203,0.0,0.0,0.0
1759839622.9565275,0,-1.2049998044967651,-0.8299995064735413,-0.7177030042535328,0.0,True,0.011258125305175781,-1.2049998044967651,-0.8299995064735413,-0.7177030444145203,0.0,0.0,0.0
1759839622.967836,0,-1.2049998044967651,-0.8299995064735413,-0.7177030053283247,0.0,True,0.011308431625366211,-1.2049998044967651,-0.8299995064735413,-0.7177030444145203,0.0,0.0,0.0
1759839622.9781513,0,-1.2049998044967651,-0.8299995064735413,-0.7177030072486872,0.0,True,0.010315418243408203,-1.2049998044967651,-0.8299995064735413,-0.7177030444145203,0.0,0.0,0.0
1759839622.9888933,0,-1.2049998044967651,-0.8299995064735413,-0.717703008644115,0.0,True,0.010741949081420898,-1.2049998044967651,-0.8299995064735413,-0.7177030444145203,0.0,0.0,0.0
1759839622.9991393,0,-1.2049998044967651,-0.8299995064735413,-0.717703010285792,0.0,True,0.010246038436889648,-1.2049998044967651,-0.8299995064735413,-0.7177030444145203,0.0,0.0,0.0
1759839623.0094001,0,-1.2049998044967651,-0.8299995064735413,-0.7177030117351375,0.0,True,0.010260820388793945,-1.2049998044967651,-0.8299995064735413,-0.7177030444145203,0.0,0.0,0.0
1759839623.0207653,0,-1.2049998044967651,-0.8299995064735413,-0.7177030122652361,0.0,True,0.011365175247192383,-1.2049998044967651,-0.8299995064735413,-0.7177030444145203,0.0,0.0,0.0
1759839623.0319705,0,-1.2049998044967651,-0.8299995064735413,-0.7177030130127662,0.0,True,0.011205196380615234,-1.2049998044967651,-0.8299995064735413,-0.7177030444145203,0.0,0.0,0.0
1759839623.0431623,0,-1.2049998044967651,-0.8299995064735413,-0.7177030138670553,0.0,True,0.011191844940185547,-1.2049998044967651,-0.8299995064735413,-0.7177030444145203,0.0,0.0,0.0
1759839623.0532916,0,-1.2049998044967651,-0.8299995064735413,-0.717703015426423,0.0,True,0.010129213333129883,-1.2049998044967651,-0.8299995064735413,-0.7177030444145203,0.0,0.0,0.0
1759839623.064193,0,-1.2049998044967651,-0.8299995064735413,-0.7177030163454674,0.0,True,0.010901451110839844,-1.2049998044967651,-0.8299995064735413,-0.7177030444145203,0.0,0.0,0.0
1759839623.0748203,0,-1.2049998044967651,-0.8299995064735413,-0.7177030173763619,0.0,True,0.010627269744873047,-1.2049998044967651,-0.8299995064735413,-0.7177030444145203,0.0,0.0,0.0
1759839623.0859778,0,-1.2049998044967651,-0.8299995064735413,-0.7177030180564081,0.0,True,0.011157512664794922,-1.2049998044967651,-0.8299995064735413,-0.7177030444145203,0.0,0.0,0.0
1759839623.0998404,0,-1.2049998044967651,-0.8299995064735413,-0.717703017331683,0.0,True,0.01386260986328125,-1.2049998044967651,-0.8299995064735413,-0.7177030444145203,0.0,0.0,0.0
1759839623.1106923,0,-1.2049998044967651,-0.8299995064735413,-0.7177030186520064,0.0,True,0.010851860046386719,-1.2049998044967651,-0.8299995064735413,-0.7177030444145203,0.0,0.0,0.0
1759839623.1214702,0,-1.2049998044967651,-0.8299995064735413,-0.7177030199694237,0.0,True,0.010777950286865234,-1.2049998044967651,-0.8299995064735413,-0.7177030444145203,0.0,0.0,0.0
1759839623.1319509,0,-1.2049998044967651,-0.8299995064735413,-0.7177030212599593,0.0,True,0.010480642318725586,-1.2049998044967651,-0.8299995064735413,-0.7177030444145203,0.0,0.0,0.0
1759839623.1421394,0,-1.2049998044967651,-0.8299995064735413,-0.7177030225033985,0.0,True,0.010188579559326172,-1.2049998044967651,-0.8299995064735413,-0.7177030444145203,0.0,0.0,0.0
1759839623.1529968,0,-1.2049998044967651,-0.8299995064735413,-0.7177030232599044,0.0,True,0.010857343673706055,-1.2049998044967651,-0.8299995064735413,-0.7177030444145203,0.0,0.0,0.0
1759839623.1633713,0,-1.2049998044967651,-0.8299995064735413,-0.717703024168884,0.0,True,0.01037454605102539,-1.2049998044967651,-0.8299995064735413,-0.7177030444145203,0.0,0.0,0.0
1759839623.1740127,0,-1.2049998044967651,-0.8299995064735413,-0.7177030248801994,0.0,True,0.010641336441040039,-1.2049998044967651,-0.8299995064735413,-0.7177030444145203,0.0,0.0,0.0
1759839623.1842215,0,-1.2049998044967651,-0.8299995064735413,-0.7177030257203523,0.0,True,0.010208845138549805,-1.2049998044967651,-0.8299995064735413,-0.7177030444145203,0.0,0.0,0.0
1759839623.1944945,0,-1.2049998044967651,-0.8299995064735413,-0.7177030264517388,0.0,True,0.010272979736328125,-1.2049998044967651,-0.8299995064735413,-0.7177030444145203,0.0,0.0,0.0
1759839623.2051575,0,-1.2049998044967651,-0.8299995064735413,-0.717703026964875,0.0,True,0.010663032531738281,-1.2049998044967651,-0.8299995064735413,-0.7177030444145203,0.0,0.0,0.0
1759839623.216036,0,-1.2049998044967651,-0.8299995064735413,-0.7177030273916252,0.0,True,0.010878562927246094,-1.2049998044967651,-0.8299995064735413,-0.7177030444145203,0.0,0.0,0.0
1759839623.2273974,0,-1.2049998044967651,-0.8299995064735413,-0.7177030276742684,0.0,True,0.011361360549926758,-1.2049998044967651,-0.8299995064735413,-0.7177030444145203,0.0,0.0,0.0
1759839623.2386584,0,-1.2049998044967651,-0.8299995064735413,-0.7177030280667402,0.0,True,0.011260986328125,-1.2049998044967651,-0.8299995064735413,-0.7177030444145203,0.0,0.0,0.0
1759839623.2494073,0,-1.2049998044967651,-0.8299995064735413,-0.7177030286794501,0.0,True,0.010748863220214844,-1.2049998044967651,-0.8299995064735413,-0.7177030444145203,0.0,0.0,0.0
1759839623.2595649,0,-1.2049998044967651,-0.8299995064735413,-0.7177030294562616,0.0,True,0.010157585144042969,-1.2049998044967651,-0.8299995064735413,-0.7177030444145203,0.0,0.0,0.0
1759839623.2708392,0,-1.2049998044967651,-0.8299995064735413,-0.7177030297923626,0.0,True,0.011274337768554688,-1.2049998044967651,-0.8299995064735413,-0.7177030444145203,0.0,0.0,0.0
1759839623.28152,0,-1.2049998044967651,-0.8299995064735413,-0.717703030325108,0.0,True,0.010680675506591797,-1.2049998044967651,-0.8299995064735413,-0.7177030444145203,0.0,0.0,0.0
1759839623.2923715,0,-1.2049998044967651,-0.8299995064735413,-0.7177030307896981,0.0,True,0.010851621627807617,-1.2049998044967651,-0.8299995064735413,-0.7177030444145203,0.0,0.0,0.0
1759839623.3028007,0,-1.2049998044967651,-0.8299995064735413,-0.7177030313572441,0.0,True,0.010429143905639648,-1.2049998044967651,-0.8299995064735413,-0.7177030444145203,0.0,0.0,0.0
1759839623.313019,0,-1.2049998044967651,-0.8299995064735413,-0.7177030319337785,0.0,True,0.010218381881713867,-1.2049998044967651,-0.8299995064735413,-0.7177030444145203,0.0,0.0,0.0
1759839623.323602,0,-1.2049998044967651,-0.8299995064735413,-0.7177030323506095,0.0,True,0.010582923889160156,-1.2049998044967651,-0.8299995064735413,-0.7177030444145203,0.0,0.0,0.0
1759839623.335073,0,-1.2049998044967651,-0.8299995064735413,-0.7177030325185161,0.0,True,0.011471033096313477,-1.2049998044967651,-0.8299995064735413,-0.7177030444145203,0.0,0.0,0.0
1759839623.3451493,0,-1.2049998044967651,-0.8299995064735413,-0.7177030330833105,0.0,True,0.010076284408569336,-1.2049998044967651,-0.8299995064735413,-0.7177030444145203,0.0,0.0,0.0
1759839623.355397,0,-1.2049998044967651,-0.8299995064735413,-0.7177030335572763,0.0,True,0.01024770736694336,-1.2049998044967651,-0.8299995064735413,-0.7177030444145203,0.0,0.0,0.0
1759839623.36553,0,-1.2049998044967651,-0.8299995064735413,-0.7177030340048702,0.0,True,0.010133028030395508,-1.2049998044967651,-0.8299995064735413,-0.7177030444145203,0.0,0.0,0.0
1759839623.3760126,0,-1.2049998044967651,-0.8299995064735413,-0.7177030343282702,0.0,True,0.010482549667358398,-1.2049998044967651,-0.8299995064735413,-0.7177030444145203,0.0,0.0,0.0
1759839623.3874981,0,-1.2049998044967651,-0.8299995064735413,-0.717703034422799,0.0,True,0.011485576629638672,-1.2049998044967651,-0.8299995064735413,-0.7177030444145203,0.0,0.0,0.0
1759839623.398166,0,-1.2049998044967651,-0.8299995064735413,-0.7177030347473856,0.0,True,0.010667800903320312,-1.2049998044967651,-0.8299995064735413,-0.7177030444145203,0.0,0.0,0.0
1759839623.4188774,0,-1.2049998044967651,-0.8299995064735413,-0.717703033125197,0.0,True,0.020711421966552734,-1.2049998044967651,-0.8299995064735413,-0.7177030444145203,0.0,0,0
1759839623.429731,0,-1.2049998044967651,-0.8299995064735413,-0.7177030339790882,0.0,True,0.01085352897644043,-1.2049998044967651,-0.8299995064735413,-0.7177030444145203,0.0,0,0
1759839623.4410632,0,-1.2049998044967651,-0.8299995064735413,-0.7177030347212252,0.0,True,0.011332273483276367,-1.2049998044967651,-0.8299995064735413,-0.7177030444145203,0.0,0,0
1759839623.4511883,0,-1.2049998044967651,-0.8299995064735413,-0.7177030355320078,0.0,True,0.010125160217285156,-1.2049998044967651,-0.8299995064735413,-0.7177030444145203,0.0,0,0
1759839623.4622772,0,-1.2049998044967651,-0.8299995064735413,-0.7177030360171166,0.0,True,0.011088848114013672,-1.2049998044967651,-0.8299995064735413,-0.7177030444145203,0.0,0,0
1759839623.472579,0,-1.2049998044967651,-0.8299995064735413,-0.717703036543325,0.0,True,0.010301828384399414,-1.2049998044967651,-0.8299995064735413,-0.7177030444145203,0.0,0,0
1759839623.4825833,0,-1.2049998044967651,-0.8299995064735413,-0.7177030370276576,0.0,True,0.010004281997680664,-1.2049998044967651,-0.8299995064735413,-0.7177030444145203,0.0,0,0
1759839623.4926348,0,-1.2049998044967651,-0.8299995064735413,-0.7177030374186302,0.0,True,0.010051488876342773,-1.2049998044967651,-0.8299995064735413,-0.7177030444145203,0.0,0,0
1759839623.5028076,0,-1.2049998044967651,-0.8299995064735413,-0.7177030377278513,0.0,True,0.010172843933105469,-1.2049998044967651,-0.8299995064735413,-0.7177030444145203,0.0,0,0
1759839623.5136375,0,-1.2049998044967651,-0.8299995064735413,-0.7177030379035294,0.0,True,0.010829925537109375,-1.2049998044967651,-0.8299995064735413,-0.7177030444145203,0.0,0,0
1759839623.524138,0,-1.2049998044967651,-0.8299995064735413,-0.717703038123771,0.0,True,0.010500431060791016,-1.2049998044967651,-0.8299995064735413,-0.7177030444145203,0.0,0,0
1759839623.5342114,0,-1.2049998044967651,-0.8299995064735413,-0.7177030383927221,0.0,True,0.010073423385620117,-1.2049998044967651,-0.8299995064735413,-0.7177030444145203,0.0,0,0
1759839623.5458837,0,-1.2049998044967651,-0.8299995064735413,-0.7177030384294856,0.0,True,0.011672258377075195,-1.2049998044967651,-0.8299995064735413,-0.7177030444145203,0.0,0,0
1759839623.5565722,0,-1.2049998044967651,-0.8299995064735413,-0.7177030386248937,0.0,True,0.010688543319702148,-1.2049998044967651,-0.8299995064735413,-0.7177030444145203,0.0,0,0
1759839623.5667017,0,-1.2049998044967651,-0.8299995064735413,-0.7177030388904146,0.0,True,0.010129451751708984,-1.2049998044967651,-0.8299995064735413,-0.7177030444145203,0.0,0,0
1759839623.5778444,0,-1.2049998044967651,-0.8299995064735413,-0.7177030390098764,0.0,True,0.011142730712890625,-1.2049998044967651,-0.8299995064735413,-0.7177030444145203,0.0,0,0
1759839623.588996,0,-1.2049998044967651,-0.8299995064735413,-0.7177030391365573,0.0,True,0.011151552200317383,-1.2049998044967651,-0.8299995064735413,-0.7177030444145203,0.0,0,0
1759839623.6004128,0,-1.2049998044967651,-0.8299995064735413,-0.7177030392484767,0.0,True,0.011416912078857422,-1.2049998044967651,-0.8299995064735413,-0.7177030444145203,0.0,0,0
1759839623.6112905,0,-1.2049998044967651,-0.8299995064735413,-0.7177030394340598,0.0,True,0.010877609252929688,-1.2049998044967651,-0.8299995064735413,-0.7177030444145203,0.0,0,0
1759839623.622447,0,-1.2049998044967651,-0.8299995064735413,-0.7177030395870609,0.0,True,0.011156558990478516,-1.2049998044967651,-0.8299995064735413,-0.7177030444145203,0.0,0,0
1759839623.6327858,0,-1.2049998044967651,-0.8299995064735413,-0.7177030398185806,0.0,True,0.010338783264160156,-1.2049998044967651,-0.8299995064735413,-0.7177030444145203,0.0,0,0
1759839623.642931,0,-1.2049998044967651,-0.8299995064735413,-0.7177030400435758,0.0,True,0.010145187377929688,-1.2049998044967651,-0.8299995064735413,-0.7177030444145203,0.0,0,0
1759839623.6543763,0,-1.2049998044967651,-0.8299995064735413,-0.7177030401198685,0.0,True,0.011445283889770508,-1.2049998044967651,-0.8299995064735413,-0.7177030444145203,0.0,0,0
1759839623.6651194,0,-1.2049998044967651,-0.8299995064735413,-0.7177030402696687,0.0,True,0.010743141174316406,-1.2049998044967651,-0.8299995064735413,-0.7177030444145203,0.0,0,0
1759839623.6753788,0,-1.2049998044967651,-0.8299995064735413,-0.717703040458046,0.0,True,0.010259389877319336,-1.2049998044967651,-0.8299995064735413,-0.7177030444145203,0.0,0,0
1759839623.6866298,0,-1.2049998044967651,-0.8299995064735413,-0.7177030405450786,0.0,True,0.011250972747802734,-1.2049998044967651,-0.8299995064735413,-0.7177030444145203,0.0,0,0
1759839623.7030034,0,-1.2049998044967651,-0.8299995064735413,-0.7177030402398845,0.0,True,0.016373634338378906,-1.2049998044967651,-0.8299995064735413,-0.7177030444145203,0.0,0,0
1759839623.7080383,0,-1.2049998044967651,-0.8299995064735413,-0.7177030409255956,0.0,True,0.005034923553466797,-1.2049998044967651,-0.8299995064735413,-0.7177030444145203,0.0,0,0
1759839623.7195249,0,-1.2049998044967651,-0.8299995064735413,-0.7177030409967209,0.0,True,0.011486530303955078,-1.2049998044967651,-0.8299995064735413,-0.7177030444145203,0.0,0,0
1759839623.7299483,0,-1.2049998044967651,-0.8299995064735413,-0.7177030411216663,0.0,True,0.010423421859741211,-1.2049998044967651,-0.8299995064735413,-0.7177030444145203,0.0,0,0
1759839623.7412329,0,-1.2049998044967651,-0.8299995064735413,-0.7177030411819167,0.0,True,0.011284589767456055,-1.2049998044967651,-0.8299995064735413,-0.7177030444145203,0.0,0,0
1759839623.7517512,0,-1.2049998044967651,-0.8299995064735413,-0.717703041303313,0.0,True,0.010518312454223633,-1.2049998044967651,-0.8299995064735413,-0.7177030444145203,0.0,0,0
1759839623.7626173,0,-1.2049998044967651,-0.8299995064735413,-0.7177030413973053,0.0,True,0.010866165161132812,-1.2049998044967651,-0.8299995064735413,-0.7177030444145203,0.0,0,0
1759839623.7737536,0,-1.2049998044967651,-0.8299995064735413,-0.7177030414731256,0.0,True,0.011136293411254883,-1.2049998044967651,-0.8299995064735413,-0.7177030444145203,0.0,0,0
1759839623.7852407,0,-1.2049998044967651,-0.8299995064735413,-0.7177030415328751,0.0,True,0.011487007141113281,-1.2049998044967651,-0.8299995064735413,-0.7177030444145203,0.0,0,0
1759839623.7965238,0,-1.2049998044967651,-0.8299995064735413,-0.7177030416150245,0.0,True,0.011283159255981445,-1.2049998044967651,-0.8299995064735413,-0.7177030444145203,0.0,0,0
1759839623.8066595,0,-1.2049998044967651,-0.8299995064735413,-0.7177030417655779,0.0,True,0.010135650634765625,-1.2049998044967651,-0.8299995064735413,-0.7177030444145203,0.0,0,0
1759839623.8172512,0,-1.2049998044967651,-0.8299995064735413,-0.7177030418728343,0.0,True,0.010591745376586914,-1.2049998044967651,-0.8299995064735413,-0.7177030444145203,0.0,0,0
1759839623.8285124,0,-1.2049998044967651,-0.8299995064735413,-0.7177030419335857,0.0,True,0.011261224746704102,-1.2049998044967651,-0.8299995064735413,-0.7177030444145203,0.0,0,0
1759839623.8399117,0,-1.2049998044967651,-0.8299995064735413,-0.7177030419911254,0.0,True,0.011399269104003906,-1.2049998044967651,-0.8299995064735413,-0.7177030444145203,0.0,0,0
1759839623.8510358,0,-1.2049998044967651,-0.8299995064735413,-0.71770304206904,0.0,True,0.011124134063720703,-1.2049998044967651,-0.8299995064735413,-0.7177030444145203,0.0,0,0
1759839623.8619235,0,-1.2049998044967651,-0.8299995064735413,-0.7177030421586501,0.0,True,0.010887622833251953,-1.2049998044967651,-0.8299995064735413,-0.7177030444145203,0.0,0,0
1759839623.872583,0,-1.2049998044967651,-0.8299995064735413,-0.7177030422536514,0.0,True,0.010659456253051758,-1.2049998044967651,-0.8299995064735413,-0.7177030444145203,0.0,0,0
1759839623.8832738,0,-1.2049998044967651,-0.8299995064735413,-0.717703042338858,0.0,True,0.010690927505493164,-1.2049998044967651,-0.8299995064735413,-0.7177030444145203,0.0,0,0
1759839623.8940992,0,-1.2049998044967651,-0.8299995064735413,-0.7177030424113333,0.0,True,0.010825395584106445,-1.2049998044967651,-0.8299995064735413,-0.7177030444145203,0.0,0,0
1759839623.9054136,0,-1.2049998044967651,-0.8299995064735413,-0.7177030424601263,0.0,True,0.01131439208984375,-1.2049998044967651,-0.8299995064735413,-0.7177030444145203,0.0,0,0
1759839623.9164872,0,-1.2049998044967651,-0.8299995064735413,-0.7177030425219044,0.0,True,0.011073589324951172,-1.2049998044967651,-0.8299995064735413,-0.7177030444145203,0.0,0,0
1759839623.9276202,0,-1.2049998044967651,-0.8299995064735413,-0.71770304258194,0.0,True,0.011132955551147461,-1.2049998044967651,-0.8299995064735413,-0.7177030444145203,0.0,0,0
1759839623.937822,0,-1.2049998044967651,-0.8299995064735413,-0.7177030426758737,0.0,True,0.01020193099975586,-1.2049998044967651,-0.8299995064735413,-0.7177030444145203,0.0,0,0
1759839623.9488409,0,-1.2049998044967651,-0.8299995064735413,-0.7177030427294877,0.0,True,0.011018753051757812,-1.2049998044967651,-0.8299995064735413,-0.7177030444145203,0.0,0,0
1759839623.9596488,0,-1.2049998044967651,-0.8299995064735413,-0.7177030427881039,0.0,True,0.010807991027832031,-1.2049998044967651,-0.8299995064735413,-0.7177030444145203,0.0,0,0
1759839623.971089,0,-1.2049998044967651,-0.8299995064735413,-0.7177030428236719,0.0,True,0.011440038681030273,-1.2049998044967651,-0.8299995064735413,-0.7177030444145203,0.0,0,0
1759839623.9818394,0,-1.2049998044967651,-0.8299995064735413,-0.7177030428853879,0.0,True,0.010750532150268555,-1.2049998044967651,-0.8299995064735413,-0.7177030444145203,0.0,0,0
1759839623.9924674,0,-1.2049998044967651,-0.8299995064735413,-0.7177030429480258,0.0,True,0.010627985000610352,-1.2049998044967651,-0.8299995064735413,-0.7177030444145203,0.0,0,0
1759839624.0032692,0,-1.2049998044967651,-0.8299995064735413,-0.7177030430000961,0.0,True,0.01080179214477539,-1.2049998044967651,-0.8299995064735413,-0.7177030444145203,0.0,0,0
1759839624.0138974,0,-1.2049998044967651,-0.8299995064735413,-0.7177030430541382,0.0,True,0.010628223419189453,-1.2049998044967651,-0.8299995064735413,-0.7177030444145203,0.0,0,0
1759839624.0247116,0,-1.2049998044967651,-0.8299995064735413,-0.717703043099279,0.0,True,0.010814189910888672,-1.2049998044967651,-0.8299995064735413,-0.7177030444145203,0.0,0,0
1759839624.0356193,0,-1.2049998044967651,-0.8299995064735413,-0.7177030431401299,0.0,True,0.010907649993896484,-1.2049998044967651,-0.8299995064735413,-0.7177030444145203,0.0,0,0
1759839624.0458336,0,-1.2049998044967651,-0.8299995064735413,-0.7177030431986182,0.0,True,0.01021432876586914,-1.2049998044967651,-0.8299995064735413,-0.7177030444145203,0.0,0,0
1759839624.0558977,0,-1.2049998044967651,-0.8299995064735413,-0.7177030432548825,0.0,True,0.010064125061035156,-1.2049998044967651,-0.8299995064735413,-0.7177030444145203,0.0,0,0
1759839624.0660036,0,-1.2049998044967651,-0.8299995064735413,-0.717703043302949,0.0,True,0.01010584831237793,-1.2049998044967651,-0.8299995064735413,-0.7177030444145203,0.0,0,0
1759839624.0762792,0,-1.2049998044967651,-0.8299995064735413,-0.7177030433415439,0.0,True,0.010275602340698242,-1.2049998044967651,-0.8299995064735413,-0.7177030444145203,0.0,0,0
1759839624.086443,0,-1.2049998044967651,-0.8299995064735413,-0.7177030433799274,0.0,True,0.01016378402709961,-1.2049998044967651,-0.8299995064735413,-0.7177030444145203,0.0,0,0
1759839624.0969,0,-1.2049998044967651,-0.8299995064735413,-0.7177030434090899,0.0,True,0.010457038879394531,-1.2049998044967651,-0.8299995064735413,-0.7177030444145203,0.0,0,0
1759839624.1071398,0,-1.2049998044967651,-0.8299995064735413,-0.7177030434426399,0.0,True,0.010239839553833008,-1.2049998044967651,-0.8299995064735413,-0.7177030444145203,0.0,0,0
1759839624.1186476,0,-1.2049998044967651,-0.8299995064735413,-0.7177030434482532,0.0,True,0.011507749557495117,-1.2049998044967651,-0.8299995064735413,-0.7177030444145203,0.0,0,0
1759839624.1288807,0,-1.2049998044967651,-0.8299995064735413,-0.717703043486221,0.0,True,0.010233163833618164,-1.2049998044967651,-0.8299995064735413,-0.7177030444145203,0.0,0,0
1759839624.1396356,0,-1.2049998044967651,-0.8299995064735413,-0.7177030435125289,0.0,True,0.010754823684692383,-1.2049998044967651,-0.8299995064735413,-0.7177030444145203,0.0,0,0
1759839624.1509125,0,-1.2049998044967651,-0.8299995064735413,-0.7177030435288607,0.0,True,0.011276960372924805,-1.2049998044967651,-0.8299995064735413,-0.7177030444145203,0.0,0,0
1759839624.1622624,0,-1.2049998044967651,-0.8299995064735413,-0.7177030435472922,0.0,True,0.011349916458129883,-1.2049998044967651,-0.8299995064735413,-0.7177030444145203,0.0,0,0
1759839624.173414,0,-1.2049998044967651,-0.8299995064735413,-0.7177030435725928,0.0,True,0.011151552200317383,-1.2049998044967651,-0.8299995064735413,-0.7177030444145203,0.0,0,0
1759839624.184102,0,-1.2049998044967651,-0.8299995064735413,-0.7177030436068463,0.0,True,0.010688066482543945,-1.2049998044967651,-0.8299995064735413,-0.7177030444145203,0.0,0,0
1759839624.1943731,0,-1.2049998044967651,-0.8299995064735413,-0.7177030436456473,0.0,True,0.010271072387695312,-1.2049998044967651,-0.8299995064735413,-0.7177030444145203,0.0,0,0
1759839624.205508,0,-1.2049998044967651,-0.8299995064735413,-0.7177030436661394,0.0,True,0.011134862899780273,-1.2049998044967651,-0.8299995064735413,-0.7177030444145203,0.0,0,0
1759839624.2167127,0,-1.2049998044967651,-0.8299995064735413,-0.7177030436857397,0.0,True,0.011204719543457031,-1.2049998044967651,-0.8299995064735413,-0.7177030444145203,0.0,0,0
1759839624.227499,0,-1.2049998044967651,-0.8299995064735413,-0.7177030437127989,0.0,True,0.010786294937133789,-1.2049998044967651,-0.8299995064735413,-0.7177030444145203,0.0,0,0
1759839624.2383716,0,-1.2049998044967651,-0.8299995064735413,-0.717703043737524,0.0,True,0.010872602462768555,-1.2049998044967651,-0.8299995064735413,-0.7177030444145203,0.0,0,0
1759839624.2494903,0,-1.2049998044967651,-0.8299995064735413,-0.7177030437577532,0.0,True,0.011118650436401367,-1.2049998044967651,-0.8299995064735413,-0.7177030444145203,0.0,0,0
1759839624.2601411,0,-1.2049998044967651,-0.8299995064735413,-0.7177030437842866,0.0,True,0.010650873184204102,-1.2049998044967651,-0.8299995064735413,-0.7177030444145203,0.0,0,0
1759839624.2709768,0,-1.2049998044967651,-0.8299995064735413,-0.7177030438066545,0.0,True,0.010835647583007812,-1.2049998044967651,-0.8299995064735413,-0.7177030444145203,0.0,0,0
1759839624.2819288,0,-1.2049998044967651,-0.8299995064735413,-0.7177030438263703,0.0,True,0.010951995849609375,-1.2049998044967651,-0.8299995064735413,-0.7177030444145203,0.0,0,0
1759839624.2930496,0,-1.2049998044967651,-0.8299995064735413,-0.7177030438436383,0.0,True,0.011120796203613281,-1.2049998044967651,-0.8299995064735413,-0.7177030444145203,0.0,0,0
1759839624.306252,0,-1.2049998044967651,-0.8299995064735413,-0.7177030438373944,0.0,True,0.013202428817749023,-1.2049998044967651,-0.8299995064735413,-0.7177030444145203,0.0,0,0
1759839624.317172,0,-1.2049998044967651,-0.8299995064735413,-0.717703043864077,0.0,True,0.010920047760009766,-1.2049998044967651,-0.8299995064735413,-0.7177030444145203,0.0,0,0
1759839624.3278468,0,-1.2049998044967651,-0.8299995064735413,-0.7177030438924348,0.0,True,0.010674715042114258,-1.2049998044967651,-0.8299995064735413,-0.7177030444145203,0.0,0,0
1759839624.3382819,0,-1.2049998044967651,-0.8299995064735413,-0.7177030439196237,0.0,True,0.010435104370117188,-1.2049998044967651,-0.8299995064735413,-0.7177030444145203,0.0,0,0
