timestamp,observer_vehicle_id,vehicle_0_x,vehicle_0_y,vehicle_0_theta,vehicle_0_velocity,vehicle_1_x,vehicle_1_y,vehicle_1_theta,vehicle_1_velocity,vehicle_2_x,vehicle_2_y,vehicle_2_theta,vehicle_2_velocity
1759837106.716804,0,0.0,6.0,-0.05483113549895436,0.0,0.0,0.0,0.0,0.0,0.0,0.0,0.0,0.0
1759837106.727949,0,0.0,6.0,-0.05483113549895436,0.0,0.0,0.0,0.0,0.0,0.0,0.0,0.0,0.0
1759837106.7380564,0,0.0,6.0,-0.05483113549895436,0.0,1.0140747070312501,0.7605560302734375,-0.39822620577003487,0.0,0.0,0.0,0.0,0.0
1759837106.748611,0,0.0,6.0,-0.05483113549895436,0.0,1.8848593126685593,1.4136444845014196,-0.7401825203704497,0.0,0.0,0.0,0.0,0.0
1759837106.7587426,0,0.0,6.0,-0.05483113549895436,0.0,2.634710757275449,1.976033067956587,-1.0346484937415608,0.0,0.0,0.0,0.0,0.0
1759837106.7696028,0,0.0,6.0,-0.05483113549895436,0.0,3.280960208826711,2.460720156620033,-1.2884300596240574,0.0,0.0,0.0,0.0,0.0
1759837106.7797084,0,0.0,6.0,-0.05483113549895436,0.0,3.8915585736980223,2.9186689302735167,-1.5282114765217738,0.0,0.0,0.0,0.0,0.0
1759837106.7903636,0,0.0,6.0,-0.05483113549895436,0.0,4.414396158395082,3.310797118796312,-1.7335293156752785,0.0,0.0,0.0,0.0,0.0
1759837106.8006668,0,0.0,6.0,-0.05483113549895436,0.0,4.863309091064949,3.647481818298712,-1.9098170118959783,0.0,0.0,0.0,0.0,0.0
1759837106.8108017,0,0.0,6.0,-0.05483113549895436,0.0,5.283064836682159,3.962298627511619,-2.074654707549265,0.0,0.0,0.0,0.0,0.0
1759837106.8213806,0,0.0,6.0,-0.05483113549895436,0.0,5.640899942959585,4.230674957219689,-2.2151762250234066,0.0,0.0,0.0,0.0,0.0
1759837106.8315566,0,0.0,6.0,-0.05483113549895436,0.0,5.946805009989284,4.460103757491963,-2.3353048637956895,0.0,0.0,0.0,0.0,0.0
1759837106.8417664,0,0.0,6.0,-0.05483113549895436,0.0,6.230769036942514,4.673076546888146,-1.5778313099217507,0.0,0.0,0.0,0.0,0.0
1759837106.852036,0,0.0,6.0,-0.05483113549895436,0.0,6.471825991343572,4.853869066747,-0.9348122983401507,0.0,0.0,0.0,0.0,0.0
1759837106.8630404,0,0.0,6.0,-0.05483113549895436,0.0,6.6766757131867704,5.007506191618328,-0.3883760173804779,0.0,0.0,0.0,0.0,0.0
1759837106.873781,0,0.0,6.0,-0.05483113549895436,0.0,6.85122297572547,5.138416496642483,0.0772285054625944,0.0,0.0,0.0,0.0,0.0
1759837106.8847516,0,0.0,6.0,-0.05483113549895436,0.0,7.01287905143379,5.259658422022391,0.5084458095905705,0.0,0.0,0.0,0.0,0.0
1759837106.8949745,0,0.0,6.0,-0.05483113549895436,0.0,7.149768626694071,5.362325492197595,0.8735985163373893,0.0,0.0,0.0,0.0,0.0
1759837106.9057686,0,0.0,6.0,-0.05483113549895436,0.0,7.2658394691071955,5.4493785296598345,1.1832172889937307,0.0,0.0,0.0,0.0,0.0
1759837106.9164882,0,-1.8159219635432118e-06,5.999996216829158,-2.8798515882672984,0.0,7.372236403192136,5.529176143739324,1.46703092781033,0.0,0.0,0.0,0.0,0.0
1759837106.927698,0,-1.8259964845656314e-06,5.999996195840572,-3.121293210975118,0.0,7.461806553497635,5.596353683661801,1.7059591498139732,0.0,0.0,0.0,0.0,0.0
1759837106.9381068,0,-1.8291571806177408e-06,5.999996189255788,3.139294834534585,0.0,7.537476334269929,5.653105957733217,1.9078081599771197,0.0,0.0,0.0,0.0,0.0
1759837106.9487112,0,-1.830331766728059e-06,5.999996186808734,3.1363161796443,0.0,7.606582913916779,5.704935836295418,2.09214984241774,0.0,0.0,0.0,0.0,0.0
1759837106.9593318,0,-1.8307786359235715e-06,5.999996185877756,3.135948927993841,0.0,7.664528496859591,5.748394976401749,2.246719585331752,0.0,0.0,0.0,0.0,0.0
1759837106.9694202,0,-1.8309492257283275e-06,5.999996185522361,3.1363429862248857,0.0,7.713262537303954,5.7849454671217995,2.376717554462215,0.0,0.0,0.0,0.0,0.0
1759837106.9796448,0,-1.8310143797188564e-06,5.999996185386624,3.136884931547609,0.0,7.754330633972137,5.815746506240941,2.486266631744499,0.0,0.0,0.0,0.0,0.0
1759837106.9910908,0,-1.8310392660213182e-06,5.999996185334777,3.13734541121325,0.0,7.791600349225761,5.843698762386657,2.5856835331313843,0.0,0.0,0.0,0.0,0.0
1759837107.001985,0,-1.8310487717258726e-06,5.9999961853149735,3.137870266065997,0.0,7.8227619412247895,5.867069931056384,2.668807026234125,0.0,0.0,0.0,0.0,0.0
1759837107.0126824,0,-1.8310524025809706e-06,5.999996185307409,3.138343889526107,0.0,7.8488848245948475,5.886662072350073,2.7384897727286703,0.0,0.0,0.0,0.0,0.0
1759837107.0239854,0,-1.8310537894441567e-06,5.99999618530452,3.1387073121976172,0.0,7.872358642634845,5.904267416799496,2.8011061420079955,0.0,0.0,0.0,0.0,0.0
1759837107.034555,0,-1.831054319178753e-06,5.9999961853034165,3.139055926531398,0.0,7.891916300063444,5.918935643973601,2.853276159586769,0.0,0.0,0.0,0.0,0.0
1759837107.045143,0,-1.8310545215193638e-06,5.999996185302995,3.1393393633439004,0.0,7.908248408302309,5.931184711877278,2.896842030245396,0.0,0.0,0.0,0.0,0.0
1759837107.0563989,0,-1.8310545988065998e-06,5.999996185302834,3.139546780531756,0.0,7.922909507360363,5.942180524253617,2.9359504867860227,0.0,0.0,0.0,0.0,0.0
1759837107.0676355,0,-1.831054628327697e-06,5.999996185302773,3.1397299321033856,0.0,7.9350546656262715,5.951289383080917,2.968347675587527,0.0,0.0,0.0,0.0,0.0
1759837107.0784712,0,-1.8310546396037528e-06,5.999996185302749,3.139904190919559,0.0,7.945145701573248,5.958857651838701,2.9952654966335164,0.0,0.0,0.0,0.0,0.0
1759837107.0898323,0,-1.8310546439108228e-06,5.99999618530274,3.140037508730771,0.0,7.954114104956438,5.965583947086172,3.019188697244976,0.0,0.0,0.0,0.0,0.0
1759837107.101058,0,-1.8310546455559772e-06,5.999996185302736,3.140160151830255,0.0,7.961513222339924,5.971133279109451,3.038925830149219,0.0,0.0,0.0,0.0,0.0
1759837107.2245495,0,-1.8310546461843702e-06,5.999996185302735,3.1392967808519003,0.0,7.968019972567029,5.9760133364908,3.0562825751974434,0.0,0.0,0.0,0.0,0.0
1759837107.235398,0,-1.831054646424395e-06,5.999996185302734,3.1400545522826224,0.0,7.974355368154257,5.980764878031526,3.0731822320382927,0.0,0.0,0.0,0.0,0.0
1759837107.246642,0,-1.8310546465160764e-06,5.999996185302734,3.140501472696254,0.0,7.979378057066445,5.984531890633,3.0865802460795044,0.0,0.0,0.0,0.0,0.0
1759837107.2572818,0,-1.8310546465510955e-06,5.999996185302734,3.140761908529397,0.0,7.983373168009061,5.987528220592555,3.097237197652888,0.0,0.0,0.0,0.0,0.0
1759837107.2679298,0,-1.8310546465644716e-06,5.999996185302734,3.1409238892132,0.0,7.986558927077264,5.989917537304179,3.1057352044922375,0.0,0.0,0.0,0.0,0.0
1759837107.2785652,0,-1.8310546465695807e-06,5.999996185302734,3.141031404278218,0.0,7.989105726391579,5.991827634719763,3.112528787286215,0.0,0.0,0.0,0.0,0.0
1759837107.288732,0,-1.8310546465715322e-06,5.999996185302734,3.141109503424442,0.0,7.991272618601637,5.993452802115958,3.1183089685324985,0.0,0.0,0.0,0.0,0.0
1759837107.2995694,0,-1.8310546465722776e-06,5.999996185302734,3.141160695066592,0.0,7.992989631116495,5.994740560106437,3.122889096465005,0.0,0.0,0.0,0.0,0.0
1759837107.3097625,0,-1.8310546465725624e-06,5.999996185302734,3.141202960903996,0.0,7.994354584521913,5.995764274051004,3.126530107328133,0.0,0.0,0.0,0.0,0.0
1759837107.3219419,0,-1.8310546465726713e-06,5.999996185302734,3.141221607368351,0.0,7.995440057065431,5.996578377576322,3.1294256034724626,0.0,0.0,0.0,0.0,0.0
1759837107.3320796,0,-1.8310546465727128e-06,5.999996185302734,3.1412503582377944,0.0,7.996307608084179,5.997229040135199,3.1317397943239924,0.0,3.1658775329589846,1.1872040748596193,-0.621618599271505,0.0
1759837107.3422446,0,-1.8310546465727287e-06,5.999996185302734,3.1412736057776662,0.0,7.997002629318581,5.997750305496056,3.1335937622722887,0.0,5.679239571632352,2.129714839362132,-1.1151160809893343,0.0
1759837107.3531551,0,-1.8310546465727346e-06,5.999996185302734,3.1412874759735896,0.0,7.997591790664132,5.998192176026322,3.135165349149005,0.0,7.677878033603587,2.8792042626013448,-1.507547824872843,0.0
1759837107.3634489,0,-1.831054646572737e-06,5.999996185302734,3.141302994349118,0.0,7.998060223799528,5.998543500497105,3.1364148937326166,0.0,9.272342541461605,3.4771284530481013,-1.820620198533631,0.0
1759837107.3742454,0,-1.8310546465727378e-06,5.999996185302734,3.141313330777205,0.0,7.9984333850387594,5.998823371123206,3.1374103006969483,0.0,10.546790913427824,3.955046592535434,-2.0708575509194773,0.0
1759837107.384592,0,-1.8310546465727382e-06,5.999996185302734,3.141325199273872,0.0,7.99873155146022,5.999046995696939,3.138205659113764,0.0,11.568530694202146,4.338199010325805,-2.2714756875128037,0.0
1759837107.3959155,0,-1.8310546465727384e-06,5.999996185302734,3.1413303538678505,0.0,7.998970128997472,5.999225928655951,3.138842064284362,0.0,12.436066239645246,4.663524839866967,-2.441815893336415,0.0
1759837107.4067037,0,-1.8310546465727384e-06,5.999996185302734,3.141338806708731,0.0,7.999161642979677,5.999369563986933,3.1393529275027547,0.0,13.126077247921922,4.92227896797072,-2.5772992378377335,0.0
1759837107.4181995,0,-1.8310546465727384e-06,5.999996185302734,3.1413434176725694,0.0,7.999315646409939,5.999485066434449,3.1397637313883067,0.0,13.675888027504845,5.128458010314317,-2.685254331839514,0.0
1759837107.4289517,0,-1.8310546465727384e-06,5.999996185302734,3.1413524799485675,0.0,7.9994473357962015,5.999583833367103,3.1401150125998383,0.0,14.115516524786166,5.293318696794812,-2.7715751853263604,0.0
1759837107.4389555,0,-1.8310546465727384e-06,5.999996185302734,3.1413647951360346,0.0,7.999552611950274,5.999662790397084,3.140395836559897,0.0,14.46821459343191,5.425580472536966,-2.840827289084277,0.0
1759837107.4496512,0,-1.8310546465727384e-06,5.999996185302734,3.141372133411286,0.0,7.999636909691623,5.999726013634575,3.140620700640071,0.0,14.751625337227512,5.531859501460317,-2.8964748584367332,0.0
1759837107.4608881,0,-1.8310546465727384e-06,5.999996185302734,3.1413763980304026,0.0,7.999704539526312,5.999776735955619,3.140801103107874,0.0,14.979793886992919,5.617422707622344,-2.941275648368243,0.0
1759837107.4711554,0,-1.8310546465727384e-06,5.999996185302734,3.1413854935512475,0.0,7.999758996837407,5.9998175788946755,3.140946367891629,0.0,15.175223822234432,5.690708933337912,-2.979648226377288,0.0
1759837107.4825702,0,-1.8310546465727384e-06,5.999996185302734,3.1413889064581326,0.0,7.9998028968560835,5.999850503872999,3.141063471116001,0.0,15.33133441685689,5.749250406321334,-3.0103004699181035,0.0
1759837107.4937787,0,-1.8310546465727384e-06,5.999996185302734,3.1413937583702776,0.0,7.999840517831588,5.999878719574047,3.141163825003504,0.0,15.456398021370084,5.796149258013782,-3.034856651213176,0.0
1759837107.5049007,0,-1.8310546465727384e-06,5.999996185302734,3.141399436293657,0.0,7.999870635813939,5.999901308036329,3.141244164669665,0.0,15.556861216802597,5.833822956300974,-3.0545825534860693,0.0
1759837107.5203712,0,-1.8310546465727384e-06,5.999996185302734,3.141388592263178,0.0,7.999894696650693,5.999919353644337,3.141308346910354,0.0,15.63738667193184,5.86402000197444,-3.070393689609315,0.0
1759837107.5309858,0,-1.8310546465727384e-06,5.999996185302734,3.1414009678498473,0.0,7.99991408951309,5.999933898275371,3.141360077337468,0.0,15.70250955321383,5.888441082455187,-3.0831805374332104,0.0
1759837107.5416973,0,-1.8310546465727384e-06,5.999996185302734,3.1414122518963694,0.0,7.999929756915793,5.999945648814664,3.1414018701072544,0.0,15.75848969354631,5.909433635079867,-3.0941722122716158,0.0
1759837107.5530298,0,-1.8310546465727384e-06,5.999996185302734,3.141419544001007,0.0,7.999942437073043,5.999955158922294,3.141435694404928,0.0,15.8033884107134,5.926270654017525,-3.102988054762026,0.0
1759837107.5631053,0,-1.8310546465727384e-06,5.999996185302734,3.1414302503260547,0.0,7.9999527409740825,5.999962886839698,3.1414631800432415,0.0,15.839543898882955,5.939828962081109,-3.110087168255191,0.0
1759837107.5736227,0,-1.8310546465727384e-06,5.999996185302734,3.1414378374050465,0.0,7.999961662486488,5.99996957796675,3.1414869781622503,0.0,15.868713132243762,5.950767424591412,-3.115814533825969,0.0
1759837107.5838594,0,-1.8310546465727384e-06,5.999996185302734,3.1414451866649244,0.0,7.999968852676137,5.999974970603142,3.1415061579807797,0.0,15.892310915535274,5.959616593325729,-3.1204479477350255,0.0
1759837107.5939505,0,-1.8310546465727384e-06,5.999996185302734,3.1414519921557105,0.0,7.999974662292302,5.999979327810544,3.1415216551219163,0.0,15.911449843088496,5.966793691158187,-3.1242058673681554,0.0
1759837107.605208,0,-1.8310546465727384e-06,5.999996185302734,3.1414544392318398,0.0,7.999979361293629,5.99998285205772,3.1415341896998816,0.0,15.926987956092342,5.972620483534629,-3.1272567687186394,0.0
1759837107.6155972,0,-1.8310546465727384e-06,5.999996185302734,3.1414596802617787,0.0,7.99998317558664,5.999985712774377,3.141544364319932,0.0,15.940436411045512,5.977661634977839,-1.9731119066729919,0.0
1759837107.6268754,0,-1.8310546465727384e-06,5.999996185302734,3.141462191339084,0.0,7.999986275984177,5.9999880380700095,3.1415526346250338,0.0,15.95127446094042,5.981724276452976,-1.0429917074117414,0.0
1759837107.6378148,0,-1.8310546465727384e-06,5.999996185302734,3.1414659413687964,0.0,7.999988803577082,5.999989933762635,3.1415593769747665,0.0,15.960034900571397,5.985008126013585,-0.2911717827764451,0.0
1759837107.6479368,0,-1.8310546465727384e-06,5.999996185302734,3.1414719090594048,0.0,7.999991006756113,5.999991586145117,3.141565253951045,0.0,15.967140420956882,5.987671629328335,0.31862316196801677,0.0
1759837107.6592069,0,-1.8310546465727384e-06,5.999996185302734,3.1414743474042446,0.0,7.9999927880119,5.99999292208551,3.1415700054477957,0.0,15.972909569730394,5.98983419393274,0.8137308482047774,0.0
1759837107.6699145,0,-1.8310546465727384e-06,5.999996185302734,3.1414783448236214,0.0,7.999994232800307,5.9999940056756405,3.141573859418388,0.0,15.977608799240265,5.99159569945201,1.2170181859158633,0.0
1759837107.6800857,0,-1.8310546465727384e-06,5.999996185302734,3.141483511095739,0.0,7.999995408283784,5.999994887287292,3.141576995018542,0.0,15.981448291925547,5.99303493274379,1.5465230079204344,0.0
1759837107.6901317,0,-1.8310546465727384e-06,5.999996185302734,3.1414883949815486,0.0,7.999996367032939,5.999995606348379,3.141579552480266,0.0,15.984794399919046,5.994289220853413,1.8336856122488516,0.0
1759837107.7014604,0,-1.8310546465727384e-06,5.999996185302734,3.1414898389527544,0.0,7.99999714963068,5.999996193296049,3.1415816400583947,0.0,15.987503567005673,5.995304751753891,2.0661860209828293,0.0
1759837107.7126565,0,-1.8310546465727384e-06,5.999996185302734,3.1414919325868578,0.0,7.999997831447102,5.999996704657811,3.1415834588025264,0.0,15.989703072571928,5.996129236105312,2.254947336477674,0.0
1759837107.7232375,0,-1.8310546465727384e-06,5.999996185302734,3.141495660056302,0.0,7.999998384451129,5.999997119410382,3.1415849339398196,0.0,15.991494639331336,5.996800804652498,2.408699390344251,0.0
1759837107.7337344,0,-1.8310546465727384e-06,5.999996185302734,3.141499391596687,0.0,7.999998834114192,5.999997456657312,3.1415861334152644,0.0,15.992957598524702,5.99734919469988,2.5342503805721734,0.0
1759837107.7446287,0,-1.8310546465727384e-06,5.999996185302734,3.1415020624524086,0.0,7.999999200459417,5.999997731415934,3.141587110640523,0.0,15.994154514789404,5.997797858592959,2.636969597167163,0.0
1759837107.755937,0,-1.8310546465727384e-06,5.999996185302734,3.141503945093234,0.0,7.999999499520233,5.999997955711303,3.141587908384736,0.0,15.995135693519423,5.9981656533015775,2.7211742432728347,0.0
1759837107.7671692,0,-1.8310546465727384e-06,5.999996185302734,3.141506223399098,0.0,7.999999744301044,5.999998139296712,3.1415885613371275,0.0,15.995994627538868,5.998487624597672,2.794887862333982,0.0
1759837107.7778535,0,-1.8310546465727384e-06,5.999996185302734,3.141509623662495,0.0,7.999999945293137,5.999998290040619,3.14158909748319,0.0,15.996694322648052,5.998749905210706,2.8549356163753066,0.0
1759837107.7885592,0,-1.8310546465727384e-06,5.999996185302734,3.1415127828743437,0.0,8.000000121913951,5.999998422506085,3.1415895686189077,0.0,15.997265675969018,5.998964076922519,2.9039690928676296,0.0
1759837107.7997236,0,-1.8310546465727384e-06,5.999996185302734,3.1415149665216155,0.0,8.000000265741905,5.999998530376933,3.141589952279727,0.0,15.997733109570175,5.999139294342013,2.944084190921797,0.0
1759837107.810875,0,-1.8310546465727384e-06,5.999996185302734,3.141517208132907,0.0,8.000000383164867,5.999998618444059,3.1415902655052768,0.0,15.99811649379606,5.999283005865036,2.9769861812274545,0.0
1759837107.8220327,0,-1.8310546465727384e-06,5.999996185302734,3.141519496725005,0.0,8.00000047927182,5.999998690524197,3.1415905218704117,0.0,15.998431726369875,5.999401170750888,3.004039404566799,0.0
1759837107.8327353,0,-1.8310546465727384e-06,5.999996185302734,3.1415224636827705,0.0,8.000000558173307,5.999998749700248,3.1415907323399943,0.0,15.99870918803241,5.9995051772159735,3.0278511326312696,0.0
1759837107.844014,0,-1.8310546465727384e-06,5.999996185302734,3.1415244101666,0.0,8.000000623059947,5.999998798365175,3.1415909054249926,0.0,15.99893562316198,5.999590056392369,3.0472837694872505,0.0
1759837107.8552089,0,-1.8310546465727384e-06,5.999996185302734,3.1415264944319112,0.0,8.00000067656092,5.9999988384908605,3.141591048138747,0.0,15.999120906002133,5.999659509638879,3.063184721584134,0.0
1759837107.8659081,0,-1.8310546465727384e-06,5.999996185302734,3.1415292449018146,0.0,8.000000723959745,5.9999988740399415,3.141591174575034,0.0,15.999272988729146,5.999716517827659,3.0762364437781446,0.0
1759837107.8766057,0,-1.8310546465727384e-06,5.999996185302734,3.1415317835081957,0.0,8.000000762759766,5.999998903139925,3.141591278074023,0.0,15.999398121229325,5.9997634237277095,3.086975300595369,0.0
1759837107.887821,0,-1.8310546465727384e-06,5.999996185302734,3.141533469176718,0.0,8.000000794578026,5.9999989270035945,3.1415913629491774,0.0,15.999501260220082,5.9998020853638545,3.095826676956033,0.0
1759837107.8991451,0,-1.8310546465727384e-06,5.999996185302734,3.1415350453228683,0.0,8.000000820733055,5.999998946619845,3.141591432717672,0.0,15.999592445258218,5.999836266062544,3.1036521664732057,0.0
1759837107.9099016,0,-1.8310546465727384e-06,5.999996185302734,3.14153734893131,0.0,8.000000842302267,5.999998962796736,3.141591490253507,0.0,15.999667081940736,5.999864243612463,3.110057478008838,0.0
1759837107.9248815,0,-1.8310546465727384e-06,5.999996185302734,3.1415349396446057,0.0,8.00000086003829,5.9999989760987384,3.141591537564316,0.0,15.999728011885425,5.99988708319364,3.1152864788756305,0.0
1759837107.9351096,0,-1.8310546465727384e-06,5.999996185302734,3.1415387660954117,0.0,8.000000875762872,5.9999989878921625,3.141591579509612,0.0,15.99977820641701,5.999905898606729,3.11959416782098,0.0
1759837107.9460886,0,-1.8310546465727384e-06,5.999996185302734,3.1415414913461905,0.0,8.0000008886757,5.999998997576774,3.141591613954559,0.0,15.999819613531743,5.999921420057849,3.123147721659483,0.0
1759837107.9564013,0,-1.8310546465727384e-06,5.999996185302734,3.1415444561807995,0.0,8.000000899314328,5.999999005555736,3.141591642333082,0.0,15.999853883609834,5.99993426619179,3.126088775831738,0.0
1759837107.9671323,0,-1.8310546465727384e-06,5.999996185302734,3.1415465617791956,0.0,8.000000908095014,5.999999012141244,3.1415916657555494,0.0,15.999882296750917,5.999944916853719,3.1285271883415486,0.0
1759837107.9785326,0,-1.8310546465727384e-06,5.999996185302734,3.141547794388295,0.0,8.000000915353448,5.999999017585063,3.141591685117407,0.0,15.999907558583901,5.999954386248251,3.130695155951643,0.0
1759837107.9896376,0,-1.8310546465727384e-06,5.999996185302734,3.14154930442972,0.0,8.000000921370876,5.9999990220981285,3.1415917011688848,0.0,15.999928341409573,5.999962176687524,3.1324787356678505,0.0
1759837108.000854,0,-1.8310546465727384e-06,5.999996185302734,3.141550691780651,0.0,8.000000926715602,5.999999026106669,3.1415917154259323,0.0,15.999945479405888,5.999968600863026,3.1339495165463345,0.0
1759837108.0116422,0,-1.8310546465727384e-06,5.999996185302734,3.1415524051406383,0.0,8.000000931117857,5.999999029408356,3.1415917271689366,0.0,15.999959654593152,5.999973914429973,3.1351660294919568,0.0
1759837108.0230665,0,-1.8310546465727384e-06,5.999996185302734,3.141553486186739,0.0,8.000000934749702,5.999999032132236,3.141591736856875,0.0,15.999971397706686,5.999978316334426,3.1361738221489017,0.0
1759837108.0338275,0,-1.8310546465727384e-06,5.999996185302734,3.1415550934426406,0.0,8.000000937756049,5.999999034386994,3.1415917448763,0.0,15.999981158760004,5.9999819752638865,3.1370115146255353,0.0
1759837108.0443919,0,-1.8310546465727384e-06,5.999996185302734,3.141556729892196,0.0,8.000000940251176,5.9999990362583375,3.1415917515320504,0.0,15.999989293540715,5.999985024585289,3.137709640573334,0.0
1759837108.055154,0,-1.8310546465727384e-06,5.999996185302734,3.141558050407845,0.0,8.000000942326311,5.999999037814686,3.1415917570674665,0.0,15.999996554933666,5.999987746517414,3.138332812483878,0.0
1759837108.0653393,0,-1.8310546465727384e-06,5.999996185302734,3.14155966366023,0.0,8.000000944057525,5.999999039113096,3.1415917616854787,0.0,16.00000256865057,5.999990000758347,3.1388489089788143,0.0
1759837108.0756302,0,-1.8310546465727384e-06,5.999996185302734,3.1415610133115113,0.0,8.000000945610743,5.999999040278008,3.1415917658286854,0.0,16.00000755967812,5.99999187164432,3.13927723839094,0.0
1759837108.0869427,0,-1.8310546465727384e-06,5.999996185302734,3.1415615493603894,0.0,8.000000946894856,5.999999041241092,3.1415917692540534,0.0,16.000011705891147,5.999993425851689,3.1396330659177014,0.0
1759837108.0980449,0,-1.8310546465727384e-06,5.999996185302734,3.1415623070849215,0.0,8.000000947959423,5.999999042039516,3.141591772093782,0.0,16.00001515974879,5.99999472052974,3.1399294755847813,0.0
1759837108.109299,0,-1.8310546465727384e-06,5.999996185302734,3.141563042984025,0.0,8.000000948843958,5.9999990427029175,3.1415917744532806,0.0,16.000018043230412,5.999995801402419,3.1401769356468687,0.0
1759837108.122983,0,-1.8310546465727384e-06,5.999996185302734,3.1415624444145216,0.0,8.000000949578368,5.999999043253724,3.141591776412319,0.0,16.00002063421098,5.999996772631119,3.140399293301994,0.0
1759837108.1333423,0,-1.8310546465727384e-06,5.999996185302734,3.1415641725311225,0.0,8.00000095019263,5.999999043714421,3.141591778050867,0.0,16.00002278468257,5.999997578735092,3.1405838465273908,0.0
1759837108.1443145,0,-1.8310546465727384e-06,5.999996185302734,3.141565425857628,0.0,8.000000950744344,5.999999044128206,3.14159177952256,0.0,16.00002457220903,5.999998248789133,3.140737251843122,0.0
1759837108.1556208,0,-1.8310546465727384e-06,5.999996185302734,3.141566353694369,0.0,8.000000951202006,5.999999044471452,3.141591780743373,0.0,16.000026060962703,5.999998806848239,3.1408650165128584,0.0
1759837108.1668417,0,-1.8310546465727384e-06,5.999996185302734,3.1415672786829685,0.0,8.000000951582633,5.9999990447569225,3.141591781758695,0.0,16.000027304066673,5.999999272825586,3.140971699552882,0.0
1759837108.1780496,0,-1.8310546465727384e-06,5.999996185302734,3.1415681718418345,0.0,8.00000095189997,5.999999044994927,3.1415917826051953,0.0,16.00002834458911,5.999999662865274,3.141060997068905,0.0
1759837108.1888328,0,-1.8310546465727384e-06,5.999996185302734,3.1415692219568427,0.0,8.000000952165339,5.9999990451939516,3.1415917833130615,0.0,16.000029284176296,6.000000015069397,3.141141632333282,0.0
1759837108.199914,0,-1.8310546465727384e-06,5.999996185302734,3.1415700405310982,0.0,8.000000952387675,5.999999045360703,3.14159178390614,0.0,16.00003006513573,6.000000307811931,3.141208654182087,0.0
1759837108.2100956,0,-1.8310546465727384e-06,5.999996185302734,3.1415711979419374,0.0,8.00000095257463,5.999999045500919,3.1415917844048447,0.0,16.000030716588554,6.00000055200893,3.1412645617890145,0.0
1759837108.2214928,0,-1.8310546465727384e-06,5.999996185302734,3.1415716933488174,0.0,8.000000952744028,5.999999045627966,3.1415917848567103,0.0,16.00003126034413,6.000000755835631,3.1413112268302426,0.0
1759837108.2323499,0,-1.8310546465727384e-06,5.999996185302734,3.141572420897919,0.0,8.00000095288531,5.9999990457339285,3.1415917852335817,0.0,16.000031715654988,6.000000926508842,3.1413503015558013,0.0
1759837108.2434742,0,-1.8310546465727384e-06,5.999996185302734,3.141573019369334,0.0,8.000000953003381,5.999999045822482,3.141591785548535,0.0,16.000032097659616,6.000001069703224,3.1413830851493394,0.0
1759837108.2543654,0,-1.8310546465727384e-06,5.999996185302734,3.141573699810472,0.0,8.00000095310232,5.999999045896687,3.141591785812459,0.0,16.000032419027246,6.0000011901678345,3.14141066488244,0.0
1759837108.2650058,0,-1.8310546465727384e-06,5.999996185302734,3.141574441441989,0.0,8.000000953185454,5.999999045959037,3.141591786034216,0.0,16.00003271104977,6.0000012996324354,3.141435726221856,0.0
1759837108.2763987,0,-1.8310546465727384e-06,5.999996185302734,3.141574856267292,0.0,8.000000953255391,5.99999904601149,3.1415917862207716,0.0,16.000032954806294,6.0000013910045356,3.141456645379064,0.0
1759837108.2879088,0,-1.8310546465727384e-06,5.999996185302734,3.1415752576928373,0.0,8.000000953318903,5.999999046059124,3.1415917863901917,0.0,16.000033158742266,6.000001467449906,3.1414741471408454,0.0
1759837108.2986042,0,-1.8310546465727384e-06,5.999996185302734,3.1415759722199326,0.0,8.000000953372027,5.999999046098967,3.1415917865318983,0.0,16.000033329974976,6.000001531636463,3.1414888423123384,0.0
1759837108.3089411,0,-1.8310546465727384e-06,5.999996185302734,3.141576748216968,0.0,8.000000953416585,5.999999046132386,3.1415917866507574,0.0,16.000033474150626,6.000001585680685,3.14150121545012,0.0
1759837108.31942,0,-1.8310546465727384e-06,5.999996185302734,3.141577382355191,0.0,8.000000953454034,5.999999046160473,3.1415917867506553,0.0,16.000033595788913,6.00000163127678,3.1415116544339634,0.0
1759837108.330455,0,-1.8310546465727384e-06,5.999996185302734,3.1415777808515486,0.0,8.000000953485557,5.999999046184114,3.1415917868347405,0.0,16.00003369855968,6.000001669800388,3.1415204742093703,0.0
1759837108.341112,0,-1.8310546465727384e-06,5.999996185302734,3.141578288371065,0.0,8.000000953512165,5.999999046204071,3.14159178690572,0.0,16.00003379276042,6.000001705111522,3.141528558506012,0.0
1759837108.3524804,0,-1.8310546465727384e-06,5.999996185302734,3.141578575321457,0.0,8.000000953534654,5.999999046220937,3.141591786965711,0.0,16.000033871731684,6.00000173471389,3.1415353358110463,0.0
1759837108.3631232,0,-1.8310546465727384e-06,5.999996185302734,3.1415790894921667,0.0,8.000000953555281,5.999999046236408,3.141591787020736,0.0,16.000033938163273,6.0000017596157615,3.141541036962506,0.0
1759837108.3732798,0,-1.8310546465727384e-06,5.999996185302734,3.1415797038065225,0.0,8.00000095357262,5.999999046249413,3.141591787066989,0.0,16.0000339942118,6.000001780625545,3.1415458470407867,0.0
1759837108.3836718,0,-1.8310546465727384e-06,5.999996185302734,3.141580183582043,0.0,8.000000953587223,5.999999046260364,3.1415917871059404,0.0,16.000034041586776,6.000001798384048,3.1415499127558686,0.0
1759837108.3981366,0,-1.8310546465727384e-06,5.999996185302734,3.141579632434553,0.0,8.000000953599477,5.999999046269554,3.1415917871386267,0.0,16.000034081481846,6.000001813338709,3.141553336546172,0.0
1759837108.4093344,0,-1.8310546465727384e-06,5.999996185302734,3.1415801161036825,0.0,8.000000953609838,5.999999046277326,3.1415917871662673,0.0,16.000034118003555,6.000001827028866,3.1415564708348467,0.0
1759837108.4199584,0,-1.8310546465727384e-06,5.999996185302734,3.1415807546919954,0.0,8.00000095361863,5.999999046283919,3.1415917871897157,0.0,16.00003414875152,6.000001838554737,3.1415591096217805,0.0
1759837108.4310718,0,-1.8310546465727384e-06,5.999996185302734,3.141581205009219,0.0,8.000000953626097,5.99999904628952,3.141591787209637,0.0,16.000034174679246,6.00000184827374,3.1415613347360867,0.0
1759837108.4421592,0,-1.8310546465727384e-06,5.999996185302734,3.1415816171503543,0.0,8.000000953632998,5.999999046294695,3.1415917872280423,0.0,16.00003419659451,6.000001856488674,3.1415632155014412,0.0
1759837108.4529774,0,-1.8310546465727384e-06,5.999996185302734,3.141582055145788,0.0,8.000000953638821,5.999999046299062,3.1415917872435752,0.0,16.000034215168675,6.000001863451198,3.141564809534466,0.0
1759837108.4637194,0,-1.8310546465727384e-06,5.999996185302734,3.1415824682677247,0.0,8.000000953643747,5.999999046302757,3.1415917872567154,0.0,16.000034230948526,6.0000018693662724,3.1415661637592613,0.0
1759837108.4744775,0,-1.8310546465727384e-06,5.999996185302734,3.1415828386046325,0.0,8.000000953647923,5.99999904630589,3.141591787267857,0.0,16.00003424438406,6.000001874402581,3.141567316795222,0.0
1759837108.4854312,0,-1.8310546465727384e-06,5.999996185302734,3.1415831424089227,0.0,8.000000953651472,5.9999990463085515,3.141591787277322,0.0,16.000034256791306,6.000001879053435,3.141568381583492,0.0
1759837108.4968164,0,-1.8310546465727384e-06,5.999996185302734,3.1415833576405525,0.0,8.000000953654492,5.9999990463108155,3.1415917872853756,0.0,16.00003426727519,6.000001882983318,3.1415692813093954,0.0
1759837108.507604,0,-1.8310546465727384e-06,5.999996185302734,3.1415836881359827,0.0,8.00000095365707,5.999999046312748,3.1415917872922505,0.0,16.000034276162744,6.000001886314816,3.141570044038356,0.0
1759837108.5183895,0,-1.8310546465727384e-06,5.999996185302734,3.14158400124904,0.0,8.000000953659466,5.999999046314545,3.141591787298643,0.0,16.000034283714054,6.000001889145422,3.141570692090707,0.0
1759837108.5286465,0,-1.8310546465727384e-06,5.999996185302734,3.1415843747829832,0.0,8.000000953661498,5.99999904631607,3.141591787304066,0.0,16.000034290149532,6.00000189155776,3.1415712443827375,0.0
1759837108.539322,0,-1.8310546465727384e-06,5.999996185302734,3.1415846397358234,0.0,8.000000953663227,5.999999046317365,3.1415917873086734,0.0,16.000034295642223,6.000001893616694,3.141571715764708,0.0
1759837108.549643,0,-1.8310546465727384e-06,5.999996185302734,3.1415849365199016,0.0,8.000000953664697,5.999999046318469,3.141591787312599,0.0,16.000034300343113,6.000001895378823,3.1415721191946857,0.0
1759837108.5608106,0,-1.8310546465727384e-06,5.999996185302734,3.1415850845662803,0.0,8.000000953665953,5.9999990463194095,3.1415917873159467,0.0,16.000034304715854,6.000001897017944,3.1415724944626677,0.0
1759837108.5716681,0,-1.8310546465727384e-06,5.999996185302734,3.141585287596362,0.0,8.000000953667026,5.999999046320214,3.141591787318809,0.0,16.000034308429953,6.000001898410173,3.141572813206263,0.0
1759837108.5828996,0,-1.8310546465727384e-06,5.999996185302734,3.1415854438245496,0.0,8.000000953668025,5.999999046320963,3.1415917873214716,0.0,16.00003431158995,6.000001899594698,3.141573084397109,0.0
1759837108.5944126,0,-1.8310546465727384e-06,5.999996185302734,3.1415855768328544,0.0,8.000000953668872,5.999999046321599,3.1415917873237316,0.0,16.000034314283553,6.000001900604396,3.1415733155620917,0.0
1759837108.6052651,0,-1.8310546465727384e-06,5.999996185302734,3.141585813843541,0.0,8.000000953669593,5.99999904632214,3.141591787325656,0.0,16.000034316587353,6.000001901467975,3.1415735132739484,0.0
1759837108.6160254,0,-1.8310546465727384e-06,5.999996185302734,3.1415860526848753,0.0,8.00000095367021,5.999999046322602,3.141591787327298,0.0,16.0000343185624,6.00000190220832,3.141573682771979,0.0
1759837108.6273258,0,-1.8310546465727384e-06,5.999996185302734,3.1415862106415045,0.0,8.000000953670735,5.999999046322996,3.1415917873287014,0.0,16.0000343202578,6.000001902843842,3.1415738282713166,0.0
1759837108.638689,0,-1.8310546465727384e-06,5.999996185302734,3.1415863650651144,0.0,8.000000953671186,5.999999046323334,3.1415917873299035,0.0,16.00003432185159,6.000001903441273,3.141573965050043,0.0
1759837108.6494415,0,-1.8310546465727384e-06,5.999996185302734,3.141586592918383,0.0,8.000000953671574,5.999999046323625,3.141591787330936,0.0,16.000034323211594,6.00000190395107,3.1415740817652322,0.0
1759837108.6608782,0,-1.8310546465727384e-06,5.999996185302734,3.1415867335809526,0.0,8.000000953671936,5.9999990463238975,3.141591787331906,0.0,16.000034324373424,6.000001904386582,3.141574181473275,0.0
1759837108.6716619,0,-1.8310546465727384e-06,5.999996185302734,3.141586943513481,0.0,8.000000953672247,5.99999904632413,3.1415917873327337,0.0,16.000034325369285,6.00000190475988,3.14157426693781,0.0
1759837108.6819215,0,-1.8310546465727384e-06,5.999996185302734,3.141587190092533,0.0,8.000000953672513,5.999999046324329,3.1415917873334425,0.0,16.00003432622547,6.00000190508082,3.1415743404153877,0.0
1759837108.6926622,0,-1.8310546465727384e-06,5.999996185302734,3.141587359384527,0.0,8.000000953672743,5.9999990463245005,3.1415917873340495,0.0,16.000034326962513,6.0000019053571005,3.1415744036682653,0.0
1759837108.7029963,0,-1.8310546465727384e-06,5.999996185302734,3.1415875512268556,0.0,8.000000953672938,5.999999046324647,3.1415917873345713,0.0,16.000034327659886,6.000001905618511,3.1415744635167315,0.0
1759837108.7142372,0,-1.8310546465727384e-06,5.999996185302734,3.141587644104993,0.0,8.000000953673107,5.999999046324773,3.1415917873350203,0.0,16.000034328255346,6.000001905841718,3.141574514618927,0.0
1759837108.7266204,0,-1.8310546465727384e-06,5.999996185302734,3.1415876479362588,0.0,8.000000953673265,5.999999046324892,3.1415917873354418,0.0,16.000034328764027,6.000001906032398,3.1415745582738532,0.0
1759837108.737384,0,-1.8310546465727384e-06,5.999996185302734,3.1415878242154047,0.0,8.0000009536734,5.9999990463249935,3.1415917873358024,0.0,16.00003432920078,6.000001906196116,3.141574595756148,0.0
1759837108.7481997,0,-1.8310546465727384e-06,5.999996185302734,3.1415879899955126,0.0,8.000000953673515,5.9999990463250805,3.1415917873361114,0.0,16.00003432957656,6.000001906336976,3.1415746280055057,0.0
1759837108.7595901,0,-1.8310546465727384e-06,5.999996185302734,3.141588097284364,0.0,8.000000953673615,5.999999046325155,3.1415917873363766,0.0,16.000034329900263,6.000001906458316,3.141574655785708,0.0
1759837108.7702942,0,-1.8310546465727384e-06,5.999996185302734,3.141588256310394,0.0,8.0000009536737,5.99999904632522,3.141591787336605,0.0,16.000034330204542,6.000001906572375,3.141574681898776,0.0
1759837108.7811728,0,-1.8310546465727384e-06,5.999996185302734,3.1415883906161852,0.0,8.000000953673775,5.999999046325275,3.141591787336802,0.0,16.000034330465333,6.000001906670132,3.1415747042798343,0.0
1759837108.7920887,0,-1.8310546465727384e-06,5.999996185302734,3.141588512553625,0.0,8.000000953673839,5.999999046325323,3.1415917873369725,0.0,16.00003433068933,6.000001906754097,3.141574723503217,0.0
1759837108.8027222,0,-1.8310546465727384e-06,5.999996185302734,3.1415886467428056,0.0,8.000000953673899,5.999999046325369,3.1415917873371346,0.0,16.000034330882237,6.000001906826407,3.141574740058212,0.0
1759837108.8134356,0,-1.8310546465727384e-06,5.999996185302734,3.141588764807768,0.0,8.000000953673952,5.999999046325408,3.141591787337274,0.0,16.000034331048692,6.000001906888803,3.1415747543435386,0.0
1759837108.8245468,0,-1.8310546465727384e-06,5.999996185302734,3.141588849728045,0.0,8.000000953673997,5.999999046325442,3.1415917873373935,0.0,16.000034331192534,6.000001906942723,3.141574766688083,0.0
1759837108.835337,0,-1.8310546465727384e-06,5.999996185302734,3.1415889548375393,0.0,8.000000953674036,5.99999904632547,3.1415917873374966,0.0,16.000034331328624,6.000001906993736,3.1415747783673322,0.0
1759837108.8465838,0,-1.8310546465727384e-06,5.999996185302734,3.141589029569486,0.0,8.00000095367407,5.999999046325495,3.141591787337586,0.0,16.00003433144548,6.00000190703754,3.141574788396008,0.0
1759837108.857252,0,-1.8310546465727384e-06,5.999996185302734,3.1415891394901294,0.0,8.000000953674098,5.999999046325517,3.141591787337663,0.0,16.000034331546143,6.000001907075274,3.141574797034911,0.0
1759837108.8676634,0,-1.8310546465727384e-06,5.999996185302734,3.141589256440696,0.0,8.000000953674123,5.999999046325535,3.1415917873377306,0.0,16.000034331633078,6.000001907107862,3.1415748044956517,0.0
1759837108.878379,0,-1.8310546465727384e-06,5.999996185302734,3.1415893452304093,0.0,8.000000953674146,5.999999046325554,3.141591787337795,0.0,16.000034331708274,6.000001907136048,3.141574810948851,0.0
1759837108.889236,0,-1.8310546465727384e-06,5.999996185302734,3.141589421125694,0.0,8.000000953674167,5.99999904632557,3.14159178733785,0.0,16.000034331773435,6.000001907160474,3.141574816540906,0.0
1759837108.8999193,0,-1.8310546465727384e-06,5.999996185302734,3.1415895041248447,0.0,8.000000953674183,5.999999046325583,3.141591787337898,0.0,16.000034331830037,6.000001907181691,3.1415748213984083,0.0
1759837108.910788,0,-1.8310546465727384e-06,5.999996185302734,3.141589574829341,0.0,8.0000009536742,5.999999046325595,3.1415917873379393,0.0,16.000034331884333,6.0000019072020425,3.141574826057951,0.0
1759837108.9220636,0,-1.8310546465727384e-06,5.999996185302734,3.141589625955543,0.0,8.000000953674213,5.9999990463256045,3.1415917873379753,0.0,16.000034331931126,6.000001907219583,3.1415748300737576,0.0
1759837108.9336174,0,-1.8310546465727384e-06,5.999996185302734,3.1415896699400605,0.0,8.000000953674226,5.999999046325613,3.1415917873380064,0.0,16.000034331971523,6.000001907234727,3.1415748335407763,0.0
1759837108.945009,0,-1.8310546465727384e-06,5.999996185302734,3.141589728990791,0.0,8.000000953674236,5.999999046325622,3.141591787338036,0.0,16.00003433200649,6.000001907247833,3.141574836541541,0.0
1759837108.956213,0,-1.8310546465727384e-06,5.999996185302734,3.1415897995749305,0.0,8.000000953674247,5.999999046325629,3.1415917873380623,0.0,16.00003433203683,6.000001907259207,3.1415748391453033,0.0
1759837108.967442,0,-1.8310546465727384e-06,5.999996185302734,3.1415898682193344,0.0,8.000000953674256,5.999999046325636,3.141591787338085,0.0,16.00003433206321,6.0000019072690955,3.1415748414093123,0.0
1759837108.977776,0,-1.8310546465727384e-06,5.999996185302734,3.1415899688882813,0.0,8.000000953674261,5.999999046325641,3.1415917873381045,0.0,16.000034332086546,6.000001907277845,3.1415748434123936,0.0
1759837108.9881582,0,-1.8310546465727384e-06,5.999996185302734,3.1415900553135803,0.0,8.000000953674267,5.999999046325646,3.1415917873381214,0.0,16.000034332107322,6.000001907285632,3.141574845195136,0.0
1759837108.9988792,0,-1.8310546465727384e-06,5.999996185302734,3.1415901182329513,0.0,8.000000953674272,5.99999904632565,3.1415917873381365,0.0,16.00003433212581,6.000001907292561,3.1415748467817766,0.0
1759837109.0097482,0,-1.8310546465727384e-06,5.999996185302734,3.1415901712156877,0.0,8.000000953674277,5.999999046325653,3.14159178733815,0.0,16.000034332142263,6.000001907298729,3.1415748481938865,0.0
1759837109.020455,0,-1.8310546465727384e-06,5.999996185302734,3.141590228274943,0.0,8.00000095367428,5.999999046325657,3.1415917873381622,0.0,16.000034332142263,6.000001907298729,3.1415748481938865,0.0
1759837109.0313582,0,-1.8310546465727384e-06,5.999996185302734,3.1415902764768546,0.0,8.000000953674284,5.99999904632566,3.141591787338173,0.0,16.000034332142263,6.000001907298729,3.1415748481938865,0.0
1759837109.042521,0,-1.8310546465727384e-06,5.999996185302734,3.1415903159531933,0.0,8.000000953674288,5.999999046325662,3.1415917873381822,0.0,16.000034332142263,6.000001907298729,3.1415748481938865,0.0
1759837109.0536075,0,-1.8310546465727384e-06,5.999996185302734,3.1415903597430717,0.0,8.000000953674292,5.999999046325664,3.1415917873381907,0.0,16.000034332142263,6.000001907298729,3.1415748481938865,0.0
1759837109.063613,0,-1.8310546465727384e-06,5.999996185302734,3.141590435634436,0.0,8.000000953674293,5.999999046325666,3.1415917873381978,0.0,16.000034332157508,6.000001907304443,3.1415748495021427,0.0
1759837109.0749862,0,-1.8310546465727384e-06,5.999996185302734,3.1415904637013448,0.0,8.000000953674295,5.999999046325668,3.141591787338204,0.0,16.00003433217074,6.000001907309403,3.141574850637583,0.0
1759837109.0857537,0,-1.8310546465727384e-06,5.999996185302734,3.141590510215572,0.0,8.000000953674297,5.999999046325669,3.14159178733821,0.0,16.00003433218226,6.000001907313721,3.1415748516262503,0.0
1759837109.096445,0,-1.8310546465727384e-06,5.999996185302734,3.1415905576605176,0.0,8.000000953674299,5.999999046325671,3.1415917873382155,0.0,16.000034332192502,6.000001907317562,3.1415748525054683,0.0
1759837109.106766,0,-1.8310546465727384e-06,5.999996185302734,3.1415906115701553,0.0,8.0000009536743,5.999999046325672,3.14159178733822,0.0,16.00003433220162,6.000001907320979,3.1415748532879726,0.0
1759837109.1176069,0,-1.8310546465727384e-06,5.999996185302734,3.1415906472786475,0.0,8.000000953674302,5.999999046325673,3.141591787338224,0.0,16.000034332209736,6.000001907324021,3.141574853984401,0.0
1759837109.1321008,0,-1.8310546465727384e-06,5.999996185302734,3.141590596699924,0.0,8.000000953674304,5.999999046325674,3.1415917873382275,0.0,16.00003433221696,6.000001907326729,3.1415748546042224,0.0
1759837109.1434815,0,-1.8310546465727384e-06,5.999996185302734,3.141590643300674,0.0,8.000000953674306,5.999999046325675,3.141591787338231,0.0,16.00003433221696,6.000001907326729,3.1415748546042224,0.0
1759837109.1543298,0,-1.8310546465727384e-06,5.999996185302734,3.1415907043287987,0.0,8.000000953674306,5.999999046325675,3.141591787338231,0.0,16.00003433221696,6.000001907326729,3.1415748546042224,0.0
1759837109.1649854,0,-1.8310546465727384e-06,5.999996185302734,3.1415907619524184,0.0,8.000000953674306,5.999999046325675,3.141591787338231,0.0,16.00003433221696,6.000001907326729,3.1415748546042224,0.0
1759837109.1757698,0,-1.8310546465727384e-06,5.999996185302734,3.141590808827022,0.0,8.000000953674306,5.999999046325675,3.141591787338231,0.0,16.00003433221696,6.000001907326729,3.1415748546042224,0.0
1759837109.1865394,0,-1.8310546465727384e-06,5.999996185302734,3.141590850371731,0.0,8.000000953674306,5.999999046325675,3.141591787338231,0.0,16.00003433221696,6.000001907326729,3.1415748546042224,0.0
1759837109.1967487,0,-1.8310546465727384e-06,5.999996185302734,3.1415908983430505,0.0,8.000000953674306,5.999999046325675,3.141591787338231,0.0,16.00003433221696,6.000001907326729,3.1415748546042224,0.0
1759837109.2075374,0,-1.8310546465727384e-06,5.999996185302734,3.1415909293588093,0.0,8.000000953674306,5.999999046325675,3.141591787338231,0.0,16.000034332223386,6.000001907329138,3.1415748551558633,0.0
1759837109.2180197,0,-1.8310546465727384e-06,5.999996185302734,3.1415909634408887,0.0,8.000000953674306,5.999999046325675,3.141591787338231,0.0,16.000034332229106,6.000001907331282,3.141574855646824,0.0
1759837109.2286997,0,-1.8310546465727384e-06,5.999996185302734,3.141590991428844,0.0,8.000000953674308,5.999999046325676,3.141591787338234,0.0,16.000034332234197,6.000001907333191,3.141574856083779,0.0
1759837109.2398973,0,-1.8310546465727384e-06,5.999996185302734,3.1415910094073567,0.0,8.00000095367431,5.9999990463256765,3.141591787338237,0.0,16.00003433223873,6.00000190733489,3.1415748564726687,0.0
1759837109.2502384,0,-1.8310546465727384e-06,5.999996185302734,3.141591042652866,0.0,8.00000095367431,5.999999046325677,3.141591787338239,0.0,16.00003433223873,6.00000190733489,3.1415748564726687,0.0
1759837109.2604177,0,-1.8310546465727384e-06,5.999996185302734,3.1415910758176793,0.0,8.00000095367431,5.999999046325677,3.141591787338239,0.0,16.00003433223873,6.00000190733489,3.1415748564726687,0.0
1759837109.2712452,0,-1.8310546465727384e-06,5.999996185302734,3.1415910954297175,0.0,8.00000095367431,5.999999046325677,3.141591787338239,0.0,16.00003433223873,6.00000190733489,3.1415748564726687,0.0
1759837109.281907,0,-1.8310546465727384e-06,5.999996185302734,3.141591117225424,0.0,8.00000095367431,5.999999046325677,3.141591787338239,0.0,16.00003433223873,6.00000190733489,3.1415748564726687,0.0
1759837109.2926264,0,-1.8310546465727384e-06,5.999996185302734,3.141591137924058,0.0,8.00000095367431,5.999999046325677,3.141591787338239,0.0,16.00003433223873,6.00000190733489,3.1415748564726687,0.0
1759837109.3033218,0,-1.8310546465727384e-06,5.999996185302734,3.1415911586563965,0.0,8.00000095367431,5.999999046325677,3.141591787338239,0.0,16.00003433223873,6.00000190733489,3.1415748564726687,0.0
1759837109.328448,0,-1.8310546465727384e-06,5.999996185302734,3.1415909981815098,0.0,8.00000095367431,5.999999046325677,3.141591787338239,0.0,16.00003433223873,6.00000190733489,3.1415748564726687,0.0
1759837109.338059,0,-1.8310546465727384e-06,5.999996185302734,3.1415910844479242,0.0,8.00000095367431,5.999999046325677,3.141591787338239,0.0,16.00003433223873,6.00000190733489,3.1415748564726687,0.0
1759837109.3482065,0,-1.8310546465727384e-06,5.999996185302734,3.141591156736215,0.0,8.00000095367431,5.999999046325677,3.141591787338239,0.0,16.00003433223873,6.00000190733489,3.1415748564726687,0.0
1759837109.3584902,0,-1.8310546465727384e-06,5.999996185302734,3.1415912098848207,0.0,8.00000095367431,5.999999046325677,3.141591787338239,0.0,16.00003433223873,6.00000190733489,3.1415748564726687,0.0
1759837109.36879,0,-1.8310546465727384e-06,5.999996185302734,3.141591250616006,0.0,8.00000095367431,5.999999046325678,3.141591787338241,0.0,16.00003433223873,6.00000190733489,3.1415748564726687,0.0
1759837109.380062,0,-1.8310546465727384e-06,5.999996185302734,3.1415912729343773,0.0,8.00000095367431,5.999999046325678,3.141591787338241,0.0,16.00003433223873,6.00000190733489,3.1415748564726687,0.0
1759837109.3908756,0,-1.8310546465727384e-06,5.999996185302734,3.141591297049798,0.0,8.00000095367431,5.999999046325678,3.141591787338241,0.0,16.00003433223873,6.00000190733489,3.1415748564726687,0.0
1759837109.4016144,0,-1.8310546465727384e-06,5.999996185302734,3.14159131922265,0.0,8.00000095367431,5.999999046325678,3.141591787338241,0.0,16.00003433223873,6.00000190733489,3.1415748564726687,0.0
1759837109.4117138,0,-1.8310546465727384e-06,5.999996185302734,3.1415913448409647,0.0,8.00000095367431,5.999999046325678,3.141591787338241,0.0,16.00003433223873,6.00000190733489,3.1415748564726687,0.0
1759837109.4219525,0,-1.8310546465727384e-06,5.999996185302734,3.1415913654037233,0.0,8.00000095367431,5.999999046325678,3.141591787338241,0.0,16.00003433223873,6.00000190733489,3.1415748564726687,0.0
1759837109.4332485,0,-1.8310546465727384e-06,5.999996185302734,3.1415913738026724,0.0,8.00000095367431,5.999999046325678,3.141591787338241,0.0,16.00003433223873,6.00000190733489,3.1415748564726687,0.0
1759837109.4444976,0,-1.8310546465727384e-06,5.999996185302734,3.141591383393642,0.0,8.00000095367431,5.999999046325678,3.141591787338241,0.0,16.00003433223873,6.00000190733489,3.1415748564726687,0.0
1759837109.4552991,0,-1.8310546465727384e-06,5.999996185302734,3.1415913977421397,0.0,8.00000095367431,5.999999046325678,3.141591787338241,0.0,16.00003433223873,6.00000190733489,3.1415748564726687,0.0
1759837109.4666328,0,-1.8310546465727384e-06,5.999996185302734,3.1415914074214797,0.0,8.00000095367431,5.999999046325678,3.141591787338241,0.0,16.00003433223873,6.00000190733489,3.1415748564726687,0.0
1759837109.4777336,0,-1.8310546465727384e-06,5.999996185302734,3.141591419438498,0.0,8.00000095367431,5.999999046325678,3.141591787338241,0.0,16.00003433223873,6.00000190733489,3.1415748564726687,0.0
1759837109.4890308,0,-1.8310546465727384e-06,5.999996185302734,3.141591430051557,0.0,8.00000095367431,5.999999046325678,3.141591787338241,0.0,16.00003433223873,6.00000190733489,3.1415748564726687,0.0
1759837109.5002613,0,-1.8310546465727384e-06,5.999996185302734,3.141591441377967,0.0,8.00000095367431,5.999999046325678,3.141591787338241,0.0,16.00003433223873,6.00000190733489,3.1415748564726687,0.0
1759837109.5114112,0,-1.8310546465727384e-06,5.999996185302734,3.1415914532636915,0.0,8.00000095367431,5.999999046325678,3.141591787338241,0.0,16.00003433223873,6.00000190733489,3.1415748564726687,0.0
1759837109.5226495,0,-1.8310546465727384e-06,5.999996185302734,3.1415914642475986,0.0,8.00000095367431,5.999999046325678,3.141591787338241,0.0,16.00003433223873,6.00000190733489,3.1415748564726687,0.0
1759837109.5365784,0,-1.8310546465727384e-06,5.999996185302734,3.1415914580198177,0.0,8.00000095367431,5.999999046325678,3.141591787338241,0.0,16.00003433223873,6.00000190733489,3.1415748564726687,0.0
1759837109.5480332,0,-1.8310546465727384e-06,5.999996185302734,3.1415914721469136,0.0,8.00000095367431,5.999999046325678,3.141591787338241,0.0,16.00003433223873,6.00000190733489,3.1415748564726687,0.0
1759837109.5594435,0,-1.8310546465727384e-06,5.999996185302734,3.1415914865861687,0.0,8.00000095367431,5.999999046325678,3.141591787338241,0.0,16.00003433223873,6.00000190733489,3.1415748564726687,0.0
1759837109.5703123,0,-1.8310546465727384e-06,5.999996185302734,3.141591502733437,0.0,8.00000095367431,5.999999046325678,3.141591787338241,0.0,16.00003433223873,6.00000190733489,3.1415748564726687,0.0
1759837109.5815582,0,-1.8310546465727384e-06,5.999996185302734,3.1415915146978914,0.0,8.00000095367431,5.999999046325678,3.141591787338241,0.0,16.00003433223873,6.00000190733489,3.1415748564726687,0.0
1759837109.5927258,0,-1.8310546465727384e-06,5.999996185302734,3.1415915258883516,0.0,8.00000095367431,5.999999046325678,3.141591787338241,0.0,16.00003433223873,6.00000190733489,3.1415748564726687,0.0
1759837109.60402,0,-1.8310546465727384e-06,5.999996185302734,3.1415915355415134,0.0,8.00000095367431,5.999999046325678,3.141591787338241,0.0,16.00003433223873,6.00000190733489,3.1415748564726687,0.0
1759837109.6153781,0,-1.8310546465727384e-06,5.999996185302734,3.1415915443554887,0.0,8.00000095367431,5.999999046325678,3.141591787338241,0.0,16.00003433223873,6.00000190733489,3.1415748564726687,0.0
1759837109.6266484,0,-1.8310546465727384e-06,5.999996185302734,3.141591553280259,0.0,8.00000095367431,5.999999046325678,3.141591787338241,0.0,16.00003433223873,6.00000190733489,3.1415748564726687,0.0
1759837109.6378706,0,-1.8310546465727384e-06,5.999996185302734,3.1415915620278643,0.0,8.00000095367431,5.999999046325678,3.141591787338241,0.0,16.00003433223873,6.00000190733489,3.1415748564726687,0.0
1759837109.6486263,0,-1.8310546465727384e-06,5.999996185302734,3.141591572366867,0.0,8.00000095367431,5.999999046325678,3.141591787338241,0.0,16.00003433223873,6.00000190733489,3.1415748564726687,0.0
1759837109.6598387,0,-1.8310546465727384e-06,5.999996185302734,3.1415915797066596,0.0,8.00000095367431,5.999999046325678,3.141591787338241,0.0,16.00003433223873,6.00000190733489,3.1415748564726687,0.0
1759837109.671063,0,-1.8310546465727384e-06,5.999996185302734,3.1415915866281416,0.0,8.00000095367431,5.999999046325678,3.141591787338241,0.0,16.00003433223873,6.00000190733489,3.1415748564726687,0.0
1759837109.6823115,0,-1.8310546465727384e-06,5.999996185302734,3.1415915932933665,0.0,8.00000095367431,5.999999046325678,3.141591787338241,0.0,16.00003433223873,6.00000190733489,3.1415748564726687,0.0
1759837109.6934175,0,-1.8310546465727384e-06,5.999996185302734,3.141591600371699,0.0,8.00000095367431,5.999999046325678,3.141591787338241,0.0,16.00003433223873,6.00000190733489,3.1415748564726687,0.0
1759837109.7048466,0,-1.8310546465727384e-06,5.999996185302734,3.141591605940498,0.0,8.00000095367431,5.999999046325678,3.141591787338241,0.0,16.00003433223873,6.00000190733489,3.1415748564726687,0.0
1759837109.7159777,0,-1.8310546465727384e-06,5.999996185302734,3.1415916126155565,0.0,8.00000095367431,5.999999046325678,3.141591787338241,0.0,16.00003433223873,6.00000190733489,3.1415748564726687,0.0
1759837109.7270036,0,-1.8310546465727384e-06,5.999996185302734,3.141591619382927,0.0,8.00000095367431,5.999999046325678,3.141591787338241,0.0,16.00003433223873,6.00000190733489,3.1415748564726687,0.0
1759837109.737422,0,-1.8310546465727384e-06,5.999996185302734,3.1415916277287845,0.0,8.00000095367431,5.999999046325678,3.141591787338241,0.0,16.00003433223873,6.00000190733489,3.1415748564726687,0.0
1759837109.748641,0,-1.8310546465727384e-06,5.999996185302734,3.141591632475963,0.0,8.00000095367431,5.999999046325678,3.141591787338241,0.0,16.00003433223873,6.00000190733489,3.1415748564726687,0.0
1759837109.7597294,0,-1.8310546465727384e-06,5.999996185302734,3.1415916374975144,0.0,8.00000095367431,5.999999046325678,3.141591787338241,0.0,16.00003433223873,6.00000190733489,3.1415748564726687,0.0
1759837109.7712731,0,-1.8310546465727384e-06,5.999996185302734,3.141591641092223,0.0,8.00000095367431,5.999999046325678,3.141591787338241,0.0,16.00003433223873,6.00000190733489,3.1415748564726687,0.0
1759837109.7813523,0,-1.8310546465727384e-06,5.999996185302734,3.1415916492404747,0.0,8.00000095367431,5.999999046325678,3.141591787338241,0.0,16.00003433223873,6.00000190733489,3.1415748564726687,0.0
1759837109.792172,0,-1.8310546465727384e-06,5.999996185302734,3.141591654278475,0.0,8.00000095367431,5.999999046325678,3.141591787338241,0.0,16.00003433223873,6.00000190733489,3.1415748564726687,0.0
1759837109.8033772,0,-1.8310546465727384e-06,5.999996185302734,3.141591657807899,0.0,8.00000095367431,5.999999046325678,3.141591787338241,0.0,16.00003433223873,6.00000190733489,3.1415748564726687,0.0
1759837109.81458,0,-1.8310546465727384e-06,5.999996185302734,3.141591661453056,0.0,8.00000095367431,5.999999046325678,3.141591787338241,0.0,16.00003433223873,6.00000190733489,3.1415748564726687,0.0
1759837109.8252008,0,-1.8310546465727384e-06,5.999996185302734,3.141591666701597,0.0,8.00000095367431,5.999999046325678,3.141591787338241,0.0,16.00003433223873,6.00000190733489,3.1415748564726687,0.0
1759837109.8360093,0,-1.8310546465727384e-06,5.999996185302734,3.1415916710932965,0.0,8.00000095367431,5.999999046325678,3.141591787338241,0.0,16.00003433223873,6.00000190733489,3.1415748564726687,0.0
1759837109.8465922,0,-1.8310546465727384e-06,5.999996185302734,3.1415916757242446,0.0,8.00000095367431,5.999999046325678,3.141591787338241,0.0,16.00003433223873,6.00000190733489,3.1415748564726687,0.0
1759837109.8582544,0,-1.8310546465727384e-06,5.999996185302734,3.141591677513519,0.0,8.00000095367431,5.999999046325678,3.141591787338241,0.0,16.00003433223873,6.00000190733489,3.1415748564726687,0.0
1759837109.8695662,0,-1.8310546465727384e-06,5.999996185302734,3.141591680507906,0.0,8.00000095367431,5.999999046325678,3.141591787338241,0.0,16.00003433223873,6.00000190733489,3.1415748564726687,0.0
1759837109.8808656,0,-1.8310546465727384e-06,5.999996185302734,3.1415916837547044,0.0,8.00000095367431,5.999999046325678,3.141591787338241,0.0,16.00003433223873,6.00000190733489,3.1415748564726687,0.0
1759837109.8920681,0,-1.8310546465727384e-06,5.999996185302734,3.141591687262368,0.0,8.00000095367431,5.999999046325678,3.141591787338241,0.0,16.00003433223873,6.00000190733489,3.1415748564726687,0.0
1759837109.9033778,0,-1.8310546465727384e-06,5.999996185302734,3.141591690496915,0.0,8.00000095367431,5.999999046325678,3.141591787338241,0.0,16.00003433223873,6.00000190733489,3.1415748564726687,0.0
1759837109.9146159,0,-1.8310546465727384e-06,5.999996185302734,3.141591693838709,0.0,8.00000095367431,5.999999046325678,3.141591787338241,0.0,16.00003433223873,6.00000190733489,3.1415748564726687,0.0
1759837109.9254622,0,-1.8310546465727384e-06,5.999996185302734,3.1415916978179474,0.0,8.00000095367431,5.999999046325678,3.141591787338241,0.0,16.00003433223873,6.00000190733489,3.1415748564726687,0.0
1759837109.9368112,0,-1.8310546465727384e-06,5.999996185302734,3.1415917005796565,0.0,8.00000095367431,5.999999046325678,3.141591787338241,0.0,16.00003433223873,6.00000190733489,3.1415748564726687,0.0
1759837109.9470053,0,-1.8310546465727384e-06,5.999996185302734,3.141591705282721,0.0,8.00000095367431,5.999999046325678,3.141591787338241,0.0,16.00003433223873,6.00000190733489,3.1415748564726687,0.0
1759837109.9582176,0,-1.8310546465727384e-06,5.999996185302734,3.1415917076931947,0.0,8.00000095367431,5.999999046325678,3.141591787338241,0.0,16.00003433223873,6.00000190733489,3.1415748564726687,0.0
1759837109.9689353,0,-1.8310546465727384e-06,5.999996185302734,3.1415917108178544,0.0,8.00000095367431,5.999999046325678,3.141591787338241,0.0,16.00003433223873,6.00000190733489,3.1415748564726687,0.0
1759837109.9796333,0,-1.8310546465727384e-06,5.999996185302734,3.1415917137749574,0.0,8.00000095367431,5.999999046325678,3.141591787338241,0.0,16.00003433223873,6.00000190733489,3.1415748564726687,0.0
1759837109.9906309,0,-1.8310546465727384e-06,5.999996185302734,3.1415917160569187,0.0,8.00000095367431,5.999999046325678,3.141591787338241,0.0,16.00003433223873,6.00000190733489,3.1415748564726687,0.0
1759837110.00176,0,-1.8310546465727384e-06,5.999996185302734,3.1415917181011785,0.0,8.00000095367431,5.999999046325678,3.141591787338241,0.0,16.00003433223873,6.00000190733489,3.1415748564726687,0.0
1759837110.0128005,0,-1.8310546465727384e-06,5.999996185302734,3.141591720310842,0.0,8.00000095367431,5.999999046325678,3.141591787338241,0.0,16.00003433223873,6.00000190733489,3.1415748564726687,0.0
1759837110.0239456,0,-1.8310546465727384e-06,5.999996185302734,3.1415917223661722,0.0,8.00000095367431,5.999999046325678,3.141591787338241,0.0,16.00003433223873,6.00000190733489,3.1415748564726687,0.0
1759837110.034713,0,-1.8310546465727384e-06,5.999996185302734,3.1415917249170757,0.0,8.00000095367431,5.999999046325678,3.141591787338241,0.0,16.00003433223873,6.00000190733489,3.1415748564726687,0.0
1759837110.045858,0,-1.8310546465727384e-06,5.999996185302734,3.1415917268315976,0.0,8.00000095367431,5.999999046325678,3.141591787338241,0.0,16.00003433223873,6.00000190733489,3.1415748564726687,0.0
1759837110.0563426,0,-1.8310546465727384e-06,5.999996185302734,3.1415917295240696,0.0,8.00000095367431,5.999999046325678,3.141591787338241,0.0,16.00003433223873,6.00000190733489,3.1415748564726687,0.0
1759837110.0665298,0,-1.8310546465727384e-06,5.999996185302734,3.1415917323179308,0.0,8.00000095367431,5.999999046325678,3.141591787338241,0.0,16.00003433223873,6.00000190733489,3.1415748564726687,0.0
1759837110.0778782,0,-1.8310546465727384e-06,5.999996185302734,3.141591733424969,0.0,8.00000095367431,5.999999046325678,3.141591787338241,0.0,16.00003433223873,6.00000190733489,3.1415748564726687,0.0
1759837110.089036,0,-1.8310546465727384e-06,5.999996185302734,3.141591734849209,0.0,8.00000095367431,5.999999046325678,3.141591787338241,0.0,16.00003433223873,6.00000190733489,3.1415748564726687,0.0
1759837110.0999901,0,-1.8310546465727384e-06,5.999996185302734,3.141591736590321,0.0,8.00000095367431,5.999999046325678,3.141591787338241,0.0,16.00003433223873,6.00000190733489,3.1415748564726687,0.0
1759837110.1107767,0,-1.8310546465727384e-06,5.999996185302734,3.1415917384796472,0.0,8.00000095367431,5.999999046325678,3.141591787338241,0.0,16.00003433223873,6.00000190733489,3.1415748564726687,0.0
1759837110.1208313,0,-1.8310546465727384e-06,5.999996185302734,3.1415917409901866,0.0,8.00000095367431,5.999999046325678,3.141591787338241,0.0,16.00003433223873,6.00000190733489,3.1415748564726687,0.0
1759837110.1381164,0,-1.8310546465727384e-06,5.999996185302734,3.141591736329554,0.0,8.00000095367431,5.999999046325678,3.141591787338241,0.0,16.00003433223873,6.00000190733489,3.1415748564726687,0.0
1759837110.142141,0,-1.8310546465727384e-06,5.999996185302734,3.141591745646206,0.0,8.00000095367431,5.999999046325678,3.141591787338241,0.0,16.00003433223873,6.00000190733489,3.1415748564726687,0.0
1759837110.153024,0,-1.8310546465727384e-06,5.999996185302734,3.1415917469092953,0.0,8.00000095367431,5.999999046325678,3.141591787338241,0.0,16.00003433223873,6.00000190733489,3.1415748564726687,0.0
1759837110.164243,0,-1.8310546465727384e-06,5.999996185302734,3.141591747417033,0.0,8.00000095367431,5.999999046325678,3.141591787338241,0.0,16.00003433223873,6.00000190733489,3.1415748564726687,0.0
1759837110.1750255,0,-1.8310546465727384e-06,5.999996185302734,3.141591748482213,0.0,8.00000095367431,5.999999046325678,3.141591787338241,0.0,16.00003433223873,6.00000190733489,3.1415748564726687,0.0
1759837110.1862006,0,-1.8310546465727384e-06,5.999996185302734,3.141591749300696,0.0,8.00000095367431,5.999999046325678,3.141591787338241,0.0,16.00003433223873,6.00000190733489,3.1415748564726687,0.0
1759837110.1973245,0,-1.8310546465727384e-06,5.999996185302734,3.1415917502706705,0.0,8.00000095367431,5.999999046325678,3.141591787338241,0.0,16.00003433223873,6.00000190733489,3.1415748564726687,0.0
