timestamp,observer_vehicle_id,vehicle_0_x,vehicle_0_y,vehicle_0_theta,vehicle_0_velocity,vehicle_1_x,vehicle_1_y,vehicle_1_theta,vehicle_1_velocity,vehicle_2_x,vehicle_2_y,vehicle_2_theta,vehicle_2_velocity
1759837106.3176813,1,0.0,0.0,0.0,0.0,8.0,6.0,-0.05483113549895436,0.0,0.0,0.0,0.0,0.0
1759837106.3278131,1,0.0,0.0,0.0,0.0,8.0,6.0,-0.05483113549895436,0.0,0.0,0.0,0.0,0.0
1759837106.3384802,1,0.0,0.0,0.0,0.0,8.0,6.0,-0.05483113549895436,0.0,0.0,0.0,0.0,0.0
1759837106.3489087,1,0.0,0.0,0.0,0.0,8.0,6.0,-0.05483113549895436,0.0,0.0,0.0,0.0,0.0
1759837106.36038,1,0.0,0.0,0.0,0.0,8.0,6.0,-0.05483113549895436,0.0,0.0,0.0,0.0,0.0
1759837106.371853,1,0.0,0.0,0.0,0.0,8.0,6.0,-0.05483113549895436,0.0,0.0,0.0,0.0,0.0
1759837106.3824341,1,0.0,0.0,0.0,0.0,8.0,6.0,-0.05483113549895436,0.0,0.0,0.0,0.0,0.0
1759837106.3935914,1,0.0,0.0,0.0,0.0,8.0,6.0,-0.05483113549895436,0.0,0.0,0.0,0.0,0.0
1759837106.4040582,1,0.0,0.0,0.0,0.0,8.0,6.0,-0.05483113549895436,0.0,0.0,0.0,0.0,0.0
1759837106.415284,1,0.0,0.0,0.0,0.0,8.0,6.0,-0.05483113549895436,0.0,0.0,0.0,0.0,0.0
1759837106.4256563,1,0.0,0.0,0.0,0.0,8.0,6.0,-0.05483113549895436,0.0,0.0,0.0,0.0,0.0
1759837106.4364784,1,0.0,0.0,0.0,0.0,8.0,6.0,-0.05483113549895436,0.0,0.0,0.0,0.0,0.0
1759837106.4470043,1,0.0,0.0,0.0,0.0,8.0,6.0,-0.05483113549895436,0.0,0.0,0.0,0.0,0.0
1759837106.4580526,1,0.0,0.0,0.0,0.0,8.0,6.0,-0.05483113549895436,0.0,0.0,0.0,0.0,0.0
1759837106.4687667,1,0.0,0.0,0.0,0.0,8.0,6.0,-0.05483113549895436,0.0,0.0,0.0,0.0,0.0
1759837106.478901,1,0.0,0.0,0.0,0.0,8.0,6.0,-0.05483113549895436,0.0,0.0,0.0,0.0,0.0
1759837106.4891987,1,0.0,0.0,0.0,0.0,8.0,6.0,-0.05483113549895436,0.0,0.0,0.0,0.0,0.0
1759837106.500016,1,0.0,0.0,0.0,0.0,8.0,6.0,-0.05483113549895436,0.0,0.0,0.0,0.0,0.0
1759837106.51083,1,0.0,0.0,0.0,0.0,8.000000945727031,5.99999905427297,-2.8798442743469135,0.0,0.0,0.0,0.0,0.0
1759837106.5220015,1,0.0,0.0,0.0,0.0,8.000000951017842,5.999999048982158,-3.1211967096588893,0.0,0.0,0.0,0.0,0.0
1759837106.5327544,1,0.0,0.0,0.0,0.0,8.00000095267779,5.999999047322208,3.1393631706408662,0.0,0.0,0.0,0.0,0.0
1759837106.5440152,1,0.0,0.0,0.0,0.0,8.000000953294668,5.999999046705331,3.1363514040618092,0.0,0.0,0.0,0.0,0.0
1759837106.5550387,1,0.0,0.0,0.0,0.0,8.000000953529359,5.9999990464706405,3.1360582362894007,0.0,0.0,0.0,0.0,0.0
1759837106.5663185,1,0.0,0.0,0.0,0.0,8.000000953618951,5.999999046381049,3.1364194969897774,0.0,0.0,0.0,0.0,0.0
1759837106.5769417,1,0.0,0.0,0.0,0.0,8.000000953653169,5.999999046346831,3.1370448532966186,0.0,0.0,0.0,0.0,0.0
1759837106.5873458,1,0.0,0.0,0.0,0.0,8.00000095366624,5.999999046333762,3.137646057507503,0.0,0.0,0.0,0.0,0.0
1759837106.5974598,1,0.0,0.0,0.0,0.0,8.00000095367123,5.999999046328769,3.1381708897029554,0.0,0.0,0.0,0.0,0.0
1759837106.6079435,1,0.0,0.0,0.0,0.0,8.000000953673139,5.999999046326862,3.1385751022538813,0.0,0.0,0.0,0.0,0.0
1759837106.6188772,1,0.0,0.0,0.0,0.0,8.000000953673867,5.999999046326134,3.138892716535361,0.0,0.0,0.0,0.0,0.0
1759837106.629431,1,0.0,0.0,0.0,0.0,8.000000953674144,5.999999046325856,3.1391886836794427,0.0,0.0,0.0,0.0,0.0
1759837106.6400952,1,0.0,0.0,0.0,0.0,8.00000095367425,5.999999046325749,3.139433962656401,0.0,0.0,0.0,0.0,0.0
1759837106.6511743,1,0.0,0.0,0.0,0.0,8.000000953674292,5.9999990463257085,3.1396273666587025,0.0,0.0,0.0,0.0,0.0
1759837106.6621156,1,0.0,0.0,0.0,0.0,8.000000953674308,5.999999046325693,3.139803606660223,0.0,0.0,0.0,0.0,0.0
1759837106.6729374,1,0.0,0.0,0.0,0.0,8.000000953674313,5.999999046325687,3.1399617011054275,0.0,0.0,0.0,0.0,0.0
1759837106.6840508,1,0.0,0.0,0.0,0.0,8.000000953674315,5.999999046325685,3.1400902132295236,0.0,0.0,0.0,0.0,0.0
1759837106.6947594,1,0.0,0.0,0.0,0.0,8.000000953674316,5.9999990463256845,3.140215264000016,0.0,0.0,0.0,0.0,0.0
1759837106.7053847,1,0.0,0.0,0.0,0.0,8.000000953674316,5.999999046325684,3.1403253012822248,0.0,0.0,0.0,0.0,0.0
1759837106.7162724,1,0.0,0.0,0.0,0.0,8.000000953674316,5.999999046325684,3.140413817223491,0.0,0.0,0.0,0.0,0.0
1759837106.726945,1,0.0,1.1890351295471193,-0.622577337262838,0.0,8.000000953674316,5.999999046325684,3.1404971286559658,0.0,0.0,0.0,0.0,0.0
1759837106.7375526,1,0.0,2.132229496113,-1.1164327521836344,0.0,8.000000953674316,5.999999046325684,3.1405718614551414,0.0,0.0,0.0,0.0,0.0
1759837106.7480826,1,0.0,2.8823641641599598,-1.509202345458054,0.0,8.000000953674316,5.999999046325684,3.1406390619488,0.0,0.0,0.0,0.0,0.0
1759837106.7587426,1,0.0,3.4803672220979878,-1.8223160140406593,0.0,8.000000953674316,5.999999046325684,3.140695852257748,0.0,0.0,0.0,0.0,0.0
1759837106.7690988,1,0.0,3.958446766153101,-2.0726378776604752,0.0,8.000000953674316,5.999999046325684,3.1407521928164748,0.0,0.0,0.0,0.0,0.0
1759837106.7797084,1,0.0,4.363041996933416,-2.2844834448678903,0.0,8.000000953674316,5.999999046325684,3.1407977319664973,0.0,0.0,0.0,0.0,0.0
1759837106.7898607,1,0.0,4.684130712260801,-2.452605102879633,0.0,8.000000953674316,5.999999046325684,3.1408462729723716,0.0,0.0,0.0,0.0,0.0
1759837106.800157,1,0.0,4.939528264404613,-2.586330948320132,0.0,8.000000953674316,5.999999046325684,3.140886783756578,0.0,0.0,0.0,0.0,0.0
1759837106.8113058,1,0.0,5.142991037707989,-2.6928638071798825,0.0,8.000000953674316,5.999999046325684,3.140910789945904,0.0,0.0,0.0,0.0,0.0
1759837106.8218827,1,0.0,5.305604405034947,-2.7780079671109026,0.0,8.000000953674316,5.999999046325684,3.1409435597167246,0.0,0.0,0.0,0.0,0.0
1759837106.8330622,1,0.0,5.442930932253593,-2.84991196853759,0.0,8.000000953674316,5.999999046325684,3.1409668722835598,0.0,0.0,0.0,0.0,0.0
1759837106.843284,1,0.0,5.55196036018237,-2.9069996434400482,0.0,8.000000953674316,5.999999046325684,3.1410025244771305,0.0,0.0,0.0,0.0,0.0
1759837106.8535793,1,0.0,5.638728025260061,-2.9524310865843373,0.0,8.000000953674316,5.999999046325684,3.141033576347123,0.0,0.0,0.0,0.0,0.0
1759837106.8645597,1,0.0,5.707898824766305,-2.988648832471577,0.0,8.000000953674316,5.999999046325684,3.141053284966347,0.0,0.0,0.0,0.0,0.0
1759837106.8753116,1,0.0,5.76319773159905,-3.0176032723480413,0.0,8.000000953674316,5.999999046325684,3.1410753618626774,0.0,0.0,0.0,0.0,0.0
1759837106.8863657,1,0.0,5.809962168827629,-3.04208907439449,0.0,8.000000953674316,5.999999046325684,3.141093671769383,0.0,0.0,0.0,0.0,0.0
1759837106.896525,1,0.0,5.847105293242689,-3.0615371688378876,0.0,8.000000953674316,5.999999046325684,3.141121015414182,0.0,0.0,0.0,0.0,0.0
1759837106.907293,1,0.0,5.87665946958037,-3.077011699364432,0.0,8.000000953674316,5.999999046325684,3.1411395347084987,0.0,0.0,0.0,0.0,0.0
1759837106.9180398,1,0.0,5.900235794078391,-3.089356233990598,0.0,8.000000953674316,5.999999046325684,3.1411571644591305,0.0,0.0,0.0,0.0,0.0
1759837106.9287012,1,0.0,5.919092821303474,-3.0992297503457933,0.0,8.000000953674316,5.999999046325684,3.1411749132501114,0.0,0.0,0.0,0.0,0.0
1759837106.9396422,1,-3.6220420506512647e-07,5.935096460899537,-1.8647216441889651,0.0,8.000000953674316,5.999999046325684,3.1411893900704566,0.0,0.0,0.0,0.0,0.0
1759837106.949715,1,-6.498010860734437e-07,5.947803648635752,-0.8844992283659631,0.0,8.000000953674316,5.999999046325684,3.141210808116515,0.0,0.0,0.0,0.0,0.0
1759837106.9603348,1,-8.785783339866054e-07,5.957911948241835,-0.1047529882518644,0.0,8.000000953674316,5.999999046325684,3.1412255034761216,0.0,0.0,0.0,0.0,0.0
1759837106.9709256,1,-1.0610300469703872e-06,5.965973399261576,0.5171009701255058,0.0,8.000000953674316,5.999999046325684,3.1412393950511976,0.0,0.0,0.0,0.0,0.0
1759837106.981197,1,-1.2069503313261085e-06,5.972420744731141,1.0144441024545663,0.0,8.000000953674316,5.999999046325684,3.1412549784995143,0.0,0.0,0.0,0.0,0.0
1759837106.9927342,1,-1.330331126711537e-06,5.9778722048600175,1.4349654269378123,0.0,8.000000953674316,5.999999046325684,3.1412603649160964,0.0,0.0,0.0,0.0,0.0
1759837107.0034966,1,-1.4282426510412841e-06,5.98219833008375,1.7686793065144197,0.0,8.000000953674316,5.999999046325684,3.1412725851215253,0.0,0.0,0.0,0.0,0.0
1759837107.014203,1,-1.5061460114023917e-06,5.985640414093562,2.0341989457614336,0.0,8.000000953674316,5.999999046325684,3.141285150827752,0.0,0.0,0.0,0.0,0.0
1759837107.025522,1,-1.5682474315163243e-06,5.988384304782872,2.2458605042480766,0.0,8.000000953674316,5.999999046325684,3.141293249753984,0.0,0.0,0.0,0.0,0.0
1759837107.0360603,1,-1.6179251848056282e-06,5.990579267868519,2.415178221363696,0.0,8.000000953674316,5.999999046325684,3.141306602586422,0.0,0.0,0.0,0.0,0.0
1759837107.0468526,1,-1.6600910476420506e-06,5.992442325399753,2.5588930064123696,0.0,8.000000953674316,5.999999046325684,3.1413175499226593,0.0,0.0,0.0,0.0,0.0
1759837107.0580173,1,-1.6935330005939328e-06,5.993919925479891,2.6728739084214745,0.0,8.000000953674316,5.999999046325684,3.1413257644894106,0.0,0.0,0.0,0.0,0.0
1759837107.0686438,1,-1.7201411431638464e-06,5.9950955803123165,2.7635629927362984,0.0,8.000000953674316,5.999999046325684,3.1413370377189445,0.0,0.0,0.0,0.0,0.0
1759837107.0789802,1,-1.7413717651231399e-06,5.99603363464047,2.8359237619956903,0.0,8.000000953674316,5.999999046325684,3.141349070751616,0.0,0.0,0.0,0.0,0.0
1759837107.0898323,1,-1.7583438563232513e-06,5.9967835299397505,2.8937700925240817,0.0,8.000000953674316,5.999999046325684,3.1413572190602324,0.0,0.0,0.0,0.0,0.0
1759837107.101058,1,-1.7727373858447245e-06,5.997419494005754,2.9428278577901463,0.0,8.000000953674316,5.999999046325684,3.141363249468302,0.0,0.0,0.0,0.0,0.0
1759837107.223041,1,-1.7828588878737784e-06,5.997866702702889,2.9773251831293237,0.0,8.000000953674316,5.999999046325684,3.141096434594383,0.0,0.0,0.0,0.0,0.0
1759837107.227242,1,-1.7911832158021172e-06,5.998234505014905,3.0056971626981257,0.0,8.000000953674316,5.999999046325684,3.1412393604290116,0.0,0.0,0.0,0.0,0.0
1759837107.2388015,1,-1.7990573115714363e-06,5.998582414258019,3.0325346066591408,0.0,8.000000953674316,5.999999046325684,3.141324122446175,0.0,0.0,0.0,0.0,0.0
1759837107.249545,1,-1.8053076210728731e-06,5.998858578088328,3.053837666197407,0.0,8.000000953674316,5.999999046325684,3.141378818814207,0.0,0.0,0.0,0.0,0.0
1759837107.2601564,1,-1.810282363006953e-06,5.9990783822095475,3.070793182333825,0.0,8.000000953674316,5.999999046325684,3.1414153716104067,0.0,0.0,0.0,0.0,0.0
1759837107.2714407,1,-1.8142490239548427e-06,5.999253645255426,3.0843128351320717,0.0,8.000000953674316,5.999999046325684,3.1414391399278863,0.0,0.0,0.0,0.0,0.0
1759837107.282136,1,-1.8175998390523535e-06,5.99940169775295,3.0957334877425677,0.0,8.000000953674316,5.999999046325684,3.1414573414537514,0.0,0.0,0.0,0.0,0.0
1759837107.2928,1,-1.8202538503148877e-06,5.999518962652517,3.1047792093869115,0.0,8.000000953674316,5.999999046325684,3.141470820650259,0.0,0.0,0.0,0.0,0.0
1759837107.3031301,1,-1.8223620330211652e-06,5.999612110649592,3.1119645722395903,0.0,8.000000953674316,5.999999046325684,3.141481603641484,0.0,0.0,0.0,0.0,0.0
1759837107.3214164,1,-1.824026933346149e-06,5.999685672646917,3.117639086556082,0.0,8.000000953674316,5.999999046325684,3.141474469817709,0.0,0.0,0.0,0.0,0.0
1759837107.332584,1,-1.825357258101532e-06,5.999744451748963,3.1221732600178345,0.0,8.000000953674316,5.999999046325684,3.1414834214308147,0.0,3.164263916015625,1.1865989685058596,-0.6213017663259317,0.0
1759837107.343252,1,-1.8264236004309545e-06,5.999791567044941,3.1258076967007926,0.0,8.000000953674316,5.999999046325684,3.1414923894135214,0.0,5.675356021439948,2.1282585080399805,-1.1143535476930615,0.0
1759837107.3546872,1,-1.8273307387285015e-06,5.999831648066019,3.128899514979174,0.0,8.000000953674316,5.999999046325684,3.1414981193047424,0.0,7.671582910093238,2.8768435912849646,-1.506311780263408,0.0
1759837107.366021,1,-1.8280517438836014e-06,5.999863504975706,3.131356931806766,0.0,8.000000953674316,5.999999046325684,3.141502924915901,0.0,9.262969285644418,3.473613482116657,-1.818779764059766,0.0
1759837107.377332,1,-1.8286263582837072e-06,5.999888893752638,3.133315401987193,0.0,8.000000953674316,5.999999046325684,3.1415070321172784,0.0,10.535034413541624,3.9506379050781093,-2.0685491675674643,0.0
1759837107.3877144,1,-1.8290859762030136e-06,5.999909201522204,3.1348819272764747,0.0,8.000000953674316,5.999999046325684,3.141512077384469,0.0,11.55556426443731,4.333336599163991,-2.2689297349849316,0.0
1759837107.3990722,1,-1.8294541273024684e-06,5.99992546791953,3.1361367043061503,0.0,8.000000953674316,5.999999046325684,3.141514765952996,0.0,12.422832292942507,4.65856210985344,-2.4392174139806766,0.0
1759837107.4095483,1,-1.8297500788808941e-06,5.999938544251425,3.1371454022105016,0.0,8.000000953674316,5.999999046325684,3.141518507511753,0.0,13.113370415176929,4.917513905691348,-2.5748042570654555,0.0
1759837107.4202166,1,-1.8300021160300893e-06,5.999949680267087,3.1380044256546884,0.0,8.000000953674316,5.999999046325684,3.1415214833117453,0.0,13.664447663062402,5.124167873648401,-2.6830080215366574,0.0
1759837107.4310062,1,-1.830203189347963e-06,5.99995856449556,3.138689748015323,0.0,8.000000953674316,5.999999046325684,3.141523915372689,0.0,14.10528056065253,5.289480210244697,-2.7695653584708664,0.0
1759837107.4414904,1,-1.8303640646508823e-06,5.999965672613941,3.139238062647668,0.0,8.000000953674316,5.999999046325684,3.141526566912095,0.0,14.458933810146826,5.422100178805059,-2.83900501154961,0.0
1759837107.4526844,1,-1.8304929979163518e-06,5.999971369404546,3.139677508571126,0.0,8.000000953674316,5.999999046325684,3.1415279954782758,0.0,14.743126822878335,5.528672558579375,-2.8948061790482766,0.0
1759837107.4634318,1,-1.8305966517823492e-06,5.999975949249536,3.1400307941929353,0.0,8.000000953674316,5.999999046325684,3.141530060273009,0.0,14.972209248702722,5.614578468263519,-2.9397864081241556,0.0
1759837107.4743438,1,-1.830680176508425e-06,5.999979639708108,3.140315473249565,0.0,8.000000953674316,5.999999046325684,3.1415318449654865,0.0,15.168436695915474,5.688163760968302,-2.9783155772423964,0.0
1759837107.485597,1,-1.8307476259995838e-06,5.999982619898102,3.1405453627495414,0.0,8.000000953674316,5.999999046325684,3.1415331673451057,0.0,15.325328550289761,5.746998206358659,-3.009121220776592,0.0
1759837107.4968054,1,-1.8308055707979938e-06,5.999985180132514,3.1407428572080445,0.0,8.000000953674316,5.999999046325684,3.1415346417338608,0.0,15.451107050860506,5.794165144072688,-3.0338177715841588,0.0
1759837107.5069394,1,-1.8308520746966807e-06,5.999987234861929,3.140901357410676,0.0,8.000000953674316,5.999999046325684,3.1415374368821407,0.0,15.552324264153212,5.832121599057453,-3.0536917249175244,0.0
1759837107.5203712,1,-1.8308893518659933e-06,5.999988881917305,3.14102840996017,0.0,8.000000953674316,5.999999046325684,3.141536210607498,0.0,15.633674156661542,5.862627808748077,-3.069664738941428,0.0
1759837107.5309858,1,-1.8309194184018096e-06,5.99999021037787,3.141130886357932,0.0,8.000000953674316,5.999999046325684,3.1415387980232765,0.0,15.699463780372701,5.887298917639763,-3.082582501335006,0.0
1759837107.5422153,1,-1.830943712229329e-06,5.999991283776949,3.1412136875142487,0.0,8.000000953674316,5.999999046325684,3.141540636101663,0.0,15.75598591715933,5.908494718934747,-3.0936805969282033,0.0
1759837107.5530298,1,-1.8309634017168735e-06,5.9999921537377565,3.1412807956031106,0.0,8.000000953674316,5.999999046325684,3.141542769594235,0.0,15.80135010658514,5.925506289969427,-3.102587834682786,0.0
1759837107.5631053,1,-1.8309804131589785e-06,5.9999929053717365,3.1413387760541447,0.0,8.000000953674316,5.999999046325684,3.1415454341986457,0.0,15.837880424545059,5.939205159204397,-3.109760545833102,0.0
1759837107.574137,1,-1.8309940892511313e-06,5.999993509636532,3.1413853885627434,0.0,8.000000953674316,5.999999046325684,3.141546793440911,0.0,15.867335385452963,5.95025076954486,-3.1155440138764963,0.0
1759837107.5853887,1,-1.8310051095094509e-06,5.9999939965559,3.1414229491377927,0.0,8.000000953674316,5.999999046325684,3.141547874105461,0.0,15.891140233318088,5.959177587494283,-3.120218084819462,0.0
1759837107.5959997,1,-1.831014019166317e-06,5.9999943902204,3.1414533161061233,0.0,8.000000953674316,5.999999046325684,3.141549593152858,0.0,15.910442603864237,5.966415976449088,-3.1240080964091717,0.0
1759837107.6072423,1,-1.8310212349948045e-06,5.999994709044745,3.1414779099640517,0.0,8.000000953674316,5.999999046325684,3.14155065395836,0.0,15.926121020028457,5.972295382510671,-3.127086546220744,0.0
1759837107.618677,1,-1.8310270928116066e-06,5.999994967866668,3.1414978752825804,0.0,8.000000953674316,5.999999046325684,3.141551585266633,0.0,15.93968355976729,5.97737932250357,-1.9768340836879204,0.0
1759837107.6296768,1,-1.8310318630007947e-06,5.999995178632825,3.141514133617349,0.0,8.000000953674316,5.999999046325684,3.141552966698624,0.0,15.950624704236569,5.981480628232923,-1.048904756949821,0.0
1759837107.6408455,1,-1.831036026662412e-06,5.999995362600154,3.141528324711615,0.0,8.000000953674316,5.999999046325684,3.1415541845527457,0.0,15.959471932457774,5.9847970260644665,-0.29856254642027,0.0
1759837107.6514597,1,-1.8310393898945466e-06,5.999995511201286,3.141539787685471,0.0,8.000000953674316,5.999999046325684,3.141555797516279,0.0,15.966648879563259,5.987487316313868,0.31012146413539465,0.0
1759837107.6622677,1,-1.831042112662112e-06,5.999995631504116,3.14154906775065,0.0,8.000000953674316,5.999999046325684,3.141557124058174,0.0,15.972483800716256,5.98967454596085,0.8049869210604171,0.0
1759837107.672433,1,-1.8310443240317535e-06,5.999995729211327,3.1415566048076746,0.0,8.000000953674316,5.999999046325684,3.1415588020566663,0.0,15.977242915842467,5.991458507975846,1.2086122006035254,0.0
1759837107.6836565,1,-1.8310461220762488e-06,5.99999580865617,3.141562733120028,0.0,8.000000953674316,5.999999046325684,3.1415595475181153,0.0,15.981375647823088,5.993007669253954,1.5591133035853992,0.0
1759837107.6948233,1,-1.8310475878878642e-06,5.999995873421627,3.1415677290761654,0.0,8.000000953674316,5.999999046325684,3.1415603599602058,0.0,15.984717326361395,5.994260302867676,1.8425243786272132,0.0
1759837107.7055225,1,-1.831048786544411e-06,5.9999959263830975,3.1415718144821407,0.0,8.000000953674316,5.999999046325684,3.1415615284051803,0.0,15.987427750559878,5.995276309769461,2.0723981462878625,0.0
1759837107.7185862,1,-1.8310498268749757e-06,5.999995972349089,3.1415753602623866,0.0,8.000000953674316,5.999999046325684,3.141561186092968,0.0,15.989625613397,5.996100182214573,2.2588010759302097,0.0
1759837107.7299123,1,-1.8310506715980508e-06,5.999996009672355,3.1415782393495677,0.0,8.000000953674316,5.999999046325684,3.1415622532040643,0.0,15.991416717370782,5.9967715804407975,2.41070638247077,0.0
1759837107.7410963,1,-1.831051359379751e-06,5.999996040061318,3.1415805835302035,0.0,8.000000953674316,5.999999046325684,3.1415634490991344,0.0,15.992880337213132,5.997320220709818,2.5348374346404396,0.0
1759837107.7523756,1,-1.8310519207405205e-06,5.999996064864496,3.1415824968277604,0.0,8.000000953674316,5.999999046325684,3.141564512677572,0.0,15.994079236685478,5.997769630119286,2.636517289369012,0.0
1759837107.762523,1,-1.8310523807045605e-06,5.999996085187559,3.141584064532741,0.0,8.000000953674316,5.999999046325684,3.141566114846597,0.0,15.995128945124765,5.998163115028319,2.725544104440764,0.0
1759837107.7732625,1,-1.8310527581861809e-06,5.999996101866216,3.1415853511111784,0.0,8.000000953674316,5.999999046325684,3.141567176827195,0.0,15.99598308445354,5.998483290539446,2.7979845090543995,0.0
1759837107.7839851,1,-1.8310530895052068e-06,5.9999961165052245,3.141586480352687,0.0,8.000000953674316,5.999999046325684,3.1415681205485555,0.0,15.996679810711303,5.99874445950589,2.8570745548079843,0.0
1759837107.7951488,1,-1.8310533592174973e-06,5.9999961284221985,3.141587399618683,0.0,8.000000953674316,5.999999046325684,3.1415687756317716,0.0,15.997249225467804,5.998957905549836,2.9053671857223318,0.0
1759837107.8053207,1,-1.8310535795917683e-06,5.99999613815922,3.1415881507248824,0.0,8.000000953674316,5.999999046325684,3.1415698998510777,0.0,15.99771631870277,5.99913299620567,2.944981826792326,0.0
1759837107.8154538,1,-1.8310537600792e-06,5.999996146133882,3.1415887658839403,0.0,8.000000953674316,5.999999046325684,3.141570916114162,0.0,15.998100377533516,5.999276961280565,2.9775542375892954,0.0
1759837107.8266077,1,-1.8310539080583184e-06,5.999996152672195,3.1415892702442396,0.0,8.000000953674316,5.999999046325684,3.1415713490259023,0.0,15.998416489542038,5.999395456379072,3.004364010923736,0.0
1759837107.8378236,1,-1.8310540296792003e-06,5.999996158045895,3.1415896847672142,0.0,8.000000953674316,5.999999046325684,3.141571787937732,0.0,15.998694942757046,5.999499835017822,3.0279799045860734,0.0
1759837107.848645,1,-1.831054129936049e-06,5.999996162475646,3.1415900264747108,0.0,8.000000953674316,5.999999046325684,3.14157245006213,0.0,15.998922571505993,5.9995851620231315,3.0472853248142338,0.0
1759837107.8592615,1,-1.8310542183239133e-06,5.999996166380978,3.141590327728902,0.0,8.000000953674316,5.999999046325684,3.141573185528017,0.0,15.999109154223241,5.999655102856963,3.063109590336328,0.0
1759837107.8705251,1,-1.8310542906253724e-06,5.999996169575547,3.141590574155465,0.0,8.000000953674316,5.999999046325684,3.1415736247338515,0.0,15.999262339281158,5.999712524524088,3.0761013672074746,0.0
1759837107.881673,1,-1.8310543499265221e-06,5.9999961721957105,3.1415907762728037,0.0,8.000000953674316,5.999999046325684,3.141574135667131,0.0,15.999388439706175,5.999759793472693,3.086796069467855,0.0
1759837107.892502,1,-1.8310543987055726e-06,5.999996174350965,3.1415909425274533,0.0,8.000000953674316,5.999999046325684,3.14157478132708,0.0,15.999492543512654,5.999798816953203,3.095625216667841,0.0
1759837107.9037006,1,-1.8310544389084859e-06,5.999996176127292,3.1415910795518767,0.0,8.000000953674316,5.999999046325684,3.1415752717502627,0.0,15.999584725973863,5.999833371698126,3.103443302737982,0.0
1759837107.9146407,1,-1.8310544721362992e-06,5.99999617759543,3.141591192802922,0.0,8.000000953674316,5.999999046325684,3.1415758527248023,0.0,15.999660240336842,5.999861678379426,3.1098477508462663,0.0
1759837107.9248815,1,-1.8310545015742034e-06,5.999996178896115,3.1415912931367416,0.0,8.000000953674316,5.999999046325684,3.141576639005981,0.0,15.999722305361631,5.999884943554516,3.115111547227751,0.0
1759837107.935615,1,-1.8310545257328936e-06,5.999996179963543,3.141591375477307,0.0,8.000000953674316,5.999999046325684,3.141577178072133,0.0,15.999773403437823,5.999904097751157,3.1194452258087533,0.0
1759837107.9465923,1,-1.8310545456011254e-06,5.999996180841402,3.141591443194614,0.0,8.000000953674316,5.999999046325684,3.1415776020362713,0.0,15.99981556074602,5.999919900486431,3.1230206289780527,0.0
1759837107.9574108,1,-1.8310545619841927e-06,5.999996181565272,3.141591499033362,0.0,8.000000953674316,5.999999046325684,3.1415780726089864,0.0,15.99985043349855,5.999932972594212,3.125978221747845,0.0
1759837107.9688385,1,-1.8310545755157092e-06,5.999996182163149,3.1415915451531107,0.0,8.000000953674316,5.999999046325684,3.1415783613778405,0.0,15.99987932713751,5.999943803421584,3.1284287199587384,0.0
1759837107.979544,1,-1.8310545867304674e-06,5.999996182658662,3.1415915833766035,0.0,8.000000953674316,5.999999046325684,3.141578883377475,0.0,15.999905051040285,5.999953446068213,3.13061038969639,0.0
1759837107.9901447,1,-1.8310545960483524e-06,5.999996183070364,3.1415916151349434,0.0,8.000000953674316,5.999999046325684,3.1415794076999983,0.0,15.999926231831566,5.9999613857221386,3.132406753637059,0.0
1759837108.000854,1,-1.831054604361958e-06,5.999996183437693,3.141591643470378,0.0,8.000000953674316,5.999999046325684,3.1415798593491218,0.0,15.999943710932179,5.999967937791321,3.1338891735164025,0.0
1759837108.012172,1,-1.8310546112120417e-06,5.9999961837403575,3.1415916668176602,0.0,8.000000953674316,5.999999046325684,3.1415801320082632,0.0,15.999958158652163,5.999973353542562,3.135114498994517,0.0
1759837108.0230665,1,-1.831054616873427e-06,5.9999961839905005,3.141591686113477,0.0,8.000000953674316,5.999999046325684,3.1415805282619402,0.0,15.999970137003379,5.999977843646921,3.136130394855307,0.0
1759837108.0338275,1,-1.8310546215644833e-06,5.999996184197769,3.1415917021021023,0.0,8.000000953674316,5.999999046325684,3.1415809490404953,0.0,15.999980093589812,5.999981575889476,3.1369748228373555,0.0
1759837108.0443919,1,-1.8310546254617405e-06,5.999996184369966,3.1415917153852044,0.0,8.000000953674316,5.999999046325684,3.1415813885821002,0.0,15.999988954995212,5.999984897601646,3.1377263674285363,0.0
1759837108.055658,1,-1.8310546287040852e-06,5.9999961845132255,3.1415917264361557,0.0,8.000000953674316,5.999999046325684,3.141581641536778,0.0,15.99999626639615,5.999987638292133,3.138346454602323,0.0
1759837108.0663474,1,-1.8310546316051383e-06,5.999996184641406,3.1415917363238752,0.0,8.000000953674316,5.999999046325684,3.141582026779991,0.0,16.00000231837056,5.999989906884543,3.138859728561171,0.0
1759837108.0771523,1,-1.8310546340028483e-06,5.999996184747346,3.14159174449604,0.0,8.000000953674316,5.999999046325684,3.1415823704799752,0.0,16.000007338979238,5.999991788867839,3.139285531368433,0.0
1759837108.0887442,1,-1.8310546359873192e-06,5.999996184835028,3.1415917512597535,0.0,8.000000953674316,5.999999046325684,3.141582545516828,0.0,16.00001150964578,5.999993352248949,3.139639249739331,0.0
1759837108.100075,1,-1.8310546376345035e-06,5.999996184907807,3.1415917568738863,0.0,8.000000953674316,5.999999046325684,3.141582802175776,0.0,16.00001498419316,5.999994654688664,3.1399339295528486,0.0
1759837108.1113138,1,-1.8310546390052804e-06,5.999996184968373,3.1415917615459334,0.0,8.000000953674316,5.999999046325684,3.1415830926884176,0.0,16.000017886280947,5.999995742540972,3.140180058499631,0.0
1759837108.1234884,1,-1.8310546401474074e-06,5.999996185018837,3.1415917654386685,0.0,8.000000953674316,5.999999046325684,3.1415832238502013,0.0,16.00002050056381,5.999996722509139,3.1404017784254386,0.0
1759837108.1348553,1,-1.8310546411025505e-06,5.999996185061039,3.1415917686941026,0.0,8.000000953674316,5.999999046325684,3.1415835350371744,0.0,16.000022667831306,5.99999753491287,3.1405855865336663,0.0
1759837108.1458297,1,-1.8310546419677066e-06,5.999996185099265,3.141591771642832,0.0,8.000000953674316,5.999999046325684,3.141583907918603,0.0,16.000024469911253,5.999998210425456,3.140738422723154,0.0
1759837108.1571438,1,-1.8310546426856106e-06,5.9999961851309855,3.1415917740896795,0.0,8.000000953674316,5.999999046325684,3.1415841951411902,0.0,16.00002597126483,5.999998773210277,3.1408657540108003,0.0
1759837108.1684206,1,-1.8310546432828298e-06,5.999996185157373,3.1415917761251935,0.0,8.000000953674316,5.999999046325684,3.1415844722021813,0.0,16.000027225209497,5.999999243253467,3.140972102303213,0.0
1759837108.1790564,1,-1.831054643781294e-06,5.9999961851793975,3.141591777824119,0.0,8.000000953674316,5.999999046325684,3.141584829007426,0.0,16.000028275975556,5.9999996371348265,3.1410612188160365,0.0
1759837108.1903603,1,-1.8310546441979232e-06,5.999996185197806,3.1415917792441252,0.0,8.000000953674316,5.999999046325684,3.141585054203249,0.0,16.000029224479317,5.999999992682997,3.141141662361694,0.0
1759837108.2009523,1,-1.831054644547339e-06,5.999996185213244,3.141591780435046,0.0,8.000000953674316,5.999999046325684,3.141585365563415,0.0,16.00003001361339,6.000000288491183,3.1412085896061326,0.0
1759837108.2116067,1,-1.8310546448627091e-06,5.999996185227179,3.1415917815099283,0.0,8.000000953674316,5.999999046325684,3.141585638148765,0.0,16.000030671626813,6.00000053514858,3.141264396377798,0.0
1759837108.2230427,1,-1.8310546451250626e-06,5.99999618523877,3.141591782404113,0.0,8.000000953674316,5.999999046325684,3.141585785331902,0.0,16.00003122100932,6.000000741085502,3.1413109900538023,0.0
1759837108.234382,1,-1.8310546453438825e-06,5.999996185248439,3.1415917831499214,0.0,8.000000953674316,5.999999046325684,3.1415859531602823,0.0,16.0000316808858,6.000000913470946,3.141349992634749,0.0
1759837108.2449963,1,-1.8310546455270186e-06,5.9999961852565304,3.1415917837741074,0.0,8.000000953674316,5.999999046325684,3.141586213570191,0.0,16.00003206715932,6.000001058266203,3.1413827528757716,0.0
1759837108.25588,1,-1.8310546456805855e-06,5.999996185263315,3.141591784297513,0.0,8.000000953674316,5.999999046325684,3.1415864212797793,0.0,16.000032417022236,6.000001189412885,3.14141242509728,0.0
1759837108.2670238,1,-1.8310546458096123e-06,5.9999961852690165,3.1415917847372783,0.0,8.000000953674316,5.999999046325684,3.1415865857896073,0.0,16.000032708577802,6.00000129870296,3.1414371522141677,0.0
1759837108.2779677,1,-1.8310546459269796e-06,5.999996185274202,3.1415917851373036,0.0,8.000000953674316,5.999999046325684,3.1415867696757633,0.0,16.00003295219647,6.000001390023813,3.141457813755327,0.0
1759837108.2889147,1,-1.8310546460248822e-06,5.999996185278528,3.1415917854709874,0.0,8.000000953674316,5.999999046325684,3.141586946511964,0.0,16.000033156241187,6.000001466510307,3.1414751189905785,0.0
1759837108.299654,1,-1.8310546461067653e-06,5.9999961852821455,3.141591785750071,0.0,8.000000953674316,5.999999046325684,3.141587135811566,0.0,16.000033327591925,6.000001530741408,3.1414896514167294,0.0
1759837108.3104901,1,-1.8310546461754001e-06,5.999996185285178,3.1415917859840006,0.0,8.000000953674316,5.999999046325684,3.141587302633143,0.0,16.000033471799114,6.000001584797706,3.141501881771499,0.0
1759837108.3217542,1,-1.8310546462330304e-06,5.999996185287724,3.1415917861804226,0.0,8.000000953674316,5.999999046325684,3.141587420922651,0.0,16.000033593369036,6.000001630368388,3.1415121922372045,0.0
1759837108.3329968,1,-1.831054646281538e-06,5.999996185289867,3.141591786345752,0.0,8.000000953674316,5.999999046325684,3.141587545840551,0.0,16.000033704405435,6.000001671990562,3.1415216093444425,0.0
1759837108.3431363,1,-1.8310546463225287e-06,5.999996185291679,3.1415917864854612,0.0,8.000000953674316,5.999999046325684,3.141587768841571,0.0,16.000033797483,6.000001706880838,3.1415295033451276,0.0
1759837108.3539982,1,-1.8310546463598386e-06,5.999996185293328,3.1415917866126257,0.0,8.000000953674316,5.999999046325684,3.141587905264805,0.0,16.000033875600664,6.0000017361633695,3.1415361285816497,0.0
1759837108.365494,1,-1.8310546463910956e-06,5.999996185294709,3.1415917867191596,0.0,8.000000953674316,5.999999046325684,3.141587981844868,0.0,16.00003394125763,6.00000176077499,3.1415416970141417,0.0
1759837108.3758974,1,-1.8310546464173856e-06,5.9999961852958705,3.1415917868087644,0.0,8.000000953674316,5.999999046325684,3.1415881542067012,0.0,16.000033996661394,6.00000178154318,3.1415463958621195,0.0
1759837108.3867006,1,-1.8310546464395349e-06,5.999996185296849,3.141591786884256,0.0,8.000000953674316,5.999999046325684,3.1415882826655928,0.0,16.000034043489787,6.0000017990968795,3.1415503674248146,0.0
1759837108.3981366,1,-1.8310546464582217e-06,5.999996185297675,3.1415917869479464,0.0,8.000000953674316,5.999999046325684,3.141588357379117,0.0,16.000034086190826,6.000001815103433,3.1415539889423347,0.0
1759837108.4093344,1,-1.8310546464740305e-06,5.999996185298374,3.1415917870018277,0.0,8.000000953674316,5.999999046325684,3.1415884576434365,0.0,16.00003412202679,6.000001828536602,3.1415570282260856,0.0
1759837108.4194314,1,-1.8310546464874577e-06,5.999996185298968,3.1415917870475916,0.0,8.000000953674316,5.999999046325684,3.1415886352020497,0.0,16.00003415221958,6.000001839854418,3.1415595889065764,0.0
1759837108.4305649,1,-1.831054646499859e-06,5.999996185299516,3.141591787089859,0.0,8.000000953674316,5.999999046325684,3.141588723640643,0.0,16.0000341776756,6.000001849396649,3.1415617478569833,0.0
1759837108.441153,1,-1.8310546465103026e-06,5.999996185299977,3.141591787125454,0.0,8.000000953674316,5.999999046325684,3.1415888441518014,0.0,16.000034199205302,6.000001857467092,3.1415635738123133,0.0
1759837108.452459,1,-1.8310546465191085e-06,5.999996185300366,3.1415917871554675,0.0,8.000000953674316,5.999999046325684,3.141588913682675,0.0,16.000034217435857,6.000001864300846,3.1415651199639525,0.0
1759837108.4637194,1,-1.8310546465265516e-06,5.999996185300694,3.1415917871808365,0.0,8.000000953674316,5.999999046325684,3.1415889906593417,0.0,16.00003423291021,6.000001870101432,3.1415664323591193,0.0
1759837108.4744775,1,-1.8310546465328622e-06,5.999996185300973,3.1415917872023456,0.0,8.000000953674316,5.999999046325684,3.1415891007243033,0.0,16.00003424715485,6.000001875441059,3.1415676404613366,0.0
1759837108.4854312,1,-1.8310546465382233e-06,5.999996185301209,3.141591787220618,0.0,8.000000953674316,5.999999046325684,3.1415891939176745,0.0,16.000034259170953,6.000001879945315,3.1415686595590424,0.0
1759837108.4963112,1,-1.8310546465431609e-06,5.999996185301428,3.1415917872374473,0.0,8.000000953674316,5.999999046325684,3.141589286663347,0.0,16.000034269331717,6.000001883754095,3.14156952130375,0.0
1759837108.507604,1,-1.8310546465473255e-06,5.999996185301612,3.1415917872516412,0.0,8.000000953674316,5.999999046325684,3.1415893542365865,0.0,16.00003427793808,6.000001886980204,3.141570251217995,0.0
1759837108.5270221,1,-1.831054646550805e-06,5.999996185301765,3.1415917872635,0.0,8.000000953674316,5.999999046325684,3.141589038535386,0.0,16.00003428515666,6.0000018896861,3.141570863432785,0.0
1759837108.5317197,1,-1.8310546465537873e-06,5.999996185301897,3.1415917872736654,0.0,8.000000953674316,5.999999046325684,3.1415895252849246,0.0,16.000034291371996,6.00000189201593,3.1415713905618756,0.0
1759837108.5423748,1,-1.8310546465563238e-06,5.999996185302009,3.141591787282311,0.0,8.000000953674316,5.999999046325684,3.141589649401091,0.0,16.000034296680315,6.000001894005762,3.1415718407657285,0.0
1759837108.5527122,1,-1.8310546465584869e-06,5.999996185302105,3.1415917872896832,0.0,8.000000953674316,5.999999046325684,3.1415897488673963,0.0,16.00003430161228,6.000001895854518,3.141572259050743,0.0
1759837108.5629854,1,-1.8310546465603355e-06,5.999996185302186,3.1415917872959844,0.0,8.000000953674316,5.999999046325684,3.141589837497465,0.0,16.000034305797886,6.000001897423498,3.141572614035958,0.0
1759837108.5737333,1,-1.8310546465620552e-06,5.999996185302263,3.141591787301846,0.0,8.000000953674316,5.999999046325684,3.1415898963374964,0.0,16.00003430935523,6.000001898756974,3.141572915737585,0.0
1759837108.584437,1,-1.8310546465635136e-06,5.999996185302327,3.1415917873068167,0.0,8.000000953674316,5.999999046325684,3.1415899548769044,0.0,16.000034312385562,6.0000018998929,3.1415731727432954,0.0
1759837108.5959883,1,-1.8310546465647515e-06,5.999996185302382,3.1415917873110364,0.0,8.000000953674316,5.999999046325684,3.141589980254494,0.0,16.000034314969298,6.000001900861418,3.1415733918724533,0.0
1759837108.6067793,1,-1.8310546465658063e-06,5.999996185302429,3.141591787314631,0.0,8.000000953674316,5.999999046325684,3.141590042456439,0.0,16.00003431718005,6.000001901690122,3.1415735793685067,0.0
1759837108.617537,1,-1.831054646566707e-06,5.999996185302468,3.1415917873177,0.0,8.000000953674316,5.999999046325684,3.1415901054448625,0.0,16.000034319075912,6.000001902400789,3.1415737401585293,0.0
1759837108.6278358,1,-1.831054646567478e-06,5.999996185302502,3.141591787320328,0.0,8.000000953674316,5.999999046325684,3.1415901808834814,0.0,16.000034320855093,6.0000019030677185,3.1415738910528574,0.0
1759837108.6392133,1,-1.8310546465681384e-06,5.999996185302531,3.141591787322579,0.0,8.000000953674316,5.999999046325684,3.1415902124846777,0.0,16.00003432236847,6.0000019036350105,3.1415740194038517,0.0
1759837108.6499593,1,-1.8310546465687563e-06,5.9999961853025585,3.1415917873246855,0.0,8.000000953674316,5.999999046325684,3.1415902680998755,0.0,16.00003432366001,6.000001904119146,3.141574128940433,0.0
1759837108.6608782,1,-1.8310546465692827e-06,5.999996185302582,3.141591787326479,0.0,8.000000953674316,5.999999046325684,3.14159031705821,0.0,16.000034324764357,6.0000019045331126,3.1415742226013927,0.0
1759837108.6716619,1,-1.831054646569732e-06,5.999996185302601,3.1415917873280104,0.0,8.000000953674316,5.999999046325684,3.141590368884227,0.0,16.00003432571095,6.000001904887943,3.141574302882684,0.0
1759837108.6829734,1,-1.8310546465701162e-06,5.999996185302618,3.141591787329319,0.0,8.000000953674316,5.999999046325684,3.141590403232012,0.0,16.000034326523394,6.000001905192489,3.141574371786875,0.0
1759837108.693186,1,-1.8310546465704457e-06,5.999996185302632,3.141591787330443,0.0,8.000000953674316,5.999999046325684,3.141590470731611,0.0,16.00003432728969,6.000001905479737,3.1415744367772644,0.0
1759837108.7040262,1,-1.831054646570729e-06,5.999996185302646,3.1415917873314085,0.0,8.000000953674316,5.999999046325684,3.1415905142206952,0.0,16.00003432794309,6.000001905724664,3.141574492192715,0.0
1759837108.7147434,1,-1.831054646570973e-06,5.999996185302656,3.14159178733224,0.0,8.000000953674316,5.999999046325684,3.141590558420189,0.0,16.00003432850157,6.000001905934012,3.1415745395581522,0.0
1759837108.7271633,1,-1.8310546465712017e-06,5.999996185302667,3.1415917873330192,0.0,8.000000953674316,5.999999046325684,3.1415905578515826,0.0,16.000034328978685,6.000001906112859,3.141574580022619,0.0
1759837108.7378914,1,-1.8310546465713976e-06,5.999996185302676,3.1415917873336863,0.0,8.000000953674316,5.999999046325684,3.1415906099487874,0.0,16.000034329388406,6.000001906266443,3.1415746147713617,0.0
1759837108.7481997,1,-1.8310546465715655e-06,5.999996185302684,3.141591787334259,0.0,8.000000953674316,5.999999046325684,3.1415906701131284,0.0,16.00003432974125,6.000001906398709,3.1415746446966786,0.0
1759837108.7595901,1,-1.83105464657171e-06,5.99999618530269,3.141591787334751,0.0,8.000000953674316,5.999999046325684,3.1415906978994954,0.0,16.000034330071326,6.000001906522438,3.1415746726904676,0.0
1759837108.7702942,1,-1.8310546465718344e-06,5.999996185302695,3.141591787335175,0.0,8.000000953674316,5.999999046325684,3.141590741466178,0.0,16.00003433035369,6.000001906628281,3.1415746966378695,0.0
1759837108.7811728,1,-1.8310546465719418e-06,5.9999961853027,3.141591787335541,0.0,8.000000953674316,5.999999046325684,3.1415907787862842,0.0,16.000034330595696,6.000001906718998,3.1415747171627735,0.0
1759837108.7920887,1,-1.8310546465720345e-06,5.999996185302704,3.1415917873358574,0.0,8.000000953674316,5.999999046325684,3.1415908132801,0.0,16.000034330803558,6.000001906796916,3.1415747347918805,0.0
1759837108.8032298,1,-1.8310546465721233e-06,5.999996185302708,3.14159178733616,0.0,8.000000953674316,5.999999046325684,3.141590842040358,0.0,16.00003433098242,6.000001906863962,3.1415747499612277,0.0
1759837108.815329,1,-1.8310546465721995e-06,5.999996185302711,3.141591787336419,0.0,8.000000953674316,5.999999046325684,3.141590852904283,0.0,16.000034331136415,6.000001906921687,3.141574763021799,0.0
1759837108.8265686,1,-1.831054646572265e-06,5.999996185302715,3.1415917873366426,0.0,8.000000953674316,5.999999046325684,3.1415908854914,0.0,16.00003433126951,6.000001906971578,3.141574774309677,0.0
1759837108.8374205,1,-1.8310546465723215e-06,5.999996185302717,3.1415917873368353,0.0,8.000000953674316,5.999999046325684,3.141590925253123,0.0,16.000034331395508,6.000001907018808,3.141574784995522,0.0
1759837108.8485966,1,-1.8310546465723702e-06,5.999996185302718,3.1415917873370014,0.0,8.000000953674316,5.999999046325684,3.1415909560496083,0.0,16.000034331503755,6.000001907059384,3.1415747941760594,0.0
1759837108.8599188,1,-1.8310546465724125e-06,5.99999618530272,3.1415917873371457,0.0,8.000000953674316,5.999999046325684,3.141590982826342,0.0,16.00003433159694,6.0000019070943145,3.141574802078973,0.0
1759837108.871274,1,-1.8310546465724525e-06,5.999996185302722,3.1415917873372825,0.0,8.000000953674316,5.999999046325684,3.141591008833265,0.0,16.00003433167733,6.000001907124449,3.1415748088968543,0.0
1759837108.8819602,1,-1.831054646572487e-06,5.999996185302723,3.1415917873374,0.0,8.000000953674316,5.999999046325684,3.1415910449631586,0.0,16.000034331746917,6.000001907150533,3.141574814798486,0.0
1759837108.8922882,1,-1.831054646572517e-06,5.999996185302724,3.141591787337502,0.0,8.000000953674316,5.999999046325684,3.1415910828966,0.0,16.000034331807313,6.000001907173172,3.1415748199208697,0.0
1759837108.902979,1,-1.8310546465725428e-06,5.999996185302725,3.14159178733759,0.0,8.000000953674316,5.999999046325684,3.1415911105032883,0.0,16.00003433185981,6.00000190719285,3.141574824372955,0.0
1759837108.9143817,1,-1.831054646572565e-06,5.9999961853027255,3.141591787337666,0.0,8.000000953674316,5.999999046325684,3.1415911255892137,0.0,16.000034331910175,6.00000190721173,3.1415748286445333,0.0
1759837108.9249606,1,-1.8310546465725845e-06,5.999996185302726,3.1415917873377324,0.0,8.000000953674316,5.999999046325684,3.141591153042709,0.0,16.000034331953664,6.0000019072280315,3.1415748323328927,0.0
1759837108.9352045,1,-1.8310546465726033e-06,5.999996185302727,3.1415917873377963,0.0,8.000000953674316,5.999999046325684,3.1415911830071117,0.0,16.000034331991316,6.0000019072421455,3.1415748355261504,0.0
1759837108.9460158,1,-1.8310546465726194e-06,5.999996185302728,3.1415917873378514,0.0,8.000000953674316,5.999999046325684,3.1415912022399137,0.0,16.000034332023947,6.000001907254377,3.1415748382936117,0.0
1759837108.956213,1,-1.8310546465726334e-06,5.999996185302729,3.141591787337899,0.0,8.000000953674316,5.999999046325684,3.1415912279545424,0.0,16.00003433205232,6.000001907265011,3.141574840699694,0.0
1759837108.967442,1,-1.8310546465726457e-06,5.99999618530273,3.14159178733794,0.0,8.000000953674316,5.999999046325684,3.141591239029344,0.0,16.000034332076986,6.000001907274258,3.141574842791818,0.0
1759837108.9782877,1,-1.8310546465726563e-06,5.999996185302731,3.1415917873379757,0.0,8.000000953674316,5.999999046325684,3.1415912556525747,0.0,16.00003433209881,6.000001907282439,3.1415748446428235,0.0
1759837108.988671,1,-1.8310546465726654e-06,5.999996185302731,3.141591787338007,0.0,8.000000953674316,5.999999046325684,3.141591277630246,0.0,16.00003433211965,6.000001907290251,3.1415748464103608,0.0
1759837108.9993994,1,-1.8310546465726734e-06,5.999996185302731,3.1415917873380343,0.0,8.000000953674316,5.999999046325684,3.1415912941586726,0.0,16.000034332137698,6.000001907297016,3.141574847940948,0.0
1759837109.0097482,1,-1.831054646572681e-06,5.999996185302731,3.1415917873380605,0.0,8.000000953674316,5.999999046325684,3.1415913138507268,0.0,16.00003433215337,6.000001907302891,3.141574849270005,0.0
1759837109.020455,1,-1.8310546465726876e-06,5.999996185302731,3.141591787338083,0.0,8.000000953674316,5.999999046325684,3.141591328421793,0.0,16.000034332166997,6.000001907307999,3.141574850425645,0.0
1759837109.0313582,1,-1.8310546465726933e-06,5.999996185302731,3.1415917873381027,0.0,8.000000953674316,5.999999046325684,3.141591340665247,0.0,16.00003433217892,6.000001907312469,3.1415748514369293,0.0
1759837109.042015,1,-1.8310546465726982e-06,5.999996185302731,3.14159178733812,0.0,8.000000953674316,5.999999046325684,3.141591355604678,0.0,16.000034332189532,6.000001907316447,3.1415748523369724,0.0
1759837109.0530844,1,-1.8310546465727026e-06,5.999996185302731,3.141591787338135,0.0,8.000000953674316,5.999999046325684,3.141591366480972,0.0,16.00003433219898,6.000001907319987,3.141574853138011,0.0
1759837109.0641334,1,-1.8310546465727067e-06,5.999996185302731,3.1415917873381485,0.0,8.000000953674316,5.999999046325684,3.1415913781127394,0.0,16.000034332207385,6.0000019073231385,3.1415748538509356,0.0
1759837109.0754912,1,-1.8310546465727103e-06,5.999996185302731,3.14159178733816,0.0,8.000000953674316,5.999999046325684,3.1415913876876527,0.0,16.000034332214863,6.0000019073259425,3.141574854485438,0.0
1759837109.0857537,1,-1.8310546465727132e-06,5.999996185302731,3.1415917873381707,0.0,8.000000953674316,5.999999046325684,3.1415914070971667,0.0,16.000034332214863,6.0000019073259425,3.141574854485438,0.0
1759837109.096445,1,-1.8310546465727132e-06,5.999996185302731,3.1415917873381707,0.0,8.000000953674316,5.999999046325684,3.141591421214587,0.0,16.000034332214863,6.0000019073259425,3.141574854485438,0.0
1759837109.106766,1,-1.8310546465727132e-06,5.999996185302731,3.1415917873381707,0.0,8.000000953674316,5.999999046325684,3.141591436962294,0.0,16.000034332214863,6.0000019073259425,3.141574854485438,0.0
1759837109.118114,1,-1.8310546465727132e-06,5.999996185302731,3.1415917873381707,0.0,8.000000953674316,5.999999046325684,3.141591443671503,0.0,16.000034332214863,6.0000019073259425,3.141574854485438,0.0
1759837109.1284468,1,-1.8310546465727132e-06,5.999996185302731,3.1415917873381707,0.0,8.000000953674316,5.999999046325684,3.141591458434892,0.0,16.00003433222168,6.000001907328499,3.141574855063686,0.0
1759837109.1388586,1,-1.8310546465727132e-06,5.999996185302731,3.1415917873381707,0.0,8.000000953674316,5.999999046325684,3.141591471584432,0.0,16.00003433222762,6.0000019073307245,3.1415748555673155,0.0
1759837109.1496,1,-1.831054646572716e-06,5.999996185302731,3.14159178733818,0.0,8.000000953674316,5.999999046325684,3.141591481330753,0.0,16.000034332232875,6.0000019073326945,3.1415748560130163,0.0
1759837109.1604316,1,-1.8310546465727185e-06,5.999996185302731,3.1415917873381884,0.0,8.000000953674316,5.999999046325684,3.141591490225096,0.0,16.000034332237554,6.000001907334448,3.14157485640969,0.0
1759837109.1706693,1,-1.8310546465727206e-06,5.999996185302731,3.141591787338196,0.0,8.000000953674316,5.999999046325684,3.1415915028528723,0.0,16.000034332241718,6.000001907336008,3.1415748567627295,0.0
1759837109.1819022,1,-1.8310546465727225e-06,5.999996185302731,3.1415917873382027,0.0,8.000000953674316,5.999999046325684,3.141591508447659,0.0,16.000034332245423,6.0000019073373965,3.141574857076935,0.0
1759837109.1931484,1,-1.8310546465727244e-06,5.999996185302731,3.1415917873382084,0.0,8.000000953674316,5.999999046325684,3.1415915146535767,0.0,16.000034332245423,6.0000019073373965,3.141574857076935,0.0
1759837109.2044683,1,-1.8310546465727244e-06,5.999996185302731,3.1415917873382084,0.0,8.000000953674316,5.999999046325684,3.141591521342253,0.0,16.000034332245423,6.0000019073373965,3.141574857076935,0.0
1759837109.215173,1,-1.8310546465727244e-06,5.999996185302731,3.1415917873382084,0.0,8.000000953674316,5.999999046325684,3.1415915320094534,0.0,16.000034332245423,6.0000019073373965,3.141574857076935,0.0
1759837109.2262876,1,-1.8310546465727244e-06,5.999996185302731,3.1415917873382084,0.0,8.000000953674316,5.999999046325684,3.141591539955897,0.0,16.000034332245423,6.0000019073373965,3.141574857076935,0.0
1759837109.2368758,1,-1.8310546465727244e-06,5.999996185302731,3.1415917873382084,0.0,8.000000953674316,5.999999046325684,3.1415915504028433,0.0,16.000034332245423,6.0000019073373965,3.141574857076935,0.0
1759837109.247198,1,-1.8310546465727244e-06,5.999996185302731,3.1415917873382084,0.0,8.000000953674316,5.999999046325684,3.1415915612986893,0.0,16.000034332245423,6.0000019073373965,3.141574857076935,0.0
1759837109.257835,1,-1.8310546465727244e-06,5.999996185302731,3.1415917873382084,0.0,8.000000953674316,5.999999046325684,3.141591569471734,0.0,16.000034332245423,6.0000019073373965,3.141574857076935,0.0
1759837109.2691963,1,-1.8310546465727244e-06,5.999996185302731,3.1415917873382084,0.0,8.000000953674316,5.999999046325684,3.1415915737705227,0.0,16.00003433224872,6.000001907338633,3.1415748573565776,0.0
1759837109.2798872,1,-1.8310546465727244e-06,5.999996185302731,3.1415917873382084,0.0,8.000000953674316,5.999999046325684,3.141591581623116,0.0,16.000034332251655,6.000001907339733,3.1415748576054594,0.0
1759837109.290096,1,-1.8310546465727261e-06,5.999996185302731,3.1415917873382138,0.0,8.000000953674316,5.999999046325684,3.1415915912504957,0.0,16.000034332254266,6.000001907340712,3.1415748578269644,0.0
1759837109.3002782,1,-1.8310546465727276e-06,5.999996185302731,3.1415917873382186,0.0,8.000000953674316,5.999999046325684,3.1415915999005115,0.0,16.00003433225659,6.000001907341583,3.1415748580241036,0.0
1759837109.3115368,1,-1.8310546465727289e-06,5.999996185302731,3.141591787338223,0.0,8.000000953674316,5.999999046325684,3.1415916032695392,0.0,16.00003433225659,6.000001907341583,3.1415748580241036,0.0
1759837109.328448,1,-1.8310546465727289e-06,5.999996185302731,3.141591787338223,0.0,7.994223083854436,5.998720041399716,-3.1315936932855837,0.04071202771426657,16.00003433225659,6.000001907341583,3.1415748580241036,0.0
1759837109.3403447,1,-1.8310546465727289e-06,5.999996185302731,3.141591787338223,0.0,7.992249621601103,5.998720041419277,-3.131879890425054,0.04071202771426657,16.00003433225659,6.000001907341583,3.1415748580241036,0.0
1759837109.351336,1,-1.8310546465727289e-06,5.999996185302731,3.141591787338223,0.0,7.991509903692265,5.998720041402701,-3.1318798779589585,0.04071202771426657,16.00003433225659,6.000001907341583,3.1415748580241036,0.0
1759837109.3626885,1,-1.8310546465727289e-06,5.999996185302731,3.141591787338223,0.0,7.991221739654046,5.99872004139634,-3.131879868508248,0.04071202771426657,16.00003433225659,6.000001907341583,3.1415748580241036,0.0
1759837109.3727608,1,-1.8310546465727289e-06,5.999996185302731,3.141591787338223,0.0,7.991131580364643,5.998720041364577,-3.131879856310638,0.04071202771426657,16.00003433225659,6.000001907341583,3.1415748580241036,0.0
1759837109.3830986,1,-1.8310546465727289e-06,5.999996185302731,3.141591787338223,0.0,7.991093012370537,5.998720041351113,-3.1318798471155436,0.04071202771426657,16.00003433225659,6.000001907341583,3.1415748580241036,0.0
1759837109.3939276,1,-1.8310546465727289e-06,5.999996185302731,3.141591787338223,0.0,7.991070643148623,5.998720041350184,-3.1318798410169393,0.04071202771426657,16.00003433225659,6.000001907341583,3.1415748580241036,0.0
1759837109.4046452,1,-1.8310546465727289e-06,5.999996185302731,3.141591787338223,0.0,7.99106383029849,5.998720041344279,-3.1318798352731516,0.04071202771426657,16.00003433225659,6.000001907341583,3.1415748580241036,0.0
1759837109.4157896,1,-1.8310546465727289e-06,5.999996185302731,3.141591787338223,0.0,7.991054591501071,5.998720041346226,-3.1318798312047775,0.04071202771426657,16.00003433225659,6.000001907341583,3.1415748580241036,0.0
1759837109.4270754,1,-1.8310546465727289e-06,5.999996185302731,3.141591787338223,0.0,7.991048864017329,5.99872004134675,-3.131879827540944,0.04071202771426657,16.00003433225659,6.000001907341583,3.1415748580241036,0.0
1759837109.4373467,1,-1.8310546465727289e-06,5.999996185302731,3.141591787338223,0.0,7.991062451964246,5.998720041326438,-3.1318798210830447,0.04071202771426657,16.00003433225659,6.000001907341583,3.1415748580241036,0.0
1759837109.4475183,1,-1.8310546465727289e-06,5.999996185302731,3.141591787338223,0.0,7.991069191860444,5.998720041313245,-3.1318798150847638,0.04071202771426657,16.00003433225659,6.000001907341583,3.1415748580241036,0.0
1759837109.4589658,1,-1.8310546465727289e-06,5.999996185302731,3.141591787338223,0.0,7.991051927147074,5.998720041327014,-3.131879813025556,0.04071202771426657,16.00003433225659,6.000001907341583,3.1415748580241036,0.0
1759837109.470658,1,-1.8310546465727289e-06,5.999996185302731,3.141591787338223,0.0,7.991041524956161,5.9987200413348205,-3.131879811222076,0.04071202771426657,16.00003433225659,6.000001907341583,3.1415748580241036,0.0
1759837109.481923,1,-1.8310546465727289e-06,5.999996185302731,3.141591787338223,0.0,7.991044195613988,5.9987200413287365,-3.131879807825145,0.04071202771426657,16.00003433225659,6.000001907341583,3.1415748580241036,0.0
1759837109.4931073,1,-1.8310546465727289e-06,5.999996185302731,3.141591787338223,0.0,7.991046472578608,5.998720041322602,-3.1318798040931863,0.04071202771426657,16.00003433225659,6.000001907341583,3.1415748580241036,0.0
1759837109.5038292,1,-1.8310546465727289e-06,5.999996185302731,3.141591787338223,0.0,7.99105453125407,5.998720041309985,-3.1318797994495977,0.04071202771426657,16.00003433225659,6.000001907341583,3.1415748580241036,0.0
1759837109.5150397,1,-1.8310546465727289e-06,5.999996185302731,3.141591787338223,0.0,7.991050012616819,5.99872004131057,-3.1318797962076044,0.04071202771426657,16.00003433225659,6.000001907341583,3.1415748580241036,0.0
1759837109.528378,1,-1.8310546465727289e-06,5.999996185302731,3.141591787338223,0.0,7.858065079705021,5.970145141180123,-3.1318797971592236,0.9502612898555902,16.00003433225659,6.000001907341583,3.1415748580241036,0.0
1759837109.538652,1,-1.8310546465727289e-06,5.999996185302731,3.141591787338223,0.0,7.811855810556809,5.970144916582412,-3.1383565678413827,0.9502612898555902,16.00003433225659,6.000001907341583,3.1415748580241036,0.0
1759837109.5495934,1,-1.8310546465727289e-06,5.999996185302731,3.141591787338223,0.0,7.793963133437377,5.970144830968183,-3.1383565636121844,0.9502612898555902,16.00003433225659,6.000001907341583,3.1415748580241036,0.0
1759837109.561041,1,-1.8310546465727289e-06,5.999996185302731,3.141591787338223,0.0,7.786945018366611,5.970144798403055,-3.1383565607987904,0.9502612898555902,16.00003433225659,6.000001907341583,3.1415748580241036,0.0
1759837109.5713189,1,-1.8310546465727289e-06,5.999996185302731,3.141591787338223,0.0,7.784688979998756,5.970144785477933,-3.1383565560608613,0.9502612898555902,16.00003433225659,6.000001907341583,3.1415748580241036,0.0
1759837109.5825632,1,-1.8310546465727289e-06,5.999996185302731,3.141591787338223,0.0,7.7834764241850944,5.970144780842561,-3.1383565535147735,0.9502612898555902,16.00003433225659,6.000001907341583,3.1415748580241036,0.0
1759837109.59375,1,-1.8310546465727289e-06,5.999996185302731,3.141591787338223,0.0,7.783034124829811,5.970144779012439,-3.138356550991272,0.9502612898555902,16.00003433225659,6.000001907341583,3.1415748580241036,0.0
1759837109.604533,1,-1.8310546465727289e-06,5.999996185302731,3.141591787338223,0.0,7.783011777283073,5.970144778123653,-3.138356547865289,0.9502612898555902,16.00003433225659,6.000001907341583,3.1415748580241036,0.0
1759837109.6159098,1,-1.8310546465727289e-06,5.999996185302731,3.141591787338223,0.0,7.7827876746507005,5.970144777959074,-3.1383565458401534,0.9502612898555902,16.00003433225659,6.000001907341583,3.1415748580241036,0.0
1759837109.627198,1,-1.8310546465727289e-06,5.999996185302731,3.141591787338223,0.0,7.7827342673145585,5.97014477783061,-3.1383565436463545,0.9502612898555902,16.00003433225659,6.000001907341583,3.1415748580241036,0.0
1759837109.6373594,1,-1.8310546465727289e-06,5.999996185302731,3.141591787338223,0.0,7.783122847143901,5.9701447773336564,-3.138356539871566,0.9502612898555902,16.00003433225659,6.000001907341583,3.1415748580241036,0.0
1759837109.6486263,1,-1.8310546465727289e-06,5.999996185302731,3.141591787338223,0.0,7.78286999381349,5.970144777497262,-3.1383565380534915,0.9502612898555902,16.00003433225659,6.000001907341583,3.1415748580241036,0.0
1759837109.6588335,1,-1.8310546465727289e-06,5.999996185302731,3.141591787338223,0.0,7.783158074803572,5.970144777147572,-3.1383565349056344,0.9502612898555902,16.00003433225659,6.000001907341583,3.1415748580241036,0.0
1759837109.6690443,1,-1.8310546465727289e-06,5.999996185302731,3.141591787338223,0.0,7.783266813924787,5.970144776973418,-3.1383565321119917,0.9502612898555902,16.00003433225659,6.000001907341583,3.1415748580241036,0.0
1759837109.6802895,1,-1.8310546465727289e-06,5.999996185302731,3.141591787338223,0.0,7.782932859330809,5.970144777241838,-3.138356530930734,0.9502612898555902,16.00003433225659,6.000001907341583,3.1415748580241036,0.0
1759837109.6913917,1,-1.8310546465727289e-06,5.999996185302731,3.141591787338223,0.0,7.78285722297602,5.970144777272456,-3.1383565294757485,0.9502612898555902,16.00003433225659,6.000001907341583,3.1415748580241036,0.0
1759837109.7022738,1,-1.8310546465727289e-06,5.999996185302731,3.141591787338223,0.0,7.782908207254538,5.970144777180691,-3.1383565276633067,0.9502612898555902,16.00003433225659,6.000001907341583,3.1415748580241036,0.0
1759837109.7134562,1,-1.8310546465727289e-06,5.999996185302731,3.141591787338223,0.0,7.782818729946427,5.970144777224126,-3.138356526199848,0.9502612898555902,16.00003433225659,6.000001907341583,3.1415748580241036,0.0
1759837109.7254844,1,-1.8310546465727289e-06,5.999996185302731,3.141591787338223,0.0,7.7483588867170115,5.98923318552531,-3.138356525551785,0.3426298132816453,16.00003433225659,6.000001907341583,3.1415748580241036,0.0
1759837109.7353814,1,-1.8310546465727289e-06,5.999996185302731,3.141591787338223,0.0,7.733154364987156,5.9892328466862566,-3.1360139036056713,0.3426298132816453,16.00003433225659,6.000001907341583,3.1415748580241036,0.0
1759837109.7464,1,-1.8310546465727289e-06,5.999996185302731,3.141591787338223,0.0,7.727199946517537,5.989232717388832,-3.1360139020036533,0.3426298132816453,16.00003433225659,6.000001907341583,3.1415748580241036,0.0
1759837109.7565358,1,-1.8310546465727289e-06,5.999996185302731,3.141591787338223,0.0,7.725041135276117,5.9892326678820815,-3.136013899686854,0.3426298132816453,16.00003433225659,6.000001907341583,3.1415748580241036,0.0
1759837109.7681398,1,-1.8310546465727289e-06,5.999996185302731,3.141591787338223,0.0,7.724024366304274,5.989232649145571,-3.1360138989906927,0.3426298132816453,16.00003433225659,6.000001907341583,3.1415748580241036,0.0
1759837109.7782564,1,-1.8310546465727289e-06,5.999996185302731,3.141591787338223,0.0,7.72383066779024,5.989232641797591,-3.136013896836155,0.3426298132816453,16.00003433225659,6.000001907341583,3.1415748580241036,0.0
1759837109.7895226,1,-1.8310546465727289e-06,5.999996185302731,3.141591787338223,0.0,7.723606222889546,5.9892326391238155,-3.136013895876183,0.3426298132816453,16.00003433225659,6.000001907341583,3.1415748580241036,0.0
1759837109.8008344,1,-1.8310546465727289e-06,5.999996185302731,3.141591787338223,0.0,7.723514532887174,5.989232638102406,-3.1360138949103407,0.3426298132816453,16.00003433225659,6.000001907341583,3.1415748580241036,0.0
1759837109.8110082,1,-1.8310546465727289e-06,5.999996185302731,3.141591787338223,0.0,7.7236284401688335,5.989232637564838,-3.136013892936613,0.3426298132816453,16.00003433225659,6.000001907341583,3.1415748580241036,0.0
1759837109.8221529,1,-1.8310546465727289e-06,5.999996185302731,3.141591787338223,0.0,7.723544892134116,5.989232637470041,-3.1360138919246365,0.3426298132816453,16.00003433225659,6.000001907341583,3.1415748580241036,0.0
1759837109.834499,1,-1.8310546465727289e-06,5.999996185302731,3.141591787338223,0.0,7.723355750016875,5.989232637576231,3.1415917509497078,0.3426298132816453,16.00003433225659,6.000001907341583,3.1415748580241036,0.0
1759837109.8450806,1,-1.8310546465727289e-06,5.999996185302731,3.141591787338223,0.0,7.723514402979068,5.989232637396637,3.141591752652678,0.3426298132816453,16.00003433225659,6.000001907341583,3.1415748580241036,0.0
1759837109.855339,1,-1.8310546465727289e-06,5.999996185302731,3.141591787338223,0.0,7.723617313676567,5.98923263727955,3.1415917544711114,0.3426298132816453,16.00003433225659,6.000001907341583,3.1415748580241036,0.0
1759837109.8664126,1,-1.8310546465727289e-06,5.999996185302731,3.141591787338223,0.0,7.72354994058054,5.9892326373261655,3.1415917554901505,0.3426298132816453,16.00003433225659,6.000001907341583,3.1415748580241036,0.0
1759837109.877282,1,-1.8310546465727289e-06,5.999996185302731,3.141591787338223,0.0,7.723550946933261,5.989232637313555,3.1415917565965437,0.3426298132816453,16.00003433225659,6.000001907341583,3.1415748580241036,0.0
1759837109.8884745,1,-1.8310546465727289e-06,5.999996185302731,3.141591787338223,0.0,7.723509020684789,5.989232637342101,3.1415917574631003,0.3426298132816453,16.00003433225659,6.000001907341583,3.1415748580241036,0.0
1759837109.8992426,1,-1.8310546465727289e-06,5.999996185302731,3.141591787338223,0.0,7.723548546814836,5.9892326372963876,3.141591758603612,0.3426298132816453,16.00003433225659,6.000001907341583,3.1415748580241036,0.0
1759837109.9100635,1,-1.8310546465727289e-06,5.999996185302731,3.141591787338223,0.0,7.723556748698086,5.9892326372792954,3.141591759653071,0.3426298132816453,16.00003433225659,6.000001907341583,3.1415748580241036,0.0
1759837109.9202414,1,-1.8310546465727289e-06,5.999996185302731,3.141591787338223,0.0,7.723644034802381,5.9892326371895255,3.141591761002486,0.3426298132816453,16.00003433225659,6.000001907341583,3.1415748580241036,0.0
