timestamp,vehicle_id,x,y,theta,velocity,gps_available,dt,gps_x,gps_y,gps_theta,gps_velocity,control_steering,control_acceleration
1759837106.716804,0,0.0,6.0,-0.05483113549895435,0.0,False,0.01,nan,nan,nan,nan,0.0,0.0
1759837106.727949,0,0.0,6.0,-0.05483113549895435,0.0,False,0.011144876480102539,nan,nan,nan,nan,0.0,0.0
1759837106.7380564,0,0.0,6.0,-0.05483113549895435,0.0,False,0.01010751724243164,nan,nan,nan,nan,0.0,0.0
1759837106.748611,0,0.0,6.0,-0.05483113549895435,0.0,False,0.01055455207824707,nan,nan,nan,nan,0.0,0.0
1759837106.7587426,0,0.0,6.0,-0.05483113549895435,0.0,False,0.010131597518920898,nan,nan,nan,nan,0.0,0.0
1759837106.7696028,0,0.0,6.0,-0.05483113549895435,0.0,False,0.010860204696655273,nan,nan,nan,nan,0.0,0.0
1759837106.7797084,0,0.0,6.0,-0.05483113549895435,0.0,False,0.010105609893798828,nan,nan,nan,nan,0.0,0.0
1759837106.7903636,0,0.0,6.0,-0.05483113549895435,0.0,False,0.01065516471862793,nan,nan,nan,nan,0.0,0.0
1759837106.8006668,0,0.0,6.0,-0.05483113549895435,0.0,False,0.010303258895874023,nan,nan,nan,nan,0.0,0.0
1759837106.8108017,0,0.0,6.0,-0.05483113549895435,0.0,False,0.01013493537902832,nan,nan,nan,nan,0.0,0.0
1759837106.8213806,0,0.0,6.0,-0.05483113549895435,0.0,False,0.01057887077331543,nan,nan,nan,nan,0.0,0.0
1759837106.8315566,0,0.0,6.0,-0.05483113549895435,0.0,False,0.010175943374633789,nan,nan,nan,nan,0.0,0.0
1759837106.8417664,0,0.0,6.0,-0.05483113549895435,0.0,False,0.010209798812866211,nan,nan,nan,nan,0.0,0.0
1759837106.852036,0,0.0,6.0,-0.05483113549895435,0.0,False,0.010269641876220703,nan,nan,nan,nan,0.0,0.0
1759837106.8630404,0,0.0,6.0,-0.05483113549895435,0.0,False,0.011004447937011719,nan,nan,nan,nan,0.0,0.0
1759837106.873781,0,0.0,6.0,-0.05483113549895435,0.0,False,0.010740518569946289,nan,nan,nan,nan,0.0,0.0
1759837106.8847516,0,0.0,6.0,-0.05483113549895435,0.0,False,0.010970592498779297,nan,nan,nan,nan,0.0,0.0
1759837106.8949745,0,0.0,6.0,-0.05483113549895435,0.0,False,0.010222911834716797,nan,nan,nan,nan,0.0,0.0
1759837106.9057686,0,0.0,6.0,-0.05483113549895435,0.0,False,0.01079416275024414,nan,nan,nan,nan,0.0,0.0
1759837106.9164882,0,-1.8159219635432118e-06,5.999996216829158,-2.8798515882672984,0.0,True,0.010719537734985352,-1.8310546465727384e-06,5.999996185302734,3.141591787338257,0.0,0.0,0.0
1759837106.927698,0,-1.8259964845656314e-06,5.999996195840572,-3.121293210975118,0.0,True,0.011209726333618164,-1.8310546465727384e-06,5.999996185302734,3.141591787338257,0.0,0.0,0.0
1759837106.9381068,0,-1.8291571806177408e-06,5.999996189255788,3.139294834534585,0.0,True,0.010408878326416016,-1.8310546465727384e-06,5.999996185302734,3.141591787338257,0.0,0.0,0.0
1759837106.9487112,0,-1.830331766728059e-06,5.999996186808734,3.1363161796443,0.0,True,0.010604381561279297,-1.8310546465727384e-06,5.999996185302734,3.141591787338257,0.0,0.0,0.0
1759837106.9593318,0,-1.8307786359235715e-06,5.999996185877756,3.135948927993841,0.0,True,0.010620594024658203,-1.8310546465727384e-06,5.999996185302734,3.141591787338257,0.0,0.0,0.0
1759837106.9694202,0,-1.8309492257283275e-06,5.999996185522361,3.1363429862248857,0.0,True,0.010088443756103516,-1.8310546465727384e-06,5.999996185302734,3.141591787338257,0.0,0.0,0.0
1759837106.9796448,0,-1.8310143797188564e-06,5.999996185386624,3.136884931547609,0.0,True,0.010224580764770508,-1.8310546465727384e-06,5.999996185302734,3.141591787338257,0.0,0.0,0.0
1759837106.9910908,0,-1.8310392660213182e-06,5.999996185334777,3.13734541121325,0.0,True,0.011445999145507812,-1.8310546465727384e-06,5.999996185302734,3.141591787338257,0.0,0.0,0.0
1759837107.001985,0,-1.8310487717258726e-06,5.9999961853149735,3.137870266065997,0.0,True,0.010894298553466797,-1.8310546465727384e-06,5.999996185302734,3.141591787338257,0.0,0.0,0.0
1759837107.0126824,0,-1.8310524025809706e-06,5.999996185307409,3.138343889526107,0.0,True,0.010697364807128906,-1.8310546465727384e-06,5.999996185302734,3.141591787338257,0.0,0.0,0.0
1759837107.0239854,0,-1.8310537894441567e-06,5.99999618530452,3.1387073121976172,0.0,True,0.011302947998046875,-1.8310546465727384e-06,5.999996185302734,3.141591787338257,0.0,0.0,0.0
1759837107.034555,0,-1.831054319178753e-06,5.9999961853034165,3.139055926531398,0.0,True,0.010569572448730469,-1.8310546465727384e-06,5.999996185302734,3.141591787338257,0.0,0.0,0.0
1759837107.045143,0,-1.8310545215193638e-06,5.999996185302995,3.1393393633439004,0.0,True,0.010587930679321289,-1.8310546465727384e-06,5.999996185302734,3.141591787338257,0.0,0.0,0.0
1759837107.0563989,0,-1.8310545988065998e-06,5.999996185302834,3.139546780531756,0.0,True,0.011255979537963867,-1.8310546465727384e-06,5.999996185302734,3.141591787338257,0.0,0.0,0.0
1759837107.0676355,0,-1.831054628327697e-06,5.999996185302773,3.1397299321033856,0.0,True,0.01123666763305664,-1.8310546465727384e-06,5.999996185302734,3.141591787338257,0.0,0.0,0.0
1759837107.0784712,0,-1.8310546396037528e-06,5.999996185302749,3.139904190919559,0.0,True,0.010835647583007812,-1.8310546465727384e-06,5.999996185302734,3.141591787338257,0.0,0.0,0.0
1759837107.0898323,0,-1.8310546439108228e-06,5.99999618530274,3.140037508730771,0.0,True,0.011361122131347656,-1.8310546465727384e-06,5.999996185302734,3.141591787338257,0.0,0.0,0.0
1759837107.101058,0,-1.8310546455559772e-06,5.999996185302736,3.140160151830255,0.0,True,0.011225700378417969,-1.8310546465727384e-06,5.999996185302734,3.141591787338257,0.0,0.0,0.0
1759837107.2245495,0,-1.8310546461843702e-06,5.999996185302735,3.1392967808519003,0.0,True,0.1,-1.8310546465727384e-06,5.999996185302734,3.141591787338257,0.0,0.0,0.0
1759837107.235398,0,-1.831054646424395e-06,5.999996185302734,3.1400545522826224,0.0,True,0.010848522186279297,-1.8310546465727384e-06,5.999996185302734,3.141591787338257,0.0,0.0,0.0
1759837107.246642,0,-1.8310546465160764e-06,5.999996185302734,3.140501472696254,0.0,True,0.011244058609008789,-1.8310546465727384e-06,5.999996185302734,3.141591787338257,0.0,0.0,0.0
1759837107.2572818,0,-1.8310546465510955e-06,5.999996185302734,3.140761908529397,0.0,True,0.010639667510986328,-1.8310546465727384e-06,5.999996185302734,3.141591787338257,0.0,0.0,0.0
1759837107.2679298,0,-1.8310546465644716e-06,5.999996185302734,3.1409238892132,0.0,True,0.010648012161254883,-1.8310546465727384e-06,5.999996185302734,3.141591787338257,0.0,0.0,0.0
1759837107.2785652,0,-1.8310546465695807e-06,5.999996185302734,3.141031404278218,0.0,True,0.0106353759765625,-1.8310546465727384e-06,5.999996185302734,3.141591787338257,0.0,0.0,0.0
1759837107.288732,0,-1.8310546465715322e-06,5.999996185302734,3.141109503424442,0.0,True,0.01016688346862793,-1.8310546465727384e-06,5.999996185302734,3.141591787338257,0.0,0.0,0.0
1759837107.2995694,0,-1.8310546465722776e-06,5.999996185302734,3.141160695066592,0.0,True,0.010837316513061523,-1.8310546465727384e-06,5.999996185302734,3.141591787338257,0.0,0.0,0.0
1759837107.3097625,0,-1.8310546465725624e-06,5.999996185302734,3.141202960903996,0.0,True,0.010193109512329102,-1.8310546465727384e-06,5.999996185302734,3.141591787338257,0.0,0.0,0.0
1759837107.3219419,0,-1.8310546465726713e-06,5.999996185302734,3.141221607368351,0.0,True,0.012179374694824219,-1.8310546465727384e-06,5.999996185302734,3.141591787338257,0.0,0.0,0.0
1759837107.3320796,0,-1.8310546465727128e-06,5.999996185302734,3.1412503582377944,0.0,True,0.010137796401977539,-1.8310546465727384e-06,5.999996185302734,3.141591787338257,0.0,0.0,0.0
1759837107.3422446,0,-1.8310546465727287e-06,5.999996185302734,3.1412736057776662,0.0,True,0.010164976119995117,-1.8310546465727384e-06,5.999996185302734,3.141591787338257,0.0,0.0,0.0
1759837107.3531551,0,-1.8310546465727346e-06,5.999996185302734,3.1412874759735896,0.0,True,0.010910511016845703,-1.8310546465727384e-06,5.999996185302734,3.141591787338257,0.0,0.0,0.0
1759837107.3634489,0,-1.831054646572737e-06,5.999996185302734,3.141302994349118,0.0,True,0.010293722152709961,-1.8310546465727384e-06,5.999996185302734,3.141591787338257,0.0,0.0,0.0
1759837107.3742454,0,-1.8310546465727378e-06,5.999996185302734,3.141313330777205,0.0,True,0.010796546936035156,-1.8310546465727384e-06,5.999996185302734,3.141591787338257,0.0,0.0,0.0
1759837107.384592,0,-1.8310546465727382e-06,5.999996185302734,3.141325199273872,0.0,True,0.010346651077270508,-1.8310546465727384e-06,5.999996185302734,3.141591787338257,0.0,0.0,0.0
1759837107.3959155,0,-1.8310546465727384e-06,5.999996185302734,3.1413303538678505,0.0,True,0.01132345199584961,-1.8310546465727384e-06,5.999996185302734,3.141591787338257,0.0,0.0,0.0
1759837107.4067037,0,-1.8310546465727384e-06,5.999996185302734,3.141338806708731,0.0,True,0.010788202285766602,-1.8310546465727384e-06,5.999996185302734,3.141591787338257,0.0,0.0,0.0
1759837107.4181995,0,-1.8310546465727384e-06,5.999996185302734,3.1413434176725694,0.0,True,0.011495828628540039,-1.8310546465727384e-06,5.999996185302734,3.141591787338257,0.0,0.0,0.0
1759837107.4289517,0,-1.8310546465727384e-06,5.999996185302734,3.1413524799485675,0.0,True,0.010752201080322266,-1.8310546465727384e-06,5.999996185302734,3.141591787338257,0.0,0.0,0.0
1759837107.4389555,0,-1.8310546465727384e-06,5.999996185302734,3.1413647951360346,0.0,True,0.010003805160522461,-1.8310546465727384e-06,5.999996185302734,3.141591787338257,0.0,0.0,0.0
1759837107.4496512,0,-1.8310546465727384e-06,5.999996185302734,3.141372133411286,0.0,True,0.010695695877075195,-1.8310546465727384e-06,5.999996185302734,3.141591787338257,0.0,0.0,0.0
1759837107.4608881,0,-1.8310546465727384e-06,5.999996185302734,3.1413763980304026,0.0,True,0.011236906051635742,-1.8310546465727384e-06,5.999996185302734,3.141591787338257,0.0,0.0,0.0
1759837107.4711554,0,-1.8310546465727384e-06,5.999996185302734,3.1413854935512475,0.0,True,0.010267257690429688,-1.8310546465727384e-06,5.999996185302734,3.141591787338257,0.0,0.0,0.0
1759837107.4825702,0,-1.8310546465727384e-06,5.999996185302734,3.1413889064581326,0.0,True,0.011414766311645508,-1.8310546465727384e-06,5.999996185302734,3.141591787338257,0.0,0.0,0.0
1759837107.4937787,0,-1.8310546465727384e-06,5.999996185302734,3.1413937583702776,0.0,True,0.011208534240722656,-1.8310546465727384e-06,5.999996185302734,3.141591787338257,0.0,0.0,0.0
1759837107.5049007,0,-1.8310546465727384e-06,5.999996185302734,3.141399436293657,0.0,True,0.011121988296508789,-1.8310546465727384e-06,5.999996185302734,3.141591787338257,0.0,0.0,0.0
1759837107.5203712,0,-1.8310546465727384e-06,5.999996185302734,3.141388592263178,0.0,True,0.015470504760742188,-1.8310546465727384e-06,5.999996185302734,3.141591787338257,0.0,0.0,0.0
1759837107.5309858,0,-1.8310546465727384e-06,5.999996185302734,3.1414009678498473,0.0,True,0.010614633560180664,-1.8310546465727384e-06,5.999996185302734,3.141591787338257,0.0,0.0,0.0
1759837107.5416973,0,-1.8310546465727384e-06,5.999996185302734,3.1414122518963694,0.0,True,0.010711431503295898,-1.8310546465727384e-06,5.999996185302734,3.141591787338257,0.0,0.0,0.0
1759837107.5530298,0,-1.8310546465727384e-06,5.999996185302734,3.141419544001007,0.0,True,0.011332511901855469,-1.8310546465727384e-06,5.999996185302734,3.141591787338257,0.0,0.0,0.0
1759837107.5631053,0,-1.8310546465727384e-06,5.999996185302734,3.1414302503260547,0.0,True,0.010075569152832031,-1.8310546465727384e-06,5.999996185302734,3.141591787338257,0.0,0.0,0.0
1759837107.5736227,0,-1.8310546465727384e-06,5.999996185302734,3.1414378374050465,0.0,True,0.010517358779907227,-1.8310546465727384e-06,5.999996185302734,3.141591787338257,0.0,0.0,0.0
1759837107.5838594,0,-1.8310546465727384e-06,5.999996185302734,3.1414451866649244,0.0,True,0.010236740112304688,-1.8310546465727384e-06,5.999996185302734,3.141591787338257,0.0,0.0,0.0
1759837107.5939505,0,-1.8310546465727384e-06,5.999996185302734,3.1414519921557105,0.0,True,0.010091066360473633,-1.8310546465727384e-06,5.999996185302734,3.141591787338257,0.0,0.0,0.0
1759837107.605208,0,-1.8310546465727384e-06,5.999996185302734,3.1414544392318398,0.0,True,0.011257410049438477,-1.8310546465727384e-06,5.999996185302734,3.141591787338257,0.0,0.0,0.0
1759837107.6155972,0,-1.8310546465727384e-06,5.999996185302734,3.1414596802617787,0.0,True,0.010389328002929688,-1.8310546465727384e-06,5.999996185302734,3.141591787338257,0.0,0.0,0.0
1759837107.6268754,0,-1.8310546465727384e-06,5.999996185302734,3.141462191339084,0.0,True,0.011278152465820312,-1.8310546465727384e-06,5.999996185302734,3.141591787338257,0.0,0.0,0.0
1759837107.6378148,0,-1.8310546465727384e-06,5.999996185302734,3.1414659413687964,0.0,True,0.010939359664916992,-1.8310546465727384e-06,5.999996185302734,3.141591787338257,0.0,0.0,0.0
1759837107.6479368,0,-1.8310546465727384e-06,5.999996185302734,3.1414719090594048,0.0,True,0.010122060775756836,-1.8310546465727384e-06,5.999996185302734,3.141591787338257,0.0,0.0,0.0
1759837107.6592069,0,-1.8310546465727384e-06,5.999996185302734,3.1414743474042446,0.0,True,0.01127004623413086,-1.8310546465727384e-06,5.999996185302734,3.141591787338257,0.0,0.0,0.0
1759837107.6699145,0,-1.8310546465727384e-06,5.999996185302734,3.1414783448236214,0.0,True,0.010707616806030273,-1.8310546465727384e-06,5.999996185302734,3.141591787338257,0.0,0.0,0.0
1759837107.6800857,0,-1.8310546465727384e-06,5.999996185302734,3.141483511095739,0.0,True,0.010171175003051758,-1.8310546465727384e-06,5.999996185302734,3.141591787338257,0.0,0.0,0.0
1759837107.6901317,0,-1.8310546465727384e-06,5.999996185302734,3.1414883949815486,0.0,True,0.010046005249023438,-1.8310546465727384e-06,5.999996185302734,3.141591787338257,0.0,0.0,0.0
1759837107.7014604,0,-1.8310546465727384e-06,5.999996185302734,3.1414898389527544,0.0,True,0.011328697204589844,-1.8310546465727384e-06,5.999996185302734,3.141591787338257,0.0,0.0,0.0
1759837107.7126565,0,-1.8310546465727384e-06,5.999996185302734,3.1414919325868578,0.0,True,0.011196136474609375,-1.8310546465727384e-06,5.999996185302734,3.141591787338257,0.0,0.0,0.0
1759837107.7232375,0,-1.8310546465727384e-06,5.999996185302734,3.141495660056302,0.0,True,0.010581016540527344,-1.8310546465727384e-06,5.999996185302734,3.141591787338257,0.0,0.0,0.0
1759837107.7337344,0,-1.8310546465727384e-06,5.999996185302734,3.141499391596687,0.0,True,0.010496854782104492,-1.8310546465727384e-06,5.999996185302734,3.141591787338257,0.0,0.0,0.0
1759837107.7446287,0,-1.8310546465727384e-06,5.999996185302734,3.1415020624524086,0.0,True,0.010894298553466797,-1.8310546465727384e-06,5.999996185302734,3.141591787338257,0.0,0.0,0.0
1759837107.755937,0,-1.8310546465727384e-06,5.999996185302734,3.141503945093234,0.0,True,0.011308431625366211,-1.8310546465727384e-06,5.999996185302734,3.141591787338257,0.0,0.0,0.0
1759837107.7671692,0,-1.8310546465727384e-06,5.999996185302734,3.141506223399098,0.0,True,0.011232137680053711,-1.8310546465727384e-06,5.999996185302734,3.141591787338257,0.0,0.0,0.0
1759837107.7778535,0,-1.8310546465727384e-06,5.999996185302734,3.141509623662495,0.0,True,0.01068425178527832,-1.8310546465727384e-06,5.999996185302734,3.141591787338257,0.0,0.0,0.0
1759837107.7885592,0,-1.8310546465727384e-06,5.999996185302734,3.1415127828743437,0.0,True,0.010705709457397461,-1.8310546465727384e-06,5.999996185302734,3.141591787338257,0.0,0.0,0.0
1759837107.7997236,0,-1.8310546465727384e-06,5.999996185302734,3.1415149665216155,0.0,True,0.011164426803588867,-1.8310546465727384e-06,5.999996185302734,3.141591787338257,0.0,0.0,0.0
1759837107.810875,0,-1.8310546465727384e-06,5.999996185302734,3.141517208132907,0.0,True,0.011151313781738281,-1.8310546465727384e-06,5.999996185302734,3.141591787338257,0.0,0.0,0.0
1759837107.8220327,0,-1.8310546465727384e-06,5.999996185302734,3.141519496725005,0.0,True,0.011157751083374023,-1.8310546465727384e-06,5.999996185302734,3.141591787338257,0.0,0.0,0.0
1759837107.8327353,0,-1.8310546465727384e-06,5.999996185302734,3.1415224636827705,0.0,True,0.01070261001586914,-1.8310546465727384e-06,5.999996185302734,3.141591787338257,0.0,0.0,0.0
1759837107.844014,0,-1.8310546465727384e-06,5.999996185302734,3.1415244101666,0.0,True,0.011278629302978516,-1.8310546465727384e-06,5.999996185302734,3.141591787338257,0.0,0.0,0.0
1759837107.8552089,0,-1.8310546465727384e-06,5.999996185302734,3.1415264944319112,0.0,True,0.011194944381713867,-1.8310546465727384e-06,5.999996185302734,3.141591787338257,0.0,0.0,0.0
1759837107.8659081,0,-1.8310546465727384e-06,5.999996185302734,3.1415292449018146,0.0,True,0.010699272155761719,-1.8310546465727384e-06,5.999996185302734,3.141591787338257,0.0,0.0,0.0
1759837107.8766057,0,-1.8310546465727384e-06,5.999996185302734,3.1415317835081957,0.0,True,0.010697603225708008,-1.8310546465727384e-06,5.999996185302734,3.141591787338257,0.0,0.0,0.0
1759837107.887821,0,-1.8310546465727384e-06,5.999996185302734,3.141533469176718,0.0,True,0.0112152099609375,-1.8310546465727384e-06,5.999996185302734,3.141591787338257,0.0,0.0,0.0
1759837107.8991451,0,-1.8310546465727384e-06,5.999996185302734,3.1415350453228683,0.0,True,0.011324167251586914,-1.8310546465727384e-06,5.999996185302734,3.141591787338257,0.0,0.0,0.0
1759837107.9099016,0,-1.8310546465727384e-06,5.999996185302734,3.14153734893131,0.0,True,0.010756492614746094,-1.8310546465727384e-06,5.999996185302734,3.141591787338257,0.0,0.0,0.0
1759837107.9248815,0,-1.8310546465727384e-06,5.999996185302734,3.1415349396446057,0.0,True,0.014979839324951172,-1.8310546465727384e-06,5.999996185302734,3.141591787338257,0.0,0.0,0.0
1759837107.9351096,0,-1.8310546465727384e-06,5.999996185302734,3.1415387660954117,0.0,True,0.010228157043457031,-1.8310546465727384e-06,5.999996185302734,3.141591787338257,0.0,0.0,0.0
1759837107.9460886,0,-1.8310546465727384e-06,5.999996185302734,3.1415414913461905,0.0,True,0.010978937149047852,-1.8310546465727384e-06,5.999996185302734,3.141591787338257,0.0,0.0,0.0
1759837107.9564013,0,-1.8310546465727384e-06,5.999996185302734,3.1415444561807995,0.0,True,0.010312795639038086,-1.8310546465727384e-06,5.999996185302734,3.141591787338257,0.0,0.0,0.0
1759837107.9671323,0,-1.8310546465727384e-06,5.999996185302734,3.1415465617791956,0.0,True,0.010730981826782227,-1.8310546465727384e-06,5.999996185302734,3.141591787338257,0.0,0.0,0.0
1759837107.9785326,0,-1.8310546465727384e-06,5.999996185302734,3.141547794388295,0.0,True,0.011400222778320312,-1.8310546465727384e-06,5.999996185302734,3.141591787338257,0.0,0.0,0.0
1759837107.9896376,0,-1.8310546465727384e-06,5.999996185302734,3.14154930442972,0.0,True,0.011105060577392578,-1.8310546465727384e-06,5.999996185302734,3.141591787338257,0.0,0.0,0.0
1759837108.000854,0,-1.8310546465727384e-06,5.999996185302734,3.141550691780651,0.0,True,0.011216402053833008,-1.8310546465727384e-06,5.999996185302734,3.141591787338257,0.0,0.0,0.0
1759837108.0116422,0,-1.8310546465727384e-06,5.999996185302734,3.1415524051406383,0.0,True,0.010788202285766602,-1.8310546465727384e-06,5.999996185302734,3.141591787338257,0.0,0.0,0.0
1759837108.0230665,0,-1.8310546465727384e-06,5.999996185302734,3.141553486186739,0.0,True,0.01142430305480957,-1.8310546465727384e-06,5.999996185302734,3.141591787338257,0.0,0.0,0.0
1759837108.0338275,0,-1.8310546465727384e-06,5.999996185302734,3.1415550934426406,0.0,True,0.010761022567749023,-1.8310546465727384e-06,5.999996185302734,3.141591787338257,0.0,0.0,0.0
1759837108.0443919,0,-1.8310546465727384e-06,5.999996185302734,3.141556729892196,0.0,True,0.010564327239990234,-1.8310546465727384e-06,5.999996185302734,3.141591787338257,0.0,0.0,0.0
1759837108.055154,0,-1.8310546465727384e-06,5.999996185302734,3.141558050407845,0.0,True,0.010762214660644531,-1.8310546465727384e-06,5.999996185302734,3.141591787338257,0.0,0.0,0.0
1759837108.0653393,0,-1.8310546465727384e-06,5.999996185302734,3.14155966366023,0.0,True,0.01018524169921875,-1.8310546465727384e-06,5.999996185302734,3.141591787338257,0.0,0.0,0.0
1759837108.0756302,0,-1.8310546465727384e-06,5.999996185302734,3.1415610133115113,0.0,True,0.010290861129760742,-1.8310546465727384e-06,5.999996185302734,3.141591787338257,0.0,0.0,0.0
1759837108.0869427,0,-1.8310546465727384e-06,5.999996185302734,3.1415615493603894,0.0,True,0.011312484741210938,-1.8310546465727384e-06,5.999996185302734,3.141591787338257,0.0,0.0,0.0
1759837108.0980449,0,-1.8310546465727384e-06,5.999996185302734,3.1415623070849215,0.0,True,0.01110219955444336,-1.8310546465727384e-06,5.999996185302734,3.141591787338257,0.0,0.0,0.0
1759837108.109299,0,-1.8310546465727384e-06,5.999996185302734,3.141563042984025,0.0,True,0.011254072189331055,-1.8310546465727384e-06,5.999996185302734,3.141591787338257,0.0,0.0,0.0
1759837108.122983,0,-1.8310546465727384e-06,5.999996185302734,3.1415624444145216,0.0,True,0.01368403434753418,-1.8310546465727384e-06,5.999996185302734,3.141591787338257,0.0,0.0,0.0
1759837108.1333423,0,-1.8310546465727384e-06,5.999996185302734,3.1415641725311225,0.0,True,0.01035928726196289,-1.8310546465727384e-06,5.999996185302734,3.141591787338257,0.0,0.0,0.0
1759837108.1443145,0,-1.8310546465727384e-06,5.999996185302734,3.141565425857628,0.0,True,0.010972261428833008,-1.8310546465727384e-06,5.999996185302734,3.141591787338257,0.0,0.0,0.0
1759837108.1556208,0,-1.8310546465727384e-06,5.999996185302734,3.141566353694369,0.0,True,0.011306285858154297,-1.8310546465727384e-06,5.999996185302734,3.141591787338257,0.0,0.0,0.0
1759837108.1668417,0,-1.8310546465727384e-06,5.999996185302734,3.1415672786829685,0.0,True,0.011220932006835938,-1.8310546465727384e-06,5.999996185302734,3.141591787338257,0.0,0.0,0.0
1759837108.1780496,0,-1.8310546465727384e-06,5.999996185302734,3.1415681718418345,0.0,True,0.011207818984985352,-1.8310546465727384e-06,5.999996185302734,3.141591787338257,0.0,0.0,0.0
1759837108.1888328,0,-1.8310546465727384e-06,5.999996185302734,3.1415692219568427,0.0,True,0.010783195495605469,-1.8310546465727384e-06,5.999996185302734,3.141591787338257,0.0,0.0,0.0
1759837108.199914,0,-1.8310546465727384e-06,5.999996185302734,3.1415700405310982,0.0,True,0.011081218719482422,-1.8310546465727384e-06,5.999996185302734,3.141591787338257,0.0,0.0,0.0
1759837108.2100956,0,-1.8310546465727384e-06,5.999996185302734,3.1415711979419374,0.0,True,0.010181665420532227,-1.8310546465727384e-06,5.999996185302734,3.141591787338257,0.0,0.0,0.0
1759837108.2214928,0,-1.8310546465727384e-06,5.999996185302734,3.1415716933488174,0.0,True,0.011397123336791992,-1.8310546465727384e-06,5.999996185302734,3.141591787338257,0.0,0.0,0.0
1759837108.2323499,0,-1.8310546465727384e-06,5.999996185302734,3.141572420897919,0.0,True,0.010857105255126953,-1.8310546465727384e-06,5.999996185302734,3.141591787338257,0.0,0.0,0.0
1759837108.2434742,0,-1.8310546465727384e-06,5.999996185302734,3.141573019369334,0.0,True,0.011124372482299805,-1.8310546465727384e-06,5.999996185302734,3.141591787338257,0.0,0.0,0.0
1759837108.2543654,0,-1.8310546465727384e-06,5.999996185302734,3.141573699810472,0.0,True,0.010891199111938477,-1.8310546465727384e-06,5.999996185302734,3.141591787338257,0.0,0.0,0.0
1759837108.2650058,0,-1.8310546465727384e-06,5.999996185302734,3.141574441441989,0.0,True,0.010640382766723633,-1.8310546465727384e-06,5.999996185302734,3.141591787338257,0.0,0.0,0.0
1759837108.2763987,0,-1.8310546465727384e-06,5.999996185302734,3.141574856267292,0.0,True,0.011392831802368164,-1.8310546465727384e-06,5.999996185302734,3.141591787338257,0.0,0.0,0.0
1759837108.2879088,0,-1.8310546465727384e-06,5.999996185302734,3.1415752576928373,0.0,True,0.011510133743286133,-1.8310546465727384e-06,5.999996185302734,3.141591787338257,0.0,0.0,0.0
1759837108.2986042,0,-1.8310546465727384e-06,5.999996185302734,3.1415759722199326,0.0,True,0.010695457458496094,-1.8310546465727384e-06,5.999996185302734,3.141591787338257,0.0,0.0,0.0
1759837108.3089411,0,-1.8310546465727384e-06,5.999996185302734,3.141576748216968,0.0,True,0.010336875915527344,-1.8310546465727384e-06,5.999996185302734,3.141591787338257,0.0,0.0,0.0
1759837108.31942,0,-1.8310546465727384e-06,5.999996185302734,3.141577382355191,0.0,True,0.010478973388671875,-1.8310546465727384e-06,5.999996185302734,3.141591787338257,0.0,0.0,0.0
1759837108.330455,0,-1.8310546465727384e-06,5.999996185302734,3.1415777808515486,0.0,True,0.011034965515136719,-1.8310546465727384e-06,5.999996185302734,3.141591787338257,0.0,0.0,0.0
1759837108.341112,0,-1.8310546465727384e-06,5.999996185302734,3.141578288371065,0.0,True,0.01065683364868164,-1.8310546465727384e-06,5.999996185302734,3.141591787338257,0.0,0.0,0.0
1759837108.3524804,0,-1.8310546465727384e-06,5.999996185302734,3.141578575321457,0.0,True,0.011368513107299805,-1.8310546465727384e-06,5.999996185302734,3.141591787338257,0.0,0.0,0.0
1759837108.3631232,0,-1.8310546465727384e-06,5.999996185302734,3.1415790894921667,0.0,True,0.010642766952514648,-1.8310546465727384e-06,5.999996185302734,3.141591787338257,0.0,0.0,0.0
1759837108.3732798,0,-1.8310546465727384e-06,5.999996185302734,3.1415797038065225,0.0,True,0.010156631469726562,-1.8310546465727384e-06,5.999996185302734,3.141591787338257,0.0,0.0,0.0
1759837108.3836718,0,-1.8310546465727384e-06,5.999996185302734,3.141580183582043,0.0,True,0.010391950607299805,-1.8310546465727384e-06,5.999996185302734,3.141591787338257,0.0,0.0,0.0
1759837108.3981366,0,-1.8310546465727384e-06,5.999996185302734,3.141579632434553,0.0,True,0.014464855194091797,-1.8310546465727384e-06,5.999996185302734,3.141591787338257,0.0,0.0,0.0
1759837108.4093344,0,-1.8310546465727384e-06,5.999996185302734,3.1415801161036825,0.0,True,0.011197805404663086,-1.8310546465727384e-06,5.999996185302734,3.141591787338257,0.0,0.0,0.0
1759837108.4199584,0,-1.8310546465727384e-06,5.999996185302734,3.1415807546919954,0.0,True,0.010623931884765625,-1.8310546465727384e-06,5.999996185302734,3.141591787338257,0.0,0.0,0.0
1759837108.4310718,0,-1.8310546465727384e-06,5.999996185302734,3.141581205009219,0.0,True,0.011113405227661133,-1.8310546465727384e-06,5.999996185302734,3.141591787338257,0.0,0.0,0.0
1759837108.4421592,0,-1.8310546465727384e-06,5.999996185302734,3.1415816171503543,0.0,True,0.011087417602539062,-1.8310546465727384e-06,5.999996185302734,3.141591787338257,0.0,0.0,0.0
1759837108.4529774,0,-1.8310546465727384e-06,5.999996185302734,3.141582055145788,0.0,True,0.010818243026733398,-1.8310546465727384e-06,5.999996185302734,3.141591787338257,0.0,0.0,0.0
1759837108.4637194,0,-1.8310546465727384e-06,5.999996185302734,3.1415824682677247,0.0,True,0.010741949081420898,-1.8310546465727384e-06,5.999996185302734,3.141591787338257,0.0,0.0,0.0
1759837108.4744775,0,-1.8310546465727384e-06,5.999996185302734,3.1415828386046325,0.0,True,0.010758161544799805,-1.8310546465727384e-06,5.999996185302734,3.141591787338257,0.0,0.0,0.0
1759837108.4854312,0,-1.8310546465727384e-06,5.999996185302734,3.1415831424089227,0.0,True,0.010953664779663086,-1.8310546465727384e-06,5.999996185302734,3.141591787338257,0.0,0.0,0.0
1759837108.4968164,0,-1.8310546465727384e-06,5.999996185302734,3.1415833576405525,0.0,True,0.011385202407836914,-1.8310546465727384e-06,5.999996185302734,3.141591787338257,0.0,0.0,0.0
1759837108.507604,0,-1.8310546465727384e-06,5.999996185302734,3.1415836881359827,0.0,True,0.010787487030029297,-1.8310546465727384e-06,5.999996185302734,3.141591787338257,0.0,0.0,0.0
1759837108.5183895,0,-1.8310546465727384e-06,5.999996185302734,3.14158400124904,0.0,True,0.010785579681396484,-1.8310546465727384e-06,5.999996185302734,3.141591787338257,0.0,0.0,0.0
1759837108.5286465,0,-1.8310546465727384e-06,5.999996185302734,3.1415843747829832,0.0,True,0.01025700569152832,-1.8310546465727384e-06,5.999996185302734,3.141591787338257,0.0,0.0,0.0
1759837108.539322,0,-1.8310546465727384e-06,5.999996185302734,3.1415846397358234,0.0,True,0.010675430297851562,-1.8310546465727384e-06,5.999996185302734,3.141591787338257,0.0,0.0,0.0
1759837108.549643,0,-1.8310546465727384e-06,5.999996185302734,3.1415849365199016,0.0,True,0.01032114028930664,-1.8310546465727384e-06,5.999996185302734,3.141591787338257,0.0,0.0,0.0
1759837108.5608106,0,-1.8310546465727384e-06,5.999996185302734,3.1415850845662803,0.0,True,0.011167526245117188,-1.8310546465727384e-06,5.999996185302734,3.141591787338257,0.0,0.0,0.0
1759837108.5716681,0,-1.8310546465727384e-06,5.999996185302734,3.141585287596362,0.0,True,0.010857582092285156,-1.8310546465727384e-06,5.999996185302734,3.141591787338257,0.0,0.0,0.0
1759837108.5828996,0,-1.8310546465727384e-06,5.999996185302734,3.1415854438245496,0.0,True,0.011231422424316406,-1.8310546465727384e-06,5.999996185302734,3.141591787338257,0.0,0.0,0.0
1759837108.5944126,0,-1.8310546465727384e-06,5.999996185302734,3.1415855768328544,0.0,True,0.011512994766235352,-1.8310546465727384e-06,5.999996185302734,3.141591787338257,0.0,0.0,0.0
1759837108.6052651,0,-1.8310546465727384e-06,5.999996185302734,3.141585813843541,0.0,True,0.010852575302124023,-1.8310546465727384e-06,5.999996185302734,3.141591787338257,0.0,0.0,0.0
1759837108.6160254,0,-1.8310546465727384e-06,5.999996185302734,3.1415860526848753,0.0,True,0.010760307312011719,-1.8310546465727384e-06,5.999996185302734,3.141591787338257,0.0,0.0,0.0
1759837108.6273258,0,-1.8310546465727384e-06,5.999996185302734,3.1415862106415045,0.0,True,0.011300325393676758,-1.8310546465727384e-06,5.999996185302734,3.141591787338257,0.0,0.0,0.0
1759837108.638689,0,-1.8310546465727384e-06,5.999996185302734,3.1415863650651144,0.0,True,0.01136326789855957,-1.8310546465727384e-06,5.999996185302734,3.141591787338257,0.0,0.0,0.0
1759837108.6494415,0,-1.8310546465727384e-06,5.999996185302734,3.141586592918383,0.0,True,0.010752439498901367,-1.8310546465727384e-06,5.999996185302734,3.141591787338257,0.0,0.0,0.0
1759837108.6608782,0,-1.8310546465727384e-06,5.999996185302734,3.1415867335809526,0.0,True,0.011436700820922852,-1.8310546465727384e-06,5.999996185302734,3.141591787338257,0.0,0.0,0.0
1759837108.6716619,0,-1.8310546465727384e-06,5.999996185302734,3.141586943513481,0.0,True,0.010783672332763672,-1.8310546465727384e-06,5.999996185302734,3.141591787338257,0.0,0.0,0.0
1759837108.6819215,0,-1.8310546465727384e-06,5.999996185302734,3.141587190092533,0.0,True,0.010259628295898438,-1.8310546465727384e-06,5.999996185302734,3.141591787338257,0.0,0.0,0.0
1759837108.6926622,0,-1.8310546465727384e-06,5.999996185302734,3.141587359384527,0.0,True,0.01074075698852539,-1.8310546465727384e-06,5.999996185302734,3.141591787338257,0.0,0.0,0.0
1759837108.7029963,0,-1.8310546465727384e-06,5.999996185302734,3.1415875512268556,0.0,True,0.010334014892578125,-1.8310546465727384e-06,5.999996185302734,3.141591787338257,0.0,0.0,0.0
1759837108.7142372,0,-1.8310546465727384e-06,5.999996185302734,3.141587644104993,0.0,True,0.011240959167480469,-1.8310546465727384e-06,5.999996185302734,3.141591787338257,0.0,0.0,0.0
1759837108.7266204,0,-1.8310546465727384e-06,5.999996185302734,3.1415876479362588,0.0,True,0.012383222579956055,-1.8310546465727384e-06,5.999996185302734,3.141591787338257,0.0,0.0,0.0
1759837108.737384,0,-1.8310546465727384e-06,5.999996185302734,3.1415878242154047,0.0,True,0.01076364517211914,-1.8310546465727384e-06,5.999996185302734,3.141591787338257,0.0,0.0,0.0
1759837108.7481997,0,-1.8310546465727384e-06,5.999996185302734,3.1415879899955126,0.0,True,0.010815620422363281,-1.8310546465727384e-06,5.999996185302734,3.141591787338257,0.0,0.0,0.0
1759837108.7595901,0,-1.8310546465727384e-06,5.999996185302734,3.141588097284364,0.0,True,0.011390447616577148,-1.8310546465727384e-06,5.999996185302734,3.141591787338257,0.0,0.0,0.0
1759837108.7702942,0,-1.8310546465727384e-06,5.999996185302734,3.141588256310394,0.0,True,0.01070404052734375,-1.8310546465727384e-06,5.999996185302734,3.141591787338257,0.0,0.0,0.0
1759837108.7811728,0,-1.8310546465727384e-06,5.999996185302734,3.1415883906161852,0.0,True,0.010878562927246094,-1.8310546465727384e-06,5.999996185302734,3.141591787338257,0.0,0.0,0.0
1759837108.7920887,0,-1.8310546465727384e-06,5.999996185302734,3.141588512553625,0.0,True,0.010915994644165039,-1.8310546465727384e-06,5.999996185302734,3.141591787338257,0.0,0.0,0.0
1759837108.8027222,0,-1.8310546465727384e-06,5.999996185302734,3.1415886467428056,0.0,True,0.010633468627929688,-1.8310546465727384e-06,5.999996185302734,3.141591787338257,0.0,0.0,0.0
1759837108.8134356,0,-1.8310546465727384e-06,5.999996185302734,3.141588764807768,0.0,True,0.010713338851928711,-1.8310546465727384e-06,5.999996185302734,3.141591787338257,0.0,0.0,0.0
1759837108.8245468,0,-1.8310546465727384e-06,5.999996185302734,3.141588849728045,0.0,True,0.011111259460449219,-1.8310546465727384e-06,5.999996185302734,3.141591787338257,0.0,0.0,0.0
1759837108.835337,0,-1.8310546465727384e-06,5.999996185302734,3.1415889548375393,0.0,True,0.010790109634399414,-1.8310546465727384e-06,5.999996185302734,3.141591787338257,0.0,0.0,0.0
1759837108.8465838,0,-1.8310546465727384e-06,5.999996185302734,3.141589029569486,0.0,True,0.011246919631958008,-1.8310546465727384e-06,5.999996185302734,3.141591787338257,0.0,0.0,0.0
1759837108.857252,0,-1.8310546465727384e-06,5.999996185302734,3.1415891394901294,0.0,True,0.010668039321899414,-1.8310546465727384e-06,5.999996185302734,3.141591787338257,0.0,0.0,0.0
1759837108.8676634,0,-1.8310546465727384e-06,5.999996185302734,3.141589256440696,0.0,True,0.010411500930786133,-1.8310546465727384e-06,5.999996185302734,3.141591787338257,0.0,0.0,0.0
1759837108.878379,0,-1.8310546465727384e-06,5.999996185302734,3.1415893452304093,0.0,True,0.010715723037719727,-1.8310546465727384e-06,5.999996185302734,3.141591787338257,0.0,0.0,0.0
1759837108.889236,0,-1.8310546465727384e-06,5.999996185302734,3.141589421125694,0.0,True,0.010856866836547852,-1.8310546465727384e-06,5.999996185302734,3.141591787338257,0.0,0.0,0.0
1759837108.8999193,0,-1.8310546465727384e-06,5.999996185302734,3.1415895041248447,0.0,True,0.010683298110961914,-1.8310546465727384e-06,5.999996185302734,3.141591787338257,0.0,0.0,0.0
1759837108.910788,0,-1.8310546465727384e-06,5.999996185302734,3.141589574829341,0.0,True,0.01086878776550293,-1.8310546465727384e-06,5.999996185302734,3.141591787338257,0.0,0.0,0.0
1759837108.9220636,0,-1.8310546465727384e-06,5.999996185302734,3.141589625955543,0.0,True,0.011275529861450195,-1.8310546465727384e-06,5.999996185302734,3.141591787338257,0.0,0.0,0.0
1759837108.9336174,0,-1.8310546465727384e-06,5.999996185302734,3.1415896699400605,0.0,True,0.011553764343261719,-1.8310546465727384e-06,5.999996185302734,3.141591787338257,0.0,0.0,0.0
1759837108.945009,0,-1.8310546465727384e-06,5.999996185302734,3.141589728990791,0.0,True,0.011391639709472656,-1.8310546465727384e-06,5.999996185302734,3.141591787338257,0.0,0.0,0.0
1759837108.956213,0,-1.8310546465727384e-06,5.999996185302734,3.1415897995749305,0.0,True,0.011204004287719727,-1.8310546465727384e-06,5.999996185302734,3.141591787338257,0.0,0.0,0.0
1759837108.967442,0,-1.8310546465727384e-06,5.999996185302734,3.1415898682193344,0.0,True,0.01122903823852539,-1.8310546465727384e-06,5.999996185302734,3.141591787338257,0.0,0.0,0.0
1759837108.977776,0,-1.8310546465727384e-06,5.999996185302734,3.1415899688882813,0.0,True,0.010334014892578125,-1.8310546465727384e-06,5.999996185302734,3.141591787338257,0.0,0.0,0.0
1759837108.9881582,0,-1.8310546465727384e-06,5.999996185302734,3.1415900553135803,0.0,True,0.01038217544555664,-1.8310546465727384e-06,5.999996185302734,3.141591787338257,0.0,0.0,0.0
1759837108.9988792,0,-1.8310546465727384e-06,5.999996185302734,3.1415901182329513,0.0,True,0.010720968246459961,-1.8310546465727384e-06,5.999996185302734,3.141591787338257,0.0,0.0,0.0
1759837109.0097482,0,-1.8310546465727384e-06,5.999996185302734,3.1415901712156877,0.0,True,0.010869026184082031,-1.8310546465727384e-06,5.999996185302734,3.141591787338257,0.0,0.0,0.0
1759837109.020455,0,-1.8310546465727384e-06,5.999996185302734,3.141590228274943,0.0,True,0.010706663131713867,-1.8310546465727384e-06,5.999996185302734,3.141591787338257,0.0,0.0,0.0
1759837109.0313582,0,-1.8310546465727384e-06,5.999996185302734,3.1415902764768546,0.0,True,0.010903358459472656,-1.8310546465727384e-06,5.999996185302734,3.141591787338257,0.0,0.0,0.0
1759837109.042521,0,-1.8310546465727384e-06,5.999996185302734,3.1415903159531933,0.0,True,0.011162757873535156,-1.8310546465727384e-06,5.999996185302734,3.141591787338257,0.0,0.0,0.0
1759837109.0536075,0,-1.8310546465727384e-06,5.999996185302734,3.1415903597430717,0.0,True,0.011086463928222656,-1.8310546465727384e-06,5.999996185302734,3.141591787338257,0.0,0.0,0.0
1759837109.063613,0,-1.8310546465727384e-06,5.999996185302734,3.141590435634436,0.0,True,0.010005474090576172,-1.8310546465727384e-06,5.999996185302734,3.141591787338257,0.0,0.0,0.0
1759837109.0749862,0,-1.8310546465727384e-06,5.999996185302734,3.1415904637013448,0.0,True,0.011373281478881836,-1.8310546465727384e-06,5.999996185302734,3.141591787338257,0.0,0.0,0.0
1759837109.0857537,0,-1.8310546465727384e-06,5.999996185302734,3.141590510215572,0.0,True,0.010767459869384766,-1.8310546465727384e-06,5.999996185302734,3.141591787338257,0.0,0.0,0.0
1759837109.096445,0,-1.8310546465727384e-06,5.999996185302734,3.1415905576605176,0.0,True,0.010691404342651367,-1.8310546465727384e-06,5.999996185302734,3.141591787338257,0.0,0.0,0.0
1759837109.106766,0,-1.8310546465727384e-06,5.999996185302734,3.1415906115701553,0.0,True,0.010320901870727539,-1.8310546465727384e-06,5.999996185302734,3.141591787338257,0.0,0.0,0.0
1759837109.1176069,0,-1.8310546465727384e-06,5.999996185302734,3.1415906472786475,0.0,True,0.010840892791748047,-1.8310546465727384e-06,5.999996185302734,3.141591787338257,0.0,0.0,0.0
1759837109.1321008,0,-1.8310546465727384e-06,5.999996185302734,3.141590596699924,0.0,True,0.014493942260742188,-1.8310546465727384e-06,5.999996185302734,3.141591787338257,0.0,0.0,0.0
1759837109.1434815,0,-1.8310546465727384e-06,5.999996185302734,3.141590643300674,0.0,True,0.011380672454833984,-1.8310546465727384e-06,5.999996185302734,3.141591787338257,0.0,0.0,0.0
1759837109.1543298,0,-1.8310546465727384e-06,5.999996185302734,3.1415907043287987,0.0,True,0.010848283767700195,-1.8310546465727384e-06,5.999996185302734,3.141591787338257,0.0,0.0,0.0
1759837109.1649854,0,-1.8310546465727384e-06,5.999996185302734,3.1415907619524184,0.0,True,0.010655641555786133,-1.8310546465727384e-06,5.999996185302734,3.141591787338257,0.0,0.0,0.0
1759837109.1757698,0,-1.8310546465727384e-06,5.999996185302734,3.141590808827022,0.0,True,0.010784387588500977,-1.8310546465727384e-06,5.999996185302734,3.141591787338257,0.0,0.0,0.0
1759837109.1865394,0,-1.8310546465727384e-06,5.999996185302734,3.141590850371731,0.0,True,0.01076960563659668,-1.8310546465727384e-06,5.999996185302734,3.141591787338257,0.0,0.0,0.0
1759837109.1967487,0,-1.8310546465727384e-06,5.999996185302734,3.1415908983430505,0.0,True,0.010209321975708008,-1.8310546465727384e-06,5.999996185302734,3.141591787338257,0.0,0.0,0.0
1759837109.2075374,0,-1.8310546465727384e-06,5.999996185302734,3.1415909293588093,0.0,True,0.010788679122924805,-1.8310546465727384e-06,5.999996185302734,3.141591787338257,0.0,0.0,0.0
1759837109.2180197,0,-1.8310546465727384e-06,5.999996185302734,3.1415909634408887,0.0,True,0.010482311248779297,-1.8310546465727384e-06,5.999996185302734,3.141591787338257,0.0,0.0,0.0
1759837109.2286997,0,-1.8310546465727384e-06,5.999996185302734,3.141590991428844,0.0,True,0.010679960250854492,-1.8310546465727384e-06,5.999996185302734,3.141591787338257,0.0,0.0,0.0
1759837109.2398973,0,-1.8310546465727384e-06,5.999996185302734,3.1415910094073567,0.0,True,0.011197566986083984,-1.8310546465727384e-06,5.999996185302734,3.141591787338257,0.0,0.0,0.0
1759837109.2502384,0,-1.8310546465727384e-06,5.999996185302734,3.141591042652866,0.0,True,0.010341167449951172,-1.8310546465727384e-06,5.999996185302734,3.141591787338257,0.0,0.0,0.0
1759837109.2604177,0,-1.8310546465727384e-06,5.999996185302734,3.1415910758176793,0.0,True,0.010179281234741211,-1.8310546465727384e-06,5.999996185302734,3.141591787338257,0.0,0.0,0.0
1759837109.2712452,0,-1.8310546465727384e-06,5.999996185302734,3.1415910954297175,0.0,True,0.01082754135131836,-1.8310546465727384e-06,5.999996185302734,3.141591787338257,0.0,0.0,0.0
1759837109.281907,0,-1.8310546465727384e-06,5.999996185302734,3.141591117225424,0.0,True,0.010661840438842773,-1.8310546465727384e-06,5.999996185302734,3.141591787338257,0.0,0.0,0.0
1759837109.2926264,0,-1.8310546465727384e-06,5.999996185302734,3.141591137924058,0.0,True,0.01071929931640625,-1.8310546465727384e-06,5.999996185302734,3.141591787338257,0.0,0.0,0.0
1759837109.3033218,0,-1.8310546465727384e-06,5.999996185302734,3.1415911586563965,0.0,True,0.010695457458496094,-1.8310546465727384e-06,5.999996185302734,3.141591787338257,0.0,0.0,0.0
1759837109.328448,0,-1.8310546465727384e-06,5.999996185302734,3.1415909981815098,0.0,True,0.025126218795776367,-1.8310546465727384e-06,5.999996185302734,3.141591787338257,0.0,0,0
1759837109.338059,0,-1.8310546465727384e-06,5.999996185302734,3.1415910844479242,0.0,True,0.009610891342163086,-1.8310546465727384e-06,5.999996185302734,3.141591787338257,0.0,0,0
1759837109.3482065,0,-1.8310546465727384e-06,5.999996185302734,3.141591156736215,0.0,True,0.010147571563720703,-1.8310546465727384e-06,5.999996185302734,3.141591787338257,0.0,0,0
1759837109.3584902,0,-1.8310546465727384e-06,5.999996185302734,3.1415912098848207,0.0,True,0.010283708572387695,-1.8310546465727384e-06,5.999996185302734,3.141591787338257,0.0,0,0
1759837109.36879,0,-1.8310546465727384e-06,5.999996185302734,3.141591250616006,0.0,True,0.0102996826171875,-1.8310546465727384e-06,5.999996185302734,3.141591787338257,0.0,0,0
1759837109.380062,0,-1.8310546465727384e-06,5.999996185302734,3.1415912729343773,0.0,True,0.011272192001342773,-1.8310546465727384e-06,5.999996185302734,3.141591787338257,0.0,0,0
1759837109.3908756,0,-1.8310546465727384e-06,5.999996185302734,3.141591297049798,0.0,True,0.010813474655151367,-1.8310546465727384e-06,5.999996185302734,3.141591787338257,0.0,0,0
1759837109.4016144,0,-1.8310546465727384e-06,5.999996185302734,3.14159131922265,0.0,True,0.010738849639892578,-1.8310546465727384e-06,5.999996185302734,3.141591787338257,0.0,0,0
1759837109.4117138,0,-1.8310546465727384e-06,5.999996185302734,3.1415913448409647,0.0,True,0.010099411010742188,-1.8310546465727384e-06,5.999996185302734,3.141591787338257,0.0,0,0
1759837109.4219525,0,-1.8310546465727384e-06,5.999996185302734,3.1415913654037233,0.0,True,0.0102386474609375,-1.8310546465727384e-06,5.999996185302734,3.141591787338257,0.0,0,0
1759837109.4332485,0,-1.8310546465727384e-06,5.999996185302734,3.1415913738026724,0.0,True,0.01129603385925293,-1.8310546465727384e-06,5.999996185302734,3.141591787338257,0.0,0,0
1759837109.4444976,0,-1.8310546465727384e-06,5.999996185302734,3.141591383393642,0.0,True,0.011249065399169922,-1.8310546465727384e-06,5.999996185302734,3.141591787338257,0.0,0,0
1759837109.4552991,0,-1.8310546465727384e-06,5.999996185302734,3.1415913977421397,0.0,True,0.010801553726196289,-1.8310546465727384e-06,5.999996185302734,3.141591787338257,0.0,0,0
1759837109.4666328,0,-1.8310546465727384e-06,5.999996185302734,3.1415914074214797,0.0,True,0.011333703994750977,-1.8310546465727384e-06,5.999996185302734,3.141591787338257,0.0,0,0
1759837109.4777336,0,-1.8310546465727384e-06,5.999996185302734,3.141591419438498,0.0,True,0.01110076904296875,-1.8310546465727384e-06,5.999996185302734,3.141591787338257,0.0,0,0
1759837109.4890308,0,-1.8310546465727384e-06,5.999996185302734,3.141591430051557,0.0,True,0.011297225952148438,-1.8310546465727384e-06,5.999996185302734,3.141591787338257,0.0,0,0
1759837109.5002613,0,-1.8310546465727384e-06,5.999996185302734,3.141591441377967,0.0,True,0.01123046875,-1.8310546465727384e-06,5.999996185302734,3.141591787338257,0.0,0,0
1759837109.5114112,0,-1.8310546465727384e-06,5.999996185302734,3.1415914532636915,0.0,True,0.011149883270263672,-1.8310546465727384e-06,5.999996185302734,3.141591787338257,0.0,0,0
1759837109.5226495,0,-1.8310546465727384e-06,5.999996185302734,3.1415914642475986,0.0,True,0.011238336563110352,-1.8310546465727384e-06,5.999996185302734,3.141591787338257,0.0,0,0
1759837109.5365784,0,-1.8310546465727384e-06,5.999996185302734,3.1415914580198177,0.0,True,0.013928890228271484,-1.8310546465727384e-06,5.999996185302734,3.141591787338257,0.0,0,0
1759837109.5480332,0,-1.8310546465727384e-06,5.999996185302734,3.1415914721469136,0.0,True,0.01145482063293457,-1.8310546465727384e-06,5.999996185302734,3.141591787338257,0.0,0,0
1759837109.5594435,0,-1.8310546465727384e-06,5.999996185302734,3.1415914865861687,0.0,True,0.011410236358642578,-1.8310546465727384e-06,5.999996185302734,3.141591787338257,0.0,0,0
1759837109.5703123,0,-1.8310546465727384e-06,5.999996185302734,3.141591502733437,0.0,True,0.01086878776550293,-1.8310546465727384e-06,5.999996185302734,3.141591787338257,0.0,0,0
1759837109.5815582,0,-1.8310546465727384e-06,5.999996185302734,3.1415915146978914,0.0,True,0.011245965957641602,-1.8310546465727384e-06,5.999996185302734,3.141591787338257,0.0,0,0
1759837109.5927258,0,-1.8310546465727384e-06,5.999996185302734,3.1415915258883516,0.0,True,0.011167526245117188,-1.8310546465727384e-06,5.999996185302734,3.141591787338257,0.0,0,0
1759837109.60402,0,-1.8310546465727384e-06,5.999996185302734,3.1415915355415134,0.0,True,0.011294364929199219,-1.8310546465727384e-06,5.999996185302734,3.141591787338257,0.0,0,0
1759837109.6153781,0,-1.8310546465727384e-06,5.999996185302734,3.1415915443554887,0.0,True,0.011358022689819336,-1.8310546465727384e-06,5.999996185302734,3.141591787338257,0.0,0,0
1759837109.6266484,0,-1.8310546465727384e-06,5.999996185302734,3.141591553280259,0.0,True,0.011270284652709961,-1.8310546465727384e-06,5.999996185302734,3.141591787338257,0.0,0,0
1759837109.6378706,0,-1.8310546465727384e-06,5.999996185302734,3.1415915620278643,0.0,True,0.011222124099731445,-1.8310546465727384e-06,5.999996185302734,3.141591787338257,0.0,0,0
1759837109.6486263,0,-1.8310546465727384e-06,5.999996185302734,3.141591572366867,0.0,True,0.010755777359008789,-1.8310546465727384e-06,5.999996185302734,3.141591787338257,0.0,0,0
1759837109.6598387,0,-1.8310546465727384e-06,5.999996185302734,3.1415915797066596,0.0,True,0.011212348937988281,-1.8310546465727384e-06,5.999996185302734,3.141591787338257,0.0,0,0
1759837109.671063,0,-1.8310546465727384e-06,5.999996185302734,3.1415915866281416,0.0,True,0.01122426986694336,-1.8310546465727384e-06,5.999996185302734,3.141591787338257,0.0,0,0
1759837109.6823115,0,-1.8310546465727384e-06,5.999996185302734,3.1415915932933665,0.0,True,0.011248588562011719,-1.8310546465727384e-06,5.999996185302734,3.141591787338257,0.0,0,0
1759837109.6934175,0,-1.8310546465727384e-06,5.999996185302734,3.141591600371699,0.0,True,0.011106014251708984,-1.8310546465727384e-06,5.999996185302734,3.141591787338257,0.0,0,0
1759837109.7048466,0,-1.8310546465727384e-06,5.999996185302734,3.141591605940498,0.0,True,0.011429071426391602,-1.8310546465727384e-06,5.999996185302734,3.141591787338257,0.0,0,0
1759837109.7159777,0,-1.8310546465727384e-06,5.999996185302734,3.1415916126155565,0.0,True,0.011131048202514648,-1.8310546465727384e-06,5.999996185302734,3.141591787338257,0.0,0,0
1759837109.7270036,0,-1.8310546465727384e-06,5.999996185302734,3.141591619382927,0.0,True,0.01102590560913086,-1.8310546465727384e-06,5.999996185302734,3.141591787338257,0.0,0,0
1759837109.737422,0,-1.8310546465727384e-06,5.999996185302734,3.1415916277287845,0.0,True,0.010418415069580078,-1.8310546465727384e-06,5.999996185302734,3.141591787338257,0.0,0,0
1759837109.748641,0,-1.8310546465727384e-06,5.999996185302734,3.141591632475963,0.0,True,0.011219024658203125,-1.8310546465727384e-06,5.999996185302734,3.141591787338257,0.0,0,0
1759837109.7597294,0,-1.8310546465727384e-06,5.999996185302734,3.1415916374975144,0.0,True,0.011088371276855469,-1.8310546465727384e-06,5.999996185302734,3.141591787338257,0.0,0,0
1759837109.7712731,0,-1.8310546465727384e-06,5.999996185302734,3.141591641092223,0.0,True,0.011543750762939453,-1.8310546465727384e-06,5.999996185302734,3.141591787338257,0.0,0,0
1759837109.7813523,0,-1.8310546465727384e-06,5.999996185302734,3.1415916492404747,0.0,True,0.010079145431518555,-1.8310546465727384e-06,5.999996185302734,3.141591787338257,0.0,0,0
1759837109.792172,0,-1.8310546465727384e-06,5.999996185302734,3.141591654278475,0.0,True,0.010819673538208008,-1.8310546465727384e-06,5.999996185302734,3.141591787338257,0.0,0,0
1759837109.8033772,0,-1.8310546465727384e-06,5.999996185302734,3.141591657807899,0.0,True,0.011205196380615234,-1.8310546465727384e-06,5.999996185302734,3.141591787338257,0.0,0,0
1759837109.81458,0,-1.8310546465727384e-06,5.999996185302734,3.141591661453056,0.0,True,0.011202812194824219,-1.8310546465727384e-06,5.999996185302734,3.141591787338257,0.0,0,0
1759837109.8252008,0,-1.8310546465727384e-06,5.999996185302734,3.141591666701597,0.0,True,0.010620832443237305,-1.8310546465727384e-06,5.999996185302734,3.141591787338257,0.0,0,0
1759837109.8360093,0,-1.8310546465727384e-06,5.999996185302734,3.1415916710932965,0.0,True,0.010808467864990234,-1.8310546465727384e-06,5.999996185302734,3.141591787338257,0.0,0,0
1759837109.8465922,0,-1.8310546465727384e-06,5.999996185302734,3.1415916757242446,0.0,True,0.010582923889160156,-1.8310546465727384e-06,5.999996185302734,3.141591787338257,0.0,0,0
1759837109.8582544,0,-1.8310546465727384e-06,5.999996185302734,3.141591677513519,0.0,True,0.01166224479675293,-1.8310546465727384e-06,5.999996185302734,3.141591787338257,0.0,0,0
1759837109.8695662,0,-1.8310546465727384e-06,5.999996185302734,3.141591680507906,0.0,True,0.011311769485473633,-1.8310546465727384e-06,5.999996185302734,3.141591787338257,0.0,0,0
1759837109.8808656,0,-1.8310546465727384e-06,5.999996185302734,3.1415916837547044,0.0,True,0.011299371719360352,-1.8310546465727384e-06,5.999996185302734,3.141591787338257,0.0,0,0
1759837109.8920681,0,-1.8310546465727384e-06,5.999996185302734,3.141591687262368,0.0,True,0.011202573776245117,-1.8310546465727384e-06,5.999996185302734,3.141591787338257,0.0,0,0
1759837109.9033778,0,-1.8310546465727384e-06,5.999996185302734,3.141591690496915,0.0,True,0.011309623718261719,-1.8310546465727384e-06,5.999996185302734,3.141591787338257,0.0,0,0
1759837109.9146159,0,-1.8310546465727384e-06,5.999996185302734,3.141591693838709,0.0,True,0.01123809814453125,-1.8310546465727384e-06,5.999996185302734,3.141591787338257,0.0,0,0
1759837109.9254622,0,-1.8310546465727384e-06,5.999996185302734,3.1415916978179474,0.0,True,0.010846376419067383,-1.8310546465727384e-06,5.999996185302734,3.141591787338257,0.0,0,0
1759837109.9368112,0,-1.8310546465727384e-06,5.999996185302734,3.1415917005796565,0.0,True,0.011348962783813477,-1.8310546465727384e-06,5.999996185302734,3.141591787338257,0.0,0,0
1759837109.9470053,0,-1.8310546465727384e-06,5.999996185302734,3.141591705282721,0.0,True,0.010194063186645508,-1.8310546465727384e-06,5.999996185302734,3.141591787338257,0.0,0,0
1759837109.9582176,0,-1.8310546465727384e-06,5.999996185302734,3.1415917076931947,0.0,True,0.011212348937988281,-1.8310546465727384e-06,5.999996185302734,3.141591787338257,0.0,0,0
1759837109.9689353,0,-1.8310546465727384e-06,5.999996185302734,3.1415917108178544,0.0,True,0.010717630386352539,-1.8310546465727384e-06,5.999996185302734,3.141591787338257,0.0,0,0
1759837109.9796333,0,-1.8310546465727384e-06,5.999996185302734,3.1415917137749574,0.0,True,0.010698080062866211,-1.8310546465727384e-06,5.999996185302734,3.141591787338257,0.0,0,0
1759837109.9906309,0,-1.8310546465727384e-06,5.999996185302734,3.1415917160569187,0.0,True,0.010997533798217773,-1.8310546465727384e-06,5.999996185302734,3.141591787338257,0.0,0,0
1759837110.00176,0,-1.8310546465727384e-06,5.999996185302734,3.1415917181011785,0.0,True,0.011129140853881836,-1.8310546465727384e-06,5.999996185302734,3.141591787338257,0.0,0,0
1759837110.0128005,0,-1.8310546465727384e-06,5.999996185302734,3.141591720310842,0.0,True,0.011040449142456055,-1.8310546465727384e-06,5.999996185302734,3.141591787338257,0.0,0,0
1759837110.0239456,0,-1.8310546465727384e-06,5.999996185302734,3.1415917223661722,0.0,True,0.01114511489868164,-1.8310546465727384e-06,5.999996185302734,3.141591787338257,0.0,0,0
1759837110.034713,0,-1.8310546465727384e-06,5.999996185302734,3.1415917249170757,0.0,True,0.010767459869384766,-1.8310546465727384e-06,5.999996185302734,3.141591787338257,0.0,0,0
1759837110.045858,0,-1.8310546465727384e-06,5.999996185302734,3.1415917268315976,0.0,True,0.011144876480102539,-1.8310546465727384e-06,5.999996185302734,3.141591787338257,0.0,0,0
1759837110.0563426,0,-1.8310546465727384e-06,5.999996185302734,3.1415917295240696,0.0,True,0.010484695434570312,-1.8310546465727384e-06,5.999996185302734,3.141591787338257,0.0,0,0
1759837110.0665298,0,-1.8310546465727384e-06,5.999996185302734,3.1415917323179308,0.0,True,0.010187149047851562,-1.8310546465727384e-06,5.999996185302734,3.141591787338257,0.0,0,0
1759837110.0778782,0,-1.8310546465727384e-06,5.999996185302734,3.141591733424969,0.0,True,0.011348485946655273,-1.8310546465727384e-06,5.999996185302734,3.141591787338257,0.0,0,0
1759837110.089036,0,-1.8310546465727384e-06,5.999996185302734,3.141591734849209,0.0,True,0.011157751083374023,-1.8310546465727384e-06,5.999996185302734,3.141591787338257,0.0,0,0
1759837110.0999901,0,-1.8310546465727384e-06,5.999996185302734,3.141591736590321,0.0,True,0.010954141616821289,-1.8310546465727384e-06,5.999996185302734,3.141591787338257,0.0,0,0
1759837110.1107767,0,-1.8310546465727384e-06,5.999996185302734,3.1415917384796472,0.0,True,0.01078653335571289,-1.8310546465727384e-06,5.999996185302734,3.141591787338257,0.0,0,0
1759837110.1208313,0,-1.8310546465727384e-06,5.999996185302734,3.1415917409901866,0.0,True,0.010054588317871094,-1.8310546465727384e-06,5.999996185302734,3.141591787338257,0.0,0,0
1759837110.1381164,0,-1.8310546465727384e-06,5.999996185302734,3.141591736329554,0.0,True,0.01728510856628418,-1.8310546465727384e-06,5.999996185302734,3.141591787338257,0.0,0,0
1759837110.142141,0,-1.8310546465727384e-06,5.999996185302734,3.141591745646206,0.0,True,0.0040247440338134766,-1.8310546465727384e-06,5.999996185302734,3.141591787338257,0.0,0,0
1759837110.153024,0,-1.8310546465727384e-06,5.999996185302734,3.1415917469092953,0.0,True,0.010882854461669922,-1.8310546465727384e-06,5.999996185302734,3.141591787338257,0.0,0,0
1759837110.164243,0,-1.8310546465727384e-06,5.999996185302734,3.141591747417033,0.0,True,0.011219024658203125,-1.8310546465727384e-06,5.999996185302734,3.141591787338257,0.0,0,0
1759837110.1750255,0,-1.8310546465727384e-06,5.999996185302734,3.141591748482213,0.0,True,0.010782480239868164,-1.8310546465727384e-06,5.999996185302734,3.141591787338257,0.0,0,0
1759837110.1862006,0,-1.8310546465727384e-06,5.999996185302734,3.141591749300696,0.0,True,0.011175155639648438,-1.8310546465727384e-06,5.999996185302734,3.141591787338257,0.0,0,0
1759837110.1973245,0,-1.8310546465727384e-06,5.999996185302734,3.1415917502706705,0.0,True,0.011123895645141602,-1.8310546465727384e-06,5.999996185302734,3.141591787338257,0.0,0,0
1759837110.2085922,0,-1.8310546465727384e-06,5.999996185302734,3.1415917512102816,0.0,True,0.011267662048339844,-1.8310546465727384e-06,5.999996185302734,3.141591787338257,0.0,0,0
1759837110.2198184,0,-1.8310546465727384e-06,5.999996185302734,3.141591752254701,0.0,True,0.011226177215576172,-1.8310546465727384e-06,5.999996185302734,3.141591787338257,0.0,0,0
1759837110.230887,0,-1.8310546465727384e-06,5.999996185302734,3.1415917534482105,0.0,True,0.011068582534790039,-1.8310546465727384e-06,5.999996185302734,3.141591787338257,0.0,0,0
1759837110.2415986,0,-1.8310546465727384e-06,5.999996185302734,3.1415917548607517,0.0,True,0.010711669921875,-1.8310546465727384e-06,5.999996185302734,3.141591787338257,0.0,0,0
1759837110.2528129,0,-1.8310546465727384e-06,5.999996185302734,3.141591755832554,0.0,True,0.011214256286621094,-1.8310546465727384e-06,5.999996185302734,3.141591787338257,0.0,0,0
1759837110.2641926,0,-1.8310546465727384e-06,5.999996185302734,3.141591756693728,0.0,True,0.011379718780517578,-1.8310546465727384e-06,5.999996185302734,3.141591787338257,0.0,0,0
1759837110.2753553,0,-1.8310546465727384e-06,5.999996185302734,3.14159175773014,0.0,True,0.011162757873535156,-1.8310546465727384e-06,5.999996185302734,3.141591787338257,0.0,0,0
1759837110.286216,0,-1.8310546465727384e-06,5.999996185302734,3.141591758931698,0.0,True,0.010860681533813477,-1.8310546465727384e-06,5.999996185302734,3.141591787338257,0.0,0,0
1759837110.2975705,0,-1.8310546465727384e-06,5.999996185302734,3.1415917597693337,0.0,True,0.011354446411132812,-1.8310546465727384e-06,5.999996185302734,3.141591787338257,0.0,0,0
1759837110.3083858,0,-1.8310546465727384e-06,5.999996185302734,3.141591760904852,0.0,True,0.01081538200378418,-1.8310546465727384e-06,5.999996185302734,3.141591787338257,0.0,0,0
1759837110.3197274,0,-1.8310546465727384e-06,5.999996185302734,3.141591761685607,0.0,True,0.011341571807861328,-1.8310546465727384e-06,5.999996185302734,3.141591787338257,0.0,0,0
1759837110.330339,0,-1.8310546465727384e-06,5.999996185302734,3.141591762838999,0.0,True,0.010611534118652344,-1.8310546465727384e-06,5.999996185302734,3.141591787338257,0.0,0.0,0.2030652715302258
1759837110.3415346,0,-5.433872929094767e-05,5.999996185304276,3.1415917636022623,0.0004047231625672133,True,0.011195659637451172,-8.398985664825886e-05,5.999996185302734,3.141591787338257,0.0004047231625672133,0.0,0.20354901688798385
1759837110.3518848,0,-7.426418054247295e-05,5.999996185304747,3.141591764747881,0.0004047231625672133,True,0.010350227355957031,-8.398985664825886e-05,5.999996185302734,3.141591787338257,0.0004047231625672133,0.0,0.20621840679257153
1759837110.3639145,0,-8.213464811640412e-05,5.9999961853051555,3.1415917649987204,0.0004047231625672133,True,0.012029647827148438,-8.398985664825886e-05,5.999996185302734,3.141591787338257,0.0004047231625672133,0.0,0.20566936800068553
1759837110.3744748,0,-8.491374801851545e-05,5.999996185305109,3.1415917660148533,0.0004047231625672133,True,0.010560274124145508,-8.398985664825886e-05,5.999996185302734,3.141591787338257,0.0004047231625672133,0.0,0.210022825227766
1759837110.3856122,0,-8.606450111425166e-05,5.99999618530517,3.1415917667147575,0.0004047231625672133,True,0.01113748550415039,-8.398985664825886e-05,5.999996185302734,3.141591787338257,0.0004047231625672133,0.0,0.21237925266094115
1759837110.3961172,0,-8.640626741195559e-05,5.999996185305105,3.1415917676477427,0.0004047231625672133,True,0.010504961013793945,-8.398985664825886e-05,5.999996185302734,3.141591787338257,0.0004047231625672133,0.0,0.21346117866503928
1759837110.4074104,0,-8.66586605749635e-05,5.999996185305187,3.1415917681753864,0.0004047231625672133,True,0.011293172836303711,-8.398985664825886e-05,5.999996185302734,3.141591787338257,0.0004047231625672133,0.0,0.21161387583867722
1759837110.4175816,0,-8.658161598756472e-05,5.999996185305063,3.141591769143517,0.0004047231625672133,True,0.010171175003051758,-8.398985664825886e-05,5.999996185302734,3.141591787338257,0.0004047231625672133,0.0,0.21502202333274373
1759837110.4275982,0,-8.652830407876885e-05,5.999996185304993,3.1415917700598257,0.0004047231625672133,True,0.010016679763793945,-8.398985664825886e-05,5.999996185302734,3.141591787338257,0.0004047231625672133,0.0,0.21745164668788203
1759837110.4383717,0,-8.662492563870733e-05,5.9999961853050685,3.1415917705685743,0.0004047231625672133,True,0.010773420333862305,-8.398985664825886e-05,5.999996185302734,3.141591787338257,0.0004047231625672133,0.0,0.21450951236365795
1759837110.448948,0,-8.663135084856151e-05,5.999996185305069,3.1415917711253165,0.0004047231625672133,True,0.010576248168945312,-8.398985664825886e-05,5.999996185302734,3.141591787338257,0.0004047231625672133,0.0,0.2116061925282441
1759837110.4601386,0,-8.672878618189408e-05,5.999996185305153,3.1415917714556123,0.0004047231625672133,True,0.011190652847290039,-8.398985664825886e-05,5.999996185302734,3.141591787338257,0.0004047231625672133,0.0,0.21052423829713768
1759837110.4710777,0,-8.672711877356054e-05,5.99999618530515,3.1415917719113633,0.0004047231625672133,True,0.01093912124633789,-8.398985664825886e-05,5.999996185302734,3.141591787338257,0.0004047231625672133,0.0,0.2045341803377039
