timestamp,vehicle_id,x,y,theta,velocity,gps_available,dt,gps_x,gps_y,gps_theta,gps_velocity,control_steering,control_acceleration
1759837106.3176813,1,8.0,6.0,-0.05483113549895435,0.0,False,0.01,nan,nan,nan,nan,0.0,0.0
1759837106.3278131,1,8.0,6.0,-0.05483113549895435,0.0,False,0.0101318359375,nan,nan,nan,nan,0.0,0.0
1759837106.3384802,1,8.0,6.0,-0.05483113549895435,0.0,False,0.010667085647583008,nan,nan,nan,nan,0.0,0.0
1759837106.3489087,1,8.0,6.0,-0.05483113549895435,0.0,False,0.010428428649902344,nan,nan,nan,nan,0.0,0.0
1759837106.36038,1,8.0,6.0,-0.05483113549895435,0.0,False,0.011471271514892578,nan,nan,nan,nan,0.0,0.0
1759837106.371853,1,8.0,6.0,-0.05483113549895435,0.0,False,0.01147317886352539,nan,nan,nan,nan,0.0,0.0
1759837106.3824341,1,8.0,6.0,-0.05483113549895435,0.0,False,0.010581016540527344,nan,nan,nan,nan,0.0,0.0
1759837106.3935914,1,8.0,6.0,-0.05483113549895435,0.0,False,0.01115727424621582,nan,nan,nan,nan,0.0,0.0
1759837106.4040582,1,8.0,6.0,-0.05483113549895435,0.0,False,0.010466814041137695,nan,nan,nan,nan,0.0,0.0
1759837106.415284,1,8.0,6.0,-0.05483113549895435,0.0,False,0.011225700378417969,nan,nan,nan,nan,0.0,0.0
1759837106.4256563,1,8.0,6.0,-0.05483113549895435,0.0,False,0.010372400283813477,nan,nan,nan,nan,0.0,0.0
1759837106.4364784,1,8.0,6.0,-0.05483113549895435,0.0,False,0.010822057723999023,nan,nan,nan,nan,0.0,0.0
1759837106.4470043,1,8.0,6.0,-0.05483113549895435,0.0,False,0.010525941848754883,nan,nan,nan,nan,0.0,0.0
1759837106.4580526,1,8.0,6.0,-0.05483113549895435,0.0,False,0.011048316955566406,nan,nan,nan,nan,0.0,0.0
1759837106.4687667,1,8.0,6.0,-0.05483113549895435,0.0,False,0.010714054107666016,nan,nan,nan,nan,0.0,0.0
1759837106.478901,1,8.0,6.0,-0.05483113549895435,0.0,False,0.010134220123291016,nan,nan,nan,nan,0.0,0.0
1759837106.4891987,1,8.0,6.0,-0.05483113549895435,0.0,False,0.010297775268554688,nan,nan,nan,nan,0.0,0.0
1759837106.500016,1,8.0,6.0,-0.05483113549895435,0.0,False,0.010817289352416992,nan,nan,nan,nan,0.0,0.0
1759837106.51083,1,8.000000945727031,5.99999905427297,-2.8798442743469135,0.0,True,0.01081395149230957,8.000000953674316,5.999999046325684,3.141591787338257,0.0,0.0,0.0
1759837106.5220015,1,8.000000951017842,5.999999048982158,-3.1211967096588893,0.0,True,0.011171579360961914,8.000000953674316,5.999999046325684,3.141591787338257,0.0,0.0,0.0
1759837106.5327544,1,8.00000095267779,5.999999047322208,3.1393631706408662,0.0,True,0.01075291633605957,8.000000953674316,5.999999046325684,3.141591787338257,0.0,0.0,0.0
1759837106.5440152,1,8.000000953294668,5.999999046705331,3.1363514040618092,0.0,True,0.011260747909545898,8.000000953674316,5.999999046325684,3.141591787338257,0.0,0.0,0.0
1759837106.5550387,1,8.000000953529359,5.9999990464706405,3.1360582362894007,0.0,True,0.011023521423339844,8.000000953674316,5.999999046325684,3.141591787338257,0.0,0.0,0.0
1759837106.5663185,1,8.000000953618951,5.999999046381049,3.1364194969897774,0.0,True,0.011279821395874023,8.000000953674316,5.999999046325684,3.141591787338257,0.0,0.0,0.0
1759837106.5769417,1,8.000000953653169,5.999999046346831,3.1370448532966186,0.0,True,0.01062321662902832,8.000000953674316,5.999999046325684,3.141591787338257,0.0,0.0,0.0
1759837106.5873458,1,8.00000095366624,5.999999046333762,3.137646057507503,0.0,True,0.010404109954833984,8.000000953674316,5.999999046325684,3.141591787338257,0.0,0.0,0.0
1759837106.5974598,1,8.00000095367123,5.999999046328769,3.1381708897029554,0.0,True,0.010113954544067383,8.000000953674316,5.999999046325684,3.141591787338257,0.0,0.0,0.0
1759837106.6079435,1,8.000000953673139,5.999999046326862,3.1385751022538813,0.0,True,0.010483741760253906,8.000000953674316,5.999999046325684,3.141591787338257,0.0,0.0,0.0
1759837106.6188772,1,8.000000953673867,5.999999046326134,3.138892716535361,0.0,True,0.010933637619018555,8.000000953674316,5.999999046325684,3.141591787338257,0.0,0.0,0.0
1759837106.629431,1,8.000000953674144,5.999999046325856,3.1391886836794427,0.0,True,0.010553836822509766,8.000000953674316,5.999999046325684,3.141591787338257,0.0,0.0,0.0
1759837106.6400952,1,8.00000095367425,5.999999046325749,3.139433962656401,0.0,True,0.010664224624633789,8.000000953674316,5.999999046325684,3.141591787338257,0.0,0.0,0.0
1759837106.6511743,1,8.000000953674292,5.9999990463257085,3.1396273666587025,0.0,True,0.011079072952270508,8.000000953674316,5.999999046325684,3.141591787338257,0.0,0.0,0.0
1759837106.6621156,1,8.000000953674308,5.999999046325693,3.139803606660223,0.0,True,0.010941267013549805,8.000000953674316,5.999999046325684,3.141591787338257,0.0,0.0,0.0
1759837106.6729374,1,8.000000953674313,5.999999046325687,3.1399617011054275,0.0,True,0.010821819305419922,8.000000953674316,5.999999046325684,3.141591787338257,0.0,0.0,0.0
1759837106.6840508,1,8.000000953674315,5.999999046325685,3.1400902132295236,0.0,True,0.011113405227661133,8.000000953674316,5.999999046325684,3.141591787338257,0.0,0.0,0.0
1759837106.6947594,1,8.000000953674316,5.9999990463256845,3.140215264000016,0.0,True,0.01070857048034668,8.000000953674316,5.999999046325684,3.141591787338257,0.0,0.0,0.0
1759837106.7053847,1,8.000000953674316,5.999999046325684,3.1403253012822248,0.0,True,0.010625362396240234,8.000000953674316,5.999999046325684,3.141591787338257,0.0,0.0,0.0
1759837106.7162724,1,8.000000953674316,5.999999046325684,3.140413817223491,0.0,True,0.010887622833251953,8.000000953674316,5.999999046325684,3.141591787338257,0.0,0.0,0.0
1759837106.726945,1,8.000000953674316,5.999999046325684,3.1404971286559658,0.0,True,0.010672569274902344,8.000000953674316,5.999999046325684,3.141591787338257,0.0,0.0,0.0
1759837106.7375526,1,8.000000953674316,5.999999046325684,3.1405718614551414,0.0,True,0.010607719421386719,8.000000953674316,5.999999046325684,3.141591787338257,0.0,0.0,0.0
1759837106.7480826,1,8.000000953674316,5.999999046325684,3.1406390619488,0.0,True,0.01052999496459961,8.000000953674316,5.999999046325684,3.141591787338257,0.0,0.0,0.0
1759837106.7587426,1,8.000000953674316,5.999999046325684,3.140695852257748,0.0,True,0.010659933090209961,8.000000953674316,5.999999046325684,3.141591787338257,0.0,0.0,0.0
1759837106.7690988,1,8.000000953674316,5.999999046325684,3.1407521928164748,0.0,True,0.01035618782043457,8.000000953674316,5.999999046325684,3.141591787338257,0.0,0.0,0.0
1759837106.7797084,1,8.000000953674316,5.999999046325684,3.1407977319664973,0.0,True,0.010609626770019531,8.000000953674316,5.999999046325684,3.141591787338257,0.0,0.0,0.0
1759837106.7898607,1,8.000000953674316,5.999999046325684,3.1408462729723716,0.0,True,0.010152339935302734,8.000000953674316,5.999999046325684,3.141591787338257,0.0,0.0,0.0
1759837106.800157,1,8.000000953674316,5.999999046325684,3.140886783756578,0.0,True,0.010296344757080078,8.000000953674316,5.999999046325684,3.141591787338257,0.0,0.0,0.0
1759837106.8113058,1,8.000000953674316,5.999999046325684,3.140910789945904,0.0,True,0.011148691177368164,8.000000953674316,5.999999046325684,3.141591787338257,0.0,0.0,0.0
1759837106.8218827,1,8.000000953674316,5.999999046325684,3.1409435597167246,0.0,True,0.010576963424682617,8.000000953674316,5.999999046325684,3.141591787338257,0.0,0.0,0.0
1759837106.8330622,1,8.000000953674316,5.999999046325684,3.1409668722835598,0.0,True,0.011179447174072266,8.000000953674316,5.999999046325684,3.141591787338257,0.0,0.0,0.0
1759837106.843284,1,8.000000953674316,5.999999046325684,3.1410025244771305,0.0,True,0.010221719741821289,8.000000953674316,5.999999046325684,3.141591787338257,0.0,0.0,0.0
1759837106.8535793,1,8.000000953674316,5.999999046325684,3.141033576347123,0.0,True,0.010295391082763672,8.000000953674316,5.999999046325684,3.141591787338257,0.0,0.0,0.0
1759837106.8645597,1,8.000000953674316,5.999999046325684,3.141053284966347,0.0,True,0.010980367660522461,8.000000953674316,5.999999046325684,3.141591787338257,0.0,0.0,0.0
1759837106.8753116,1,8.000000953674316,5.999999046325684,3.1410753618626774,0.0,True,0.010751962661743164,8.000000953674316,5.999999046325684,3.141591787338257,0.0,0.0,0.0
1759837106.8863657,1,8.000000953674316,5.999999046325684,3.141093671769383,0.0,True,0.011054039001464844,8.000000953674316,5.999999046325684,3.141591787338257,0.0,0.0,0.0
1759837106.896525,1,8.000000953674316,5.999999046325684,3.141121015414182,0.0,True,0.01015925407409668,8.000000953674316,5.999999046325684,3.141591787338257,0.0,0.0,0.0
1759837106.907293,1,8.000000953674316,5.999999046325684,3.1411395347084987,0.0,True,0.01076817512512207,8.000000953674316,5.999999046325684,3.141591787338257,0.0,0.0,0.0
1759837106.9180398,1,8.000000953674316,5.999999046325684,3.1411571644591305,0.0,True,0.01074671745300293,8.000000953674316,5.999999046325684,3.141591787338257,0.0,0.0,0.0
1759837106.9287012,1,8.000000953674316,5.999999046325684,3.1411749132501114,0.0,True,0.01066136360168457,8.000000953674316,5.999999046325684,3.141591787338257,0.0,0.0,0.0
1759837106.9396422,1,8.000000953674316,5.999999046325684,3.1411893900704566,0.0,True,0.010941028594970703,8.000000953674316,5.999999046325684,3.141591787338257,0.0,0.0,0.0
1759837106.949715,1,8.000000953674316,5.999999046325684,3.141210808116515,0.0,True,0.010072708129882812,8.000000953674316,5.999999046325684,3.141591787338257,0.0,0.0,0.0
1759837106.9603348,1,8.000000953674316,5.999999046325684,3.1412255034761216,0.0,True,0.010619878768920898,8.000000953674316,5.999999046325684,3.141591787338257,0.0,0.0,0.0
1759837106.9709256,1,8.000000953674316,5.999999046325684,3.1412393950511976,0.0,True,0.010590791702270508,8.000000953674316,5.999999046325684,3.141591787338257,0.0,0.0,0.0
1759837106.981197,1,8.000000953674316,5.999999046325684,3.1412549784995143,0.0,True,0.010271549224853516,8.000000953674316,5.999999046325684,3.141591787338257,0.0,0.0,0.0
1759837106.9927342,1,8.000000953674316,5.999999046325684,3.1412603649160964,0.0,True,0.01153707504272461,8.000000953674316,5.999999046325684,3.141591787338257,0.0,0.0,0.0
1759837107.0034966,1,8.000000953674316,5.999999046325684,3.1412725851215253,0.0,True,0.010762453079223633,8.000000953674316,5.999999046325684,3.141591787338257,0.0,0.0,0.0
1759837107.014203,1,8.000000953674316,5.999999046325684,3.141285150827752,0.0,True,0.010706424713134766,8.000000953674316,5.999999046325684,3.141591787338257,0.0,0.0,0.0
1759837107.025522,1,8.000000953674316,5.999999046325684,3.141293249753984,0.0,True,0.01131892204284668,8.000000953674316,5.999999046325684,3.141591787338257,0.0,0.0,0.0
1759837107.0360603,1,8.000000953674316,5.999999046325684,3.141306602586422,0.0,True,0.010538339614868164,8.000000953674316,5.999999046325684,3.141591787338257,0.0,0.0,0.0
1759837107.0468526,1,8.000000953674316,5.999999046325684,3.1413175499226593,0.0,True,0.010792255401611328,8.000000953674316,5.999999046325684,3.141591787338257,0.0,0.0,0.0
1759837107.0580173,1,8.000000953674316,5.999999046325684,3.1413257644894106,0.0,True,0.011164665222167969,8.000000953674316,5.999999046325684,3.141591787338257,0.0,0.0,0.0
1759837107.0686438,1,8.000000953674316,5.999999046325684,3.1413370377189445,0.0,True,0.010626554489135742,8.000000953674316,5.999999046325684,3.141591787338257,0.0,0.0,0.0
1759837107.0789802,1,8.000000953674316,5.999999046325684,3.141349070751616,0.0,True,0.01033639907836914,8.000000953674316,5.999999046325684,3.141591787338257,0.0,0.0,0.0
1759837107.0898323,1,8.000000953674316,5.999999046325684,3.1413572190602324,0.0,True,0.01085209846496582,8.000000953674316,5.999999046325684,3.141591787338257,0.0,0.0,0.0
1759837107.101058,1,8.000000953674316,5.999999046325684,3.141363249468302,0.0,True,0.011225700378417969,8.000000953674316,5.999999046325684,3.141591787338257,0.0,0.0,0.0
1759837107.223041,1,8.000000953674316,5.999999046325684,3.141096434594383,0.0,True,0.1,8.000000953674316,5.999999046325684,3.141591787338257,0.0,0.0,0.0
1759837107.227242,1,8.000000953674316,5.999999046325684,3.1412393604290116,0.0,True,0.004200935363769531,8.000000953674316,5.999999046325684,3.141591787338257,0.0,0.0,0.0
1759837107.2388015,1,8.000000953674316,5.999999046325684,3.141324122446175,0.0,True,0.011559486389160156,8.000000953674316,5.999999046325684,3.141591787338257,0.0,0.0,0.0
1759837107.249545,1,8.000000953674316,5.999999046325684,3.141378818814207,0.0,True,0.01074361801147461,8.000000953674316,5.999999046325684,3.141591787338257,0.0,0.0,0.0
1759837107.2601564,1,8.000000953674316,5.999999046325684,3.1414153716104067,0.0,True,0.010611295700073242,8.000000953674316,5.999999046325684,3.141591787338257,0.0,0.0,0.0
1759837107.2714407,1,8.000000953674316,5.999999046325684,3.1414391399278863,0.0,True,0.011284351348876953,8.000000953674316,5.999999046325684,3.141591787338257,0.0,0.0,0.0
1759837107.282136,1,8.000000953674316,5.999999046325684,3.1414573414537514,0.0,True,0.010695219039916992,8.000000953674316,5.999999046325684,3.141591787338257,0.0,0.0,0.0
1759837107.2928,1,8.000000953674316,5.999999046325684,3.141470820650259,0.0,True,0.010663986206054688,8.000000953674316,5.999999046325684,3.141591787338257,0.0,0.0,0.0
1759837107.3031301,1,8.000000953674316,5.999999046325684,3.141481603641484,0.0,True,0.0103302001953125,8.000000953674316,5.999999046325684,3.141591787338257,0.0,0.0,0.0
1759837107.3214164,1,8.000000953674316,5.999999046325684,3.141474469817709,0.0,True,0.01828622817993164,8.000000953674316,5.999999046325684,3.141591787338257,0.0,0.0,0.0
1759837107.332584,1,8.000000953674316,5.999999046325684,3.1414834214308147,0.0,True,0.011167526245117188,8.000000953674316,5.999999046325684,3.141591787338257,0.0,0.0,0.0
1759837107.343252,1,8.000000953674316,5.999999046325684,3.1414923894135214,0.0,True,0.010668039321899414,8.000000953674316,5.999999046325684,3.141591787338257,0.0,0.0,0.0
1759837107.3546872,1,8.000000953674316,5.999999046325684,3.1414981193047424,0.0,True,0.011435270309448242,8.000000953674316,5.999999046325684,3.141591787338257,0.0,0.0,0.0
1759837107.366021,1,8.000000953674316,5.999999046325684,3.141502924915901,0.0,True,0.011333703994750977,8.000000953674316,5.999999046325684,3.141591787338257,0.0,0.0,0.0
1759837107.377332,1,8.000000953674316,5.999999046325684,3.1415070321172784,0.0,True,0.011311054229736328,8.000000953674316,5.999999046325684,3.141591787338257,0.0,0.0,0.0
1759837107.3877144,1,8.000000953674316,5.999999046325684,3.141512077384469,0.0,True,0.010382413864135742,8.000000953674316,5.999999046325684,3.141591787338257,0.0,0.0,0.0
1759837107.3990722,1,8.000000953674316,5.999999046325684,3.141514765952996,0.0,True,0.011357784271240234,8.000000953674316,5.999999046325684,3.141591787338257,0.0,0.0,0.0
1759837107.4095483,1,8.000000953674316,5.999999046325684,3.141518507511753,0.0,True,0.010476112365722656,8.000000953674316,5.999999046325684,3.141591787338257,0.0,0.0,0.0
1759837107.4202166,1,8.000000953674316,5.999999046325684,3.1415214833117453,0.0,True,0.010668277740478516,8.000000953674316,5.999999046325684,3.141591787338257,0.0,0.0,0.0
1759837107.4310062,1,8.000000953674316,5.999999046325684,3.141523915372689,0.0,True,0.010789632797241211,8.000000953674316,5.999999046325684,3.141591787338257,0.0,0.0,0.0
1759837107.4414904,1,8.000000953674316,5.999999046325684,3.141526566912095,0.0,True,0.01048421859741211,8.000000953674316,5.999999046325684,3.141591787338257,0.0,0.0,0.0
1759837107.4526844,1,8.000000953674316,5.999999046325684,3.1415279954782758,0.0,True,0.011193990707397461,8.000000953674316,5.999999046325684,3.141591787338257,0.0,0.0,0.0
1759837107.4634318,1,8.000000953674316,5.999999046325684,3.141530060273009,0.0,True,0.010747432708740234,8.000000953674316,5.999999046325684,3.141591787338257,0.0,0.0,0.0
1759837107.4743438,1,8.000000953674316,5.999999046325684,3.1415318449654865,0.0,True,0.010911941528320312,8.000000953674316,5.999999046325684,3.141591787338257,0.0,0.0,0.0
1759837107.485597,1,8.000000953674316,5.999999046325684,3.1415331673451057,0.0,True,0.011253118515014648,8.000000953674316,5.999999046325684,3.141591787338257,0.0,0.0,0.0
1759837107.4968054,1,8.000000953674316,5.999999046325684,3.1415346417338608,0.0,True,0.011208534240722656,8.000000953674316,5.999999046325684,3.141591787338257,0.0,0.0,0.0
1759837107.5069394,1,8.000000953674316,5.999999046325684,3.1415374368821407,0.0,True,0.010133981704711914,8.000000953674316,5.999999046325684,3.141591787338257,0.0,0.0,0.0
1759837107.5203712,1,8.000000953674316,5.999999046325684,3.141536210607498,0.0,True,0.013431787490844727,8.000000953674316,5.999999046325684,3.141591787338257,0.0,0.0,0.0
1759837107.5309858,1,8.000000953674316,5.999999046325684,3.1415387980232765,0.0,True,0.010614633560180664,8.000000953674316,5.999999046325684,3.141591787338257,0.0,0.0,0.0
1759837107.5422153,1,8.000000953674316,5.999999046325684,3.141540636101663,0.0,True,0.011229515075683594,8.000000953674316,5.999999046325684,3.141591787338257,0.0,0.0,0.0
1759837107.5530298,1,8.000000953674316,5.999999046325684,3.141542769594235,0.0,True,0.010814428329467773,8.000000953674316,5.999999046325684,3.141591787338257,0.0,0.0,0.0
1759837107.5631053,1,8.000000953674316,5.999999046325684,3.1415454341986457,0.0,True,0.010075569152832031,8.000000953674316,5.999999046325684,3.141591787338257,0.0,0.0,0.0
1759837107.574137,1,8.000000953674316,5.999999046325684,3.141546793440911,0.0,True,0.011031627655029297,8.000000953674316,5.999999046325684,3.141591787338257,0.0,0.0,0.0
1759837107.5853887,1,8.000000953674316,5.999999046325684,3.141547874105461,0.0,True,0.011251688003540039,8.000000953674316,5.999999046325684,3.141591787338257,0.0,0.0,0.0
1759837107.5959997,1,8.000000953674316,5.999999046325684,3.141549593152858,0.0,True,0.01061105728149414,8.000000953674316,5.999999046325684,3.141591787338257,0.0,0.0,0.0
1759837107.6072423,1,8.000000953674316,5.999999046325684,3.14155065395836,0.0,True,0.01124262809753418,8.000000953674316,5.999999046325684,3.141591787338257,0.0,0.0,0.0
1759837107.618677,1,8.000000953674316,5.999999046325684,3.141551585266633,0.0,True,0.011434555053710938,8.000000953674316,5.999999046325684,3.141591787338257,0.0,0.0,0.0
1759837107.6296768,1,8.000000953674316,5.999999046325684,3.141552966698624,0.0,True,0.010999917984008789,8.000000953674316,5.999999046325684,3.141591787338257,0.0,0.0,0.0
1759837107.6408455,1,8.000000953674316,5.999999046325684,3.1415541845527457,0.0,True,0.011168718338012695,8.000000953674316,5.999999046325684,3.141591787338257,0.0,0.0,0.0
1759837107.6514597,1,8.000000953674316,5.999999046325684,3.141555797516279,0.0,True,0.010614156723022461,8.000000953674316,5.999999046325684,3.141591787338257,0.0,0.0,0.0
1759837107.6622677,1,8.000000953674316,5.999999046325684,3.141557124058174,0.0,True,0.010807991027832031,8.000000953674316,5.999999046325684,3.141591787338257,0.0,0.0,0.0
1759837107.672433,1,8.000000953674316,5.999999046325684,3.1415588020566663,0.0,True,0.010165214538574219,8.000000953674316,5.999999046325684,3.141591787338257,0.0,0.0,0.0
1759837107.6836565,1,8.000000953674316,5.999999046325684,3.1415595475181153,0.0,True,0.011223554611206055,8.000000953674316,5.999999046325684,3.141591787338257,0.0,0.0,0.0
1759837107.6948233,1,8.000000953674316,5.999999046325684,3.1415603599602058,0.0,True,0.011166810989379883,8.000000953674316,5.999999046325684,3.141591787338257,0.0,0.0,0.0
1759837107.7055225,1,8.000000953674316,5.999999046325684,3.1415615284051803,0.0,True,0.010699272155761719,8.000000953674316,5.999999046325684,3.141591787338257,0.0,0.0,0.0
1759837107.7185862,1,8.000000953674316,5.999999046325684,3.141561186092968,0.0,True,0.013063669204711914,8.000000953674316,5.999999046325684,3.141591787338257,0.0,0.0,0.0
1759837107.7299123,1,8.000000953674316,5.999999046325684,3.1415622532040643,0.0,True,0.011326074600219727,8.000000953674316,5.999999046325684,3.141591787338257,0.0,0.0,0.0
1759837107.7410963,1,8.000000953674316,5.999999046325684,3.1415634490991344,0.0,True,0.011183977127075195,8.000000953674316,5.999999046325684,3.141591787338257,0.0,0.0,0.0
1759837107.7523756,1,8.000000953674316,5.999999046325684,3.141564512677572,0.0,True,0.01127934455871582,8.000000953674316,5.999999046325684,3.141591787338257,0.0,0.0,0.0
1759837107.762523,1,8.000000953674316,5.999999046325684,3.141566114846597,0.0,True,0.010147333145141602,8.000000953674316,5.999999046325684,3.141591787338257,0.0,0.0,0.0
1759837107.7732625,1,8.000000953674316,5.999999046325684,3.141567176827195,0.0,True,0.010739564895629883,8.000000953674316,5.999999046325684,3.141591787338257,0.0,0.0,0.0
1759837107.7839851,1,8.000000953674316,5.999999046325684,3.1415681205485555,0.0,True,0.010722637176513672,8.000000953674316,5.999999046325684,3.141591787338257,0.0,0.0,0.0
1759837107.7951488,1,8.000000953674316,5.999999046325684,3.1415687756317716,0.0,True,0.011163711547851562,8.000000953674316,5.999999046325684,3.141591787338257,0.0,0.0,0.0
1759837107.8053207,1,8.000000953674316,5.999999046325684,3.1415698998510777,0.0,True,0.010171890258789062,8.000000953674316,5.999999046325684,3.141591787338257,0.0,0.0,0.0
1759837107.8154538,1,8.000000953674316,5.999999046325684,3.141570916114162,0.0,True,0.010133028030395508,8.000000953674316,5.999999046325684,3.141591787338257,0.0,0.0,0.0
1759837107.8266077,1,8.000000953674316,5.999999046325684,3.1415713490259023,0.0,True,0.011153936386108398,8.000000953674316,5.999999046325684,3.141591787338257,0.0,0.0,0.0
1759837107.8378236,1,8.000000953674316,5.999999046325684,3.141571787937732,0.0,True,0.011215925216674805,8.000000953674316,5.999999046325684,3.141591787338257,0.0,0.0,0.0
1759837107.848645,1,8.000000953674316,5.999999046325684,3.14157245006213,0.0,True,0.010821342468261719,8.000000953674316,5.999999046325684,3.141591787338257,0.0,0.0,0.0
1759837107.8592615,1,8.000000953674316,5.999999046325684,3.141573185528017,0.0,True,0.010616540908813477,8.000000953674316,5.999999046325684,3.141591787338257,0.0,0.0,0.0
1759837107.8705251,1,8.000000953674316,5.999999046325684,3.1415736247338515,0.0,True,0.011263608932495117,8.000000953674316,5.999999046325684,3.141591787338257,0.0,0.0,0.0
1759837107.881673,1,8.000000953674316,5.999999046325684,3.141574135667131,0.0,True,0.01114797592163086,8.000000953674316,5.999999046325684,3.141591787338257,0.0,0.0,0.0
1759837107.892502,1,8.000000953674316,5.999999046325684,3.14157478132708,0.0,True,0.010828971862792969,8.000000953674316,5.999999046325684,3.141591787338257,0.0,0.0,0.0
1759837107.9037006,1,8.000000953674316,5.999999046325684,3.1415752717502627,0.0,True,0.01119852066040039,8.000000953674316,5.999999046325684,3.141591787338257,0.0,0.0,0.0
1759837107.9146407,1,8.000000953674316,5.999999046325684,3.1415758527248023,0.0,True,0.010940074920654297,8.000000953674316,5.999999046325684,3.141591787338257,0.0,0.0,0.0
1759837107.9248815,1,8.000000953674316,5.999999046325684,3.141576639005981,0.0,True,0.010240793228149414,8.000000953674316,5.999999046325684,3.141591787338257,0.0,0.0,0.0
1759837107.935615,1,8.000000953674316,5.999999046325684,3.141577178072133,0.0,True,0.010733604431152344,8.000000953674316,5.999999046325684,3.141591787338257,0.0,0.0,0.0
1759837107.9465923,1,8.000000953674316,5.999999046325684,3.1415776020362713,0.0,True,0.01097726821899414,8.000000953674316,5.999999046325684,3.141591787338257,0.0,0.0,0.0
1759837107.9574108,1,8.000000953674316,5.999999046325684,3.1415780726089864,0.0,True,0.0108184814453125,8.000000953674316,5.999999046325684,3.141591787338257,0.0,0.0,0.0
1759837107.9688385,1,8.000000953674316,5.999999046325684,3.1415783613778405,0.0,True,0.011427640914916992,8.000000953674316,5.999999046325684,3.141591787338257,0.0,0.0,0.0
1759837107.979544,1,8.000000953674316,5.999999046325684,3.141578883377475,0.0,True,0.01070547103881836,8.000000953674316,5.999999046325684,3.141591787338257,0.0,0.0,0.0
1759837107.9901447,1,8.000000953674316,5.999999046325684,3.1415794076999983,0.0,True,0.010600805282592773,8.000000953674316,5.999999046325684,3.141591787338257,0.0,0.0,0.0
1759837108.000854,1,8.000000953674316,5.999999046325684,3.1415798593491218,0.0,True,0.010709285736083984,8.000000953674316,5.999999046325684,3.141591787338257,0.0,0.0,0.0
1759837108.012172,1,8.000000953674316,5.999999046325684,3.1415801320082632,0.0,True,0.011317968368530273,8.000000953674316,5.999999046325684,3.141591787338257,0.0,0.0,0.0
1759837108.0230665,1,8.000000953674316,5.999999046325684,3.1415805282619402,0.0,True,0.010894536972045898,8.000000953674316,5.999999046325684,3.141591787338257,0.0,0.0,0.0
1759837108.0338275,1,8.000000953674316,5.999999046325684,3.1415809490404953,0.0,True,0.010761022567749023,8.000000953674316,5.999999046325684,3.141591787338257,0.0,0.0,0.0
1759837108.0443919,1,8.000000953674316,5.999999046325684,3.1415813885821002,0.0,True,0.010564327239990234,8.000000953674316,5.999999046325684,3.141591787338257,0.0,0.0,0.0
1759837108.055658,1,8.000000953674316,5.999999046325684,3.141581641536778,0.0,True,0.011266231536865234,8.000000953674316,5.999999046325684,3.141591787338257,0.0,0.0,0.0
1759837108.0663474,1,8.000000953674316,5.999999046325684,3.141582026779991,0.0,True,0.010689258575439453,8.000000953674316,5.999999046325684,3.141591787338257,0.0,0.0,0.0
1759837108.0771523,1,8.000000953674316,5.999999046325684,3.1415823704799752,0.0,True,0.010804891586303711,8.000000953674316,5.999999046325684,3.141591787338257,0.0,0.0,0.0
1759837108.0887442,1,8.000000953674316,5.999999046325684,3.141582545516828,0.0,True,0.011591911315917969,8.000000953674316,5.999999046325684,3.141591787338257,0.0,0.0,0.0
1759837108.100075,1,8.000000953674316,5.999999046325684,3.141582802175776,0.0,True,0.011330842971801758,8.000000953674316,5.999999046325684,3.141591787338257,0.0,0.0,0.0
1759837108.1113138,1,8.000000953674316,5.999999046325684,3.1415830926884176,0.0,True,0.011238813400268555,8.000000953674316,5.999999046325684,3.141591787338257,0.0,0.0,0.0
1759837108.1234884,1,8.000000953674316,5.999999046325684,3.1415832238502013,0.0,True,0.012174606323242188,8.000000953674316,5.999999046325684,3.141591787338257,0.0,0.0,0.0
1759837108.1348553,1,8.000000953674316,5.999999046325684,3.1415835350371744,0.0,True,0.011366844177246094,8.000000953674316,5.999999046325684,3.141591787338257,0.0,0.0,0.0
1759837108.1458297,1,8.000000953674316,5.999999046325684,3.141583907918603,0.0,True,0.010974407196044922,8.000000953674316,5.999999046325684,3.141591787338257,0.0,0.0,0.0
1759837108.1571438,1,8.000000953674316,5.999999046325684,3.1415841951411902,0.0,True,0.011314153671264648,8.000000953674316,5.999999046325684,3.141591787338257,0.0,0.0,0.0
1759837108.1684206,1,8.000000953674316,5.999999046325684,3.1415844722021813,0.0,True,0.011276721954345703,8.000000953674316,5.999999046325684,3.141591787338257,0.0,0.0,0.0
1759837108.1790564,1,8.000000953674316,5.999999046325684,3.141584829007426,0.0,True,0.010635852813720703,8.000000953674316,5.999999046325684,3.141591787338257,0.0,0.0,0.0
1759837108.1903603,1,8.000000953674316,5.999999046325684,3.141585054203249,0.0,True,0.011303901672363281,8.000000953674316,5.999999046325684,3.141591787338257,0.0,0.0,0.0
1759837108.2009523,1,8.000000953674316,5.999999046325684,3.141585365563415,0.0,True,0.010591983795166016,8.000000953674316,5.999999046325684,3.141591787338257,0.0,0.0,0.0
1759837108.2116067,1,8.000000953674316,5.999999046325684,3.141585638148765,0.0,True,0.010654449462890625,8.000000953674316,5.999999046325684,3.141591787338257,0.0,0.0,0.0
1759837108.2230427,1,8.000000953674316,5.999999046325684,3.141585785331902,0.0,True,0.011435985565185547,8.000000953674316,5.999999046325684,3.141591787338257,0.0,0.0,0.0
1759837108.234382,1,8.000000953674316,5.999999046325684,3.1415859531602823,0.0,True,0.011339187622070312,8.000000953674316,5.999999046325684,3.141591787338257,0.0,0.0,0.0
1759837108.2449963,1,8.000000953674316,5.999999046325684,3.141586213570191,0.0,True,0.010614395141601562,8.000000953674316,5.999999046325684,3.141591787338257,0.0,0.0,0.0
1759837108.25588,1,8.000000953674316,5.999999046325684,3.1415864212797793,0.0,True,0.010883808135986328,8.000000953674316,5.999999046325684,3.141591787338257,0.0,0.0,0.0
1759837108.2670238,1,8.000000953674316,5.999999046325684,3.1415865857896073,0.0,True,0.011143684387207031,8.000000953674316,5.999999046325684,3.141591787338257,0.0,0.0,0.0
1759837108.2779677,1,8.000000953674316,5.999999046325684,3.1415867696757633,0.0,True,0.010943889617919922,8.000000953674316,5.999999046325684,3.141591787338257,0.0,0.0,0.0
1759837108.2889147,1,8.000000953674316,5.999999046325684,3.141586946511964,0.0,True,0.010946989059448242,8.000000953674316,5.999999046325684,3.141591787338257,0.0,0.0,0.0
1759837108.299654,1,8.000000953674316,5.999999046325684,3.141587135811566,0.0,True,0.010739326477050781,8.000000953674316,5.999999046325684,3.141591787338257,0.0,0.0,0.0
1759837108.3104901,1,8.000000953674316,5.999999046325684,3.141587302633143,0.0,True,0.010836124420166016,8.000000953674316,5.999999046325684,3.141591787338257,0.0,0.0,0.0
1759837108.3217542,1,8.000000953674316,5.999999046325684,3.141587420922651,0.0,True,0.01126408576965332,8.000000953674316,5.999999046325684,3.141591787338257,0.0,0.0,0.0
1759837108.3329968,1,8.000000953674316,5.999999046325684,3.141587545840551,0.0,True,0.01124262809753418,8.000000953674316,5.999999046325684,3.141591787338257,0.0,0.0,0.0
1759837108.3431363,1,8.000000953674316,5.999999046325684,3.141587768841571,0.0,True,0.01013946533203125,8.000000953674316,5.999999046325684,3.141591787338257,0.0,0.0,0.0
1759837108.3539982,1,8.000000953674316,5.999999046325684,3.141587905264805,0.0,True,0.010861873626708984,8.000000953674316,5.999999046325684,3.141591787338257,0.0,0.0,0.0
1759837108.365494,1,8.000000953674316,5.999999046325684,3.141587981844868,0.0,True,0.011495828628540039,8.000000953674316,5.999999046325684,3.141591787338257,0.0,0.0,0.0
1759837108.3758974,1,8.000000953674316,5.999999046325684,3.1415881542067012,0.0,True,0.01040339469909668,8.000000953674316,5.999999046325684,3.141591787338257,0.0,0.0,0.0
1759837108.3867006,1,8.000000953674316,5.999999046325684,3.1415882826655928,0.0,True,0.01080322265625,8.000000953674316,5.999999046325684,3.141591787338257,0.0,0.0,0.0
1759837108.3981366,1,8.000000953674316,5.999999046325684,3.141588357379117,0.0,True,0.011435985565185547,8.000000953674316,5.999999046325684,3.141591787338257,0.0,0.0,0.0
1759837108.4093344,1,8.000000953674316,5.999999046325684,3.1415884576434365,0.0,True,0.011197805404663086,8.000000953674316,5.999999046325684,3.141591787338257,0.0,0.0,0.0
1759837108.4194314,1,8.000000953674316,5.999999046325684,3.1415886352020497,0.0,True,0.010097026824951172,8.000000953674316,5.999999046325684,3.141591787338257,0.0,0.0,0.0
1759837108.4305649,1,8.000000953674316,5.999999046325684,3.141588723640643,0.0,True,0.011133432388305664,8.000000953674316,5.999999046325684,3.141591787338257,0.0,0.0,0.0
1759837108.441153,1,8.000000953674316,5.999999046325684,3.1415888441518014,0.0,True,0.01058816909790039,8.000000953674316,5.999999046325684,3.141591787338257,0.0,0.0,0.0
1759837108.452459,1,8.000000953674316,5.999999046325684,3.141588913682675,0.0,True,0.011306047439575195,8.000000953674316,5.999999046325684,3.141591787338257,0.0,0.0,0.0
1759837108.4637194,1,8.000000953674316,5.999999046325684,3.1415889906593417,0.0,True,0.011260271072387695,8.000000953674316,5.999999046325684,3.141591787338257,0.0,0.0,0.0
1759837108.4744775,1,8.000000953674316,5.999999046325684,3.1415891007243033,0.0,True,0.010758161544799805,8.000000953674316,5.999999046325684,3.141591787338257,0.0,0.0,0.0
1759837108.4854312,1,8.000000953674316,5.999999046325684,3.1415891939176745,0.0,True,0.010953664779663086,8.000000953674316,5.999999046325684,3.141591787338257,0.0,0.0,0.0
1759837108.4963112,1,8.000000953674316,5.999999046325684,3.141589286663347,0.0,True,0.010879993438720703,8.000000953674316,5.999999046325684,3.141591787338257,0.0,0.0,0.0
1759837108.507604,1,8.000000953674316,5.999999046325684,3.1415893542365865,0.0,True,0.011292695999145508,8.000000953674316,5.999999046325684,3.141591787338257,0.0,0.0,0.0
1759837108.5270221,1,8.000000953674316,5.999999046325684,3.141589038535386,0.0,True,0.01941823959350586,8.000000953674316,5.999999046325684,3.141591787338257,0.0,0.0,0.0
1759837108.5317197,1,8.000000953674316,5.999999046325684,3.1415895252849246,0.0,True,0.004697561264038086,8.000000953674316,5.999999046325684,3.141591787338257,0.0,0.0,0.0
1759837108.5423748,1,8.000000953674316,5.999999046325684,3.141589649401091,0.0,True,0.01065516471862793,8.000000953674316,5.999999046325684,3.141591787338257,0.0,0.0,0.0
1759837108.5527122,1,8.000000953674316,5.999999046325684,3.1415897488673963,0.0,True,0.010337352752685547,8.000000953674316,5.999999046325684,3.141591787338257,0.0,0.0,0.0
1759837108.5629854,1,8.000000953674316,5.999999046325684,3.141589837497465,0.0,True,0.010273218154907227,8.000000953674316,5.999999046325684,3.141591787338257,0.0,0.0,0.0
1759837108.5737333,1,8.000000953674316,5.999999046325684,3.1415898963374964,0.0,True,0.010747909545898438,8.000000953674316,5.999999046325684,3.141591787338257,0.0,0.0,0.0
1759837108.584437,1,8.000000953674316,5.999999046325684,3.1415899548769044,0.0,True,0.010703563690185547,8.000000953674316,5.999999046325684,3.141591787338257,0.0,0.0,0.0
1759837108.5959883,1,8.000000953674316,5.999999046325684,3.141589980254494,0.0,True,0.011551380157470703,8.000000953674316,5.999999046325684,3.141591787338257,0.0,0.0,0.0
1759837108.6067793,1,8.000000953674316,5.999999046325684,3.141590042456439,0.0,True,0.01079106330871582,8.000000953674316,5.999999046325684,3.141591787338257,0.0,0.0,0.0
1759837108.617537,1,8.000000953674316,5.999999046325684,3.1415901054448625,0.0,True,0.010757684707641602,8.000000953674316,5.999999046325684,3.141591787338257,0.0,0.0,0.0
1759837108.6278358,1,8.000000953674316,5.999999046325684,3.1415901808834814,0.0,True,0.010298728942871094,8.000000953674316,5.999999046325684,3.141591787338257,0.0,0.0,0.0
1759837108.6392133,1,8.000000953674316,5.999999046325684,3.1415902124846777,0.0,True,0.011377573013305664,8.000000953674316,5.999999046325684,3.141591787338257,0.0,0.0,0.0
1759837108.6499593,1,8.000000953674316,5.999999046325684,3.1415902680998755,0.0,True,0.010746002197265625,8.000000953674316,5.999999046325684,3.141591787338257,0.0,0.0,0.0
1759837108.6608782,1,8.000000953674316,5.999999046325684,3.14159031705821,0.0,True,0.010918855667114258,8.000000953674316,5.999999046325684,3.141591787338257,0.0,0.0,0.0
1759837108.6716619,1,8.000000953674316,5.999999046325684,3.141590368884227,0.0,True,0.010783672332763672,8.000000953674316,5.999999046325684,3.141591787338257,0.0,0.0,0.0
1759837108.6829734,1,8.000000953674316,5.999999046325684,3.141590403232012,0.0,True,0.011311531066894531,8.000000953674316,5.999999046325684,3.141591787338257,0.0,0.0,0.0
1759837108.693186,1,8.000000953674316,5.999999046325684,3.141590470731611,0.0,True,0.01021265983581543,8.000000953674316,5.999999046325684,3.141591787338257,0.0,0.0,0.0
1759837108.7040262,1,8.000000953674316,5.999999046325684,3.1415905142206952,0.0,True,0.010840177536010742,8.000000953674316,5.999999046325684,3.141591787338257,0.0,0.0,0.0
1759837108.7147434,1,8.000000953674316,5.999999046325684,3.141590558420189,0.0,True,0.010717153549194336,8.000000953674316,5.999999046325684,3.141591787338257,0.0,0.0,0.0
1759837108.7271633,1,8.000000953674316,5.999999046325684,3.1415905578515826,0.0,True,0.012419939041137695,8.000000953674316,5.999999046325684,3.141591787338257,0.0,0.0,0.0
1759837108.7378914,1,8.000000953674316,5.999999046325684,3.1415906099487874,0.0,True,0.010728120803833008,8.000000953674316,5.999999046325684,3.141591787338257,0.0,0.0,0.0
1759837108.7481997,1,8.000000953674316,5.999999046325684,3.1415906701131284,0.0,True,0.010308265686035156,8.000000953674316,5.999999046325684,3.141591787338257,0.0,0.0,0.0
1759837108.7595901,1,8.000000953674316,5.999999046325684,3.1415906978994954,0.0,True,0.011390447616577148,8.000000953674316,5.999999046325684,3.141591787338257,0.0,0.0,0.0
1759837108.7702942,1,8.000000953674316,5.999999046325684,3.141590741466178,0.0,True,0.01070404052734375,8.000000953674316,5.999999046325684,3.141591787338257,0.0,0.0,0.0
1759837108.7811728,1,8.000000953674316,5.999999046325684,3.1415907787862842,0.0,True,0.010878562927246094,8.000000953674316,5.999999046325684,3.141591787338257,0.0,0.0,0.0
1759837108.7920887,1,8.000000953674316,5.999999046325684,3.1415908132801,0.0,True,0.010915994644165039,8.000000953674316,5.999999046325684,3.141591787338257,0.0,0.0,0.0
1759837108.8032298,1,8.000000953674316,5.999999046325684,3.141590842040358,0.0,True,0.011141061782836914,8.000000953674316,5.999999046325684,3.141591787338257,0.0,0.0,0.0
1759837108.815329,1,8.000000953674316,5.999999046325684,3.141590852904283,0.0,True,0.012099266052246094,8.000000953674316,5.999999046325684,3.141591787338257,0.0,0.0,0.0
1759837108.8265686,1,8.000000953674316,5.999999046325684,3.1415908854914,0.0,True,0.01123952865600586,8.000000953674316,5.999999046325684,3.141591787338257,0.0,0.0,0.0
1759837108.8374205,1,8.000000953674316,5.999999046325684,3.141590925253123,0.0,True,0.010851860046386719,8.000000953674316,5.999999046325684,3.141591787338257,0.0,0.0,0.0
1759837108.8485966,1,8.000000953674316,5.999999046325684,3.1415909560496083,0.0,True,0.011176109313964844,8.000000953674316,5.999999046325684,3.141591787338257,0.0,0.0,0.0
1759837108.8599188,1,8.000000953674316,5.999999046325684,3.141590982826342,0.0,True,0.011322259902954102,8.000000953674316,5.999999046325684,3.141591787338257,0.0,0.0,0.0
1759837108.871274,1,8.000000953674316,5.999999046325684,3.141591008833265,0.0,True,0.011355161666870117,8.000000953674316,5.999999046325684,3.141591787338257,0.0,0.0,0.0
1759837108.8819602,1,8.000000953674316,5.999999046325684,3.1415910449631586,0.0,True,0.010686159133911133,8.000000953674316,5.999999046325684,3.141591787338257,0.0,0.0,0.0
1759837108.8922882,1,8.000000953674316,5.999999046325684,3.1415910828966,0.0,True,0.010328054428100586,8.000000953674316,5.999999046325684,3.141591787338257,0.0,0.0,0.0
1759837108.902979,1,8.000000953674316,5.999999046325684,3.1415911105032883,0.0,True,0.010690689086914062,8.000000953674316,5.999999046325684,3.141591787338257,0.0,0.0,0.0
1759837108.9143817,1,8.000000953674316,5.999999046325684,3.1415911255892137,0.0,True,0.01140284538269043,8.000000953674316,5.999999046325684,3.141591787338257,0.0,0.0,0.0
1759837108.9249606,1,8.000000953674316,5.999999046325684,3.141591153042709,0.0,True,0.01057887077331543,8.000000953674316,5.999999046325684,3.141591787338257,0.0,0.0,0.0
1759837108.9352045,1,8.000000953674316,5.999999046325684,3.1415911830071117,0.0,True,0.010243892669677734,8.000000953674316,5.999999046325684,3.141591787338257,0.0,0.0,0.0
1759837108.9460158,1,8.000000953674316,5.999999046325684,3.1415912022399137,0.0,True,0.010811328887939453,8.000000953674316,5.999999046325684,3.141591787338257,0.0,0.0,0.0
1759837108.956213,1,8.000000953674316,5.999999046325684,3.1415912279545424,0.0,True,0.010197162628173828,8.000000953674316,5.999999046325684,3.141591787338257,0.0,0.0,0.0
1759837108.967442,1,8.000000953674316,5.999999046325684,3.141591239029344,0.0,True,0.01122903823852539,8.000000953674316,5.999999046325684,3.141591787338257,0.0,0.0,0.0
1759837108.9782877,1,8.000000953674316,5.999999046325684,3.1415912556525747,0.0,True,0.010845661163330078,8.000000953674316,5.999999046325684,3.141591787338257,0.0,0.0,0.0
1759837108.988671,1,8.000000953674316,5.999999046325684,3.141591277630246,0.0,True,0.010383367538452148,8.000000953674316,5.999999046325684,3.141591787338257,0.0,0.0,0.0
1759837108.9993994,1,8.000000953674316,5.999999046325684,3.1415912941586726,0.0,True,0.01072835922241211,8.000000953674316,5.999999046325684,3.141591787338257,0.0,0.0,0.0
1759837109.0097482,1,8.000000953674316,5.999999046325684,3.1415913138507268,0.0,True,0.010348796844482422,8.000000953674316,5.999999046325684,3.141591787338257,0.0,0.0,0.0
1759837109.020455,1,8.000000953674316,5.999999046325684,3.141591328421793,0.0,True,0.010706663131713867,8.000000953674316,5.999999046325684,3.141591787338257,0.0,0.0,0.0
1759837109.0313582,1,8.000000953674316,5.999999046325684,3.141591340665247,0.0,True,0.010903358459472656,8.000000953674316,5.999999046325684,3.141591787338257,0.0,0.0,0.0
1759837109.042015,1,8.000000953674316,5.999999046325684,3.141591355604678,0.0,True,0.01065683364868164,8.000000953674316,5.999999046325684,3.141591787338257,0.0,0.0,0.0
1759837109.0530844,1,8.000000953674316,5.999999046325684,3.141591366480972,0.0,True,0.011069297790527344,8.000000953674316,5.999999046325684,3.141591787338257,0.0,0.0,0.0
1759837109.0641334,1,8.000000953674316,5.999999046325684,3.1415913781127394,0.0,True,0.011049032211303711,8.000000953674316,5.999999046325684,3.141591787338257,0.0,0.0,0.0
1759837109.0754912,1,8.000000953674316,5.999999046325684,3.1415913876876527,0.0,True,0.011357784271240234,8.000000953674316,5.999999046325684,3.141591787338257,0.0,0.0,0.0
1759837109.0857537,1,8.000000953674316,5.999999046325684,3.1415914070971667,0.0,True,0.010262489318847656,8.000000953674316,5.999999046325684,3.141591787338257,0.0,0.0,0.0
1759837109.096445,1,8.000000953674316,5.999999046325684,3.141591421214587,0.0,True,0.010691404342651367,8.000000953674316,5.999999046325684,3.141591787338257,0.0,0.0,0.0
1759837109.106766,1,8.000000953674316,5.999999046325684,3.141591436962294,0.0,True,0.010320901870727539,8.000000953674316,5.999999046325684,3.141591787338257,0.0,0.0,0.0
1759837109.118114,1,8.000000953674316,5.999999046325684,3.141591443671503,0.0,True,0.01134800910949707,8.000000953674316,5.999999046325684,3.141591787338257,0.0,0.0,0.0
1759837109.1284468,1,8.000000953674316,5.999999046325684,3.141591458434892,0.0,True,0.010332822799682617,8.000000953674316,5.999999046325684,3.141591787338257,0.0,0.0,0.0
1759837109.1388586,1,8.000000953674316,5.999999046325684,3.141591471584432,0.0,True,0.010411739349365234,8.000000953674316,5.999999046325684,3.141591787338257,0.0,0.0,0.0
1759837109.1496,1,8.000000953674316,5.999999046325684,3.141591481330753,0.0,True,0.010741472244262695,8.000000953674316,5.999999046325684,3.141591787338257,0.0,0.0,0.0
1759837109.1604316,1,8.000000953674316,5.999999046325684,3.141591490225096,0.0,True,0.010831594467163086,8.000000953674316,5.999999046325684,3.141591787338257,0.0,0.0,0.0
1759837109.1706693,1,8.000000953674316,5.999999046325684,3.1415915028528723,0.0,True,0.010237693786621094,8.000000953674316,5.999999046325684,3.141591787338257,0.0,0.0,0.0
1759837109.1819022,1,8.000000953674316,5.999999046325684,3.141591508447659,0.0,True,0.011232852935791016,8.000000953674316,5.999999046325684,3.141591787338257,0.0,0.0,0.0
1759837109.1931484,1,8.000000953674316,5.999999046325684,3.1415915146535767,0.0,True,0.011246204376220703,8.000000953674316,5.999999046325684,3.141591787338257,0.0,0.0,0.0
1759837109.2044683,1,8.000000953674316,5.999999046325684,3.141591521342253,0.0,True,0.011319875717163086,8.000000953674316,5.999999046325684,3.141591787338257,0.0,0.0,0.0
1759837109.215173,1,8.000000953674316,5.999999046325684,3.1415915320094534,0.0,True,0.010704755783081055,8.000000953674316,5.999999046325684,3.141591787338257,0.0,0.0,0.0
1759837109.2262876,1,8.000000953674316,5.999999046325684,3.141591539955897,0.0,True,0.01111459732055664,8.000000953674316,5.999999046325684,3.141591787338257,0.0,0.0,0.0
1759837109.2368758,1,8.000000953674316,5.999999046325684,3.1415915504028433,0.0,True,0.01058816909790039,8.000000953674316,5.999999046325684,3.141591787338257,0.0,0.0,0.0
1759837109.247198,1,8.000000953674316,5.999999046325684,3.1415915612986893,0.0,True,0.010322332382202148,8.000000953674316,5.999999046325684,3.141591787338257,0.0,0.0,0.0
1759837109.257835,1,8.000000953674316,5.999999046325684,3.141591569471734,0.0,True,0.01063680648803711,8.000000953674316,5.999999046325684,3.141591787338257,0.0,0.0,0.0
1759837109.2691963,1,8.000000953674316,5.999999046325684,3.1415915737705227,0.0,True,0.011361360549926758,8.000000953674316,5.999999046325684,3.141591787338257,0.0,0.0,0.0
1759837109.2798872,1,8.000000953674316,5.999999046325684,3.141591581623116,0.0,True,0.010690927505493164,8.000000953674316,5.999999046325684,3.141591787338257,0.0,0.0,0.0
1759837109.290096,1,8.000000953674316,5.999999046325684,3.1415915912504957,0.0,True,0.010208845138549805,8.000000953674316,5.999999046325684,3.141591787338257,0.0,0.0,0.0
1759837109.3002782,1,8.000000953674316,5.999999046325684,3.1415915999005115,0.0,True,0.01018214225769043,8.000000953674316,5.999999046325684,3.141591787338257,0.0,0.0,0.0
1759837109.3115368,1,8.000000953674316,5.999999046325684,3.1415916032695392,0.0,True,0.011258602142333984,8.000000953674316,5.999999046325684,3.141591787338257,0.0,0.0,0.0
1759837109.328448,1,7.994630205496972,5.9999990466022775,3.141591586046708,0.04071202771426657,True,0.01691126823425293,7.99173641204834,5.999999046325684,3.141591787338257,0.04071202771426657,0.0,1.0000027847294746
1759837109.3403447,1,7.9926567432328754,5.999999046628691,3.141591594462069,0.04071202771426657,True,0.011896610260009766,7.99173641204834,5.999999046325684,3.141591787338257,0.04071202771426657,0.0,0.9713822292463652
1759837109.351336,1,7.991917025308093,5.999999046622265,3.1415916069281646,0.04071202771426657,True,0.010991334915161133,7.99173641204834,5.999999046325684,3.141591787338257,0.04071202771426657,0.0,0.9713822292463652
1759837109.3626885,1,7.991628861257786,5.999999046623599,3.141591616378875,0.04071202771426657,True,0.0113525390625,7.99173641204834,5.999999046325684,3.141591787338257,0.04071202771426657,0.0,0.9713822292463652
1759837109.3727608,1,7.991538701952782,5.9999990466017685,3.141591628576485,0.04071202771426657,True,0.01007223129272461,7.99173641204834,5.999999046325684,3.141591787338257,0.04071202771426657,0.0,0.9713822292463652
1759837109.3830986,1,7.991500133946916,5.999999046595791,3.1415916377715796,0.04071202771426657,True,0.01033782958984375,7.99173641204834,5.999999046325684,3.141591787338257,0.04071202771426657,0.0,0.9713822292463652
1759837109.3939276,1,7.991477764717202,5.999999046599828,3.141591643870184,0.04071202771426657,True,0.010828971862792969,7.99173641204834,5.999999046325684,3.141591787338257,0.04071202771426657,0.0,0.9713822292463652
1759837109.4046452,1,7.991470951859723,5.9999990465985995,3.1415916496139715,0.04071202771426657,True,0.010717630386352539,7.99173641204834,5.999999046325684,3.141591787338257,0.04071202771426657,0.0,0.9713822292463652
1759837109.4157896,1,7.991461713057101,5.999999046603858,3.1415916536823456,0.04071202771426657,True,0.011144399642944336,7.99173641204834,5.999999046325684,3.141591787338257,0.04071202771426657,0.0,0.9713822292463652
1759837109.4270754,1,7.991455985568672,5.999999046607366,3.1415916573461793,0.04071202771426657,True,0.011285781860351562,7.99173641204834,5.999999046325684,3.141591787338257,0.04071202771426657,0.0,0.9713822292463652
1759837109.4373467,1,7.991469573507329,5.999999046592312,3.1415916638040784,0.04071202771426657,True,0.010271310806274414,7.99173641204834,5.999999046325684,3.141591787338257,0.04071202771426657,0.0,0.9713822292463652
1759837109.4475183,1,7.991476313395856,5.999999046584004,3.1415916698023594,0.04071202771426657,True,0.010171651840209961,7.99173641204834,5.999999046325684,3.141591787338257,0.04071202771426657,0.0,0.9713822292463652
1759837109.4589658,1,7.991459048679852,5.9999990465994495,3.1415916718615673,0.04071202771426657,True,0.011447429656982422,7.99173641204834,5.999999046325684,3.141591787338257,0.04071202771426657,0.0,0.9713822292463652
1759837109.470658,1,7.991448646486632,5.999999046608724,3.1415916736650473,0.04071202771426657,True,0.011692285537719727,7.99173641204834,5.999999046325684,3.141591787338257,0.04071202771426657,0.0,0.9713822292463652
1759837109.481923,1,7.991451317140115,5.999999046605406,3.141591677061978,0.04071202771426657,True,0.011265039443969727,7.99173641204834,5.999999046325684,3.141591787338257,0.04071202771426657,0.0,0.9713822292463652
1759837109.4931073,1,7.991453594099962,5.99999904660231,3.141591680793937,0.04071202771426657,True,0.011184215545654297,7.99173641204834,5.999999046325684,3.141591787338257,0.04071202771426657,0.0,0.9713822292463652
1759837109.5038292,1,7.991461652769485,5.999999046593475,3.1415916854375254,0.04071202771426657,True,0.010721921920776367,7.99173641204834,5.999999046325684,3.141591787338257,0.04071202771426657,0.0,0.9713822292463652
1759837109.5150397,1,7.991457134128087,5.999999046596699,3.1415916886795188,0.04071202771426657,True,0.011210441589355469,7.99173641204834,5.999999046325684,3.141591787338257,0.04071202771426657,0.0,0.9713822292463652
1759837109.528378,1,7.867567721437767,5.9999984616956965,3.1415916877278995,0.9502612898555902,True,0.013338327407836914,7.79883337020874,5.999998092651367,3.141591787338257,0.9502612898555902,0.0,0.9713822292463652
1759837109.538652,1,7.821358452109033,5.9999982372129095,3.1415916937748456,0.9502612898555902,True,0.010273933410644531,7.79883337020874,5.999998092651367,3.141591787338257,0.9502612898555902,0.0,0.3237045563358256
1759837109.5495934,1,7.803465774863346,5.9999981516790575,3.141591698004044,0.9502612898555902,True,0.010941505432128906,7.79883337020874,5.999998092651367,3.141591787338257,0.9502612898555902,0.0,0.3237045563358256
1759837109.561041,1,7.79644765970859,5.999998119167398,3.141591700817438,0.9502612898555902,True,0.011447668075561523,7.79883337020874,5.999998092651367,3.141591787338257,0.9502612898555902,0.0,0.3237045563358256
1759837109.5713189,1,7.7941916211992925,5.999998106332321,3.141591705555367,0.9502612898555902,True,0.010277748107910156,7.79883337020874,5.999998092651367,3.141591787338257,0.9502612898555902,0.0,0.3237045563358256
1759837109.5825632,1,7.792979065309622,5.999998101745339,3.141591708101455,0.9502612898555902,True,0.01124429702758789,7.79883337020874,5.999998092651367,3.141591787338257,0.9502612898555902,0.0,0.3237045563358256
1759837109.59375,1,7.792536765879003,5.999998099963177,3.1415917106249562,0.9502612898555902,True,0.011186838150024414,7.79883337020874,5.999998092651367,3.141591787338257,0.9502612898555902,0.0,0.3237045563358256
1759837109.604533,1,7.792514418238944,5.999998099133801,3.1415917137509393,0.9502612898555902,True,0.010782957077026367,7.79883337020874,5.999998092651367,3.141591787338257,0.9502612898555902,0.0,0.3237045563358256
1759837109.6159098,1,7.792290315546115,5.99999809900771,3.141591715776075,0.9502612898555902,True,0.01137685775756836,7.79883337020874,5.999998092651367,3.141591787338257,0.9502612898555902,0.0,0.3237045563358256
1759837109.627198,1,7.7922369081444804,5.9999980989209405,3.141591717969874,0.9502612898555902,True,0.011288166046142578,7.79883337020874,5.999998092651367,3.141591787338257,0.9502612898555902,0.0,0.3237045563358256
1759837109.6373594,1,7.792625487861133,5.999998098495727,3.1415917217446623,0.9502612898555902,True,0.010161399841308594,7.79883337020874,5.999998092651367,3.141591787338257,0.9502612898555902,0.0,0.3237045563358256
1759837109.6486263,1,7.792372634476447,5.999998098693886,3.141591723562737,0.9502612898555902,True,0.011266946792602539,7.79883337020874,5.999998092651367,3.141591787338257,0.9502612898555902,0.0,0.3237045563358256
1759837109.6588335,1,7.792660715372554,5.999998098404022,3.141591726710594,0.9502612898555902,True,0.010207176208496094,7.79883337020874,5.999998092651367,3.141591787338257,0.9502612898555902,0.0,0.3237045563358256
1759837109.6690443,1,7.7927694544103705,5.999998098282962,3.1415917295042366,0.9502612898555902,True,0.010210752487182617,7.79883337020874,5.999998092651367,3.141591787338257,0.9502612898555902,0.0,0.3237045563358256
1759837109.6802895,1,7.792435499781128,5.9999980985738315,3.1415917306854944,0.9502612898555902,True,0.011245250701904297,7.79883337020874,5.999998092651367,3.141591787338257,0.9502612898555902,0.0,0.3237045563358256
1759837109.6913917,1,7.792359863382902,5.999998098632101,3.14159173214048,0.9502612898555902,True,0.01110219955444336,7.79883337020874,5.999998092651367,3.141591787338257,0.9502612898555902,0.0,0.3237045563358256
1759837109.7022738,1,7.792410847607313,5.999998098574782,3.1415917339529216,0.9502612898555902,True,0.010882139205932617,7.79883337020874,5.999998092651367,3.141591787338257,0.9502612898555902,0.0,0.3237045563358256
1759837109.7134562,1,7.792321370255513,5.9999980986460315,3.1415917354163803,0.9502612898555902,True,0.011182308197021484,7.79883337020874,5.999998092651367,3.141591787338257,0.9502612898555902,0.0,0.3237045563358256
1759837109.7254844,1,7.7517851947260965,5.999997212280939,3.141591736064443,0.3426298132816453,True,0.012028217315673828,7.729279518127441,5.999996662139893,3.141591787338257,0.3426298132816453,0.0,0.3237045563358256
1759837109.7353814,1,7.7365806729630435,5.99999687346302,3.1415917391485024,0.3426298132816453,True,0.009896993637084961,7.729279518127441,5.999996662139893,3.141591787338257,0.3426298132816453,0.0,0.5579664425412805
1759837109.7464,1,7.730626254476181,5.999996744176573,3.1415917407505205,0.3426298132816453,True,0.011018753051757812,7.729279518127441,5.999996662139893,3.141591787338257,0.3426298132816453,0.0,0.5579664425412805
1759837109.7565358,1,7.728467443209823,5.999996694685699,3.1415917430673197,0.3426298132816453,True,0.010135650634765625,7.729279518127441,5.999996662139893,3.141591787338257,0.3426298132816453,0.0,0.5579664425412805
1759837109.7681398,1,7.727450674230488,5.999996675953959,3.141591743763481,0.3426298132816453,True,0.011604070663452148,7.729279518127441,5.999996662139893,3.141591787338257,0.3426298132816453,0.0,0.5579664425412805
1759837109.7782564,1,7.727256975693262,5.999996668620743,3.141591745918019,0.3426298132816453,True,0.0101165771484375,7.729279518127441,5.999996662139893,3.141591787338257,0.3426298132816453,0.0,0.5579664425412805
1759837109.7895226,1,7.7270325307822345,5.999996665953546,3.1415917468779906,0.3426298132816453,True,0.011266231536865234,7.729279518127441,5.999996662139893,3.141591787338257,0.3426298132816453,0.0,0.5579664425412805
1759837109.8008344,1,7.726940840769466,5.999996664938754,3.141591747843833,0.3426298132816453,True,0.011311769485473633,7.729279518127441,5.999996662139893,3.141591787338257,0.3426298132816453,0.0,0.5579664425412805
1759837109.8110082,1,7.727054748029881,5.999996664414712,3.141591749817561,0.3426298132816453,True,0.010173797607421875,7.729279518127441,5.999996662139893,3.141591787338257,0.3426298132816453,0.0,0.5579664425412805
1759837109.8221529,1,7.72697119998427,5.999996664326849,3.1415917508295372,0.3426298132816453,True,0.011144638061523438,7.729279518127441,5.999996662139893,3.141591787338257,0.3426298132816453,0.0,0.5579664425412805
1759837109.834499,1,7.726782057865735,5.999996664433864,3.1415917509497078,0.3426298132816453,True,0.012346029281616211,7.729279518127441,5.999996662139893,3.141591787338257,0.3426298132816453,0.0,0.0
1759837109.8450806,1,7.726940710809597,5.999996664265939,3.141591752652678,0.3426298132816453,True,0.010581731796264648,7.729279518127441,5.999996662139893,3.141591787338257,0.3426298132816453,0.0,0.0
1759837109.855339,1,7.727043621487523,5.999996664161313,3.1415917544711114,0.3426298132816453,True,0.01025843620300293,7.729279518127441,5.999996662139893,3.141591787338257,0.3426298132816453,0.0,0.0
1759837109.8664126,1,7.726976248380526,5.999996664214912,3.1415917554901505,0.3426298132816453,True,0.011073589324951172,7.729279518127441,5.999996662139893,3.141591787338257,0.3426298132816453,0.0,0.0
1759837109.877282,1,7.726977254721339,5.999996664209883,3.1415917565965437,0.3426298132816453,True,0.010869264602661133,7.729279518127441,5.999996662139893,3.141591787338257,0.3426298132816453,0.0,0.0
1759837109.8884745,1,7.726935328463539,5.999996664244367,3.1415917574631003,0.3426298132816453,True,0.011192560195922852,7.729279518127441,5.999996662139893,3.141591787338257,0.3426298132816453,0.0,0.0
1759837109.8992426,1,7.72697485458131,5.999996664206469,3.141591758603612,0.3426298132816453,True,0.01076817512512207,7.729279518127441,5.999996662139893,3.141591787338257,0.3426298132816453,0.0,0.0
1759837109.9100635,1,7.726983056453263,5.999996664196568,3.141591759653071,0.3426298132816453,True,0.010820865631103516,7.729279518127441,5.999996662139893,3.141591787338257,0.3426298132816453,0.0,0.0
1759837109.9202414,1,7.7270703425430325,5.999996664116045,3.141591761002486,0.3426298132816453,True,0.010177850723266602,7.729279518127441,5.999996662139893,3.141591787338257,0.3426298132816453,0.0,0.0
1759837109.933683,1,7.69111660509719,5.99999666420435,3.1415917604224664,0.2857616969524059,True,0.01344156265258789,7.67126989364624,5.999996662139893,3.141591787338257,0.2857616969524059,0.0,0.0
1759837109.944978,1,7.677617790671834,5.999996664029501,3.1415917613673194,0.2857616969524059,True,0.011295080184936523,7.67126989364624,5.999996662139893,3.141591787338257,0.2857616969524059,0.0,0.0
1759837109.9551868,1,7.672580266288315,5.999996663855718,3.141591762916754,0.2857616969524059,True,0.010208845138549805,7.67126989364624,5.999996662139893,3.141591787338257,0.2857616969524059,0.0,0.0
1759837109.9663303,1,7.670554090338923,5.999996663878532,3.14159176379143,0.2857616969524059,True,0.01114344596862793,7.67126989364624,5.999996662139893,3.141591787338257,0.2857616969524059,0.0,0.0
1759837109.9765904,1,7.669876577754726,5.9999966638003635,3.1415917650078793,0.2857616969524059,True,0.01026010513305664,7.67126989364624,5.999996662139893,3.141591787338257,0.2857616969524059,0.0,0.0
1759837109.9875998,1,7.669535998526324,5.999996663841866,3.141591765731631,0.2857616969524059,True,0.011009454727172852,7.67126989364624,5.999996662139893,3.141591787338257,0.2857616969524059,0.0,0.0
1759837109.9997394,1,7.669282556559342,5.999996663966422,3.1415917659231134,0.2857616969524059,True,0.012139558792114258,7.67126989364624,5.999996662139893,3.141591787338257,0.2857616969524059,0.0,0.0
1759837110.0107555,1,7.669308373956481,5.999996663904832,3.1415917667351376,0.2857616969524059,True,0.011016130447387695,7.67126989364624,5.999996662139893,3.141591787338257,0.2857616969524059,0.0,0.0
1759837110.02193,1,7.669300955596349,5.999996663895662,3.1415917674713825,0.2857616969524059,True,0.011174440383911133,7.67126989364624,5.999996662139893,3.141591787338257,0.2857616969524059,0.0,0.0
1759837110.0326557,1,7.6693470986143355,5.999996663847851,3.141591768351793,0.2857616969524059,True,0.010725736618041992,7.67126989364624,5.999996662139893,3.141591787338257,0.2857616969524059,0.0,0.0
1759837110.0438323,1,7.669315512886262,5.999996663872144,3.141591768979932,0.2857616969524059,True,0.011176586151123047,7.67126989364624,5.999996662139893,3.141591787338257,0.2857616969524059,0.0,0.0
1759837110.0540137,1,7.669412071082304,5.9999966637845406,3.1415917699480502,0.2857616969524059,True,0.010181427001953125,7.67126989364624,5.999996662139893,3.141591787338257,0.2857616969524059,0.0,0.0
1759837110.065499,1,7.669306629485696,5.999996663875819,3.141591770331747,0.2857616969524059,True,0.01148533821105957,7.67126989364624,5.999996662139893,3.141591787338257,0.2857616969524059,0.0,0.0
1759837110.0768476,1,7.669281291976104,5.999996663897002,3.141591770786107,0.2857616969524059,True,0.011348485946655273,7.67126989364624,5.999996662139893,3.141591787338257,0.2857616969524059,0.0,0.0
1759837110.0869727,1,7.669405141447942,5.9999966637866144,3.141591771675884,0.2857616969524059,True,0.010125160217285156,7.67126989364624,5.999996662139893,3.141591787338257,0.2857616969524059,0.0,0.0
1759837110.0989175,1,7.669253834955557,5.999996663918689,3.141591771876369,0.2857616969524059,True,0.011944770812988281,7.67126989364624,5.999996662139893,3.141591787338257,0.2857616969524059,0.0,0.0
1759837110.1102638,1,7.669261360473197,5.999996663911257,3.141591772327109,0.2857616969524059,True,0.01134634017944336,7.67126989364624,5.999996662139893,3.141591787338257,0.2857616969524059,0.0,0.0
1759837110.121343,1,7.669293407518566,5.999996663882142,3.1415917728854126,0.2857616969524059,True,0.011079072952270508,7.67126989364624,5.999996662139893,3.141591787338257,0.2857616969524059,0.0,0.0
1759837110.1381164,1,7.670514943123761,5.999996662805376,3.1415917718247144,0.0,True,0.016773462295532227,7.67126989364624,5.999996662139893,3.141591787338257,0.0,0.0,0.0
