timestamp,observer_vehicle_id,vehicle_0_x,vehicle_0_y,vehicle_0_theta,vehicle_0_velocity,vehicle_1_x,vehicle_1_y,vehicle_1_theta,vehicle_1_velocity
1759683339.8038652,1,0.0,0.0,0.0,0.0,-1.735,-0.35,-0.7801621756414646,0.0
1759683339.8144557,1,-0.23844766156144037,-0.16424189408431858,-0.14202055236295338,0.0,-1.735,-0.35,-0.7801621756414646,0.0
1759683340.6656365,1,-0.4239838546339335,-0.2920385584419106,-0.2525267844263175,0.0,-1.7350000141675657,-0.3499999940968477,-0.7230009155866384,0.0
1759683340.780453,1,-0.5731345985749204,-0.39477305593515133,-0.3413616712989084,0.0,-1.7350000142591175,-0.349999994058701,-0.7180958946155407,0.0
1759683340.8861396,1,-0.6936911878623399,-0.4778120022567494,-0.41316574473571727,0.0,-1.7350000142878588,-0.3499999940467255,-0.7176958864974807,0.0
1759683340.979972,1,-0.7927241458976398,-0.5460255485669926,-0.47215024183755383,0.0,-1.7350000142985407,-0.3499999940422747,-0.7176723848615989,0.0
1759683341.0703962,1,-0.8741334117989185,-0.6020999589431862,-0.5206379847453745,0.0,-1.7350000143026045,-0.3499999940405814,-0.7176769644949452,0.0
1759683341.1590905,1,-0.9370642996075772,-0.6454465287624027,-0.5581199184693244,0.0,-1.735000014304156,-0.349999994039935,-0.7176819163340511,0.0
1759683341.263524,1,-0.9881697563604784,-0.6806477840826524,-0.5885585696570942,0.0,-1.7350000143047486,-0.3499999940396881,-0.717685417440972,0.0
1759683341.363514,1,-1.029811375681244,-0.7093303821219643,-0.6133605146143071,0.0,-1.7350000143049749,-0.3499999940395938,-0.7176885894293541,0.0
1759683341.4519327,1,-1.0641598180186893,-0.7329894660123484,-0.633818608946736,0.0,-1.7350000143050612,-0.3499999940395578,-0.717691535383933,0.0
1759683341.5459666,1,-1.0920534391184789,-0.7522024921846319,-0.6504321812923567,0.0,-1.7350000143050943,-0.349999994039544,-0.717693734831629,0.0
1759683341.6525311,1,-1.114455561137591,-0.7676329934855597,-0.6637749908733884,0.0,-1.735000014305107,-0.34999999403953874,-0.7176955317345346,0.0
1759683341.7444572,1,-1.131659845752445,-0.7794832430246236,-0.6740219439699758,0.0,-1.7350000143051119,-0.34999999403953674,-0.7176971883488932,0.0
1759683341.8426967,1,-1.1458500663073081,-0.7892574160491909,-0.6824737062902976,0.0,-1.7350000143051136,-0.34999999403953597,-0.718198509713589,0.0012113933356607375
1759683341.9539323,1,-1.1572032968499963,-0.7970774805283158,-0.6892357439727727,0.0,-1.736828491299501,-0.34860143466881743,-0.7172069016471628,0.01785814748744915
1759683342.0480201,1,-1.166496402682052,-0.8034785384954519,-0.6947707616567094,0.0,-1.7377787934163964,-0.3478435549408187,-0.7161820219861302,0.01938864855307964
1759683342.1806922,1,-1.1738431792385542,-0.8085389718381513,-0.6991465364401949,0.0,-1.7418896076018955,-0.34467888761694143,-0.712947127206128,0.05007936446664279
1759683342.2681594,1,-1.1799065360704077,-0.8127153902775333,-0.702757900379747,0.0,-1.7440730831595668,-0.34289207022230567,-0.7103998681301913,0.05272286766535357
1759683342.3605075,1,-1.1848796467340985,-0.816140851066483,-0.7057199085571157,0.0,-1.7448246159066383,-0.3423054809827336,-0.7087877730720875,0.053367828503592986
1759683342.4507508,1,-1.1887153537200623,-0.8187828722815447,-0.7080044737370877,0.0,-1.7509730196650237,-0.33711534468669024,-0.7047937072459433,0.05377864593569102
1759683342.5447598,1,-1.191880576780766,-0.8209630665735965,-0.7098896955274355,0.0,-1.7538678172761828,-0.3346535595280844,-0.7013991667041426,0.05393795366140106
1759683342.6379912,1,-1.1944776920197269,-0.8227519502355664,-0.7114365496184848,0.0,-1.755026594025064,-0.3336601594419148,-0.6992979175675242,0.05400811201141853
1759683342.7424352,1,-1.196569702753262,-0.8241929197257704,-0.7126825610827211,0.0,-1.7616568987030334,-0.32810455830253543,-0.6945154644655861,0.05154154472843301
1759683342.8453789,1,-1.1982445149490335,-0.8253588048410968,-0.713319951571433,0.006281120525096934,-1.7648726796632144,-0.325400260452136,-0.6905915293831365,0.051452829293695795
1759683342.958423,1,-1.1992750491823547,-0.8264143829191641,-0.7135820579968236,0.01235190250532172,-1.770691259923725,-0.3206052016923081,-0.6855237836089944,0.051235365326942055
1759683343.0601974,1,-1.2001166293254906,-0.8273516650988539,-0.7138350847136912,0.017334052308865807,-1.7734239470834066,-0.31834059532011455,-0.6817078075332591,0.05132026019618676
1759683343.1653402,1,-1.1987460231164715,-0.8300383389242006,-0.7098428969336246,0.03278974258301871,-1.7788484434541707,-0.31396637728017945,-0.6764459871540873,0.054033250088317594
1759683343.2761815,1,-1.1975992371168536,-0.8323957449121353,-0.7063728608820858,0.04541122247422196,-1.7814079590344503,-0.31189951470982125,-0.6725875136207569,0.0547067995900191
1759683343.3937259,1,-1.1931458367028556,-0.8372200214279722,-0.6935374063332791,0.06313869643931495,-1.7874361155622795,-0.30713187138255926,-0.6651337733246968,0.05491855969763108
1759683343.4883134,1,-1.1893905126974464,-0.8414101916992555,-0.6825716774570028,0.07783143490343192,-1.7903526389980065,-0.30481851781235714,-0.6595507678620216,0.05573019793892116
1759683343.5850763,1,-1.1822061664548045,-0.8477733524377744,-0.6616969771456082,0.09289684492031049,-1.7914014466184944,-0.3039811596938092,-0.6559912069245557,0.05727848542970275
1759683343.6917343,1,-1.1762835953772675,-0.8530877793733053,-0.6440158417097825,0.10515278667804515,-1.7984158902027134,-0.2987381315535443,-0.642040246182214,0.05945247608225056
1759683343.791494,1,-1.1670027028279268,-0.8600879323157399,-0.6168291610043362,0.11744098301350946,-1.8017940229664384,-0.29616218814166495,-0.6300410168234537,0.060203158898551164
1759683343.9228456,1,-1.1575219494989741,-0.8667368766508149,-0.5916695004575913,0.126755776975603,-1.8083409437874909,-0.291490780173037,-0.6113509618563291,0.05892010255929335
1759683344.0398266,1,-1.1469167015607844,-0.8735447632659727,-0.5606993030165359,0.13316833346356555,-1.81141644995358,-0.28923236848902506,-0.5966054261176984,0.0587824920764864
1759683344.1636348,1,-1.1330206315677056,-0.8811628567988875,-0.5243913426823118,0.13928484546787995,-1.818047573280353,-0.28483500441695386,-0.5753896791158378,0.060955907989964926
1759683344.281151,1,-1.1209982728207313,-0.8876366306247488,-0.4924680984656129,0.14306361263805462,-1.821175244163657,-0.2826916433468806,-0.5589375513015541,0.061099917718668094
1759683344.3970895,1,-1.1051292120902556,-0.894914268027019,-0.4587517191385017,0.14763399337404362,-1.8274859288536516,-0.27871784769681,-0.5384378992866019,0.05479490719624334
1759683344.5103307,1,-1.090223530936673,-0.9013972228386092,-0.43095367568684845,0.15188154813028448,-1.8304699757813523,-0.2767918818925188,-0.5229482986287721,0.05423840473738402
1759683344.6205592,1,-1.0734422449658982,-0.9080731984120832,-0.4057860270526404,0.1563600819679169,-1.8324361678997527,-0.2753141823859381,-0.5161460923326906,0.01872982220544081
1759683344.7473853,1,-1.053123163564424,-0.9155361403283304,-0.3859369761957936,0.15886668256977948,-1.8332119283004773,-0.2747436370311973,-0.5123042512946572,0.015622292385552615
1759683344.8722348,1,-1.0363995426162134,-0.9216232179404029,-0.37062724962442106,0.1612579998089061,-1.8226836963550535,-0.28151907540785454,-0.5280571427779694,0.07546792111438548
1759683344.986051,1,-1.0163552178167554,-0.9286718931564425,-0.36112198775703025,0.16685002438828914,-1.8175539082041823,-0.284884224272909,-0.5456723682013085,0.08074458207781017
1759683345.103966,1,-1.0000223457768997,-0.9344145031753017,-0.35355102211664574,0.17206587007354457,-1.8046621307414574,-0.29419969696757897,-0.5806216219767989,0.10337888049396873
1759683345.22077,1,-0.9778978207829223,-0.942146739924597,-0.3501463164964921,0.18476562908251945,-1.7986389087749746,-0.2987702980229856,-0.6112975074302007,0.10371508124162447
1759683345.3407204,1,-0.9534411356072977,-0.9507570837818865,-0.3483710253454449,0.18694555190604192,-1.7859353294415303,-0.30926354741854345,-0.6514398138614922,0.10917151313991764
1759683345.4464452,1,-0.9332957661653558,-0.9578518697348588,-0.3471268669860054,0.18903083930786468,-1.7800581451926338,-0.3143787160553964,-0.6835417652075791,0.10782142724283854
1759683345.5595927,1,-0.9083738732885429,-0.9666939798321008,-0.3454460150720786,0.1967159219815822,-1.767147226655403,-0.32629733305381126,-0.7171143041348836,0.11922612497684032
1759683345.6693823,1,-0.887845801861708,-0.9739981194894438,-0.34393160626211167,0.20327031348736777,-1.7610958254504292,-0.33212268562528785,-0.7422187843967071,0.11875146064029807
1759683345.780856,1,-0.8639038669296996,-0.9824918341107713,-0.34046549237932655,0.2124466991044784,-1.746199224509094,-0.34689144777712216,-0.7645823868111045,0.1383167589119195
1759683345.8896408,1,-0.842984766237677,-0.9898813601308414,-0.3373005671916947,0.2206275504524364,-1.7391775009327148,-0.35400060560339486,-0.78043475255956,0.1392906222324008
1759683346.0024729,1,-0.817864298356156,-0.9985182633942749,-0.33116428014764887,0.22276329367325418,-1.7211067238128848,-0.3723967429186872,-0.7913779987736095,0.15890393999485752
1759683346.1171205,1,-0.7986172114030406,-1.0051657491734627,-0.32631509337091597,0.22477326324037453,-1.7125158977985417,-0.38118178087727206,-0.7979242381608919,0.16029426662336535
1759683346.2278278,1,-0.7740396202982472,-1.0132238099135529,-0.31717924480775983,0.22988394062839912,-1.692503542112147,-0.4015651674551381,-0.7985412272920845,0.1840282834455338
1759683346.3438823,1,-0.7462758083847771,-1.021825649967563,-0.3052624963269253,0.2298832075415969,-1.6830409260292376,-0.4111060699126286,-0.7972222577161029,0.1860242769383858
1759683346.4600365,1,-0.722602881424259,-1.0290409618237844,-0.2936781083325671,0.2300981066931033,-1.6634702437099458,-0.4301471330258831,-0.7908451021230883,0.17367447681423712
1759683346.5737355,1,-0.694101570140163,-1.0369373204995602,-0.27672920358583825,0.23995026171469402,-1.654070004620598,-0.4392021452648835,-0.784201407137575,0.1725125265044255
1759683346.693344,1,-0.6709881577144213,-1.043294073387184,-0.2625396193738438,0.2479587570578777,-1.6302127176068504,-0.4621849660180988,-0.7736796363192724,0.20228560932185705
1759683346.8055947,1,-0.6424141679818034,-1.0501025796094896,-0.2415281898193996,0.24817154714846446,-1.6189962710065195,-0.47275749061080347,-0.7647626387032228,0.20474782342747447
1759683346.9290597,1,-0.6164532030667403,-1.0558516894182983,-0.2228887673290706,0.25166103165883685,-1.5947115505083367,-0.49514679412009693,-0.7537289754141626,0.20389197748141916
1759683347.0478964,1,-0.5887653225704617,-1.061186265569747,-0.19916151109692,0.25790425294786057,-1.5831331736957492,-0.5056351445307047,-0.7450285762029117,0.20393058653229584
1759683347.1703367,1,-0.5571031908443685,-1.0660811279473534,-0.1728351609258235,0.2526819585023557,-1.5582326396880462,-0.5279792142988623,-0.7352289965028569,0.2088478605695354
1759683347.2945404,1,-0.5315024554746565,-1.069889573030746,-0.15065167868252782,0.24785130761007482,-1.5460672423691426,-0.538756381616253,-0.7280939916423084,0.20936822979700512
1759683347.4160326,1,-0.5012120586453963,-1.073219938330485,-0.12775367259440767,0.25338085930309845,-1.5176191669087795,-0.5636175960169686,-0.7175929876332927,0.22200397102716402
1759683347.5342903,1,-0.46958237789432883,-1.0760660776207336,-0.10673365615518893,0.2579146383700528,-1.5039621911251384,-0.5753501953065053,-0.7094833730190688,0.22321784079481388
1759683347.6620758,1,-0.43935236706643144,-1.0783424739072847,-0.08896812335376986,0.26097699018889275,-1.4748906337803767,-0.5995611304131315,-0.6960875133608994,0.22073435264864186
1759683347.7752903,1,-0.4054314256257954,-1.080239146427817,-0.07403860771063153,0.25814726447103603,-1.4614199504847833,-0.6105288805033595,-0.6856767217676467,0.2199884318543958
1759683347.8987513,1,-0.3776072505472205,-1.0817025387680537,-0.06216297564575435,0.25597970121275565,-1.4296225488285434,-0.6354481613948093,-0.6639142368350316,0.2415589789565196
1759683348.0168128,1,-0.3454779741478898,-1.082955137741605,-0.052356983718664755,0.2604514922358328,-1.4142717300392558,-0.6470631539711882,-0.646178090902868,0.2436737124558313
1759683348.1323385,1,-0.31601586790368486,-1.0839653741478035,-0.044295722527199675,0.2645419203833214,-1.3839844467934537,-0.6682831569393551,-0.6204294094669419,0.23204634027721008
1759683348.2560153,1,-0.2832560516511736,-1.0848537824180837,-0.03671545632921128,0.26875633050908193,-1.3693527993280956,-0.6781534232442625,-0.6002044203118726,0.23116689554602904
1759683348.3825102,1,-0.2476867676350909,-1.0855519689782522,-0.029527479723357113,0.2650583908519661,-1.3365690787357123,-0.6990357578867691,-0.5730941444294118,0.22934026650829364
1759683348.4989126,1,-0.21863944206566954,-1.0860810700611276,-0.023518975098814506,0.26195517303504934,-1.320575510010652,-0.7088283424273808,-0.5521172010208614,0.22968162680768694
1759683348.6255639,1,-0.18349916202194033,-1.0864477796841956,-0.01727121137936338,0.2729333762093941,-1.2831739019324073,-0.7302938662890869,-0.5227107627230997,0.2487948913670945
1759683348.7494855,1,-0.14519879002097152,-1.0866232197007684,-0.011703041606933487,0.2760061185803785,-1.2649377964222246,-0.7402842900480233,-0.4994427669866732,0.2507096725480919
1759683348.8696454,1,-0.11363609069277406,-1.0867293681405568,-0.007050473759036722,0.27851097737799285,-1.2226538044468036,-0.7618226671852896,-0.46835671853336924,0.28609250245303536
1759683348.9902618,1,-0.07757085130981999,-1.086679295336271,-0.003073593120714678,0.27194208806687276,-1.2024699116341135,-0.7715470874947603,-0.4446614654451816,0.28956901800661133
1759683349.108657,1,-0.0482528399914647,-1.0866177079360069,0.00014674413339050852,0.26660098182891784,-1.1639937943556358,-0.7886362591921323,-0.4187433503651592,0.265583905966541
1759683349.2191048,1,-0.013611963045907198,-1.0864441814488768,0.0025024284360278754,0.27592187487383335,-1.145918974991329,-0.7963155065946098,-0.4005994791434938,0.26373689135630324
1759683349.3484855,1,0.018414013603448333,-1.0862653026782016,0.00416141909392942,0.2804983918137527,-1.1090162320281738,-0.8113602570734744,-0.3816529667549556,0.24020951558438414
1759683349.4663014,1,0.05201954332176754,-1.0860663535668902,0.004870250087714486,0.2814674901661331,-1.0915355370712578,-0.8182769419061705,-0.3691367120471248,0.238008927221128
1759683349.5834386,1,0.08900037772871607,-1.0858884025410498,0.004695855957390562,0.27649372208424683,-1.0534221977030758,-0.8329888498132337,-0.3537970076497052,0.2504415568398125
1759683349.692788,1,0.11925740883871189,-1.085746239130117,0.004447398631496327,0.2725986840882305,-1.035077360700192,-0.8398562986524761,-0.34316712204921623,0.2517499961895531
1759683349.8193817,1,0.1544715532988089,-1.0856512458804521,0.00385769991122434,0.28101047658181466,-0.9922531305093335,-0.854863808543025,-0.3247745336696979,0.27776852220542725
1759683349.9289696,1,0.18331641296019877,-1.0855762843032537,0.0033673106264761445,0.2878365856143351,-0.9717463900947558,-0.8617255626414838,-0.3104541035350652,0.28063725537639855
1759683350.0558045,1,0.21857395376914376,-1.0855315043864147,0.0031161093828377413,0.28748295158592707,-0.930547196205048,-0.8743006844759893,-0.29133259944858186,0.27086052995562354
1759683350.1746593,1,0.25625817772673853,-1.0854926974944097,0.0032848070832277717,0.2821457439798104,-0.9109509505788824,-0.8799958616599484,-0.2768011696384344,0.270211444421873
1759683350.297343,1,0.28669617332087144,-1.0854598000787214,0.003512000721074322,0.27778860111489445,-0.8661253846080392,-0.8921730989083616,-0.258949499499744,0.2749872009048729
1759683350.412159,1,0.32332270951847847,-1.0853965366621272,0.004166514596810805,0.28400847538436136,-0.8447171397265276,-0.8977318593081891,-0.24595544684826637,0.27563309776062905
1759683350.5434825,1,0.35261826354141684,-1.0853413811583583,0.004724596336270993,0.28883806003731327,-0.7991006005662746,-0.9089863961619562,-0.2322056857075808,0.2880369325970925
1759683350.6596367,1,0.3873468753803494,-1.08523881054041,0.005458162374992414,0.2944154738623682,-0.7775830627486348,-0.9140891423766593,-0.22299816167161185,0.2891973853140558
1759683350.777201,1,0.4262136288015071,-1.0851012311856474,0.005977020338730736,0.2863555434317495,-0.7358005155800249,-0.9236073759772728,-0.21298918933379846,0.27156278743778456
1759683350.9029486,1,0.45742911794207,-1.084988013942242,0.0063834960927981466,0.28001591759699423,-0.715765609074611,-0.9280417283634355,-0.2066261006494958,0.27007088138547913
1759683351.0269074,1,0.4946568802384226,-1.0848562826597703,0.006216361814405943,0.2872142760112956,-0.668897731260636,-0.9379314252789679,-0.19660975647998966,0.2832307995965837
1759683351.1494932,1,0.5247833926446237,-1.0847498205103798,0.006091812839193108,0.29299044140742475,-0.6463949874775498,-0.9425154001906212,-0.18946092291164549,0.2846331759278292
1759683351.2756197,1,0.5617939318000414,-1.0846530150100189,0.0055927550823997784,0.2939462011986798,-0.5995429132133602,-0.9513607997511568,-0.17858871101045506,0.2811810616872143
1759683351.3910902,1,0.6019359926361854,-1.0845825030051863,0.005058957279422658,0.28771402091189613,-0.5775405590307852,-0.9553463563925552,-0.17038841441578234,0.2809446197663714
1759683351.5235188,1,0.6339783814756578,-1.084529547984476,0.004622268423163693,0.2828348777400081,-0.527172599448173,-0.9637960672005628,-0.15874324566944403,0.2960871957146134
1759683351.6447773,1,0.6727551470888813,-1.0845052547559044,0.004022928503823681,0.29025161477005523,-0.503354381227725,-0.967602492849038,-0.15020143146940912,0.2976104694125741
1759683351.7661426,1,0.7076863252551563,-1.0844960372713826,0.0035184428791605,0.29560978183105113,-0.45782495730532163,-0.9743355591401303,-0.1408131333391658,0.27487345699937843
1759683351.8821363,1,0.7442632193556943,-1.084508706143342,0.0030590476084698115,0.2993131648588302,-0.4361111586753469,-0.9774204729207404,-0.13417057315147804,0.27286063945340616
1759683352.0023866,1,0.783736961212589,-1.0845389011439108,0.002801894178191605,0.29458382316524045,-0.39182020140127855,-0.9834884582427449,-0.1269644311315693,0.27780351791515334
1759683352.115283,1,0.8160021794812689,-1.0845651200200164,0.002591508171668584,0.2907255383623557,-0.3707056404310078,-0.9862851748550989,-0.12270988202293269,0.278305607559204
1759683352.241583,1,0.8523190174637387,-1.0845973855639848,0.0025962673798326135,0.2934179805344007,-0.32179604891468444,-0.9924639934364037,-0.11612709017813905,0.30323652257816214
1759683352.3587923,1,0.8818520158745032,-1.0846232163618978,0.0026047055149798423,0.2954926774312808,-0.2985928811396247,-0.9952809942428286,-0.11189014776127648,0.30563868538255307
1759683352.480036,1,0.9196914928179166,-1.0846419440689872,0.0029136954969171992,0.29970069611430955,-0.25330499795819156,-1.000435847715503,-0.10601748720389814,0.2896326838668766
1759683352.6023943,1,0.9599658453513459,-1.0846429230057097,0.0032075434770515616,0.29166325578535307,-0.23170483481103948,-1.0028075181276384,-0.10175044382684922,0.2882118171119165
1759683352.7203588,1,0.992553569888698,-1.084641981846004,0.0034333194744444856,0.2851601536306373,-0.1827971592744357,-1.0079066065195368,-0.09622131138481553,0.29282985305858655
1759683352.8394306,1,1.0307207221746186,-1.0846245610066723,0.0036544299561951108,0.29137398710823376,-0.15937823045578617,-1.0102653559375583,-0.09228894342016783,0.29327838871266365
1759683352.9594235,1,1.0616394563195999,-1.0846086085337838,0.0038451132374599213,0.2969198182583115,-0.110873055839896,-1.0148842041118602,-0.08751035522513491,0.30132769721480623
1759683353.080805,1,1.0993368013622937,-1.0845623343020991,0.004633720131452522,0.3022195228157853,-0.08771945955309836,-1.0170126188824977,-0.0841806867973141,0.302132372169392
1759683353.2021797,1,1.1390855991993285,-1.0843860041268412,0.007664985471662027,0.29605331491036435,-0.040970194028268875,-1.0211099075130747,-0.07986703469617595,0.296621103182765
1759683353.3171635,1,1.171362746645693,-1.08421875876734,0.010685932803229515,0.2912953376926287,-0.01863051662015937,-1.0230061691223047,-0.0776336147216263,0.2962815630155059
1759683353.4400425,1,1.2089812363175798,-1.083549205622833,0.01986296647383814,0.29726225743944334,0.028481984699469463,-1.0269693431258355,-0.07568475496089067,0.28497520011578525
1759683353.5607917,1,1.239425951701319,-1.0829528793140026,0.027462236197358592,0.30205720486538756,0.05099614636338883,-1.0288435120297061,-0.07555562167249838,0.2840801013550707
1759683353.681193,1,1.2765652753326862,-1.081367829263548,0.043690714683488535,0.30673823326125976,0.0991204111339578,-1.0331877671574945,-0.0787143100276674,0.3003920565383278
1759683353.8025002,1,1.31576987178891,-1.0785964558840395,0.06539879767323735,0.2991564361188166,0.12214697787520593,-1.0353341649660142,-0.08232615179743089,0.3021481991385309
1759683353.9209948,1,1.347583959844253,-1.076194585688445,0.08475209083864318,0.29278063994977466,0.17175734522803077,-1.0407571310127752,-0.09397339106134181,0.31216051654779287
1759683354.0398846,1,1.3848583431481327,-1.0716403502462413,0.11245878341699472,0.3035714200012431,0.19548239710179915,-1.0435676726453957,-0.10456182103672385,0.3128973398993178
1759683354.1642218,1,1.4166496190091633,-1.0675911376356775,0.13660139328626092,0.312511379264525,0.24123406862927904,-1.049828179134664,-0.11920072574162077,0.2830626902536498
1759683354.2822394,1,1.4527884435940421,-1.061160619377489,0.1679407402102309,0.31131391687988214,0.2630948686458995,-1.0530440411659774,-0.13105951584497977,0.2799995281381328
1759683354.403272,1,1.4903717531838416,-1.0528311230343663,0.20122690365655696,0.30334587091386644,0.30835894190922386,-1.0601466775342008,-0.14207050079452338,0.2867855340731246
1759683354.5187185,1,1.5209014544046149,-1.0458389000999933,0.22979039388350259,0.2970380641745016,0.33000632183705975,-1.0636951369248624,-0.15111630056880715,0.2870753946525343
1759683354.6421437,1,1.5563069362238104,-1.0355216803094307,0.26381591711299,0.3025305077206974,0.3764934913653923,-1.0713608541193629,-0.156939304728214,0.28196002160379224
1759683354.7645824,1,1.5864392483972651,-1.026549987683804,0.2933036639721702,0.3073149296593188,0.398512098112259,-1.0750501612318735,-0.16107302587289526,0.2813658126212928
1759683354.884737,1,1.620532613165276,-1.014286976056956,0.32772059449122576,0.311741101595919,0.44594957153679293,-1.0827258327579132,-0.16026277103168085,0.29469266793384796
1759683355.004682,1,1.6566493343714956,-0.9994354012731372,0.3637830142699881,0.30470578885189514,0.4682877807902912,-1.086288488966894,-0.15860649277535951,0.29562830232557075
1759683355.1231394,1,1.6862277504684824,-0.986956792715616,0.39526421386253857,0.2993258157129184,0.5162575311733562,-1.0933387597880175,-0.15073262599262308,0.301637995050281
1759683355.2416048,1,1.7197968592247357,-0.9704087720619211,0.43181258026179337,0.3075748626665353,0.539071387782087,-1.096534055896963,-0.14356022570661328,0.30219202093171166
1759683355.3538175,1,1.747028710150959,-0.956700016208465,0.46195840883841033,0.3144611781399088,0.582052161993064,-1.1018651179289096,-0.13216752177452798,0.27776465100129366
1759683355.4642947,1,1.7782253417150882,-0.9386937753463073,0.49849462186880106,0.3118497354417419,0.6022452083222554,-1.1042117982794246,-0.1229149530638559,0.27572632033855027
1759683355.5746973,1,1.8034920738355997,-0.9238700731157035,0.5286730315754962,0.30985442192952145,0.6425573656185439,-1.1084545872417648,-0.11086523025902498,0.2694448851113402
1759683355.680091,1,1.8324641066372718,-0.9043671162452207,0.5660811593450709,0.3155091536334002,0.6616669716037724,-1.11030398762654,-0.10168308385858389,0.2687696215835054
1759683355.782062,1,1.8585955617233019,-0.88578492376139,0.5988903232113539,0.3174316528635142,0.7001908336950747,-1.113667710701145,-0.08984702777196434,0.2614467953696475
1759683355.8992198,1,1.8861655875046963,-0.8644721485708912,0.6388524630955346,0.316056079893851,0.7187005476240076,-1.1151275759136805,-0.08089599824592904,0.2606759107768218
1759683356.0161994,1,1.9147847035683725,-0.8397041678085057,0.6819733228411533,0.31014127705425926,0.760868811423737,-1.1180002855260607,-0.06800646970467743,0.267604054370835
1759683356.1162064,1,1.9368858633665804,-0.8201144925396586,0.7172916700335729,0.3055029449450361,0.7810087687152891,-1.1191908578265262,-0.0582935150099608,0.26816777459666696
1759683356.2332494,1,1.9622258940556057,-0.7944156960288039,0.7592762494742467,0.306004708788794,0.8209068585625566,-1.1210289207669049,-0.044942900030386215,0.27903035602761095
1759683356.3477995,1,1.9826565991920102,-0.7732383151157447,0.7954026299853384,0.3064402732461629,0.8401408649642833,-1.121712460881518,-0.034598345047921836,0.2801672256671746
1759683356.4635339,1,2.0044856844659065,-0.7475779392630368,0.8362250286571902,0.30623232231243525,0.8825827803765526,-1.1222748425666547,-0.01603317929039113,0.27227660513180435
1759683356.5826397,1,2.0259395635288833,-0.7201624617245203,0.8785126056202519,0.30861414234375684,0.9028165271283318,-1.1222676777078342,-0.0007642272602619181,0.27206290733544153
1759683356.6958196,1,2.0447235018604375,-0.6940557706150168,0.9171994712513049,0.31271605093294486,0.9437171352250572,-1.1212207383803823,0.020349537597716544,0.2590116164732602
1759683356.7960205,1,2.061483070834816,-0.6693194200871639,0.9508699361585327,0.3163982485251388,0.9628743508860422,-1.1204524187193392,0.036819658664893035,0.2583189403251044
1759683356.915928,1,2.078922586074786,-0.6411273051373839,0.9907986991745659,0.31981931873124725,1.0020202300943084,-1.1180589058391235,0.057748080809638926,0.2578622853103908
1759683357.0248818,1,2.0964929647718553,-0.6090656559630816,1.032661620322876,0.30880866815731434,1.0198683162908646,-1.11670704445682,0.07311297751417996,0.25748279176517364
1759683357.1462002,1,2.1105419586211545,-0.5828284087692348,1.0688143801450436,0.29995176586108313,1.062909380591599,-1.1123416608991796,0.09955150536483545,0.2669158129392562
1759683357.2601688,1,2.124692234068619,-0.5518701107964334,1.1086797927040544,0.30557778792311135,1.0831424198311501,-1.1099131691000717,0.11994998550115972,0.2679886780714836
1759683357.3652081,1,2.1359566459287103,-0.5265272347918658,1.1415523169511748,0.31031632958172706,1.121557245798895,-1.1041603762614576,0.1463964598890064,0.25843666306836927
1759683357.4682825,1,2.1479068497972897,-0.4939342426023049,1.181311969661934,0.31401392969234,1.1394459413080218,-1.1011358532938857,0.16587133091760872,0.25760495125348887
1759683357.590344,1,2.1577534937258545,-0.46454392255445864,1.2151619447812738,0.3148544680260331,1.176335476683303,-1.0940460811968107,0.19075025593056513,0.25040652062870417
1759683357.6937337,1,2.1670048910928132,-0.4328582036790243,1.2530656049965507,0.3129212454092633,1.193422663988115,-1.0904614825662098,0.208444476591059,0.2497060073023427
1759683357.8148952,1,2.1753547940330904,-0.39853369719504594,1.290644722895118,0.30656342909001566,1.2292739321144244,-1.0821069682678435,0.23289805622319634,0.23383395440708468
1759683357.9258356,1,2.1819722162095196,-0.37050423780147507,1.3226781735131135,0.301150578117294,1.2461053575625003,-1.0778930051751023,0.2513589913674401,0.2328613871919624
1759683358.045451,1,2.18802220577893,-0.33544147447621714,1.3558942995844456,0.3074331912280229,1.2851547398784942,-1.066559751316594,0.2801889303868525,0.26116539041889736
1759683358.1598094,1,2.1926284550532387,-0.3069201461834087,1.3833266164029323,0.31243030410105554,1.303581472627622,-1.060795676871192,0.30361173068058184,0.26426915559086017
1759683358.2685254,1,2.1968508029294673,-0.2734700886612726,1.4092845030993828,0.3069976578291938,1.3388953762621219,-1.0482489630850096,0.33689506377507694,0.23988572274741338
1759683358.3773074,1,2.2002226996842587,-0.24617422985224846,1.4305981454972723,0.30264157686161525,1.3554380264455173,-1.0419303620888782,0.36328616852126155,0.23851347195541003
1759683358.4993715,1,2.2036699594308695,-0.21112941087052467,1.4507882791821465,0.3036052236726844,1.3899424972290548,-1.027300161273283,0.39573347317358665,0.24499913041279056
1759683358.6107538,1,2.2067135510282045,-0.1722668875223452,1.4676288392190662,0.30260508919112306,1.4060390080552359,-1.0200496525408058,0.42056699346662674,0.2460736462465942
1759683358.7294936,1,2.2090613820226883,-0.14024896647159854,1.4813045989260925,0.30207570973227654,1.4384442653510054,-1.004279669392326,0.4523031031449936,0.22932718335901575
1759683358.8333173,1,2.2113056680806533,-0.10508484101521583,1.4927573006231583,0.29625790182165385,1.4530572510548119,-0.996785137948884,0.47595220283261624,0.22873579388850354
1759683358.94344,1,2.2132124213196804,-0.07475798964145992,1.5020770493554005,0.2916886327561111,1.483597053293128,-0.9798595715432574,0.5073955176590822,0.22667005972500404
1759683359.059931,1,2.2150014658852295,-0.03870781009376613,1.5102817866103835,0.2965963398602406,1.4977464768457454,-0.9715951722187374,0.5307850074499209,0.225995978839923
1759683359.1878233,1,2.216213074315872,-0.009991359430243693,1.5168525795791794,0.30063388288628534,1.534797948377329,-0.9474436464233228,0.572421832363582,0.26739991974917543
1759683359.2987852,1,2.2173381161027854,0.024581122683394897,1.5232600370932625,0.30528358612289563,1.5521289395388695,-0.9354529789659307,0.6057088729025588,0.2717565817742833
1759683359.4274971,1,2.218212742875381,0.056710689867659744,1.5287390774540943,0.3029843239504606,1.5843161333962616,-0.9108968043160275,0.649166249386353,0.2438764503515037
1759683359.544381,1,2.219097427379249,0.08767012802483302,1.5338361356101466,0.2952947707872302,1.5992544538792342,-0.8988268888464727,0.6819859997778012,0.24192181669808613
1759683359.6697042,1,2.2201305813087875,0.12646987090595999,1.5392504240358398,0.30028027537159624,1.6297786982542166,-0.8721925838256046,0.7186697730779272,0.24830746504506693
1759683359.7909148,1,2.2207740898934927,0.15754327469476773,1.5436308315708398,0.304363427831461,1.644088437505577,-0.8591087844725865,0.7458309236796313,0.24940480011428753
1759683359.914677,1,2.221265290935034,0.19346924654610093,1.548213824202845,0.30375092544612375,1.6759484961551332,-0.8274193206833205,0.7835347192430083,0.26243485301453495
1759683360.041711,1,2.221951965147213,0.23434513076614225,1.5530214035590797,0.29833644529821207,1.6906709998554814,-0.8121139586096703,0.8128249356352024,0.2645011649352044
1759683360.163134,1,2.222477918689298,0.267664173393933,1.5571439849107114,0.2937734413339493,1.720275001261974,-0.7786512417271648,0.8494055400623162,0.2613436981144131
1759683360.2854624,1,2.222720284138231,0.30526393157782944,1.5614927503595843,0.297330220848887,1.7340163337475103,-0.762368908196104,0.8769867823577484,0.261110251346637
1759683360.408409,1,2.2226959708616953,0.3392227446152285,1.5651558590808516,0.3010908721387566,1.7626054194100709,-0.7259249318837705,0.9116118752131286,0.27062768913050933
1759683360.519357,1,2.2225001334198735,0.37533867835430607,1.5689753495458425,0.3054520305733811,1.7758822146048783,-0.7082494061263049,0.9371296498933238,0.27177087539500944
1759683360.648232,1,2.2225182351757047,0.41605896457479313,1.5724856009417607,0.2963049478117046,1.8013818976840772,-0.6721543730649636,0.965961096293897,0.2738202505109698
1759683360.7649481,1,2.2226070978863826,0.44901633308897637,1.5753271319169613,0.2887731831289328,1.8132483889911872,-0.6546824312887248,0.9863285718707118,0.27416420681706627
1759683360.888087,1,2.222369544202943,0.4884350017404477,1.5775914652966554,0.29923273678011714,1.8364733652214955,-0.6189927642994272,1.0100352749679646,0.2672251678084891
1759683361.0088642,1,2.2219485805902552,0.5202262072675741,1.579388323962253,0.307705888535446,1.8473059284982223,-0.6017937562802423,1.02706315783994,0.26693877129173615
1759683361.1306357,1,2.2214574531855367,0.5567475380362806,1.58002192080619,0.3051414326455581,1.8709812179847778,-0.5608454800060152,1.054377599075304,0.2777986109745146
1759683361.243195,1,2.2212407566664782,0.5967918078916583,1.579646949803943,0.29656359861366405,1.8817529624832112,-0.5415367411446621,1.0754663238917532,0.27881751840144015
1759683361.3704655,1,2.2211056214558176,0.6293712301407303,1.579061468127697,0.28965976945182836,1.9045351700124815,-0.4955483911188477,1.108409187703392,0.30978171922004705
1759683361.4875846,1,2.2208553902856227,0.6678546293167628,1.577363606875294,0.2993094046972647,1.914779618697127,-0.47383291666994276,1.1336908020578729,0.31301446816897915
1759683361.6080594,1,2.220447238746685,0.6990600426426957,1.5759395990491143,0.3071938086121407,1.933494555249338,-0.4314281591251889,1.1625226470607966,0.293723016022777
1759683361.7284784,1,2.2203833292685005,0.7370472481628576,1.5737682957116956,0.30985891798950205,1.94199952008433,-0.4110815637729405,1.1833423755871337,0.29226067360809044
1759683361.8502781,1,2.220577915756886,0.7771845678287448,1.5718085948890752,0.29853892930504944,1.9587112332915906,-0.3696534881714235,1.20499575197609,0.2712628283028244
1759683361.968414,1,2.220862597635891,0.8096628140243273,1.5702318278076928,0.28941485759307506,1.9664692596725204,-0.34959610347588466,1.2199180445074262,0.26963763072537966
1759683362.0966794,1,2.2210279362406378,0.847505795020028,1.569316060183935,0.29521651484359634,1.9832042664394642,-0.30215095692012134,1.2391571128792733,0.29325106884864127
1759683362.2068558,1,2.221073456014034,0.8786073454440297,1.5685733421738275,0.2998904265566088,1.9909375002304193,-0.2795617580479983,1.2530314839878283,0.2957670933933139
1759683362.337856,1,2.221303976652283,0.9156516938327338,1.568477332722329,0.30194033591357144,2.0057025174656253,-0.23351770489789023,1.2694419547019962,0.29746930335232186
1759683362.4547942,1,2.2216212251255834,0.9564762824733629,1.5688477073805038,0.2966792945552102,2.01245324782549,-0.2119477644903884,1.2810196824099058,0.29764552258287486
1759683362.580786,1,2.2218848729074954,0.9895360525540721,1.5692489992021876,0.29248709576217113,2.026597318966549,-0.16417743365679266,1.29576543471109,0.2958014446609409
1759683362.70055,1,2.222013414516963,1.0266406205810619,1.569877755284735,0.29492294169281297,2.033136472955353,-0.14140445723606115,1.306099341139426,0.2958030822001451
1759683362.8253326,1,2.222308014742826,1.0648390857102756,1.5705151871443692,0.29800843407215166,2.0457566181822586,-0.09566423008252475,1.317807599722517,0.29657183690718536
1759683362.9482148,1,2.222432198848236,1.1012920643778317,1.571099349522757,0.3014075488948429,2.0516094345458513,-0.07370642216970276,1.3258411217959263,0.2966476911281728
1759683363.0750477,1,2.222527823754574,1.1410433040661117,1.571709553769193,0.2956272676967098,2.063346880949284,-0.02839458306359197,1.336071668950149,0.2817628718966909
1759683363.193983,1,2.222641207939318,1.1732515085322701,1.5721895862427302,0.29108402402891337,2.0688379922220888,-0.006735965174984836,1.3427883076483802,0.2805848337045774
1759683363.317335,1,2.2228909043361527,1.2120338723560833,1.5725530615652588,0.295451318504371,2.0797318045720004,0.04067303074981829,1.3540398259805857,0.28673334458227084
1759683363.439458,1,2.2228941402769657,1.2540019365224213,1.5729321461903896,0.30241153220297873,2.08480022742941,0.06344464869186196,1.3627497741924954,0.2872964702032943
1759683363.5672963,1,2.2226873552332203,1.2883797019714816,1.573220121946843,0.3079264895151028,2.095487895053845,0.11880109389624384,1.3766609153328522,0.3248920839281033
1759683363.6894999,1,2.222522604271215,1.3262685532403455,1.5734163233691656,0.3030749040123888,2.100416444890008,0.14525012743336077,1.3873203352005867,0.32859293926488115
1759683363.8284316,1,2.2225554606441555,1.3614968019769198,1.5736098535001546,0.30063402343228834,2.109733680705572,0.19627395726419794,1.3995857754098477,0.3088087443411677
1759683363.9535275,1,2.222484566098388,1.397353660783435,1.5738207640647885,0.30051254730054183,2.11404560758168,0.22056638994276256,1.4084342543774426,0.307112303812554
1759683364.093153,1,2.2224659535102567,1.4387576070711616,1.5737426826855758,0.30491878323559285,2.122349758045911,0.26800002770410153,1.4169143413997753,0.2766430556637853
1759683364.2118897,1,2.2223263930840838,1.4721645793690246,1.5736522099428953,0.3085606446514365,2.126209429798693,0.29064271830122757,1.4218867256560301,0.27389355289588285
1759683364.347209,1,2.2224800720002866,1.5113953275039886,1.5731720021065398,0.3024772894613724,2.1339114336578495,0.34195828357368185,1.4292480192296477,0.2874108460857119
1759683364.465614,1,2.222740226232993,1.5531313085258922,1.5725390487083788,0.29547027658951824,2.1374746432749436,0.3660020109513028,1.434374851457611,0.2884890781661941
1759683364.5979388,1,2.2229269861555743,1.586766559426878,1.5720052763035972,0.28988504271304677,2.1444452261925986,0.4205714194259046,1.443088984570927,0.31364825683642045
1759683364.7249577,1,2.223246036232919,1.6266992286542516,1.5712994349985148,0.2955119986794844,2.1476846466288215,0.446322799286181,1.4495330510830968,0.3160929799009203
1759683364.8564262,1,2.223458389985801,1.6674464486028224,1.5707826487226633,0.2924953637579924,2.153874725139972,0.4964836079528318,1.457868927958871,0.2999230320696933
1759683364.974853,1,2.2236303437040275,1.7006003729491341,1.5703863980708022,0.29004823209066266,2.156708477073573,0.5202224223944207,1.4633714845398427,0.29866400594864506
1759683365.1080918,1,2.223834864766779,1.7414921084576573,1.5704984527623111,0.2985990018869258,2.1621646066643376,0.5700916126978728,1.470258378639974,0.2966114536648038
1759683365.2304463,1,2.223834210981189,1.7776899974769216,1.5706510601799208,0.3027720771240795,2.1646599089668563,0.5939559970466253,1.4746733228226465,0.2965492078337172
1759683365.365308,1,2.2236858792678196,1.8141579956853653,1.57098944412901,0.30345740716890357,2.1697956684575663,0.6432299496673447,1.4796409592040558,0.2813991665183211
1759683365.4929478,1,2.223775427076656,1.8563557631536625,1.5713142475644821,0.30254060128391713,2.17218047615634,0.6668724760277656,1.4830564198302774,0.2799432821258891
1759683365.6208525,1,2.223741147554558,1.8899381374089221,1.5715808001057086,0.3018031269243871,2.1766934264463376,0.7216544690146673,1.487242621855789,0.3154986018158528
1759683365.745837,1,2.2239140858377775,1.9298782843048283,1.571955381840443,0.3013712417833612,2.178859026868779,0.7477359258382043,1.4898440911576933,0.3187485312910697
1759683365.8760972,1,2.224071423442825,1.9714077958442777,1.5722993530363296,0.2945811492699757,2.183500659363125,0.7970090945466778,1.4938751484421573,0.28288773262497807
1759683365.9978316,1,2.22421861838475,2.0047783938007346,1.572591493025041,0.28928611902594553,2.185690960129973,0.8204838345275594,1.4961673558803712,0.27963766010118235
1759683366.1238391,1,2.2244255723507433,2.0448775860329835,1.5727655046501496,0.2965564983633185,2.18925050073776,0.872131969722676,1.5001395154642527,0.3143698582894482
1759683366.2408352,1,2.224423952144595,2.0806609843255255,1.5729313227988977,0.30180969472044006,2.1909140377444003,0.8969674212665053,1.5024322259299447,0.3176670329522881
1759683366.3701882,1,2.2242554755805277,2.1176025721128333,1.5731032024316522,0.3053058017118547,2.194640652756787,0.9431192541478186,1.5061959277106065,0.28302798154408076
1759683366.488053,1,2.224288275637262,2.1593224391726675,1.5733558322407577,0.2984563716566364,2.1962915246213868,0.9647539704325615,1.509112218913969,0.280175655605536
1759683366.6147308,1,2.2243297501235646,2.1929745976622863,1.5736254950722806,0.29285625433282564,2.1993950627479553,1.0156764187258025,1.5129831681525572,0.2970994692350491
1759683366.7349358,1,2.2242420501558984,2.230855482374648,1.5740243209190707,0.2964903856371916,2.2008151974751766,1.039671200785076,1.5155519242524405,0.298596857412398
1759683366.8623571,1,2.224241499022921,2.2741326958628094,1.574527766625946,0.3026471913325871,2.203670020175081,1.0914658491149318,1.5186868442092802,0.3039499493354439
1759683366.9827518,1,2.224080144560907,2.309720615986292,1.5749809081983757,0.3075533009488975,2.204996767177029,1.116278234580622,1.5208309936531044,0.30450074345793265
1759683367.10868,1,2.2238843359784197,2.348258844506712,1.5753263470834178,0.30250824813569366,2.207629675461112,1.1635164002579432,1.5236134002961,0.29678926351461704
1759683367.2244794,1,2.223757851315567,2.3795154111905314,1.5756022253962345,0.2984390191110923,2.208883817743371,1.185920162319987,1.5247795360373277,0.2961206550241955
1759683367.3460608,1,2.2238616808637253,2.4184276693351276,1.5755854967585954,0.29797461899156386,2.2114293549032404,1.2332071406351428,1.5273678530601378,0.28555995686879876
1759683367.4557266,1,2.2239183129855618,2.458902744480722,1.5754207997866627,0.298353311136526,2.2126229941188695,1.2559611315780432,1.529154957833525,0.28456501885240226
1759683367.5807602,1,2.2238768158059177,2.4919648284742855,1.5752707522531393,0.2987368252327601,2.2144018176356286,1.3081710638943371,1.5321431865893909,0.3183051803787526
1759683367.688941,1,2.2237384713923936,2.5317635997132055,1.5747727871441273,0.305883384936564,2.215281290157736,1.3329799561412279,1.5343185882115533,0.3213432741988325
1759683367.8168073,1,2.2234057675260357,2.563663453389914,1.57434691084515,0.3117512095395724,2.2172394305727217,1.381237765780192,1.5373084303705709,0.30568839206036974
1759683367.9266157,1,2.223549066730898,2.602011884652333,1.5737936252183191,0.303772588506729,2.2181456340148435,1.403666828831827,1.539464013750644,0.3044546344324519
1759683368.0539343,1,2.2235859893528613,2.6360934993991,1.5733748999327952,0.30334368893649183,2.219969781258219,1.4497151761311884,1.5419322876156123,0.2915626346032232
1759683368.1763456,1,2.2234757859434424,2.6716945450426772,1.573326103624243,0.30912706863884437,2.220773543615415,1.4716534184977996,1.543698242555688,0.2903881433555556
1759683368.3039854,1,2.2235520269965874,2.7111772176596056,1.5735229981682444,0.2986172544886588,2.2222641714369398,1.5209087797879461,1.5460572664968126,0.29482572707984184
1759683368.419803,1,2.2237403424412143,2.7432233888205984,1.5737149848263425,0.2900412445524999,2.2229806784831947,1.5445611191758362,1.546774123842208,0.2952486112659277
1759683368.5492003,1,2.224008387666671,2.782001989013718,1.5740314332355663,0.2956285738579872,2.224296084935948,1.596171009885953,1.548207046250498,0.3039580221885645
1759683368.6728423,1,2.224164336908714,2.8225056194082074,1.5743343019584126,0.29316816853593264,2.2249318442770116,1.6210525728883032,1.548964644904642,0.3047675819807858
1759683368.7929583,1,2.2242600182172745,2.855275152512335,1.5746126198567476,0.29118423454985104,2.2259939921510505,1.674196183121926,1.5498116037424678,0.326563859886794
1759683368.9213703,1,2.2240633240864076,2.8946610830981068,1.5747195862823833,0.30173321584963964,2.226481841131464,1.6998096687370443,1.5503126161752145,0.32861158862627404
1759683369.0505495,1,2.2239591799494662,2.9310681773911935,1.5747787784811778,0.3063508862787285,2.228310244117363,1.7500140229261867,1.5512615099272755,0.2928761558022677
1759683369.171086,1,2.2238011194996483,2.9675288244629354,1.5746826374797498,0.30540199958224457,2.229152329039571,1.7740371930801666,1.5519023349760206,0.2895990303867959
1759683369.303323,1,2.2238262381579457,3.0076198052679657,1.574346007807187,0.2960431381577757,2.230374391704266,1.8236081333208949,1.5536856949911697,0.2917948843498435
1759683369.429547,1,2.22389683721205,3.0399439431402007,1.5740503958537124,0.28860776934796994,2.230916193227195,1.8474883852789123,1.5542137406109247,0.2919671025067631
1759683369.572267,1,2.22391206290465,3.0787983832018515,1.5735987105484424,0.29815560832583227,2.2316988218231923,1.9026111564559167,1.5562936883553324,0.3066997057241
1759683369.6975935,1,2.223811948130555,3.1148486889128186,1.5732561727413972,0.3000969485865504,2.2321277633572514,1.928853313228356,1.557132122907558,0.3080672202927023
1759683369.8375018,1,2.223928628260927,3.1504749411970727,1.573026774047502,0.2959702726729236,2.2332291218013127,1.980192973631104,1.558999066242808,0.28764858587405295
1759683369.9527972,1,2.2240121745780685,3.191577550035843,1.5728870754557427,0.2995895237500959,2.233716799779692,2.003826779568241,1.5604552454093308,0.28604333208588223
1759683370.0964224,1,2.22428485492337,3.2347355235648387,1.5728124402655466,0.2933023794136627,2.2345944319341133,2.054637995124562,1.5616126278206883,0.2809148202630377
1759683370.212737,1,2.2245494074944974,3.2694585465859154,1.572768344020471,0.28824164076594627,2.235025111479817,2.0785249304612536,1.5619960369534738,0.2804512785415658
1759683370.3400836,1,2.224592664706535,3.310488919974841,1.5730392690015047,0.2948470327401211,2.2353377592720354,2.128316537423912,1.5630379056794927,0.3020555974083005
1759683370.4883018,1,2.224649235874318,3.355423387433256,1.573457783792781,0.29827643652606994,2.2354497411602563,2.152389886748924,1.5634549346242639,0.3041383980406043
1759683370.6225572,1,2.2245199495287356,3.3914310408040835,1.5738158778248788,0.3010139192226134,2.2357021774262766,2.216206514210193,1.5634654626225126,0.3387813391137595
1759683370.7523062,1,2.224381686843897,3.4302791565173782,1.5742241560413672,0.2963579108305077,2.2359074108338355,2.246911182027953,1.562872983904726,0.3419135588917817
1759683370.875394,1,2.2243207132550653,3.474746623618674,1.5744931522125107,0.30494919357173195,2.2373409419901407,2.2986329103386964,1.5626188045647595,0.2929625863827982
1759683370.9963,1,2.224068933818413,3.5113655649160336,1.5746727313596072,0.3123521391543853,2.2379949196422055,2.3231577069693308,1.5626115785684427,0.28847064229609476
1759683371.1149063,1,2.223975146686842,3.5517734003889805,1.5755873032286618,0.30337372551145914,2.2388448018463376,2.36883274888139,1.5635588030542933,0.2842665944961264
1759683371.2396712,1,2.223952237695916,3.5844335763368185,1.5765118563285498,0.29714192888439594,2.2391826490741726,2.390771122101653,1.5634504417349704,0.283817980889733
1759683371.3596756,1,2.2238257226534337,3.6234842056378196,1.5815809445689484,0.30337212363450594,2.23928352389413,2.442213804735416,1.5638978567125597,0.3176886375874217
1759683371.4788783,1,2.2228249731843626,3.6653936197393193,1.5932061606519718,0.3113235032311383,2.239352893771016,2.467135440505527,1.5643743358068436,0.32144384895732986
1759683371.6065445,1,2.2216471425800526,3.6995425874530445,1.6050123138419392,0.317552923071095,2.2403819071448536,2.51962102575064,1.557570219981934,0.3154129492721847
1759683371.7260172,1,2.2191610876969157,3.7374899953615497,1.627649633366099,0.3170226038618321,2.2410752553269413,2.544848709265027,1.5514329313031154,0.3151847441887999
1759683371.8498166,1,2.217139606462945,3.769734767506002,1.6478992266363057,0.31592041282665084,2.243775728606608,2.59294424934419,1.536333471274581,0.2917800550774302
1759683371.9711478,1,2.212987012650212,3.806180650552535,1.6808514080418788,0.31227623682852446,2.245266148328949,2.61583637431487,1.5236616179493845,0.28973571573091317
1759683372.0929444,1,2.208219758068262,3.839259913511786,1.7118131017992142,0.3097202266672999,2.2492575563175987,2.6633620978727617,1.5032168898411142,0.29599665085325905
1759683372.2036192,1,2.202745496209481,3.870470855012555,1.7464432126865392,0.3089479980035273,2.25151467992079,2.6859905944470546,1.4862262568518287,0.2962219693934439
1759683372.324739,1,2.1934304735812873,3.9074555329555833,1.7909173369053413,0.3089856783126382,2.2569653750044933,2.7276514933421536,1.467300365432211,0.2712367962041854
1759683372.440503,1,2.1855100093490756,3.9373495583141733,1.8298391197033936,0.3090751321174841,2.259821041465232,2.747787582939481,1.451733138718065,0.2684806291066653
1759683372.5684102,1,2.1742271037389322,3.969846961793847,1.8743655039419922,0.3140051623629707,2.266773166636296,2.7964190716203943,1.4346910995812128,0.2901465210875082
1759683372.685529,1,2.1590141948372814,4.006438268498434,1.9239296507320696,0.3153279853924381,2.2704002353192347,2.819761398663107,1.4212773303843156,0.29137918104539434
1759683372.8045962,1,2.146073129685113,4.036120042238922,1.9675541479924283,0.3166096758412417,2.2781785651405846,2.869670573702018,1.4132625656052213,0.31036234726657913
1759683372.9285746,1,2.129508080468187,4.068087395007648,2.0148992762359925,0.3080249933357802,2.281970201558125,2.8929872910228718,1.4084671451068567,0.3115938176751678
1759683373.047279,1,2.115959443609036,4.093723257700122,2.0552504427917198,0.3011754740154403,2.2894163058232846,2.9385362336502645,1.4119022225656712,0.2786169717863066
1759683373.1701536,1,2.097801903365686,4.1218395774253125,2.10159429124669,0.31107856021481645,2.2927974180201294,2.960014217179031,1.416535046451288,0.27562759662620323
1759683373.2961822,1,2.0756526987692596,4.15212041710809,2.152306808208278,0.3142530708748122,2.2987473660494184,3.0046669507646424,1.4277187615586984,0.2792133550026942
1759683373.4195414,1,2.0561972530694383,4.177242020328684,2.198694499035409,0.316796052919107,2.301358201269234,3.0261244722666527,1.437584540673656,0.27945871161251445
1759683373.546077,1,2.0324283762731565,4.203558348320552,2.25131084638855,0.3146227296611325,2.3062044834743562,3.0692435766285753,1.4526153776340878,0.2620999793391148
1759683373.6641264,1,2.012425607303141,4.225749407160515,2.2969665675716198,0.3124042260095513,2.308330283572367,3.089834953303752,1.4648684454094598,0.26073833155838916
1759683373.7909393,1,1.987399855188151,4.24896636802685,2.3497219840762473,0.31546902585372444,2.3116925104354666,3.1350575116932786,1.483900255499379,0.2662480343683472
1759683373.9167275,1,1.9591977635285982,4.271917272873979,2.4040275518040644,0.3058681076858956,2.3130315538054544,3.1565947728096964,1.4993609791732834,0.2665323391314364
1759683374.0479853,1,1.9366523104437081,4.289806973418543,2.4496484102945284,0.298751637420268,2.3148107858930844,3.203437153074447,1.5239608554795583,0.26313814290493903
1759683374.162117,1,1.906778302816645,4.309939879478827,2.5050424503005586,0.30383628257945783,2.3153390356681296,3.225567524871161,1.5433333183492348,0.26293044619793515
1759683374.291113,1,1.879596813815857,4.32643144675995,2.5519047911445942,0.3088171946568539,2.315107381684449,3.269195128247543,1.5680583926453735,0.26594538518311606
1759683374.4098864,1,1.850047421206053,4.341875990782694,2.6043484530770677,0.3128206998448335,2.3146693614269407,3.2898431680750195,1.586482271729944,0.2661210922890698
1759683374.5345945,1,1.8166359661376161,4.356492501935785,2.66012846297462,0.30952369782993616,2.313599616795779,3.328402312776413,1.6097480942942108,0.23493332644739967
1759683374.6549249,1,1.7896999802270415,4.367804284346552,2.70749950981588,0.306083311186136,2.312766141003938,3.3469532400538364,1.6276992915671111,0.23231658692109905
1759683374.783824,1,1.7565066788474903,4.378877691324701,2.762127831403642,0.30938892863798584,2.30899199704874,3.3885282983326963,1.6552390429674024,0.24355521043215045
1759683374.9038744,1,1.7252336362680218,4.387674694688917,2.808660158721631,0.31090027774281404,2.30685235573771,3.4084300082546983,1.6776356663285554,0.24516492420357033
1759683375.0222294,1,1.6936151438270957,4.394945473462868,2.8546718421439667,0.31119428606832106,2.3016374623360805,3.4460083363230143,1.7063868221283225,0.23660930200052263
1759683375.1362917,1,1.6573510665566913,4.40159059122632,2.8977823245420407,0.305035569715895,2.2989374463618657,3.4632510738855777,1.7279872563118817,0.23545425217151103
1759683375.2605357,1,1.628022386501184,4.4066061264021466,2.9331361553064355,0.30020402995052214,2.2912566775579863,3.501725521728741,1.7632627116657018,0.24006716569728723
1759683375.3745463,1,1.5936819620707916,4.410764594525203,2.9643011804257546,0.3024527820545508,2.2872394885855947,3.5196539172397614,1.7902574883355553,0.24059164795523008
1759683375.4989939,1,1.5551784023230748,4.414649347084234,2.9911213964641674,0.30773358363224296,2.277994520644143,3.5550250724323718,1.8269718855630408,0.22997378407422106
1759683375.6120167,1,1.5220689925524589,4.417488158661893,3.0129014613394216,0.3124273858340441,2.2731806601814135,3.571692106435278,1.8545602971290893,0.2289799188974015
1759683375.7390988,1,1.4852417645926,4.420201917717363,3.0298369278990944,0.30142018371410817,2.2623048305050366,3.605395649380442,1.8909445913003688,0.21217278294135697
1759683375.8538592,1,1.4555824659672953,4.42252892099483,3.0433612050527796,0.29292850972941326,2.2567874413233433,3.621307302537438,1.9191526990805463,0.21122248820635528
1759683375.976501,1,1.421103703130825,4.424420884234496,3.0540309298569475,0.3008144257392436,2.2408907983892696,3.6579037318822984,1.9620175822239179,0.2402087149953895
1759683376.096236,1,1.3818843630000273,4.426634280809527,3.063528234419141,0.3048139633590651,2.232915072512817,3.675052489794126,1.9962809292199157,0.24275079434443414
1759683376.2142653,1,1.348139606624459,4.4282278669076565,3.071380786194223,0.307973242108932,2.212871387326809,3.7120788862177374,2.048363064737028,0.25763408337617155
1759683376.3359933,1,1.3106275278929773,4.429955888298655,3.0790425010277604,0.3012303565919748,2.20294520699074,3.7291282674376487,2.089214094589671,0.2597914672221721
1759683376.4609609,1,1.2803439324321,4.431346358256405,3.0854589686689,0.29593084980331863,2.1806351079097683,3.7638180152393783,2.139065743937743,0.24631555405344058
1759683376.581592,1,1.2447302593983223,4.4324600233671925,3.092934642508506,0.301086592673863,2.169626253436524,3.7798469448955325,2.175922034064544,0.24563209315210377
1759683376.7056458,1,1.2047274929857916,4.43356632860104,3.1010250954523397,0.3084886568777034,2.146239884434503,3.8117491369171614,2.2151501190021015,0.23456804034111156
1759683376.815843,1,1.170142844014881,4.434161203854259,3.108513604733899,0.3142910154643582,2.1348281582253517,3.8266030429001976,2.243314265469178,0.23413430713426986
1759683376.9500282,1,1.1320384397552632,4.441309156025359,1.963819308284038,0.30325087138810836,2.104451440101256,3.8609477975011908,2.2808873490161794,0.27584543961404584
1759683377.068706,1,1.1003494199770096,4.454602282175186,1.040824485242102,0.29438349472032277,2.08966028849877,3.877042703822743,2.3100070310463696,0.2806070399411185
1759683377.2015169,1,1.0671853731778798,4.467612748916523,0.25796111123931825,0.29878475940809585,2.0602094320432327,3.9080234252800934,2.3455625058674263,0.2582030421169061
1759683377.32712,1,1.033404775341967,4.474554735396668,-0.3659989753714599,0.2970937083384986,2.045863052656397,3.9224813120570063,2.372314829230839,0.2561315261720165
1759683377.452343,1,1.0048568309709915,4.476960023595046,-0.8650786337213634,0.2955222008508837,2.012359495943502,3.953080555013571,2.4079211654876502,0.26640068812590373
1759683377.5703003,1,0.9646584637253874,4.477996063130969,-1.2920699936269207,0.30313049756486393,1.9963127191549264,3.967172365363206,2.434102519611102,0.2675436694021224
1759683377.7006416,1,0.9266207234445851,4.4790204094034465,-1.6298450225146563,0.30446818665856146,1.9624171452087513,3.99511815775636,2.4661646267581347,0.2591596448529377
1759683377.8256705,1,0.8867389467307434,4.481143099302684,-1.8997240133359499,0.3014558611379253,1.9460424684561597,4.008110335522598,2.4891608123302276,0.2585750765827497
1759683377.9486084,1,0.8412045670596882,4.484671433801553,-2.128637851641833,0.2952339005435167,1.9122901779995765,4.033531546062998,2.515760115845759,0.2522888991150874
1759683378.065751,1,0.8039777908257693,4.489372720148751,-2.3124934178904573,0.2902911398468572,1.8959702605205417,4.04538273351899,2.5346047895531965,0.2517823850276751
1759683378.19579,1,0.7637840997597987,4.494639470478892,-2.4581271392124497,0.29329803233805907,1.8609997309331694,4.06932934239384,2.5582843875960686,0.2488576923357349
1759683378.3226938,1,0.7184270905036299,4.500219879914994,-2.583602315934321,0.29813782176152503,1.8443172510586656,4.080475496969667,2.5753057853485615,0.24897189041577408
1759683378.4410274,1,0.6813977482784411,4.505928107156348,-2.684535479899025,0.3019105571815592,1.8050662804909265,4.103956343657542,2.6024135599025247,0.26595167847010615
1759683378.5568686,1,0.6413922254331769,4.511189434261417,-2.767204576216634,0.2961437151131108,1.7865671918759711,4.114683199433586,2.6235022576959652,0.26730591091244643
1759683378.6810281,1,0.6094549613245661,4.516064254580372,-2.8339932649050636,0.2914403409282981,1.742005133826855,4.1370950834826825,2.6583649017838145,0.30119985464968746
1759683378.799295,1,0.574644723747007,4.51412256864702,-1.7620923363222767,0.2940629371674349,1.7207409766177373,4.147259050404821,2.6858887377887424,0.30491227017930334
1759683378.9155636,1,0.5399756964178518,4.50581917581117,-0.8371807759241089,0.29666622209433074,1.681111600272125,4.16579260427649,2.7176317061042226,0.2800509490820949
1759683379.0329022,1,0.5112198172532715,4.499193147708319,-0.09382608449568099,0.2991564348267834,1.6620514915152564,4.174126913035292,2.7410460354240986,0.2781535665902526
1759683379.1590638,1,0.47951725702533626,4.497921681080656,0.49802779980870987,0.2922050184697452,1.6220334573907993,4.190907982304681,2.7656133799249356,0.2629991606645791
1759683379.2709663,1,0.45164567091688196,4.499555530865656,0.9784137674348028,0.2865045851805752,1.6027867275771492,4.1986073293116,2.782733964734448,0.26200685065038193
1759683379.3969252,1,0.41617908971590134,4.501427470352628,1.364287844126755,0.29515639334104615,1.5562451441021157,4.214369708176611,2.8043368208482033,0.299419343218651
1759683379.5156977,1,0.3846777742391327,4.5023196326017905,1.6782070624715146,0.3020340048981514,1.5341796981536888,4.221672235177243,2.819982306434695,0.3033082532992182
1759683379.6335027,1,0.3433935754968037,4.501500880179314,1.9516850620598276,0.30604279204015655,1.4917309088750854,4.235894549620751,2.837145530367969,0.28401962894709487
1759683379.752991,1,0.2986428284831165,4.499134543478121,2.1739948815598025,0.2975988858941681,1.4716577153760955,4.242363595680816,2.84918780453527,0.2823978586748612
1759683379.876421,1,0.2623759556150106,4.495378290570306,2.3517669136061565,0.2908233408915601,1.42390907663203,4.256460179367643,2.86341050101094,0.2948280656564145
1759683379.985055,1,0.22456078304594243,4.4964896995995325,1.3417386164603227,0.2937553802145626,1.4011859580513475,4.263019438681171,2.873034049222831,0.29606072549827933
1759683380.1048193,1,0.19801086958918865,4.501302312157182,0.527679489992118,0.2961129964603383,1.356743471850633,4.275127017301641,2.8833397678838297,0.30261247041343053
1759683380.2211492,1,0.16815642749964815,4.503295296020495,-0.13214853323012649,0.30148212989883766,1.3355502141697653,4.280800767427696,2.890004294419916,0.30317109225909716
1759683380.3424788,1,0.13309487756789593,4.500988656020213,-0.697776317935368,0.29596849509572176,1.2933110531819736,4.292548184142506,2.898410907718045,0.2831972264945192
1759683380.4595666,1,0.10213435220560374,4.497114929281309,-1.151632536312868,0.2915530423137719,1.2730547501631415,4.298022575576469,2.9039716726042606,0.2813584100292004
1759683380.5795212,1,0.061620131797989794,4.494277631502314,-1.5166228233827683,0.29978823887463535,1.2311732659325405,4.309053767016269,2.912912862922591,0.2632043062975657
1759683380.6961708,1,0.026300241896541267,4.493143509908502,-1.8125605607675435,0.3065265113518466,1.2110584689175639,4.314170986379142,2.919110983942267,0.26165115129867883
1759683380.8168352,1,-0.013241125278236163,4.490256505365456,-1.4897614442679903,0.30017867175131396,1.161033531058434,4.323749041320947,2.9314488880371856,0.30906493605210844
1759683380.9349458,1,-0.05003531954236499,4.487991106133036,-1.7885391203000052,0.2999511756969846,1.137148672101769,4.328300173265641,2.9410519044205694,0.31372343854711954
1759683381.0586166,1,-0.08768274877662874,4.4895817609622135,-2.0297738767742146,0.3046242310727157,1.09056293202168,4.337399384179628,2.953856385610376,0.30079463786835375
1759683381.178897,1,-0.13172055095660906,4.492809314982326,-2.2376121719354924,0.3027347294787244,1.0686323282405048,4.341563114542228,2.963671431947001,0.2997923372058219
1759683381.2974417,1,-0.16732166401543402,4.497240162806286,-2.4044397655635663,0.3011639277082313,1.02045811140807,4.350132799655717,2.9754278851740485,0.2930576449571722
