timestamp,observer_vehicle_id,vehicle_0_x,vehicle_0_y,vehicle_0_theta,vehicle_0_velocity,vehicle_1_x,vehicle_1_y,vehicle_1_theta,vehicle_1_velocity
1759683339.4720297,0,-1.205,-0.83,-0.7801621756414646,0.0,0.0,0.0,0.0,0.0
1759683339.4824724,0,-1.205,-0.83,-0.7801621756414646,0.0,0.0,0.0,0.0,0.0
1759683339.4939425,0,-1.205,-0.83,-0.7801621756414646,0.0,0.0,0.0,0.0,0.0
1759683339.5052276,0,-1.205,-0.83,-0.7801621756414646,0.0,0.0,0.0,0.0,0.0
1759683339.5158672,0,-1.205,-0.83,-0.7801621756414646,0.0,0.0,0.0,0.0,0.0
1759683339.5259767,0,-1.205,-0.83,-0.7801621756414646,0.0,0.0,0.0,0.0,0.0
1759683339.5370321,0,-1.205,-0.83,-0.7801621756414646,0.0,0.0,0.0,0.0,0.0
1759683339.5475748,0,-1.205,-0.83,-0.7801621756414646,0.0,0.0,0.0,0.0,0.0
1759683339.5586693,0,-1.205,-0.83,-0.7801621756414646,0.0,0.0,0.0,0.0,0.0
1759683339.569286,0,-1.205,-0.83,-0.7801621756414646,0.0,0.0,0.0,0.0,0.0
1759683339.5800104,0,-1.205,-0.83,-0.7801621756414646,0.0,0.0,0.0,0.0,0.0
1759683339.5904405,0,-1.205,-0.83,-0.7801621756414646,0.0,0.0,0.0,0.0,0.0
1759683339.6007838,0,-1.205,-0.83,-0.7801621756414646,0.0,0.0,0.0,0.0,0.0
1759683339.611701,0,-1.205,-0.83,-0.7801621756414646,0.0,0.0,0.0,0.0,0.0
1759683339.622761,0,-1.205,-0.83,-0.7801621756414646,0.0,0.0,0.0,0.0,0.0
1759683339.6335332,0,-1.205,-0.83,-0.7801621756414646,0.0,0.0,0.0,0.0,0.0
1759683339.643859,0,-1.205,-0.83,-0.7801621756414646,0.0,0.0,0.0,0.0,0.0
1759683339.6551642,0,-1.205,-0.83,-0.7801621756414646,0.0,0.0,0.0,0.0,0.0
1759683339.6699305,0,-1.2049999243418377,-0.8299996288021405,-0.7229998550898848,0.0,0.0,0.0,0.0,0.0
1759683339.6810489,0,-1.2049999239185727,-0.829999626725497,-0.7181153350347262,0.0,0.0,0.0,0.0,0.0
1759683339.6923375,0,-1.2049999237857767,-0.8299996260739668,-0.7176540629401664,0.0,0.0,0.0,0.0,0.0
1759683339.703502,0,-1.2049999237364264,-0.8299996258318424,-0.7175947946572342,0.0,0.0,0.0,0.0,0.0
1759683339.714162,0,-1.2049999237176512,-0.8299996257397265,-0.717590512933258,0.0,0.0,0.0,0.0,0.0
1759683339.725597,0,-1.2049999237104838,-0.8299996257045619,-0.7175970696973035,0.0,0.0,0.0,0.0,0.0
1759683339.7365375,0,-1.2049999237077464,-0.8299996256911313,-0.7176093372834416,0.0,0.0,0.0,0.0,0.0
1759683339.7473524,0,-1.2049999237067008,-0.8299996256860013,-0.7176215400310042,0.0,0.0,0.0,0.0,0.0
1759683339.7577605,0,-1.2049999237063016,-0.8299996256840418,-0.7176326158715653,0.0,0.0,0.0,0.0,0.0
1759683339.7685468,0,-1.204999923706149,-0.8299996256832933,-0.7176411859338696,0.0,0.0,0.0,0.0,0.0
1759683339.779426,0,-1.2049999237060907,-0.8299996256830074,-0.7176482788479603,0.0,0.0,0.0,0.0,0.0
1759683339.7907803,0,-1.2049999237060685,-0.8299996256828983,-0.7176538767921912,0.0,0.0,0.0,0.0,0.0
1759683339.8022392,0,-1.20499992370606,-0.8299996256828566,-0.7176587415771856,0.0,0.0,0.0,0.0,0.0
1759683339.8128378,0,-1.2049999237060567,-0.8299996256828407,-0.7176636599832927,0.0,-0.3448531241416931,-0.06956691265106202,1.7423031022753543,0.0
1759683339.8238328,0,-1.2049999237060554,-0.8299996256828346,-0.7176674332390114,0.0,-0.61810543380949,-0.12468985696445044,-3.1394743010264485,0.0
1759683339.835583,0,-1.204999923706055,-0.8299996256828323,-0.7176701748229384,0.0,-0.8350215272039556,-0.1684481466982043,-0.784177802748881,0.0
1759683339.8460732,0,-1.2049999237060547,-0.8299996256828314,-0.7176734143106067,0.0,-1.0079213822389739,-0.2033270799905711,1.1135486612487233,0.0
1759683339.8569312,0,-1.2049999237060547,-0.829999625682831,-0.7176759201798486,0.0,-1.1460255548507494,-0.2311867113531771,2.6506691382009504,0.0
1759683339.869123,0,-1.2049999237060547,-0.8299996256828309,-0.7176774068406395,0.0,-1.2564615492015718,-0.25346486583317007,-2.3791491166938723,0.0
1759683339.8801994,0,-1.2049999237060547,-0.8299996256828308,-0.7176794157333148,0.0,-1.3451300770118164,-0.2713518887343721,-0.1863436657030044,0.0
1759683339.891337,0,-1.2049999237060547,-0.8299996256828308,-0.7176811759756685,0.0,-1.4165007535623741,-0.2857494315543693,1.6013398307590248,0.0
1759683339.9017618,0,-1.2049999237060547,-0.8299996256828308,-0.7176830030785357,0.0,-1.4741420532843037,-0.2973773594521649,3.0666001309777715,0.0
1759683339.9130175,0,-1.2049999237060547,-0.8299996256828308,-0.7176842206008214,0.0,-1.520764326259337,-0.30678242892839647,-2.007985465893785,0.0
1759683339.9230466,0,-1.2049999237060547,-0.8299996256828308,-0.7176857596293296,0.0,-1.558624238255637,-0.3144198751524339,0.10498997675876101,0.0
1759683339.9336336,0,-1.2049999237060547,-0.8299996256828308,-0.7176868588369844,0.0,-1.5894200569077583,-0.3206322881370117,1.8463005530625154,0.0
1759683339.944607,0,-1.2049999237060547,-0.8299996256828308,-0.7176876873882456,0.0,-1.6145193160534999,-0.32569553926151285,-2.993985838800881,0.0
1759683339.9548683,0,-1.2049999237060547,-0.8299996256828308,-0.7176886827227769,0.0,-1.6350439851423977,-0.32983596242065655,-0.7212506161474904,0.0
1759683339.9662037,0,-1.2049999237060547,-0.8299996256828308,-0.7176892416284629,0.0,-1.6518455354530286,-0.33322532415478956,1.1643013180656603,0.0
1759683339.9774709,0,-1.2049999237060547,-0.8299996256828308,-0.7176898243518064,0.0,-1.6656355392724362,-0.33600716930567875,2.73715286621404,0.0
1759683339.9888225,0,-1.2049999237060547,-0.8299996256828308,-0.7176903928203302,0.0,-1.6769811846925757,-0.3382959162204043,-2.226172684919188,0.0
1759683340.0000937,0,-1.2049999237060547,-0.8299996256828308,-0.7176909825063884,0.0,-1.6863402830873981,-0.3401839187784377,-0.09788365794369257,0.0
1759683340.0109005,0,-1.2049999237060547,-0.8299996256828308,-0.717691666591417,0.0,-1.6940844807279183,-0.34174614885001237,1.6884276627833297,0.0
1759683340.0213315,0,-1.2049999237060547,-0.8299996256828308,-0.7176923730026541,0.0,-1.700510830350344,-0.34304253061822504,-3.0877182118261293,0.0
1759683340.0315251,0,-1.2049999237060547,-0.8299996256828308,-0.7176930399156767,0.0,-1.7058575189931893,-0.34412111334156553,-0.8353506364746364,0.0
1759683340.0422482,0,-1.2049999237060547,-0.8299996256828308,-0.7176934985057564,0.0,-1.7103128368064777,-0.34501988062378514,1.0675910111491682,0.0
1759683340.0534139,0,-1.2049999237060547,-0.8299996256828308,-0.7176938290492529,0.0,-1.7140318937996337,-0.34577012266851403,2.68359672169286,0.0
1759683340.0707734,0,-1.2049999237060547,-0.8299996256828308,-0.717692987730871,0.0,-1.7171178853719564,-0.34639265699146093,-2.215220967854442,0.0
1759683340.0815225,0,-1.2049999237060547,-0.8299996256828308,-0.7176937802793156,0.0,-1.7197112512495256,-0.3469158143731032,-0.11308678864118768,0.0
1759683340.0929012,0,-1.2049999237060547,-0.8299996256828308,-0.7176944123016503,0.0,-1.7218937190547,-0.3473560816536859,1.6855599034593232,0.0
1759683340.1043525,0,-1.2049999237060547,-0.8299996256828308,-0.7176949343718437,0.0,-1.7237346230895705,-0.34772744558002866,-3.050231330176311,0.0
1759683340.1147277,0,-1.2049999237060547,-0.8299996256828308,-0.7176955597127606,0.0,-1.7252935780859335,-0.3480419321787186,-0.8424896512680611,0.0
1759683340.125607,0,-1.2049999237060547,-0.8299996256828308,-0.7176960012616398,0.0,-1.7266156779017618,-0.34830863819343905,1.0594629979656365,0.0
1759683340.135943,0,-1.2049999237060547,-0.8299996256828308,-0.7176964573746929,0.0,-1.7277403641840927,-0.3485355201524107,2.7060267407934346,0.0
1759683340.147319,0,-1.2049999237060547,-0.8299996256828308,-0.7176966971632037,0.0,-1.728697665931962,-0.34872863577878194,-2.1436777319700853,0.0
1759683340.1582253,0,-1.2049999237060547,-0.8299996256828308,-0.7176969923717138,0.0,-1.7295149848554754,-0.34889351279505265,-0.0737944220664237,0.0
1759683340.16886,0,-1.2049999237060547,-0.8299996256828308,-0.7176973049840072,0.0,-1.7302146434247136,-0.3490346542931699,1.729025380603207,0.0
1759683340.1800785,0,-1.2049999237060547,-0.8299996256828308,-0.7176975123314905,0.0,-1.7308143178673547,-0.34915562608275164,-2.975814795888226,0.0
1759683340.190974,0,-1.2049999237060547,-0.8299996256828308,-0.717697755112102,0.0,-1.7313297234104763,-0.3492595983825168,-0.8128057402485787,0.0
1759683340.2021203,0,-1.2049999237060547,-0.8299996256828308,-0.7176979563988493,0.0,-1.7317734822923432,-0.34934911746531416,1.0836483728814985,0.0
1759683340.21232,0,-1.2049999237060547,-0.8299996256828308,-0.7176982603689801,0.0,-1.7321570060544604,-0.3494264853712168,2.754484266836913,0.0
1759683340.2233052,0,-1.2049999237060547,-0.8299996256828308,-0.7176984413531855,0.0,-1.7324886956856067,-0.3494933968241858,-2.0488424994069354,0.0
1759683340.2335818,0,-1.2049999237060547,-0.8299996256828308,-0.7176986877117315,0.0,-1.7327765258640577,-0.34955146054894537,-0.011319908219925099,0.0
1759683340.2445018,0,-1.2049999237060547,-0.8299996256828308,-0.7176988430149828,0.0,-1.7330265106377463,-0.3496018897540122,1.7942171843348051,0.0
1759683340.2558515,0,-1.2049999237060547,-0.8299996256828308,-0.7176989517418768,0.0,-1.7332439099771584,-0.34964574552853334,-2.8807253250485387,0.0
1759683340.2678719,0,-1.2049999237060547,-0.8299996256828308,-0.7176990111590271,0.0,-1.733437079879671,-0.3496847135203947,-0.757837260611043,0.0
1759683340.2787569,0,-1.2049999237060547,-0.8299996256828308,-0.7176992054372385,0.0,-1.733609001092907,-0.3497193950331513,1.1315331167383278,0.0
1759683340.289225,0,-1.2049999237060547,-0.8299996256828308,-0.7176994285824527,0.0,-1.7337620109726875,-0.3497502615795047,2.8130727525792683,0.0
1759683340.300348,0,-1.2049999237060547,-0.8299996256828308,-0.7176995696493478,0.0,-1.7338981897656918,-0.34977773280575913,-1.9735422787018806,0.0
1759683340.3118753,0,-1.2049999237060547,-0.8299996256828308,-0.717699671654179,0.0,-1.7338981897656918,-0.34977773280575913,-1.9735422787018806,0.0
1759683340.322915,0,-1.2049999237060547,-0.8299996256828308,-0.7176998208313529,0.0,-1.7338981897656918,-0.34977773280575913,-1.9735422787018806,0.0
1759683340.3334424,0,-1.2049999237060547,-0.8299996256828308,-0.7177000041992088,0.0,-1.7338981897656918,-0.34977773280575913,-1.9735422787018806,0.0
1759683340.344411,0,-1.2049999237060547,-0.8299996256828308,-0.717700135575523,0.0,-1.7338981897656918,-0.34977773280575913,-1.9735422787018806,0.0
1759683340.354645,0,-1.2049999237060547,-0.8299996256828308,-0.7177003104113435,0.0,-1.7338981897656918,-0.34977773280575913,-1.9735422787018806,0.0
1759683340.3648946,0,-1.2049999237060547,-0.8299996256828308,-0.7177004634640163,0.0,-1.7338981897656918,-0.34977773280575913,-1.9735422787018806,0.0
1759683340.3754683,0,-1.2049999237060547,-0.8299996256828308,-0.7177005758609578,0.0,-1.7338981897656918,-0.34977773280575913,-1.9735422787018806,0.0
1759683340.3863976,0,-1.2049999237060547,-0.8299996256828308,-0.7177006575864908,0.0,-1.7338981897656918,-0.34977773280575913,-1.9735422787018806,0.0
1759683340.3973238,0,-1.2049999237060547,-0.8299996256828308,-0.7177007419224033,0.0,-1.7338981897656918,-0.34977773280575913,-1.9735422787018806,0.0
1759683340.4081082,0,-1.2049999237060547,-0.8299996256828308,-0.7177008374344496,0.0,-1.7338981897656918,-0.34977773280575913,-1.9735422787018806,0.0
1759683340.4186797,0,-1.2049999237060547,-0.8299996256828308,-0.7177009436420096,0.0,-1.7338981897656918,-0.34977773280575913,-1.9735422787018806,0.0
1759683340.430063,0,-1.2049999237060547,-0.8299996256828308,-0.7177009981953049,0.0,-1.7338981897656918,-0.34977773280575913,-1.9735422787018806,0.0
1759683340.44099,0,-1.2049999237060547,-0.8299996256828308,-0.7177010848660892,0.0,-1.7338981897656918,-0.34977773280575913,-1.9735422787018806,0.0
1759683340.4513698,0,-1.2049999237060547,-0.8299996256828308,-0.7177012002431837,0.0,-1.7338981897656918,-0.34977773280575913,-1.9735422787018806,0.0
1759683340.4637845,0,-1.2049999237060547,-0.8299996256828308,-0.7177012028685309,0.0,-1.7338981897656918,-0.34977773280575913,-1.9735422787018806,0.0
1759683340.4743972,0,-1.2049999237060547,-0.8299996256828308,-0.7177013130123928,0.0,-1.7338981897656918,-0.34977773280575913,-1.9735422787018806,0.0
1759683340.4852886,0,-1.2049999237060547,-0.8299996256828308,-0.7177014046501214,0.0,-1.7338981897656918,-0.34977773280575913,-1.9735422787018806,0.0
1759683340.4954863,0,-1.2049999237060547,-0.8299996256828308,-0.7177015201495465,0.0,-1.7338981897656918,-0.34977773280575913,-1.9735422787018806,0.0
1759683340.5055819,0,-1.2049999237060547,-0.8299996256828308,-0.7177016252031622,0.0,-1.7338981897656918,-0.34977773280575913,-1.9735422787018806,0.0
1759683340.5158966,0,-1.2049999237060547,-0.8299996256828308,-0.7177017061672615,0.0,-1.7338981897656918,-0.34977773280575913,-1.9735422787018806,0.0
1759683340.5268412,0,-1.2049999237060547,-0.8299996256828308,-0.7177017527987033,0.0,-1.7338981897656918,-0.34977773280575913,-1.9735422787018806,0.0
1759683340.537107,0,-1.2049999237060547,-0.8299996256828308,-0.7177018282558693,0.0,-1.7338981897656918,-0.34977773280575913,-1.9735422787018806,0.0
1759683340.5485222,0,-1.2049999237060547,-0.8299996256828308,-0.7177018547722422,0.0,-1.7338981897656918,-0.34977773280575913,-1.9735422787018806,0.0
1759683340.558983,0,-1.2049999237060547,-0.8299996256828308,-0.7177019237661959,0.0,-1.7338981897656918,-0.34977773280575913,-1.9735422787018806,0.0
1759683340.5702202,0,-1.2049999237060547,-0.8299996256828308,-0.7177019623460836,0.0,-1.7338981897656918,-0.34977773280575913,-1.9735422787018806,0.0
1759683340.5805182,0,-1.2049999237060547,-0.8299996256828308,-0.7177020365310334,0.0,-1.7338981897656918,-0.34977773280575913,-1.9735422787018806,0.0
1759683340.5914044,0,-1.2049999237060547,-0.8299996256828308,-0.7177020850776419,0.0,-1.7338981897656918,-0.34977773280575913,-1.9735422787018806,0.0
1759683340.6021905,0,-1.2049999237060547,-0.8299996256828308,-0.7177021356060536,0.0,-1.7338981897656918,-0.34977773280575913,-1.9735422787018806,0.0
1759683340.6135435,0,-1.2049999237060547,-0.8299996256828308,-0.7177021676971834,0.0,-1.7338981897656918,-0.34977773280575913,-1.9735422787018806,0.0
1759683340.6244056,0,-1.2049999237060547,-0.8299996256828308,-0.7177022186521533,0.0,-1.7338981897656918,-0.34977773280575913,-1.9735422787018806,0.0
1759683340.635725,0,-1.2049999237060547,-0.8299996256828308,-0.7177022557418873,0.0,-1.7338981897656918,-0.34977773280575913,-1.9735422787018806,0.0
1759683340.6469219,0,-1.2049999237060547,-0.8299996256828308,-0.7177022982825303,0.0,-1.7338981897656918,-0.34977773280575913,-1.9735422787018806,0.0
1759683340.6583128,0,-1.2049999237060547,-0.8299996256828308,-0.717702336510154,0.0,-1.7338981897656918,-0.34977773280575913,-1.9735422787018806,0.0
1759683340.6723356,0,-1.2049999237060547,-0.8299996256828308,-0.7177023092569783,0.0,-1.7341175581121508,-0.3498219840250695,-1.7235103415959974,0.0
1759683340.6802313,0,-1.2049999237060547,-0.8299996256828308,-0.7177024553742406,0.0,-1.7342918576769493,-0.34985714392116246,-1.5248469586298703,0.0
1759683340.6917796,0,-1.2049999237060547,-0.8299996256828308,-0.7177024869014517,0.0,-1.7344300946219855,-0.34988502922672415,-1.3672870749690458,0.0
1759683340.7023385,0,-1.2049999237060547,-0.8299996256828308,-0.7177025371768142,0.0,-1.7345401432454155,-0.34990722835366656,-1.2418557128963132,0.0
1759683340.7127023,0,-1.2049999237060547,-0.8299996256828308,-0.7177025877721981,0.0,-1.7346279888294172,-0.3499249486595623,-1.1417309597646177,0.0
1759683340.7236986,0,-1.2049999237060547,-0.8299996256828308,-0.7177026187885858,0.0,-1.7346982357723815,-0.349939118948618,-1.0616648084321523,0.0
1759683340.7342985,0,-1.2049999237060547,-0.8299996256828308,-0.7177026574479708,0.0,-1.7347545787197263,-0.3499504845086898,-0.9974461711755689,0.0
1759683340.7456415,0,-1.2049999237060547,-0.8299996256828308,-0.7177026788701646,0.0,-1.7347998454763667,-0.3499596157676335,-0.94585196885784,0.0
1759683340.7557535,0,-1.2049999237060547,-0.8299996256828308,-0.717702726519212,0.0,-1.7348363586641065,-0.34996698124722286,-0.9042349206016592,0.0
1759683340.7661467,0,-1.2049999237060547,-0.8299996256828308,-0.7177027638439437,0.0,-1.7348658712305358,-0.34997293455393536,-0.8705970495394779,0.0
1759683340.7764933,0,-1.2049999237060547,-0.8299996256828308,-0.7177027979945887,0.0,-1.7348897841113184,-0.3499777582860231,-0.8433415954122856,0.0
1759683340.7866473,0,-1.2049999237060547,-0.8299996256828308,-0.7177028325513728,0.0,-1.734911727806895,-0.3499821847919485,-0.818330581741369,0.0
1759683340.7976222,0,-1.2049999237060547,-0.8299996256828308,-0.717702849568072,0.0,-1.7349291093501562,-0.3499856910155912,-0.7985194239254471,0.0
1759683340.807977,0,-1.2049999237060547,-0.8299996256828308,-0.7177028783196349,0.0,-1.734942922034017,-0.34998847732506855,-0.7827759852841638,0.0
1759683340.8189354,0,-1.2049999237060547,-0.8299996256828308,-0.7177028961259532,0.0,-1.7349539188010379,-0.34999069560476576,-0.7702420759733581,0.0
1759683340.8292203,0,-1.2049999237060547,-0.8299996256828308,-0.7177029255373614,0.0,-1.7349627026199494,-0.3499924674861849,-0.7602304435154424,0.0
1759683340.8396027,0,-1.2049999237060547,-0.8299996256828308,-0.7177029515797209,0.0,-1.7349697351440017,-0.3499938860945172,-0.7522149041731996,0.0
1759683340.850425,0,-1.2049999237060547,-0.8299996256828308,-0.717702969317763,0.0,-1.7349753766365874,-0.3499950241024827,-0.7457848364713443,0.0
1759683340.8610592,0,-1.2049999237060547,-0.8299996256828308,-0.717702990214832,0.0,-1.734979914628466,-0.34999593951109603,-0.740612518230206,0.0
1759683340.873317,0,-1.2049999237060547,-0.8299996256828308,-0.717702988990407,0.0,-1.734983567495736,-0.34999667637141924,-0.7364490484579487,0.0
1759683340.8841343,0,-1.2049999237060547,-0.8299996256828308,-0.7177030130412163,0.0,-1.7349865209176458,-0.3499972721388705,-0.7330827934209012,0.0
1759683340.8948162,0,-1.2049999237060547,-0.8299996256828308,-0.7177030389360014,0.0,-1.7349891990418955,-0.34999781237298094,-0.7300303175064113,0.0
1759683340.9061675,0,-1.2049999237060547,-0.8299996256828308,-0.7177030545979441,0.0,-1.734991321067076,-0.34999824043018773,-0.7276116729067362,0.0
1759683340.917256,0,-1.2049999237060547,-0.8299996256828308,-0.7177030739867334,0.0,-1.7349930074578916,-0.34999858061076083,-0.7256895562059357,0.0
1759683340.9274755,0,-1.2049999237060547,-0.8299996256828308,-0.7177031031401402,0.0,-1.734994352386712,-0.3499988519112522,-0.7241566314989651,0.0
1759683340.9375424,0,-1.2049999237060547,-0.8299996256828308,-0.7177031304461092,0.0,-1.7349954277635693,-0.34999906883743104,-0.7229309370763153,0.0
1759683340.9478798,0,-1.2049999237060547,-0.8299996256828308,-0.7177031509189611,0.0,-1.7349962894099091,-0.3499992426496595,-0.72194884869888,0.0
1759683340.9593549,0,-1.2049999237060547,-0.8299996256828308,-0.7177031574645963,0.0,-1.7349969806351662,-0.3499993820843634,-0.7211610030832522,0.0
1759683340.9707031,0,-1.2049999237060547,-0.8299996256828308,-0.7177031674539869,0.0,-1.7349975367050428,-0.3499994942553783,-0.7205272050414867,0.0
1759683340.9809763,0,-1.2049999237060547,-0.8299996256828308,-0.7177031896897184,0.0,-1.7349979857570603,-0.34999958483863536,-0.720015383953278,0.0
1759683340.9920416,0,-1.2049999237060547,-0.8299996256828308,-0.7177032025639889,0.0,-1.734998386977395,-0.34999966577323377,-0.7195580805221637,0.0
1759683341.00337,0,-1.2049999237060547,-0.8299996256828308,-0.7177032129558043,0.0,-1.7349987051545601,-0.3499997299562745,-0.7191954281422365,0.0
1759683341.0145936,0,-1.2049999237060547,-0.8299996256828308,-0.7177032252972513,0.0,-1.7349989581826606,-0.34999978099737566,-0.7189070314471966,0.0
1759683341.025371,0,-1.2049999237060547,-0.8299996256828308,-0.7177032418673299,0.0,-1.7349991600298968,-0.34999982171421773,-0.7186769697436857,0.0
1759683341.035753,0,-1.2049999237060547,-0.8299996256828308,-0.7177032606058216,0.0,-1.7349993215260702,-0.34999985429139996,-0.7184928994266027,0.0
1759683341.0460598,0,-1.2049999237060547,-0.8299996256828308,-0.7177032777982824,0.0,-1.7349994510641817,-0.34999988042196745,-0.7183452543108027,0.0
1759683341.056705,0,-1.2049999237060547,-0.8299996256828308,-0.7177032903806477,0.0,-1.7349995551816728,-0.3499999014246599,-0.7182265831425552,0.0
1759683341.0674481,0,-1.2049999237060547,-0.8299996256828308,-0.7177033014214746,0.0,-1.7349996390661155,-0.34999991834592015,-0.718130973224189,0.0
1759683341.0781553,0,-1.2049999237060547,-0.8299996256828308,-0.7177033124638363,0.0,-1.7349997135701714,-0.3499999333749586,-0.7180460548951973,0.0
1759683341.0885696,0,-1.2049999237060547,-0.8299996256828308,-0.7177033252189702,0.0,-1.7349997726549844,-0.3499999452936108,-0.7179787111306773,0.0
1759683341.0992541,0,-1.2049999237060547,-0.8299996256828308,-0.71770333527326,0.0,-1.7349998196151368,-0.3499999547664633,-0.717925186827598,0.0
1759683341.1100917,0,-1.2049999237060547,-0.8299996256828308,-0.7177033439987888,0.0,-1.7349998570274752,-0.3499999623133205,-0.7178825449442588,0.0
1759683341.1202796,0,-1.2049999237060547,-0.8299996256828308,-0.7177033568208664,0.0,-1.7349998869300571,-0.34999996834530156,-0.7178484625408248,0.0
1759683341.1305885,0,-1.2049999237060547,-0.8299996256828308,-0.7177033677623008,0.0,-1.7349999108847567,-0.3499999731774694,-0.7178211594223006,0.0
1759683341.1416776,0,-1.2049999237060547,-0.8299996256828308,-0.717703373208348,0.0,-1.7349999301050654,-0.3499999770546108,-0.7177992524740913,0.0
1759683341.1527116,0,-1.2049999237060547,-0.8299996256828308,-0.7177033796158979,0.0,-1.7349999455675347,-0.34999998017371675,-0.7177816286409453,0.0
1759683341.1636984,0,-1.2049999237060547,-0.8299996256828308,-0.7177033869377674,0.0,-1.7349999592866006,-0.34999998294114154,-0.7177659919062871,0.0
1759683341.1750436,0,-1.2049999237060547,-0.8299996256828308,-0.7177033927072589,0.0,-1.7349999701426928,-0.3499999851310442,-0.717753618335344,0.0
1759683341.1851978,0,-1.2049999237060547,-0.8299996256828308,-0.7177034051136495,0.0,-1.7349999787670056,-0.34999998687074985,-0.717743788505063,0.0
1759683341.1954467,0,-1.2049999237060547,-0.8299996256828308,-0.7177034157478168,0.0,-1.7349999856342637,-0.3499999882560205,-0.7177359613329546,0.0
1759683341.2054656,0,-1.2049999237060547,-0.8299996256828308,-0.717703426137966,0.0,-1.7349999911170673,-0.3499999893620176,-0.7177297121358073,0.0
1759683341.2166677,0,-1.2049999237060547,-0.8299996256828308,-0.7177034298264502,0.0,-1.7349999954994288,-0.3499999902460323,-0.7177247172021085,0.0
1759683341.227506,0,-1.2049999237060547,-0.8299996256828308,-0.7177034357029068,0.0,-1.7349999990127938,-0.34999999095475204,-0.7177207127345239,0.0
1759683341.2379794,0,-1.2049999237060547,-0.8299996256828308,-0.7177034434221063,0.0,-1.7350000018377427,-0.3499999915246038,-0.7177174929104042,0.0
1759683341.24858,0,-1.2049999237060547,-0.8299996256828308,-0.7177034501843096,0.0,-1.735000004114407,-0.34999999198385495,-0.717714898011079,0.0
1759683341.2588563,0,-1.2049999237060547,-0.8299996256828308,-0.7177034578946024,0.0,-1.7350000059543855,-0.3499999923550174,-0.7177128008380432,0.0
1759683341.269127,0,-1.2049999237060547,-0.8299996256828308,-0.7177034649709899,0.0,-1.7350000076176944,-0.34999999269054183,-0.7177109050297249,0.0
1759683341.2903905,0,-1.2049999237060547,-0.8299996256828308,-0.7177034316667186,0.0,-1.7350000089212634,-0.3499999929534992,-0.7177094192459833,0.0
1759683341.3009129,0,-1.2049999237060547,-0.8299996256828308,-0.7177034482503027,0.0,-1.7350000099593996,-0.34999999316291314,-0.7177082359978291,0.0
1759683341.3118155,0,-1.2049999237060547,-0.8299996256828308,-0.7177034629825519,0.0,-1.7350000107878822,-0.34999999333003556,-0.7177072917089264,0.0
1759683341.3227437,0,-1.2049999237060547,-0.8299996256828308,-0.7177034747135451,0.0,-1.7350000114507327,-0.3499999934637465,-0.717706536204534,0.0
1759683341.3340402,0,-1.2049999237060547,-0.8299996256828308,-0.7177034831627722,0.0,-1.7350000119822147,-0.3499999935709576,-0.7177059304312755,0.0
1759683341.344434,0,-1.2049999237060547,-0.8299996256828308,-0.7177034930906068,0.0,-1.7350000124099065,-0.3499999936572321,-0.7177054429559112,0.0
1759683341.3547735,0,-1.2049999237060547,-0.8299996256828308,-0.7177035015597574,0.0,-1.735000012754933,-0.3499999937268312,-0.7177050497013525,0.0
1759683341.3660717,0,-1.2049999237060547,-0.8299996256828308,-0.7177035059563757,0.0,-1.7350000130336438,-0.349999993783053,-0.71770473203203,0.0
1759683341.377102,0,-1.2049999237060547,-0.8299996256828308,-0.7177035108381666,0.0,-1.7350000132847383,-0.34999999383370406,-0.717704445839372,0.0
1759683341.3878605,0,-1.2049999237060547,-0.8299996256828308,-0.7177035162130458,0.0,-1.7350000134840502,-0.34999999387390945,-0.7177042186674714,0.0
1759683341.398311,0,-1.2049999237060547,-0.8299996256828308,-0.7177035219116412,0.0,-1.7350000136427142,-0.3499999939059153,-0.7177040378253882,0.0
1759683341.4090006,0,-1.2049999237060547,-0.8299996256828308,-0.7177035263843479,0.0,-1.7350000137693014,-0.3499999939314506,-0.7177038935436427,0.0
1759683341.4199429,0,-1.2049999237060547,-0.8299996256828308,-0.7177035298909278,0.0,-1.7350000138705246,-0.3499999939518695,-0.7177037781711644,0.0
1759683341.4312537,0,-1.2049999237060547,-0.8299996256828308,-0.717703532496742,0.0,-1.7350000139516422,-0.3499999939682326,-0.7177036857148315,0.0
1759683341.4419205,0,-1.2049999237060547,-0.8299996256828308,-0.717703536735538,0.0,-1.7350000140168649,-0.3499999939813894,-0.7177036113752454,0.0
1759683341.4519327,0,-1.2049999237060547,-0.8299996256828308,-0.7177035421202334,0.0,-1.7350000140694755,-0.3499999939920021,-0.7177035514106546,0.0
1759683341.461984,0,-1.2049999237060547,-0.8299996256828308,-0.7177035466966367,0.0,-1.735000014116154,-0.3499999940014181,-0.717703498207517,0.0
1759683341.4754968,0,-1.2049999237060547,-0.8299996256828308,-0.7177035438018109,0.0,-1.7350000141530748,-0.34999999400886583,-0.7177034561255742,0.0
1759683341.483766,0,-1.2049999237060547,-0.8299996256828308,-0.7177035525460091,0.0,-1.7350000141825304,-0.3499999940148077,-0.7177034225526113,0.0
1759683341.4945357,0,-1.2049999237060547,-0.8299996256828308,-0.7177035552631992,0.0,-1.7350000142060154,-0.3499999940195451,-0.7177033957848794,0.0
1759683341.5047061,0,-1.2049999237060547,-0.8299996256828308,-0.717703558681034,0.0,-1.7350000142247994,-0.3499999940233343,-0.7177033743751152,0.0
1759683341.5155807,0,-1.2049999237060547,-0.8299996256828308,-0.7177035605852335,0.0,-1.7350000142398483,-0.34999999402637,-0.7177033572226201,0.0
1759683341.5260577,0,-1.2049999237060547,-0.8299996256828308,-0.7177035632454931,0.0,-1.7350000142519406,-0.34999999402880927,-0.7177033434399149,0.0
1759683341.536225,0,-1.2049999237060547,-0.8299996256828308,-0.7177035663426548,0.0,-1.7350000142616846,-0.3499999940307748,-0.7177033323340773,0.0
1759683341.546975,0,-1.2049999237060547,-0.8299996256828308,-0.7177035682500019,0.0,-1.7350000142695494,-0.3499999940323613,-0.7177033233697437,0.0
1759683341.5584383,0,-1.2049999237060547,-0.8299996256828308,-0.7177035690971003,0.0,-1.735000014276581,-0.34999999403377974,-0.7177033153553525,0.0
1759683341.5687943,0,-1.2049999237060547,-0.8299996256828308,-0.7177035719808558,0.0,-1.7350000142821633,-0.3499999940349058,-0.7177033089928248,0.0
1759683341.5794861,0,-1.2049999237060547,-0.8299996256828308,-0.7177035742407475,0.0,-1.7350000142866042,-0.3499999940358016,-0.7177033039309767,0.0
1759683341.590239,0,-1.2049999237060547,-0.8299996256828308,-0.717703576313335,0.0,-1.735000014290146,-0.34999999403651605,-0.7177032998939575,0.0
1759683341.60059,0,-1.2049999237060547,-0.8299996256828308,-0.7177035788844783,0.0,-1.7350000142929791,-0.34999999403708754,-0.7177032966647298,0.0
1759683341.610912,0,-1.2049999237060547,-0.8299996256828308,-0.7177035812931223,0.0,-1.735000014295251,-0.34999999403754584,-0.7177032940752748,0.0
1759683341.6218276,0,-1.2049999237060547,-0.8299996256828308,-0.7177035827491647,0.0,-1.735000014297076,-0.349999994037914,-0.7177032919951412,0.0
1759683341.6323562,0,-1.2049999237060547,-0.8299996256828308,-0.7177035847282873,0.0,-1.7350000142985464,-0.3499999940382106,-0.717703290319186,0.0
1759683341.643223,0,-1.2049999237060547,-0.8299996256828308,-0.717703586252906,0.0,-1.7350000142997337,-0.34999999403845006,-0.7177032889660732,0.0
1759683341.6540837,0,-1.2049999237060547,-0.8299996256828308,-0.717703587814011,0.0,-1.7350000143006945,-0.3499999940386439,-0.7177032878708575,0.0
1759683341.664783,0,-1.2049999237060547,-0.8299996256828308,-0.7177035895825199,0.0,-1.7350000143015691,-0.3499999940388203,-0.7177032868740859,0.0
1759683341.6828573,0,-1.2049999237060547,-0.8299996256828308,-0.7177035837108647,0.0,-1.735000014302258,-0.3499999940389592,-0.7177032860891434,0.0
1759683341.6934137,0,-1.2049999237060547,-0.8299996256828308,-0.7177035876954605,0.0,-1.7350000143028068,-0.34999999403906995,-0.7177032854635464,0.0
1759683341.704243,0,-1.2049999237060547,-0.8299996256828308,-0.7177035912369583,0.0,-1.7350000143032451,-0.34999999403915844,-0.7177032849638453,0.0
1759683341.7148998,0,-1.2049999237060547,-0.8299996256828308,-0.717703594298623,0.0,-1.7350000143035964,-0.34999999403922927,-0.7177032845636129,0.0
1759683341.7263737,0,-1.2049999237060547,-0.8299996256828308,-0.7177035961123455,0.0,-1.7350000143038782,-0.3499999940392861,-0.7177032842425299,0.0
1759683341.7366478,0,-1.2049999237060547,-0.8299996256828308,-0.7177035987773763,0.0,-1.735000014304105,-0.34999999403933185,-0.7177032839839175,0.0
1759683341.7476766,0,-1.2049999237060547,-0.8299996256828308,-0.7177036004289832,0.0,-1.7350000143042883,-0.34999999403936877,-0.7177032837752955,0.0
1759683341.7584376,0,-1.2049999237060547,-0.8299996256828308,-0.7177036021216203,0.0,-1.7350000143044513,-0.34999999403940163,-0.7177032835894905,0.0
1759683341.7686045,0,-1.2049999237060547,-0.8299996256828308,-0.7177036041186362,0.0,-1.7350000143045807,-0.3499999940394278,-0.7177032834418652,0.0
1759683341.7788684,0,-1.2049999237060547,-0.8299996256828308,-0.7177036057712485,0.0,-1.735000014304684,-0.3499999940394486,-0.7177032833243017,0.0
1759683341.7899392,0,-1.2049999237060547,-0.8299996256828308,-0.7177036066244931,0.0,-1.7350000143047661,-0.3499999940394652,-0.7177032832305293,0.0
1759683341.8091176,0,-1.2049999237060547,-0.8299996256828308,-0.7177036019788794,0.0,-1.7350000143048314,-0.34999999403947835,-0.7177032831561829,0.0
1759683341.819949,0,-1.2049999237060547,-0.8299996256828308,-0.7177036046655196,0.0,-1.7350000143048838,-0.3499999940394889,-0.7177032830964442,0.0
1759683341.8305879,0,-1.2049999237060547,-0.8299996256828308,-0.7177036073916909,0.0,-1.735000014304926,-0.34999999403949744,-0.7177032830483115,0.0
1759683341.8406627,0,-1.2049999237060547,-0.8299996256828308,-0.7177036099309024,0.0,-1.7350000143049602,-0.3499999940395043,-0.71770328300941,0.0
1759683341.850983,0,-1.2049999237060547,-0.8299996256828308,-0.7177036118050815,0.0,-1.7349982024611847,-0.3500015758019815,-0.7183020777466896,0.0014519084181823724
1759683341.8621962,0,-1.2049999237060547,-0.8299996256828308,-0.7177036128190224,0.0,-1.7349948451087043,-0.350018361794468,-0.718782206844223,0.0026160882804594355
1759683341.8729553,0,-1.2049999237060547,-0.8299996256828308,-0.717703613994706,0.0,-1.7349905922184619,-0.3500443758430546,-0.7191693316179277,0.003554760535198447
1759683341.891011,0,-1.2049999237060547,-0.8299996256828308,-0.7177036112814079,0.0,-1.7349858391151092,-0.3500756241462152,-0.7194847847718433,0.004319652083893321
1759683341.9022655,0,-1.2049999237060547,-0.8299996256828308,-0.7177036130994665,0.0,-1.7349808942224563,-0.3501093618109756,-0.7197430164846803,0.0049457987165275955
1759683341.9126275,0,-1.2049999237060547,-0.8299996256828308,-0.7177036153056058,0.0,-1.734975948657326,-0.35014377151567666,-0.7199558172740959,0.005461788792040632
1759683341.9227495,0,-1.2049999237060547,-0.8299996256828308,-0.717703617192246,0.0,-1.7349711193746817,-0.35017769017394806,-0.7201325391617082,0.00589029819492602
1759683341.9341304,0,-1.2049999237060547,-0.8299996256828308,-0.7177036181239488,0.0,-1.7349664559946658,-0.3502104677503203,-0.7202811018342902,0.0062505301284314415
1759683341.9441307,0,-1.2049999237060547,-0.8299996256828308,-0.7177036195356656,0.0,-1.7349620081611998,-0.35024167011225615,-0.7204067945114256,0.006555309095296896
1759683341.9558227,0,-1.2049999237060547,-0.8299996256828308,-0.7177036200141327,0.0,-1.734957760146464,-0.35027121076542134,-0.7205150259511011,0.006817750133877464
1759683341.965839,0,-1.2049999237060547,-0.8299996256828308,-0.7177036211799183,0.0,-1.7355199445447491,-0.3498371225482769,-0.7201264317936203,0.010327433434004909
1759683341.9760523,0,-1.2049999237060547,-0.8299996256828308,-0.7177036221164101,0.0,-1.735958875863927,-0.3495331476125695,-0.719825665168999,0.013123831716735283
1759683341.9874299,0,-1.2049999237060547,-0.8299996256828308,-0.71770362247082,0.0,-1.7363008555438828,-0.3493253786563135,-0.7195952521690259,0.015358377420286224
1759683341.9989398,0,-1.2049999237060547,-0.8299996256828308,-0.7177036228128539,0.0,-1.7365670339915273,-0.34918812196825355,-0.7194204699286901,0.017151354511572067
1759683342.0099294,0,-1.2049999237060547,-0.8299996256828308,-0.7177036234113121,0.0,-1.7367741244681674,-0.34910212559764603,-0.7192892509676332,0.01859681917456794
1759683342.020171,0,-1.2049999237060547,-0.8299996256828308,-0.7177036242603769,0.0,-1.7369351360871095,-0.3490531264426892,-0.7191920061917196,0.019767758366726146
1759683342.0302908,0,-1.2049999237060547,-0.8299996256828308,-0.7177036250474522,0.0,-1.7370598529968049,-0.34903094119991646,-0.719121797243248,0.02072093936544965
1759683342.041668,0,-1.2049999237060547,-0.8299996256828308,-0.7177036253194107,0.0,-1.7371553294392643,-0.3490287662707702,-0.7190743531520477,0.021501451462207336
1759683342.0531182,0,-1.2049999237060547,-0.8299996256828308,-0.717703625606573,0.0,-1.737264641229671,-0.3489953038913201,-0.718967088829851,0.0221377990454495
1759683342.0642893,0,-1.2049999237060547,-0.8299996256828308,-0.7177036260399312,0.0,-1.7374409256654528,-0.34890596761551834,-0.7187879349255971,0.02280741863612728
1759683342.0754275,0,-1.2049999237060547,-0.8299996256828308,-0.7177036265001675,0.0,-1.7375776815526671,-0.3488466284937084,-0.7186528725807634,0.023353599859788035
1759683342.1010532,0,-1.2049999237060547,-0.8299996256828308,-0.7177036230956482,0.0,-1.7376788254091289,-0.3488165184350371,-0.7185636786793345,0.02381565828769489
1759683342.1120594,0,-1.2049999237060547,-0.8299996256828308,-0.7177036247472728,0.0,-1.73775681453547,-0.34880209285992164,-0.7184996042544376,0.02420067543713094
1759683342.1224272,0,-1.2049999237060547,-0.8299996256828308,-0.7177036264544938,0.0,-1.7378166669122053,-0.3487992126019789,-0.7184551366755638,0.024524291717989154
1759683342.1337261,0,-1.2049999237060547,-0.8299996256828308,-0.7177036275409705,0.0,-1.737861857336736,-0.348805477686617,-0.7184270912761637,0.02480038168179739
1759683342.1440651,0,-1.2049999237060547,-0.8299996256828308,-0.7177036285999421,0.0,-1.737895626071601,-0.3488182834356619,-0.7184116081810309,0.025037890539190946
1759683342.1548595,0,-1.2049999237060547,-0.8299996256828308,-0.7177036293382953,0.0,-1.7379201385344412,-0.34883628758787777,-0.7184066493466462,0.02524541205036355
1759683342.1654584,0,-1.2049999237060547,-0.8299996256828308,-0.7177036299770059,0.0,-1.7379372665947725,-0.34885822089135143,-0.7184101487984298,0.025429026387556713
1759683342.176253,0,-1.2049999237060547,-0.8299996256828308,-0.7177036304698969,0.0,-1.737948386978129,-0.34888331373335885,-0.7184207486402645,0.025594038695192885
1759683342.1868389,0,-1.2049999237060547,-0.8299996256828308,-0.7177036309372937,0.0,-1.738791292378229,-0.3481875829350472,-0.7176605981624087,0.028894238142694057
1759683342.1969461,0,-1.2049999237060547,-0.8299996256828308,-0.7177036314379636,0.0,-1.73983252162048,-0.34738575403265054,-0.7167477258351821,0.034559482134271687
1759683342.2075346,0,-1.2049999237060547,-0.8299996256828308,-0.7177036317751622,0.0,-1.7406447036451693,-0.34681800930936607,-0.716033135687455,0.0390717598119016
1759683342.2188256,0,-1.2049999237060547,-0.8299996256828308,-0.7177036319511512,0.0,-1.7412767975604877,-0.34642470884681914,-0.7154759281342975,0.042675117856272676
1759683342.2289133,0,-1.2049999237060547,-0.8299996256828308,-0.7177036323557502,0.0,-1.7417693568618775,-0.3461589270712233,-0.7150411387389479,0.04556513821896946
1759683342.2401967,0,-1.2049999237060547,-0.8299996256828308,-0.717703632516832,0.0,-1.7421508020120233,-0.3459890801224093,-0.7147051638535621,0.04788901258785548
1759683342.25129,0,-1.2049999237060547,-0.8299996256828308,-0.7177036327226852,0.0,-1.7424449859107638,-0.34588993611498264,-0.7144474196688365,0.049765179971635994
1759683342.2622106,0,-1.2049999237060547,-0.8299996256828308,-0.7177036329692328,0.0,-1.7426704354740048,-0.3458428233874021,-0.7142518220124756,0.05128627898739482
1759683342.2732315,0,-1.2049999237060547,-0.8299996256828308,-0.7177036331979139,0.0,-1.742926699410075,-0.3457254610189906,-0.7139948434607003,0.05263076028987602
1759683342.2942946,0,-1.2049999237060547,-0.8299996256828308,-0.7177036319887122,0.0,-1.7433267077297998,-0.34549419139015397,-0.7135598531563769,0.053971481564937994
1759683342.305635,0,-1.2049999237060547,-0.8299996256828308,-0.7177036325900268,0.0,-1.7436368954088708,-0.3453353512694566,-0.7132224024570181,0.05505373382856722
1759683342.3168333,0,-1.2049999237060547,-0.8299996256828308,-0.7177036332017455,0.0,-1.7438766900430718,-0.34523126013236893,-0.7129618022473059,0.0559327294021777
1759683342.327498,0,-1.2049999237060547,-0.8299996256828308,-0.717703633763076,0.0,-1.7440614437323476,-0.34516819853069575,-0.7127615462609017,0.05665121288329749
1759683342.3390002,0,-1.2049999237060547,-0.8299996256828308,-0.7177036341093057,0.0,-1.744202099308094,-0.34513734797009205,-0.712610102228758,0.057243461262802185
1759683342.3504207,0,-1.2049999237060547,-0.8299996256828308,-0.7177036344110483,0.0,-1.7443078700954857,-0.345131103402281,-0.7124975087631922,0.057735887369789005
1759683342.3610234,0,-1.2049999237060547,-0.8299996256828308,-0.7177036347705616,0.0,-1.7443864286218362,-0.3451429234751183,-0.7124152807058659,0.058148483149271145
1759683342.371503,0,-1.2049999237060547,-0.8299996256828308,-0.7177036350886681,0.0,-1.744576868160595,-0.34500812665582137,-0.7121133040335518,0.058462038538158054
1759683342.382047,0,-1.2049999237060547,-0.8299996256828308,-0.7177036353485472,0.0,-1.744722540474862,-0.34491456336596926,-0.7118799135011273,0.05872561565028361
1759683342.392763,0,-1.2049999237060547,-0.8299996256828308,-0.7177036355539492,0.0,-1.744832949361026,-0.3448533713282397,-0.7117006873224061,0.058950423254279134
1759683342.4029405,0,-1.2049999237060547,-0.8299996256828308,-0.7177036357920059,0.0,-1.7449158696612284,-0.344817006290604,-0.7115638460414875,0.05914434670565406
1759683342.413186,0,-1.2049999237060547,-0.8299996256828308,-0.7177036359928817,0.0,-1.744977006422234,-0.34480028083546604,-0.7114606740438325,0.05931424334996898
1759683342.4239647,0,-1.2049999237060547,-0.8299996256828308,-0.7177036361188254,0.0,-1.7450205694435177,-0.344799682478008,-0.7113846734651582,0.05946611481145289
1759683342.4354048,0,-1.2049999237060547,-0.8299996256828308,-0.7177036361816391,0.0,-1.7450497873247601,-0.34481266440000347,-0.711330822913376,0.05960492313699537
1759683342.4461977,0,-1.2049999237060547,-0.8299996256828308,-0.7177036363205218,0.0,-1.7450678478928683,-0.3448359428934747,-0.7112942845492758,0.05973286272307867
1759683342.4569874,0,-1.2049999237060547,-0.8299996256828308,-0.7177036364599125,0.0,-1.746158915856767,-0.3438933021276949,-0.7103283966156936,0.05975013275687074
1759683342.4685004,0,-1.2049999237060547,-0.8299996256828308,-0.7177036365346403,0.0,-1.747618871002676,-0.3426492880642286,-0.7091813233966042,0.0598206272575485
1759683342.4788861,0,-1.2049999237060547,-0.8299996256828308,-0.7177036367115459,0.0,-1.7487687598245392,-0.3416748326793319,-0.7082809442637912,0.05989145867312704
1759683342.493101,0,-1.2049999237060547,-0.8299996256828308,-0.7177036365826108,0.0,-1.7496674608631495,-0.3409214023791511,-0.7075821029445531,0.059968144400437136
1759683342.5044472,0,-1.2049999237060547,-0.8299996256828308,-0.7177036367371521,0.0,-1.7503739660746596,-0.34033602276266883,-0.7070366960924216,0.060045974936457254
1759683342.5155978,0,-1.2049999237060547,-0.8299996256828308,-0.7177036369116045,0.0,-1.750928782710281,-0.33988353453825704,-0.7066125160144062,0.06012480757454095
1759683342.5271745,0,-1.2049999237060547,-0.8299996256828308,-0.7177036370399676,0.0,-1.7513626340906745,-0.339537599420202,-0.7062853503649769,0.06020541250271671
1759683342.5386012,0,-1.2049999237060547,-0.8299996256828308,-0.7177036371715566,0.0,-1.7517004709590358,-0.3392764733904289,-0.7060353018111791,0.06028761456614068
1759683342.5500336,0,-1.2049999237060547,-0.8299996256828308,-0.7177036372960703,0.0,-1.7520806656457129,-0.3389233237145419,-0.705715658123101,0.06034401324987164
1759683342.5608559,0,-1.2049999237060547,-0.8299996256828308,-0.7177036374511232,0.0,-1.7526610387441046,-0.3384124223433256,-0.7051346908744744,0.06042083139522186
1759683342.5719595,0,-1.2049999237060547,-0.8299996256828308,-0.7177036375724111,0.0,-1.7531144257464448,-0.3380196957719527,-0.7046816991233069,0.06049881918316
1759683342.5822327,0,-1.2049999237060547,-0.8299996256828308,-0.7177036377298798,0.0,-1.7534687889485283,-0.337719002390591,-0.704328533462547,0.06057686119051818
1759683342.5932362,0,-1.2049999237060547,-0.8299996256828308,-0.7177036378253128,0.0,-1.7537442866936772,-0.3374922698283898,-0.7040550866406431,0.060656361975119324
1759683342.6044688,0,-1.2049999237060547,-0.8299996256828308,-0.7177036379011241,0.0,-1.753957198802838,-0.33732462561865695,-0.7038450317534571,0.06073773749129903
1759683342.6159465,0,-1.2049999237060547,-0.8299996256828308,-0.717703637965279,0.0,-1.754120255199853,-0.33720444600998445,-0.7036855916465475,0.06082137159501786
1759683342.6272774,0,-1.2049999237060547,-0.8299996256828308,-0.7177036380416961,0.0,-1.7542437460920637,-0.3371221114604446,-0.7035663734331411,0.0609069960028914
1759683342.6374657,0,-1.2049999237060547,-0.8299996256828308,-0.7177036381740738,0.0,-1.7543364946286983,-0.3370687959888727,-0.7034783206456826,0.06099284124201791
1759683342.6481972,0,-1.2049999237060547,-0.8299996256828308,-0.717703638264144,0.0,-1.7545899480104719,-0.3368211352550043,-0.7031220139732002,0.0609388246009673
1759683342.6588552,0,-1.2049999237060547,-0.8299996256828308,-0.7177036383480146,0.0,-1.7547854701532244,-0.33663480360549947,-0.7028450707708855,0.06091225592424202
1759683342.6688626,0,-1.2049999237060547,-0.8299996256828308,-0.717703638453612,0.0,-1.7549358412473142,-0.3364964149726729,-0.7026300851034181,0.060906564132310256
1759683342.680208,0,-1.2049999237060547,-0.8299996256828308,-0.7177036384891444,0.0,-1.7550497047720193,-0.3363978183095795,-0.7024650187522831,0.060919727383583415
1759683342.690499,0,-1.2049999237060547,-0.8299996256828308,-0.7177036385721358,0.0,-1.7551353186468914,-0.33632987379486623,-0.7023387091493469,0.060946494743410344
1759683342.701856,0,-1.2049999237060547,-0.8299996256828308,-0.7177036386073149,0.0,-1.7551978425328658,-0.3362877866194476,-0.7022439131894658,0.06098604362724801
1759683342.7122102,0,-1.2049999237060547,-0.8299996256828308,-0.7177036386855278,0.0,-1.7552425270734324,-0.3362654966294573,-0.7021735743827653,0.061034544544862616
1759683342.7237267,0,-1.2049999237060547,-0.8299996256828308,-0.7177036387155287,0.0,-1.7552722510806844,-0.33626060111196604,-0.7021235520258514,0.0610923687465205
1759683342.7355094,0,-1.2049999237060547,-0.8299996256828308,-0.7177036387421047,0.0,-1.7552897784017027,-0.3362702603979589,-0.7020900153795587,0.06115848064792769
1759683342.745525,0,-1.2049999237060547,-0.8299996256828308,-0.7177036388387243,0.0,-1.7552984093360082,-0.3362899908724308,-0.7020687012704913,0.0612288208571866
1759683342.7561858,0,-1.2049999237060547,-0.8299996256828308,-0.7177036389025311,0.0,-1.7571139534437423,-0.33473298865837764,-0.7005302919881776,0.060616920606478726
1759683342.7666848,0,-1.2049999237060547,-0.8299996256828308,-0.7177036389646627,0.0,-1.7585447377001746,-0.3335043486218969,-0.6993201928158995,0.060147521827371014
1759683342.7775362,0,-1.2049999237060547,-0.8299996256828308,-0.717703639010459,0.0,-1.759672167107279,-0.3325365670192191,-0.6983691950671977,0.05979119350188711
1759683342.7888062,0,-1.2049999237060547,-0.8299996256828308,-0.7177036390425915,0.0,-1.7605597240096496,-0.3317767148076099,-0.6976233191370816,0.05952508137200724
1759683342.799019,0,-1.2049999237060547,-0.8299996256828308,-0.7177036391087768,0.0,-1.7612596812572328,-0.331180034634252,-0.6970377143630545,0.05932860248294228
1759683342.8104937,0,-1.2049999237060547,-0.8299996256828308,-0.7174092717322507,0.005235987755982988,-1.7618087694986742,-0.33071620578451205,-0.6965814207021575,0.05918992457146973
1759683342.8205023,0,-1.2049999237060547,-0.8299996256828308,-0.717399901558487,0.005235987755982988,-1.7622402386374574,-0.33035593229289156,-0.696225657886881,0.05909488730013999
1759683342.831404,0,-1.2049999237060547,-0.8299996256828308,-0.7174066808428874,0.005235987755982988,-1.7625765492293217,-0.33008055341881726,-0.6959515385740981,0.05903652964239408
1759683342.8418748,0,-1.2049999237060547,-0.8299996256828308,-0.7173988487546459,0.005235987755982988,-1.7628373356234202,-0.3298728701146035,-0.6957421822094282,0.059007071783120875
1759683342.8526442,0,-1.2049999237060547,-0.8299996256828308,-0.7173789195518159,0.005235987755982988,-1.7631683734881003,-0.32954679505551293,-0.6954454899151572,0.05895215689022818
1759683342.8640995,0,-1.2043196511496368,-0.8295396744185101,-0.7169425962836489,0.005864099808492682,-1.763740985596866,-0.3290328152928565,-0.6948303294137429,0.05891878806131107
1759683342.8755455,0,-1.2043196511496368,-0.8295396744185102,-0.7169230891641709,0.005864099808492682,-1.7641879462336345,-0.3286366224021106,-0.6943495594927076,0.058911385927330195
1759683342.891642,0,-1.2038227220188769,-0.830024605881846,-0.7167552032021036,0.010738379227675923,-1.7645313665246707,-0.32834034527572487,-0.6939796303439997,0.05893269525850122
1759683342.9019952,0,-1.203645224998586,-0.8301793718629874,-0.7165960923761664,0.010738379227675923,-1.764799038545836,-0.3281150536079739,-0.693690822417555,0.05896752208774372
1759683342.912767,0,-1.2035768323038403,-0.8302389944234051,-0.7164808112482678,0.010738379227675923,-1.7650062161903017,-0.3279470092185958,-0.6934668494608892,0.05901414357888226
1759683342.9233887,0,-1.2035509137427851,-0.8302615809261156,-0.7163974077428924,0.010738379227675923,-1.7651653859839793,-0.32782463874785217,-0.6932943640575612,0.0590702756720304
1759683342.93459,0,-1.203540196478924,-0.8302709146472915,-0.7163548805542319,0.010738379227675923,-1.7652857459179552,-0.3277397691151338,-0.6931635268903688,0.05913538149128047
1759683342.945905,0,-1.203535940748354,-0.8302746166334906,-0.7163190957101268,0.010738379227675923,-1.7653749314730878,-0.32768536049612634,-0.693066159892862,0.059208293580148466
1759683342.9574184,0,-1.2035340344131393,-0.8302762721694943,-0.7163109552025839,0.010738379227675923,-1.7654388929305294,-0.32765596452151874,-0.6929958836214156,0.05928826669789901
1759683342.9675515,0,-1.2035352424046122,-0.8302752147174186,-0.7162972862596404,0.010738379227675923,-1.7663834099592117,-0.3268374923914393,-0.6920742534277587,0.05916740723245521
1759683342.9781036,0,-1.203633592703223,-0.8303848708508839,-0.7162891606639696,0.0113454574256984,-1.767698033911732,-0.32572565004274356,-0.6908522198211696,0.059067779439613576
1759683342.9885197,0,-1.2036337342456866,-0.8303847451045314,-0.7162919356756545,0.0113454574256984,-1.7687329174091777,-0.32485363347372254,-0.689890790808547,0.059006250549437714
1759683342.999332,0,-1.2036332316326794,-0.8303851814546044,-0.7163012755417438,0.0113454574256984,-1.7695468345654757,-0.32417203219342944,-0.6891354586548882,0.058975778073732575
1759683343.0107534,0,-1.2036321842599051,-0.8303860930390853,-0.7163006796785042,0.0113454574256984,-1.7701854406345587,-0.3236424757177371,-0.688543879865843,0.05897126483335964
1759683343.021285,0,-1.203633032933587,-0.8303853526253313,-0.7162930483170491,0.0113454574256984,-1.7706867682897047,-0.3232320752042638,-0.6880805319851091,0.058986134613878756
1759683343.0327265,0,-1.2036320799020148,-0.8303861826523864,-0.716267417274196,0.0113454574256984,-1.771077855507382,-0.3229183013610968,-0.687720390233459,0.05901837121570403
1759683343.0441704,0,-1.2036317124594296,-0.8303865025423603,-0.7162985987427117,0.0113454574256984,-1.7713812640161262,-0.3226818096347536,-0.6874424222622223,0.0590648640223638
1759683343.054242,0,-1.2036334984084511,-0.8303849459930297,-0.7162923238177846,0.0113454574256984,-1.7716163819438,-0.3225051683592103,-0.6872283434363297,0.059120740746575404
1759683343.0648253,0,-1.2036334620944578,-0.8303849776439446,-0.7162933411178636,0.0113454574256984,-1.77191446661305,-0.32221954862621743,-0.6869411254292583,0.05910826113363186
1759683343.0757532,0,-1.2037133679279164,-0.8304824140784574,-0.7163234342020807,0.011843672406052809,-1.7724137502398556,-0.3217805166502622,-0.6863424962237564,0.05912607538533987
1759683343.088334,0,-1.197513240138199,-0.8363516030184648,-0.7104046899625224,0.068256405143886,-1.7728012181256192,-0.32144580383359167,-0.6858752551318623,0.05916266282289556
1759683343.0996764,0,-1.1952123173974614,-0.8383004594812031,-0.705721968982467,0.068256405143886,-1.7731021125769464,-0.3211917496906454,-0.6855099514505436,0.0592123045664686
1759683343.1109293,0,-1.1943320310975092,-0.8390412961562054,-0.7022900024640878,0.068256405143886,-1.7733347948082345,-0.32100158303686666,-0.6852250128431917,0.059272525868564734
1759683343.1221576,0,-1.193994072256536,-0.8393223007147029,-0.6998186750097767,0.068256405143886,-1.7735135058434939,-0.3208622863903848,-0.6850036812347935,0.05934151904340919
1759683343.1325762,0,-1.193877991823283,-0.839416312436306,-0.6980665864031512,0.068256405143886,-1.7736499937018195,-0.3207626884279398,-0.6848322278077051,0.05941645776323793
1759683343.1431587,0,-1.1938296265761157,-0.8394538826973437,-0.6967785459376007,0.068256405143886,-1.7737526654085356,-0.3206952098938902,-0.6847006953436513,0.05949683732553759
1759683343.1531878,0,-1.1938203575635664,-0.8394593755047531,-0.695871986199172,0.068256405143886,-1.7738286764333573,-0.3206530117758215,-0.6846007048126473,0.05958096625214638
1759683343.1643345,0,-1.1937961062227174,-0.8394777837116478,-0.6951930812582798,0.068256405143886,-1.7738824264675166,-0.32063268376187654,-0.6845268649803555,0.05967057506808486
1759683343.1757789,0,-1.193781056627861,-0.8394889446800405,-0.6946704962856208,0.068256405143886,-1.774778217457552,-0.319875952510281,-0.6835759533011301,0.06061689294722605
1759683343.186742,0,-1.1936345757076694,-0.8397641266632664,-0.6939551603432574,0.0698019741713013,-1.7760104294706034,-0.3188679705526843,-0.6823112870384811,0.061663409771045063
1759683343.1974823,0,-1.1936394228173852,-0.8397594520203635,-0.6937301573931905,0.0698019741713013,-1.776977514727592,-0.31809043202777415,-0.6813152284687182,0.06252318552933124
1759683343.208904,0,-1.1936288345121455,-0.8397677341431353,-0.6935552116234311,0.0698019741713013,-1.7777349817608532,-0.31749441841532494,-0.680532059018408,0.06323777781160428
1759683343.219159,0,-1.1936457938893315,-0.8397534276632078,-0.6934886646361658,0.0698019741713013,-1.7783291857101702,-0.3170384967841326,-0.6799151005199817,0.06383622913144786
1759683343.230548,0,-1.1936317344775011,-0.839764847053353,-0.6933888167757405,0.0698019741713013,-1.7787925662115491,-0.3166948744236441,-0.679431651590022,0.06434565827241383
1759683343.2420516,0,-1.1936242598441689,-0.8397708902103087,-0.6933454182040749,0.0698019741713013,-1.7791521556517835,-0.3164400727433624,-0.6790543747043227,0.06478550684471308
1759683343.252188,0,-1.1936461096072284,-0.8397528003255376,-0.6933920521210375,0.0698019741713013,-1.7794310130713284,-0.3162533962359417,-0.6787599010401493,0.06516763886853112
1759683343.2622147,0,-1.193656458047222,-0.839744270598628,-0.6934285386557851,0.0698019741713013,-1.7796455188870182,-0.31612077616639145,-0.6785315949809368,0.06550400940968916
1759683343.2733743,0,-1.1936399589234334,-0.8397579238090065,-0.6934010744039844,0.0698019741713013,-1.7798071162656806,-0.31603316238629964,-0.6783577847880572,0.06580713395926174
1759683343.2849526,0,-1.1936261037380598,-0.8397693875811288,-0.6933958394395741,0.0698019741713013,-1.780052866083532,-0.31580886868375707,-0.6781009366280039,0.06589402806967129
1759683343.3073847,0,-1.1824551666734202,-0.8490028849264878,-0.67814511647987,0.10835477209249476,-1.7804800265384406,-0.3154574741935649,-0.6775338381220577,0.06608785364483795
1759683343.3174455,0,-1.1786202386459412,-0.8519529575919812,-0.6673040064838773,0.10835477209249476,-1.780813132818365,-0.3151904761474374,-0.6770866381704178,0.06626995863366808
1759683343.3279948,0,-1.177130562724184,-0.8530826113788111,-0.6593696217994639,0.10835477209249476,-1.7810714499734812,-0.3149910694328706,-0.6767347187044214,0.06644462336446294
1759683343.3394852,0,-1.176525832714374,-0.8535292720281121,-0.6535027069510553,0.10835477209249476,-1.7812696910768275,-0.3148467022026727,-0.6764590817306423,0.0666165002921834
1759683343.3497827,0,-1.1763254656347293,-0.8536682069437496,-0.6494919923973924,0.10835477209249476,-1.7814212739337107,-0.31474469988775433,-0.676243061224597,0.06678371488700943
1759683343.3605814,0,-1.1762300406260926,-0.8537293621359839,-0.6465455182638502,0.10835477209249476,-1.7815352270327118,-0.31467734609647385,-0.6760749508492742,0.06694918888487637
1759683343.3706708,0,-1.1762124949343646,-0.8537345366752078,-0.6445265254621931,0.10835477209249476,-1.7816196416054184,-0.3146370205442298,-0.6759446467661271,0.06711201356836456
1759683343.381301,0,-1.1761875055722233,-0.8537469930644086,-0.6430207839840331,0.10835477209249476,-1.781679888851001,-0.3146193022811463,-0.6758450528300353,0.06727483313086922
1759683343.392719,0,-1.1761525754998752,-0.8537680840197235,-0.6418794229492191,0.10835477209249476,-1.7817200233018948,-0.314621052906796,-0.6757706872407163,0.067440554359221
1759683343.403038,0,-1.1757113492932618,-0.8542426559604265,-0.6399479546095197,0.11012751948900405,-1.7833256143239866,-0.3133091120691678,-0.6734795118813297,0.06879431347476087
1759683343.4144099,0,-1.1756859521958898,-0.8542589032956907,-0.63935399274052,0.11012751948900405,-1.7845817455088275,-0.3122976369176606,-0.67167755315441,0.06991523306509964
1759683343.4258537,0,-1.1756735905072329,-0.8542662786819871,-0.6389593174688359,0.11012751948900405,-1.7855642189258725,-0.31152050119154034,-0.6702597659162242,0.07085484079908798
1759683343.4367373,0,-1.1756857171234547,-0.854256428176295,-0.6387783428587598,0.11012751948900405,-1.786332942634249,-0.31092541518339406,-0.6691429780949758,0.07165100133595761
1759683343.4480917,0,-1.1756758548916726,-0.8542629897399201,-0.6386422386105644,0.11012751948900405,-1.7869325007243915,-0.3104741691974131,-0.6682650239723452,0.07233672785345763
1759683343.4583855,0,-1.17570445795661,-0.8542419544043394,-0.6386886487152186,0.11012751948900405,-1.7874001366514358,-0.3101341878670621,-0.6675740165454147,0.07293221537004925
1759683343.468432,0,-1.1757230280207633,-0.8542285165286927,-0.6387935389232785,0.11012751948900405,-1.7877634976282384,-0.3098817630467138,-0.6670312487120189,0.07345602205894107
1759683343.4785225,0,-1.1757288950563232,-0.8542244589303851,-0.6388667182464861,0.11012751948900405,-1.7880438217324897,-0.30969893383671,-0.6666068528307317,0.07392385781385476
1759683343.4898708,0,-1.1756928370616344,-0.8542508644666144,-0.6388208534205694,0.11012751948900405,-1.788256210979318,-0.3095737600523306,-0.6662792959786348,0.07435321948058184
1759683343.5166924,0,-1.1629325729105833,-0.8632706423116223,-0.6192986640618834,0.12541211130491065,-1.7888045976926663,-0.30913063666180846,-0.6653451572876162,0.07466334147948256
1759683343.5282981,0,-1.1587368823970523,-0.8660880573444732,-0.6068397187196132,0.12541211130491065,-1.7892310437211039,-0.30879488901355295,-0.6646091099499517,0.07496291188220809
1759683343.5384228,0,-1.1571745721723354,-0.867116015960407,-0.5980970135445057,0.12541211130491065,-1.7895630716740978,-0.30854183204385044,-0.6640273470929409,0.07524893904609858
1759683343.548674,0,-1.156564915469072,-0.8675032462904528,-0.5918463478966411,0.12541211130491065,-1.7898202263812515,-0.3083547296758429,-0.6635680368957857,0.07552573880161306
1759683343.5588045,0,-1.1563304857137748,-0.8676422783886134,-0.5874056218449146,0.12541211130491065,-1.7900180584421361,-0.30822010613389983,-0.6632059030504429,0.07579566055066876
1759683343.5690367,0,-1.1562330554660651,-0.8676934415373176,-0.5842179290306757,0.12541211130491065,-1.7901685444941455,-0.3081277048512115,-0.6629213177423988,0.07606154975970435
1759683343.5794506,0,-1.1561862354789745,-0.8677140708389777,-0.5819520241018826,0.12541211130491065,-1.7902810310127384,-0.30806957671287255,-0.6626988710312389,0.07632607333845441
1759683343.5907373,0,-1.1561343618852287,-0.867739704585143,-0.5801614755728168,0.12541211130491065,-1.7904469324159107,-0.3079036703829664,-0.6624391910109563,0.07761004988051189
1759683343.601605,0,-1.1553956837437889,-0.8683804000600983,-0.5769034520322236,0.12691865230659852,-1.7906709338592657,-0.30771555401519535,-0.6618844448418193,0.07884331076618906
1759683343.611801,0,-1.1554168634080813,-0.8683634099245615,-0.576270442311649,0.12691865230659852,-1.7908391777976573,-0.30759021594159297,-0.6614464217120964,0.0798832250820982
1759683343.6228645,0,-1.155392672999962,-0.8683760768779617,-0.5756606300818992,0.12691865230659852,-1.7909631967610349,-0.3075140657223656,-0.6611009148815271,0.08077649351756502
1759683343.6328838,0,-1.155421164035944,-0.8683566487120039,-0.5754598289244337,0.12691865230659852,-1.791053346315442,-0.307474422894682,-0.6608277638668143,0.0815501728412776
1759683343.6442363,0,-1.1553831847924676,-0.868379432012255,-0.5751549857180513,0.12691865230659852,-1.791115878813823,-0.30746467358684243,-0.660612633565528,0.0822375931268137
1759683343.655486,0,-1.1553722507433413,-0.8683855739546736,-0.5749787442784421,0.12691865230659852,-1.7911566633437426,-0.30747812521364143,-0.6604434366297504,0.08285775192181197
1759683343.6666675,0,-1.1553705457668142,-0.8683863076042296,-0.5749221768075574,0.12691865230659852,-1.7911802213240833,-0.30750974506354606,-0.660310728689779,0.08342572287015515
1759683343.6767244,0,-1.1554110677233334,-0.8683610601293594,-0.5751414549224806,0.12691865230659852,-1.7911908075635474,-0.3075543397102462,-0.66020665213986,0.08394727279842504
1759683343.6871638,0,-1.1554128259608054,-0.8683603765780982,-0.5752656062100425,0.12691865230659852,-1.7911907111415402,-0.30760976486954905,-0.6601256763295066,0.0844352819063729
1759683343.699313,0,-1.142519678948716,-0.8760605149957373,-0.558453070093727,0.14183418957803035,-1.792440703135608,-0.30664502119463277,-0.6566081074988752,0.0844202286274542
1759683343.7094898,0,-1.1370807604211566,-0.8794025629726988,-0.5435330198813302,0.1429092103819894,-1.7941075148162782,-0.30537493002371224,-0.6524617925503494,0.08468316861909692
1759683343.7200239,0,-1.1352051869223128,-0.8804670808271531,-0.5337790625213351,0.1430597837538038,-1.7954136562366718,-0.3043821089588635,-0.6491919950069306,0.08495455157880953
1759683343.7313106,0,-1.1344468365754026,-0.8808796690135209,-0.5265508232951396,0.1430597837538038,-1.796435009627775,-0.3036104575633731,-0.646616325770203,0.08523820051753327
1759683343.7419167,0,-1.1341790289028553,-0.8810122878016465,-0.5215395275664454,0.1430597837538038,-1.7972338835148747,-0.30301254058132066,-0.6445849193434193,0.08552904442506068
1759683343.7520719,0,-1.134091180904286,-0.8810463753411257,-0.5180592311184284,0.1430030311482944,-1.7978580057505287,-0.30255192049379365,-0.6429825590852665,0.08582428113604805
1759683343.7624238,0,-1.1340458097777173,-0.8810597548173222,-0.5155090024153903,0.1430597837538038,-1.7983433494834618,-0.3022014192685287,-0.6417218632290232,0.08612544265696283
