timestamp,vehicle_id,x,y,theta,velocity,gps_available,dt,gps_x,gps_y,gps_theta,gps_velocity,control_steering,control_acceleration
1759683339.4720297,0,-1.205,-0.83,-0.7801621756414647,0.0,False,0.01,nan,nan,nan,nan,0.0,0.0
1759683339.4824724,0,-1.205,-0.83,-0.7801621756414647,0.0,False,0.010442733764648438,nan,nan,nan,nan,0.0,0.0
1759683339.4939425,0,-1.205,-0.83,-0.7801621756414647,0.0,False,0.01147007942199707,nan,nan,nan,nan,0.0,0.0
1759683339.5052276,0,-1.205,-0.83,-0.7801621756414647,0.0,False,0.011285066604614258,nan,nan,nan,nan,0.0,0.0
1759683339.5158672,0,-1.205,-0.83,-0.7801621756414647,0.0,False,0.010639667510986328,nan,nan,nan,nan,0.0,0.0
1759683339.5259767,0,-1.205,-0.83,-0.7801621756414647,0.0,False,0.010109424591064453,nan,nan,nan,nan,0.0,0.0
1759683339.5370321,0,-1.205,-0.83,-0.7801621756414647,0.0,False,0.011055469512939453,nan,nan,nan,nan,0.0,0.0
1759683339.5475748,0,-1.205,-0.83,-0.7801621756414647,0.0,False,0.010542631149291992,nan,nan,nan,nan,0.0,0.0
1759683339.5586693,0,-1.205,-0.83,-0.7801621756414647,0.0,False,0.01109457015991211,nan,nan,nan,nan,0.0,0.0
1759683339.569286,0,-1.205,-0.83,-0.7801621756414647,0.0,False,0.010616779327392578,nan,nan,nan,nan,0.0,0.0
1759683339.5800104,0,-1.205,-0.83,-0.7801621756414647,0.0,False,0.010724306106567383,nan,nan,nan,nan,0.0,0.0
1759683339.5904405,0,-1.205,-0.83,-0.7801621756414647,0.0,False,0.010430097579956055,nan,nan,nan,nan,0.0,0.0
1759683339.6007838,0,-1.205,-0.83,-0.7801621756414647,0.0,False,0.010343313217163086,nan,nan,nan,nan,0.0,0.0
1759683339.611701,0,-1.205,-0.83,-0.7801621756414647,0.0,False,0.010917186737060547,nan,nan,nan,nan,0.0,0.0
1759683339.622761,0,-1.205,-0.83,-0.7801621756414647,0.0,False,0.011059999465942383,nan,nan,nan,nan,0.0,0.0
1759683339.6335332,0,-1.205,-0.83,-0.7801621756414647,0.0,False,0.010772228240966797,nan,nan,nan,nan,0.0,0.0
1759683339.643859,0,-1.205,-0.83,-0.7801621756414647,0.0,False,0.01032567024230957,nan,nan,nan,nan,0.0,0.0
1759683339.6551642,0,-1.205,-0.83,-0.7801621756414647,0.0,False,0.01130533218383789,nan,nan,nan,nan,0.0,0.0
1759683339.6699305,0,-1.2049999243418377,-0.8299996288021405,-0.7229998550898848,0.0,True,0.014766216278076172,-1.2049999237060547,-0.8299996256828308,-0.717703640460968,0.0,0.0,0.0
1759683339.6810489,0,-1.2049999239185727,-0.829999626725497,-0.7181153350347262,0.0,True,0.011118412017822266,-1.2049999237060547,-0.8299996256828308,-0.717703640460968,0.0,0.0,0.0
1759683339.6923375,0,-1.2049999237857767,-0.8299996260739668,-0.7176540629401664,0.0,True,0.011288642883300781,-1.2049999237060547,-0.8299996256828308,-0.717703640460968,0.0,0.0,0.0
1759683339.703502,0,-1.2049999237364264,-0.8299996258318424,-0.7175947946572343,0.0,True,0.011164426803588867,-1.2049999237060547,-0.8299996256828308,-0.717703640460968,0.0,0.0,0.0
1759683339.714162,0,-1.2049999237176512,-0.8299996257397265,-0.717590512933258,0.0,True,0.010660171508789062,-1.2049999237060547,-0.8299996256828308,-0.717703640460968,0.0,0.0,0.0
1759683339.725597,0,-1.2049999237104838,-0.8299996257045619,-0.7175970696973035,0.0,True,0.011434793472290039,-1.2049999237060547,-0.8299996256828308,-0.717703640460968,0.0,0.0,0.0
1759683339.7365375,0,-1.2049999237077464,-0.8299996256911313,-0.7176093372834416,0.0,True,0.0109405517578125,-1.2049999237060547,-0.8299996256828308,-0.717703640460968,0.0,0.0,0.0
1759683339.7473524,0,-1.2049999237067008,-0.8299996256860013,-0.7176215400310042,0.0,True,0.010814905166625977,-1.2049999237060547,-0.8299996256828308,-0.717703640460968,0.0,0.0,0.0
1759683339.7577605,0,-1.2049999237063016,-0.8299996256840418,-0.7176326158715653,0.0,True,0.010408163070678711,-1.2049999237060547,-0.8299996256828308,-0.717703640460968,0.0,0.0,0.0
1759683339.7685468,0,-1.204999923706149,-0.8299996256832933,-0.7176411859338696,0.0,True,0.010786294937133789,-1.2049999237060547,-0.8299996256828308,-0.717703640460968,0.0,0.0,0.0
1759683339.779426,0,-1.2049999237060907,-0.8299996256830074,-0.7176482788479603,0.0,True,0.010879278182983398,-1.2049999237060547,-0.8299996256828308,-0.717703640460968,0.0,0.0,0.0
1759683339.7907803,0,-1.2049999237060685,-0.8299996256828983,-0.7176538767921912,0.0,True,0.011354207992553711,-1.2049999237060547,-0.8299996256828308,-0.717703640460968,0.0,0.0,0.0
1759683339.8022392,0,-1.20499992370606,-0.8299996256828566,-0.7176587415771856,0.0,True,0.011458873748779297,-1.2049999237060547,-0.8299996256828308,-0.717703640460968,0.0,0.0,0.0
1759683339.8128378,0,-1.2049999237060567,-0.8299996256828407,-0.7176636599832928,0.0,True,0.01059865951538086,-1.2049999237060547,-0.8299996256828308,-0.717703640460968,0.0,0.0,0.0
1759683339.8238328,0,-1.2049999237060554,-0.8299996256828346,-0.7176674332390114,0.0,True,0.010994911193847656,-1.2049999237060547,-0.8299996256828308,-0.717703640460968,0.0,0.0,0.0
1759683339.835583,0,-1.204999923706055,-0.8299996256828323,-0.7176701748229384,0.0,True,0.011750221252441406,-1.2049999237060547,-0.8299996256828308,-0.717703640460968,0.0,0.0,0.0
1759683339.8460732,0,-1.2049999237060547,-0.8299996256828314,-0.7176734143106067,0.0,True,0.010490179061889648,-1.2049999237060547,-0.8299996256828308,-0.717703640460968,0.0,0.0,0.0
1759683339.8569312,0,-1.2049999237060547,-0.829999625682831,-0.7176759201798486,0.0,True,0.01085805892944336,-1.2049999237060547,-0.8299996256828308,-0.717703640460968,0.0,0.0,0.0
1759683339.869123,0,-1.2049999237060547,-0.8299996256828309,-0.7176774068406395,0.0,True,0.0121917724609375,-1.2049999237060547,-0.8299996256828308,-0.717703640460968,0.0,0.0,0.0
1759683339.8801994,0,-1.2049999237060547,-0.8299996256828308,-0.7176794157333148,0.0,True,0.01107645034790039,-1.2049999237060547,-0.8299996256828308,-0.717703640460968,0.0,0.0,0.0
1759683339.891337,0,-1.2049999237060547,-0.8299996256828308,-0.7176811759756685,0.0,True,0.01113748550415039,-1.2049999237060547,-0.8299996256828308,-0.717703640460968,0.0,0.0,0.0
1759683339.9017618,0,-1.2049999237060547,-0.8299996256828308,-0.7176830030785357,0.0,True,0.01042485237121582,-1.2049999237060547,-0.8299996256828308,-0.717703640460968,0.0,0.0,0.0
1759683339.9130175,0,-1.2049999237060547,-0.8299996256828308,-0.7176842206008214,0.0,True,0.011255741119384766,-1.2049999237060547,-0.8299996256828308,-0.717703640460968,0.0,0.0,0.0
1759683339.9230466,0,-1.2049999237060547,-0.8299996256828308,-0.7176857596293296,0.0,True,0.010029077529907227,-1.2049999237060547,-0.8299996256828308,-0.717703640460968,0.0,0.0,0.0
1759683339.9336336,0,-1.2049999237060547,-0.8299996256828308,-0.7176868588369842,0.0,True,0.010586977005004883,-1.2049999237060547,-0.8299996256828308,-0.717703640460968,0.0,0.0,0.0
1759683339.944607,0,-1.2049999237060547,-0.8299996256828308,-0.7176876873882456,0.0,True,0.010973453521728516,-1.2049999237060547,-0.8299996256828308,-0.717703640460968,0.0,0.0,0.0
1759683339.9548683,0,-1.2049999237060547,-0.8299996256828308,-0.7176886827227769,0.0,True,0.010261297225952148,-1.2049999237060547,-0.8299996256828308,-0.717703640460968,0.0,0.0,0.0
1759683339.9662037,0,-1.2049999237060547,-0.8299996256828308,-0.717689241628463,0.0,True,0.011335372924804688,-1.2049999237060547,-0.8299996256828308,-0.717703640460968,0.0,0.0,0.0
1759683339.9774709,0,-1.2049999237060547,-0.8299996256828308,-0.7176898243518064,0.0,True,0.01126718521118164,-1.2049999237060547,-0.8299996256828308,-0.717703640460968,0.0,0.0,0.0
1759683339.9888225,0,-1.2049999237060547,-0.8299996256828308,-0.7176903928203302,0.0,True,0.011351585388183594,-1.2049999237060547,-0.8299996256828308,-0.717703640460968,0.0,0.0,0.0
1759683340.0000937,0,-1.2049999237060547,-0.8299996256828308,-0.7176909825063884,0.0,True,0.011271238327026367,-1.2049999237060547,-0.8299996256828308,-0.717703640460968,0.0,0.0,0.0
1759683340.0109005,0,-1.2049999237060547,-0.8299996256828308,-0.717691666591417,0.0,True,0.010806798934936523,-1.2049999237060547,-0.8299996256828308,-0.717703640460968,0.0,0.0,0.0
1759683340.0213315,0,-1.2049999237060547,-0.8299996256828308,-0.7176923730026541,0.0,True,0.010431051254272461,-1.2049999237060547,-0.8299996256828308,-0.717703640460968,0.0,0.0,0.0
1759683340.0315251,0,-1.2049999237060547,-0.8299996256828308,-0.7176930399156767,0.0,True,0.010193586349487305,-1.2049999237060547,-0.8299996256828308,-0.717703640460968,0.0,0.0,0.0
1759683340.0422482,0,-1.2049999237060547,-0.8299996256828308,-0.7176934985057564,0.0,True,0.010723114013671875,-1.2049999237060547,-0.8299996256828308,-0.717703640460968,0.0,0.0,0.0
1759683340.0534139,0,-1.2049999237060547,-0.8299996256828308,-0.7176938290492529,0.0,True,0.011165618896484375,-1.2049999237060547,-0.8299996256828308,-0.717703640460968,0.0,0.0,0.0
1759683340.0707734,0,-1.2049999237060547,-0.8299996256828308,-0.7176929877308709,0.0,True,0.017359495162963867,-1.2049999237060547,-0.8299996256828308,-0.717703640460968,0.0,0.0,0.0
1759683340.0815225,0,-1.2049999237060547,-0.8299996256828308,-0.7176937802793155,0.0,True,0.010749101638793945,-1.2049999237060547,-0.8299996256828308,-0.717703640460968,0.0,0.0,0.0
1759683340.0929012,0,-1.2049999237060547,-0.8299996256828308,-0.7176944123016504,0.0,True,0.011378765106201172,-1.2049999237060547,-0.8299996256828308,-0.717703640460968,0.0,0.0,0.0
1759683340.1043525,0,-1.2049999237060547,-0.8299996256828308,-0.7176949343718437,0.0,True,0.011451244354248047,-1.2049999237060547,-0.8299996256828308,-0.717703640460968,0.0,0.0,0.0
1759683340.1147277,0,-1.2049999237060547,-0.8299996256828308,-0.7176955597127606,0.0,True,0.010375261306762695,-1.2049999237060547,-0.8299996256828308,-0.717703640460968,0.0,0.0,0.0
1759683340.125607,0,-1.2049999237060547,-0.8299996256828308,-0.7176960012616398,0.0,True,0.010879278182983398,-1.2049999237060547,-0.8299996256828308,-0.717703640460968,0.0,0.0,0.0
1759683340.135943,0,-1.2049999237060547,-0.8299996256828308,-0.7176964573746929,0.0,True,0.010335922241210938,-1.2049999237060547,-0.8299996256828308,-0.717703640460968,0.0,0.0,0.0
1759683340.147319,0,-1.2049999237060547,-0.8299996256828308,-0.7176966971632037,0.0,True,0.011376142501831055,-1.2049999237060547,-0.8299996256828308,-0.717703640460968,0.0,0.0,0.0
1759683340.1582253,0,-1.2049999237060547,-0.8299996256828308,-0.7176969923717138,0.0,True,0.010906219482421875,-1.2049999237060547,-0.8299996256828308,-0.717703640460968,0.0,0.0,0.0
1759683340.16886,0,-1.2049999237060547,-0.8299996256828308,-0.7176973049840072,0.0,True,0.010634660720825195,-1.2049999237060547,-0.8299996256828308,-0.717703640460968,0.0,0.0,0.0
1759683340.1800785,0,-1.2049999237060547,-0.8299996256828308,-0.7176975123314904,0.0,True,0.011218547821044922,-1.2049999237060547,-0.8299996256828308,-0.717703640460968,0.0,0.0,0.0
1759683340.190974,0,-1.2049999237060547,-0.8299996256828308,-0.717697755112102,0.0,True,0.010895490646362305,-1.2049999237060547,-0.8299996256828308,-0.717703640460968,0.0,0.0,0.0
1759683340.2021203,0,-1.2049999237060547,-0.8299996256828308,-0.7176979563988493,0.0,True,0.011146306991577148,-1.2049999237060547,-0.8299996256828308,-0.717703640460968,0.0,0.0,0.0
1759683340.21232,0,-1.2049999237060547,-0.8299996256828308,-0.7176982603689801,0.0,True,0.010199785232543945,-1.2049999237060547,-0.8299996256828308,-0.717703640460968,0.0,0.0,0.0
1759683340.2233052,0,-1.2049999237060547,-0.8299996256828308,-0.7176984413531855,0.0,True,0.010985136032104492,-1.2049999237060547,-0.8299996256828308,-0.717703640460968,0.0,0.0,0.0
1759683340.2335818,0,-1.2049999237060547,-0.8299996256828308,-0.7176986877117315,0.0,True,0.010276556015014648,-1.2049999237060547,-0.8299996256828308,-0.717703640460968,0.0,0.0,0.0
1759683340.2445018,0,-1.2049999237060547,-0.8299996256828308,-0.7176988430149827,0.0,True,0.010920047760009766,-1.2049999237060547,-0.8299996256828308,-0.717703640460968,0.0,0.0,0.0
1759683340.2558515,0,-1.2049999237060547,-0.8299996256828308,-0.7176989517418768,0.0,True,0.011349678039550781,-1.2049999237060547,-0.8299996256828308,-0.717703640460968,0.0,0.0,0.0
1759683340.2678719,0,-1.2049999237060547,-0.8299996256828308,-0.7176990111590271,0.0,True,0.012020349502563477,-1.2049999237060547,-0.8299996256828308,-0.717703640460968,0.0,0.0,0.0
1759683340.2787569,0,-1.2049999237060547,-0.8299996256828308,-0.7176992054372384,0.0,True,0.010885000228881836,-1.2049999237060547,-0.8299996256828308,-0.717703640460968,0.0,0.0,0.0
1759683340.289225,0,-1.2049999237060547,-0.8299996256828308,-0.7176994285824527,0.0,True,0.010468244552612305,-1.2049999237060547,-0.8299996256828308,-0.717703640460968,0.0,0.0,0.0
1759683340.300348,0,-1.2049999237060547,-0.8299996256828308,-0.7176995696493478,0.0,True,0.011122941970825195,-1.2049999237060547,-0.8299996256828308,-0.717703640460968,0.0,0.0,0.0
1759683340.3118753,0,-1.2049999237060547,-0.8299996256828308,-0.717699671654179,0.0,True,0.011527299880981445,-1.2049999237060547,-0.8299996256828308,-0.717703640460968,0.0,0.0,0.0
1759683340.322915,0,-1.2049999237060547,-0.8299996256828308,-0.7176998208313528,0.0,True,0.01103973388671875,-1.2049999237060547,-0.8299996256828308,-0.717703640460968,0.0,0.0,0.0
1759683340.3334424,0,-1.2049999237060547,-0.8299996256828308,-0.7177000041992088,0.0,True,0.010527372360229492,-1.2049999237060547,-0.8299996256828308,-0.717703640460968,0.0,0.0,0.0
1759683340.344411,0,-1.2049999237060547,-0.8299996256828308,-0.717700135575523,0.0,True,0.010968446731567383,-1.2049999237060547,-0.8299996256828308,-0.717703640460968,0.0,0.0,0.0
1759683340.354645,0,-1.2049999237060547,-0.8299996256828308,-0.7177003104113435,0.0,True,0.01023411750793457,-1.2049999237060547,-0.8299996256828308,-0.717703640460968,0.0,0.0,0.0
1759683340.3648946,0,-1.2049999237060547,-0.8299996256828308,-0.7177004634640163,0.0,True,0.010249614715576172,-1.2049999237060547,-0.8299996256828308,-0.717703640460968,0.0,0.0,0.0
1759683340.3754683,0,-1.2049999237060547,-0.8299996256828308,-0.7177005758609578,0.0,True,0.010573625564575195,-1.2049999237060547,-0.8299996256828308,-0.717703640460968,0.0,0.0,0.0
1759683340.3863976,0,-1.2049999237060547,-0.8299996256828308,-0.7177006575864908,0.0,True,0.010929346084594727,-1.2049999237060547,-0.8299996256828308,-0.717703640460968,0.0,0.0,0.0
1759683340.3973238,0,-1.2049999237060547,-0.8299996256828308,-0.7177007419224033,0.0,True,0.010926246643066406,-1.2049999237060547,-0.8299996256828308,-0.717703640460968,0.0,0.0,0.0
1759683340.4081082,0,-1.2049999237060547,-0.8299996256828308,-0.7177008374344496,0.0,True,0.010784387588500977,-1.2049999237060547,-0.8299996256828308,-0.717703640460968,0.0,0.0,0.0
1759683340.4186797,0,-1.2049999237060547,-0.8299996256828308,-0.7177009436420096,0.0,True,0.010571479797363281,-1.2049999237060547,-0.8299996256828308,-0.717703640460968,0.0,0.0,0.0
1759683340.430063,0,-1.2049999237060547,-0.8299996256828308,-0.7177009981953049,0.0,True,0.011383295059204102,-1.2049999237060547,-0.8299996256828308,-0.717703640460968,0.0,0.0,0.0
1759683340.44099,0,-1.2049999237060547,-0.8299996256828308,-0.7177010848660892,0.0,True,0.010926961898803711,-1.2049999237060547,-0.8299996256828308,-0.717703640460968,0.0,0.0,0.0
1759683340.4513698,0,-1.2049999237060547,-0.8299996256828308,-0.7177012002431837,0.0,True,0.010379791259765625,-1.2049999237060547,-0.8299996256828308,-0.717703640460968,0.0,0.0,0.0
1759683340.4637845,0,-1.2049999237060547,-0.8299996256828308,-0.7177012028685308,0.0,True,0.012414693832397461,-1.2049999237060547,-0.8299996256828308,-0.717703640460968,0.0,0.0,0.0
1759683340.4743972,0,-1.2049999237060547,-0.8299996256828308,-0.7177013130123928,0.0,True,0.010612726211547852,-1.2049999237060547,-0.8299996256828308,-0.717703640460968,0.0,0.0,0.0
1759683340.4852886,0,-1.2049999237060547,-0.8299996256828308,-0.7177014046501213,0.0,True,0.010891437530517578,-1.2049999237060547,-0.8299996256828308,-0.717703640460968,0.0,0.0,0.0
1759683340.4954863,0,-1.2049999237060547,-0.8299996256828308,-0.7177015201495465,0.0,True,0.010197639465332031,-1.2049999237060547,-0.8299996256828308,-0.717703640460968,0.0,0.0,0.0
1759683340.5055819,0,-1.2049999237060547,-0.8299996256828308,-0.717701625203162,0.0,True,0.010095596313476562,-1.2049999237060547,-0.8299996256828308,-0.717703640460968,0.0,0.0,0.0
1759683340.5158966,0,-1.2049999237060547,-0.8299996256828308,-0.7177017061672615,0.0,True,0.010314702987670898,-1.2049999237060547,-0.8299996256828308,-0.717703640460968,0.0,0.0,0.0
1759683340.5268412,0,-1.2049999237060547,-0.8299996256828308,-0.7177017527987033,0.0,True,0.010944604873657227,-1.2049999237060547,-0.8299996256828308,-0.717703640460968,0.0,0.0,0.0
1759683340.537107,0,-1.2049999237060547,-0.8299996256828308,-0.7177018282558691,0.0,True,0.010265827178955078,-1.2049999237060547,-0.8299996256828308,-0.717703640460968,0.0,0.0,0.0
1759683340.5485222,0,-1.2049999237060547,-0.8299996256828308,-0.7177018547722422,0.0,True,0.011415243148803711,-1.2049999237060547,-0.8299996256828308,-0.717703640460968,0.0,0.0,0.0
1759683340.558983,0,-1.2049999237060547,-0.8299996256828308,-0.7177019237661959,0.0,True,0.010460853576660156,-1.2049999237060547,-0.8299996256828308,-0.717703640460968,0.0,0.0,0.0
1759683340.5702202,0,-1.2049999237060547,-0.8299996256828308,-0.7177019623460836,0.0,True,0.011237144470214844,-1.2049999237060547,-0.8299996256828308,-0.717703640460968,0.0,0.0,0.0
1759683340.5805182,0,-1.2049999237060547,-0.8299996256828308,-0.7177020365310334,0.0,True,0.010298013687133789,-1.2049999237060547,-0.8299996256828308,-0.717703640460968,0.0,0.0,0.0
1759683340.5914044,0,-1.2049999237060547,-0.8299996256828308,-0.7177020850776419,0.0,True,0.010886192321777344,-1.2049999237060547,-0.8299996256828308,-0.717703640460968,0.0,0.0,0.0
1759683340.6021905,0,-1.2049999237060547,-0.8299996256828308,-0.7177021356060536,0.0,True,0.010786056518554688,-1.2049999237060547,-0.8299996256828308,-0.717703640460968,0.0,0.0,0.0
1759683340.6135435,0,-1.2049999237060547,-0.8299996256828308,-0.7177021676971833,0.0,True,0.011353015899658203,-1.2049999237060547,-0.8299996256828308,-0.717703640460968,0.0,0.0,0.0
1759683340.6244056,0,-1.2049999237060547,-0.8299996256828308,-0.7177022186521533,0.0,True,0.010862112045288086,-1.2049999237060547,-0.8299996256828308,-0.717703640460968,0.0,0.0,0.0
1759683340.635725,0,-1.2049999237060547,-0.8299996256828308,-0.7177022557418873,0.0,True,0.011319398880004883,-1.2049999237060547,-0.8299996256828308,-0.717703640460968,0.0,0.0,0.0
1759683340.6469219,0,-1.2049999237060547,-0.8299996256828308,-0.7177022982825303,0.0,True,0.01119685173034668,-1.2049999237060547,-0.8299996256828308,-0.717703640460968,0.0,0.0,0.0
1759683340.6583128,0,-1.2049999237060547,-0.8299996256828308,-0.717702336510154,0.0,True,0.011390924453735352,-1.2049999237060547,-0.8299996256828308,-0.717703640460968,0.0,0.0,0.0
1759683340.6723356,0,-1.2049999237060547,-0.8299996256828308,-0.7177023092569783,0.0,True,0.0140228271484375,-1.2049999237060547,-0.8299996256828308,-0.717703640460968,0.0,0.0,0.0
1759683340.6802313,0,-1.2049999237060547,-0.8299996256828308,-0.7177024553742406,0.0,True,0.007895708084106445,-1.2049999237060547,-0.8299996256828308,-0.717703640460968,0.0,0.0,0.0
1759683340.6917796,0,-1.2049999237060547,-0.8299996256828308,-0.7177024869014517,0.0,True,0.011548280715942383,-1.2049999237060547,-0.8299996256828308,-0.717703640460968,0.0,0.0,0.0
1759683340.7023385,0,-1.2049999237060547,-0.8299996256828308,-0.7177025371768142,0.0,True,0.010558843612670898,-1.2049999237060547,-0.8299996256828308,-0.717703640460968,0.0,0.0,0.0
1759683340.7127023,0,-1.2049999237060547,-0.8299996256828308,-0.7177025877721981,0.0,True,0.01036381721496582,-1.2049999237060547,-0.8299996256828308,-0.717703640460968,0.0,0.0,0.0
1759683340.7236986,0,-1.2049999237060547,-0.8299996256828308,-0.7177026187885858,0.0,True,0.010996341705322266,-1.2049999237060547,-0.8299996256828308,-0.717703640460968,0.0,0.0,0.0
1759683340.7342985,0,-1.2049999237060547,-0.8299996256828308,-0.7177026574479708,0.0,True,0.010599851608276367,-1.2049999237060547,-0.8299996256828308,-0.717703640460968,0.0,0.0,0.0
1759683340.7456415,0,-1.2049999237060547,-0.8299996256828308,-0.7177026788701646,0.0,True,0.011343002319335938,-1.2049999237060547,-0.8299996256828308,-0.717703640460968,0.0,0.0,0.0
1759683340.7557535,0,-1.2049999237060547,-0.8299996256828308,-0.717702726519212,0.0,True,0.01011204719543457,-1.2049999237060547,-0.8299996256828308,-0.717703640460968,0.0,0.0,0.0
1759683340.7661467,0,-1.2049999237060547,-0.8299996256828308,-0.7177027638439437,0.0,True,0.010393142700195312,-1.2049999237060547,-0.8299996256828308,-0.717703640460968,0.0,0.0,0.0
1759683340.7764933,0,-1.2049999237060547,-0.8299996256828308,-0.7177027979945887,0.0,True,0.010346651077270508,-1.2049999237060547,-0.8299996256828308,-0.717703640460968,0.0,0.0,0.0
1759683340.7866473,0,-1.2049999237060547,-0.8299996256828308,-0.7177028325513728,0.0,True,0.010154008865356445,-1.2049999237060547,-0.8299996256828308,-0.717703640460968,0.0,0.0,0.0
1759683340.7976222,0,-1.2049999237060547,-0.8299996256828308,-0.717702849568072,0.0,True,0.010974884033203125,-1.2049999237060547,-0.8299996256828308,-0.717703640460968,0.0,0.0,0.0
1759683340.807977,0,-1.2049999237060547,-0.8299996256828308,-0.7177028783196349,0.0,True,0.010354757308959961,-1.2049999237060547,-0.8299996256828308,-0.717703640460968,0.0,0.0,0.0
1759683340.8189354,0,-1.2049999237060547,-0.8299996256828308,-0.7177028961259531,0.0,True,0.010958433151245117,-1.2049999237060547,-0.8299996256828308,-0.717703640460968,0.0,0.0,0.0
1759683340.8292203,0,-1.2049999237060547,-0.8299996256828308,-0.7177029255373615,0.0,True,0.010284900665283203,-1.2049999237060547,-0.8299996256828308,-0.717703640460968,0.0,0.0,0.0
1759683340.8396027,0,-1.2049999237060547,-0.8299996256828308,-0.7177029515797209,0.0,True,0.010382413864135742,-1.2049999237060547,-0.8299996256828308,-0.717703640460968,0.0,0.0,0.0
1759683340.850425,0,-1.2049999237060547,-0.8299996256828308,-0.717702969317763,0.0,True,0.010822296142578125,-1.2049999237060547,-0.8299996256828308,-0.717703640460968,0.0,0.0,0.0
1759683340.8610592,0,-1.2049999237060547,-0.8299996256828308,-0.717702990214832,0.0,True,0.010634183883666992,-1.2049999237060547,-0.8299996256828308,-0.717703640460968,0.0,0.0,0.0
1759683340.873317,0,-1.2049999237060547,-0.8299996256828308,-0.717702988990407,0.0,True,0.012257814407348633,-1.2049999237060547,-0.8299996256828308,-0.717703640460968,0.0,0.0,0.0
1759683340.8841343,0,-1.2049999237060547,-0.8299996256828308,-0.7177030130412163,0.0,True,0.010817289352416992,-1.2049999237060547,-0.8299996256828308,-0.717703640460968,0.0,0.0,0.0
1759683340.8948162,0,-1.2049999237060547,-0.8299996256828308,-0.7177030389360013,0.0,True,0.010681867599487305,-1.2049999237060547,-0.8299996256828308,-0.717703640460968,0.0,0.0,0.0
1759683340.9061675,0,-1.2049999237060547,-0.8299996256828308,-0.7177030545979441,0.0,True,0.011351346969604492,-1.2049999237060547,-0.8299996256828308,-0.717703640460968,0.0,0.0,0.0
1759683340.917256,0,-1.2049999237060547,-0.8299996256828308,-0.7177030739867334,0.0,True,0.01108860969543457,-1.2049999237060547,-0.8299996256828308,-0.717703640460968,0.0,0.0,0.0
1759683340.9274755,0,-1.2049999237060547,-0.8299996256828308,-0.7177031031401402,0.0,True,0.010219335556030273,-1.2049999237060547,-0.8299996256828308,-0.717703640460968,0.0,0.0,0.0
1759683340.9375424,0,-1.2049999237060547,-0.8299996256828308,-0.7177031304461092,0.0,True,0.010066986083984375,-1.2049999237060547,-0.8299996256828308,-0.717703640460968,0.0,0.0,0.0
1759683340.9478798,0,-1.2049999237060547,-0.8299996256828308,-0.7177031509189611,0.0,True,0.010337352752685547,-1.2049999237060547,-0.8299996256828308,-0.717703640460968,0.0,0.0,0.0
1759683340.9593549,0,-1.2049999237060547,-0.8299996256828308,-0.7177031574645962,0.0,True,0.011475086212158203,-1.2049999237060547,-0.8299996256828308,-0.717703640460968,0.0,0.0,0.0
1759683340.9707031,0,-1.2049999237060547,-0.8299996256828308,-0.7177031674539869,0.0,True,0.011348247528076172,-1.2049999237060547,-0.8299996256828308,-0.717703640460968,0.0,0.0,0.0
1759683340.9809763,0,-1.2049999237060547,-0.8299996256828308,-0.7177031896897184,0.0,True,0.010273218154907227,-1.2049999237060547,-0.8299996256828308,-0.717703640460968,0.0,0.0,0.0
1759683340.9920416,0,-1.2049999237060547,-0.8299996256828308,-0.7177032025639889,0.0,True,0.011065244674682617,-1.2049999237060547,-0.8299996256828308,-0.717703640460968,0.0,0.0,0.0
1759683341.00337,0,-1.2049999237060547,-0.8299996256828308,-0.7177032129558043,0.0,True,0.011328458786010742,-1.2049999237060547,-0.8299996256828308,-0.717703640460968,0.0,0.0,0.0
1759683341.0145936,0,-1.2049999237060547,-0.8299996256828308,-0.7177032252972513,0.0,True,0.011223554611206055,-1.2049999237060547,-0.8299996256828308,-0.717703640460968,0.0,0.0,0.0
1759683341.025371,0,-1.2049999237060547,-0.8299996256828308,-0.7177032418673299,0.0,True,0.010777473449707031,-1.2049999237060547,-0.8299996256828308,-0.717703640460968,0.0,0.0,0.0
1759683341.035753,0,-1.2049999237060547,-0.8299996256828308,-0.7177032606058216,0.0,True,0.010381937026977539,-1.2049999237060547,-0.8299996256828308,-0.717703640460968,0.0,0.0,0.0
1759683341.0460598,0,-1.2049999237060547,-0.8299996256828308,-0.7177032777982824,0.0,True,0.010306835174560547,-1.2049999237060547,-0.8299996256828308,-0.717703640460968,0.0,0.0,0.0
1759683341.056705,0,-1.2049999237060547,-0.8299996256828308,-0.7177032903806477,0.0,True,0.010645151138305664,-1.2049999237060547,-0.8299996256828308,-0.717703640460968,0.0,0.0,0.0
1759683341.0674481,0,-1.2049999237060547,-0.8299996256828308,-0.7177033014214746,0.0,True,0.010743141174316406,-1.2049999237060547,-0.8299996256828308,-0.717703640460968,0.0,0.0,0.0
1759683341.0781553,0,-1.2049999237060547,-0.8299996256828308,-0.7177033124638363,0.0,True,0.01070713996887207,-1.2049999237060547,-0.8299996256828308,-0.717703640460968,0.0,0.0,0.0
1759683341.0885696,0,-1.2049999237060547,-0.8299996256828308,-0.7177033252189702,0.0,True,0.010414361953735352,-1.2049999237060547,-0.8299996256828308,-0.717703640460968,0.0,0.0,0.0
1759683341.0992541,0,-1.2049999237060547,-0.8299996256828308,-0.71770333527326,0.0,True,0.010684490203857422,-1.2049999237060547,-0.8299996256828308,-0.717703640460968,0.0,0.0,0.0
1759683341.1100917,0,-1.2049999237060547,-0.8299996256828308,-0.7177033439987888,0.0,True,0.010837554931640625,-1.2049999237060547,-0.8299996256828308,-0.717703640460968,0.0,0.0,0.0
1759683341.1202796,0,-1.2049999237060547,-0.8299996256828308,-0.7177033568208664,0.0,True,0.010187864303588867,-1.2049999237060547,-0.8299996256828308,-0.717703640460968,0.0,0.0,0.0
1759683341.1305885,0,-1.2049999237060547,-0.8299996256828308,-0.7177033677623008,0.0,True,0.010308980941772461,-1.2049999237060547,-0.8299996256828308,-0.717703640460968,0.0,0.0,0.0
1759683341.1416776,0,-1.2049999237060547,-0.8299996256828308,-0.717703373208348,0.0,True,0.011089086532592773,-1.2049999237060547,-0.8299996256828308,-0.717703640460968,0.0,0.0,0.0
1759683341.1527116,0,-1.2049999237060547,-0.8299996256828308,-0.717703379615898,0.0,True,0.011034011840820312,-1.2049999237060547,-0.8299996256828308,-0.717703640460968,0.0,0.0,0.0
1759683341.1636984,0,-1.2049999237060547,-0.8299996256828308,-0.7177033869377674,0.0,True,0.010986804962158203,-1.2049999237060547,-0.8299996256828308,-0.717703640460968,0.0,0.0,0.0
1759683341.1750436,0,-1.2049999237060547,-0.8299996256828308,-0.7177033927072589,0.0,True,0.011345148086547852,-1.2049999237060547,-0.8299996256828308,-0.717703640460968,0.0,0.0,0.0
1759683341.1851978,0,-1.2049999237060547,-0.8299996256828308,-0.7177034051136495,0.0,True,0.010154247283935547,-1.2049999237060547,-0.8299996256828308,-0.717703640460968,0.0,0.0,0.0
1759683341.1954467,0,-1.2049999237060547,-0.8299996256828308,-0.7177034157478168,0.0,True,0.010248899459838867,-1.2049999237060547,-0.8299996256828308,-0.717703640460968,0.0,0.0,0.0
1759683341.2054656,0,-1.2049999237060547,-0.8299996256828308,-0.717703426137966,0.0,True,0.01001882553100586,-1.2049999237060547,-0.8299996256828308,-0.717703640460968,0.0,0.0,0.0
1759683341.2166677,0,-1.2049999237060547,-0.8299996256828308,-0.7177034298264502,0.0,True,0.011202096939086914,-1.2049999237060547,-0.8299996256828308,-0.717703640460968,0.0,0.0,0.0
1759683341.227506,0,-1.2049999237060547,-0.8299996256828308,-0.7177034357029068,0.0,True,0.01083827018737793,-1.2049999237060547,-0.8299996256828308,-0.717703640460968,0.0,0.0,0.0
1759683341.2379794,0,-1.2049999237060547,-0.8299996256828308,-0.7177034434221063,0.0,True,0.010473489761352539,-1.2049999237060547,-0.8299996256828308,-0.717703640460968,0.0,0.0,0.0
1759683341.24858,0,-1.2049999237060547,-0.8299996256828308,-0.7177034501843096,0.0,True,0.010600566864013672,-1.2049999237060547,-0.8299996256828308,-0.717703640460968,0.0,0.0,0.0
1759683341.2588563,0,-1.2049999237060547,-0.8299996256828308,-0.7177034578946024,0.0,True,0.010276317596435547,-1.2049999237060547,-0.8299996256828308,-0.717703640460968,0.0,0.0,0.0
1759683341.269127,0,-1.2049999237060547,-0.8299996256828308,-0.7177034649709899,0.0,True,0.01027059555053711,-1.2049999237060547,-0.8299996256828308,-0.717703640460968,0.0,0.0,0.0
1759683341.2903905,0,-1.2049999237060547,-0.8299996256828308,-0.7177034316667186,0.0,True,0.021263599395751953,-1.2049999237060547,-0.8299996256828308,-0.717703640460968,0.0,0.0,0.0
1759683341.3009129,0,-1.2049999237060547,-0.8299996256828308,-0.7177034482503029,0.0,True,0.01052236557006836,-1.2049999237060547,-0.8299996256828308,-0.717703640460968,0.0,0.0,0.0
1759683341.3118155,0,-1.2049999237060547,-0.8299996256828308,-0.717703462982552,0.0,True,0.010902643203735352,-1.2049999237060547,-0.8299996256828308,-0.717703640460968,0.0,0.0,0.0
1759683341.3227437,0,-1.2049999237060547,-0.8299996256828308,-0.7177034747135451,0.0,True,0.010928153991699219,-1.2049999237060547,-0.8299996256828308,-0.717703640460968,0.0,0.0,0.0
1759683341.3340402,0,-1.2049999237060547,-0.8299996256828308,-0.7177034831627722,0.0,True,0.011296510696411133,-1.2049999237060547,-0.8299996256828308,-0.717703640460968,0.0,0.0,0.0
1759683341.344434,0,-1.2049999237060547,-0.8299996256828308,-0.7177034930906068,0.0,True,0.010393857955932617,-1.2049999237060547,-0.8299996256828308,-0.717703640460968,0.0,0.0,0.0
1759683341.3547735,0,-1.2049999237060547,-0.8299996256828308,-0.7177035015597575,0.0,True,0.010339498519897461,-1.2049999237060547,-0.8299996256828308,-0.717703640460968,0.0,0.0,0.0
1759683341.3660717,0,-1.2049999237060547,-0.8299996256828308,-0.7177035059563757,0.0,True,0.011298179626464844,-1.2049999237060547,-0.8299996256828308,-0.717703640460968,0.0,0.0,0.0
1759683341.377102,0,-1.2049999237060547,-0.8299996256828308,-0.7177035108381666,0.0,True,0.011030197143554688,-1.2049999237060547,-0.8299996256828308,-0.717703640460968,0.0,0.0,0.0
1759683341.3878605,0,-1.2049999237060547,-0.8299996256828308,-0.7177035162130458,0.0,True,0.010758638381958008,-1.2049999237060547,-0.8299996256828308,-0.717703640460968,0.0,0.0,0.0
1759683341.398311,0,-1.2049999237060547,-0.8299996256828308,-0.7177035219116412,0.0,True,0.010450363159179688,-1.2049999237060547,-0.8299996256828308,-0.717703640460968,0.0,0.0,0.0
1759683341.4090006,0,-1.2049999237060547,-0.8299996256828308,-0.7177035263843479,0.0,True,0.010689735412597656,-1.2049999237060547,-0.8299996256828308,-0.717703640460968,0.0,0.0,0.0
1759683341.4199429,0,-1.2049999237060547,-0.8299996256828308,-0.7177035298909278,0.0,True,0.010942220687866211,-1.2049999237060547,-0.8299996256828308,-0.717703640460968,0.0,0.0,0.0
1759683341.4312537,0,-1.2049999237060547,-0.8299996256828308,-0.717703532496742,0.0,True,0.011310815811157227,-1.2049999237060547,-0.8299996256828308,-0.717703640460968,0.0,0.0,0.0
1759683341.4419205,0,-1.2049999237060547,-0.8299996256828308,-0.717703536735538,0.0,True,0.010666847229003906,-1.2049999237060547,-0.8299996256828308,-0.717703640460968,0.0,0.0,0.0
1759683341.4519327,0,-1.2049999237060547,-0.8299996256828308,-0.7177035421202334,0.0,True,0.010012149810791016,-1.2049999237060547,-0.8299996256828308,-0.717703640460968,0.0,0.0,0.0
1759683341.461984,0,-1.2049999237060547,-0.8299996256828308,-0.7177035466966366,0.0,True,0.010051250457763672,-1.2049999237060547,-0.8299996256828308,-0.717703640460968,0.0,0.0,0.0
1759683341.4754968,0,-1.2049999237060547,-0.8299996256828308,-0.7177035438018109,0.0,True,0.013512849807739258,-1.2049999237060547,-0.8299996256828308,-0.717703640460968,0.0,0.0,0.0
1759683341.483766,0,-1.2049999237060547,-0.8299996256828308,-0.7177035525460091,0.0,True,0.008269309997558594,-1.2049999237060547,-0.8299996256828308,-0.717703640460968,0.0,0.0,0.0
1759683341.4945357,0,-1.2049999237060547,-0.8299996256828308,-0.7177035552631992,0.0,True,0.01076960563659668,-1.2049999237060547,-0.8299996256828308,-0.717703640460968,0.0,0.0,0.0
1759683341.5047061,0,-1.2049999237060547,-0.8299996256828308,-0.7177035586810341,0.0,True,0.010170459747314453,-1.2049999237060547,-0.8299996256828308,-0.717703640460968,0.0,0.0,0.0
1759683341.5155807,0,-1.2049999237060547,-0.8299996256828308,-0.7177035605852335,0.0,True,0.010874509811401367,-1.2049999237060547,-0.8299996256828308,-0.717703640460968,0.0,0.0,0.0
1759683341.5260577,0,-1.2049999237060547,-0.8299996256828308,-0.7177035632454931,0.0,True,0.010477066040039062,-1.2049999237060547,-0.8299996256828308,-0.717703640460968,0.0,0.0,0.0
1759683341.536225,0,-1.2049999237060547,-0.8299996256828308,-0.7177035663426548,0.0,True,0.010167360305786133,-1.2049999237060547,-0.8299996256828308,-0.717703640460968,0.0,0.0,0.0
1759683341.546975,0,-1.2049999237060547,-0.8299996256828308,-0.7177035682500019,0.0,True,0.01074981689453125,-1.2049999237060547,-0.8299996256828308,-0.717703640460968,0.0,0.0,0.0
1759683341.5584383,0,-1.2049999237060547,-0.8299996256828308,-0.7177035690971003,0.0,True,0.011463403701782227,-1.2049999237060547,-0.8299996256828308,-0.717703640460968,0.0,0.0,0.0
1759683341.5687943,0,-1.2049999237060547,-0.8299996256828308,-0.7177035719808558,0.0,True,0.010355949401855469,-1.2049999237060547,-0.8299996256828308,-0.717703640460968,0.0,0.0,0.0
1759683341.5794861,0,-1.2049999237060547,-0.8299996256828308,-0.7177035742407476,0.0,True,0.01069188117980957,-1.2049999237060547,-0.8299996256828308,-0.717703640460968,0.0,0.0,0.0
1759683341.590239,0,-1.2049999237060547,-0.8299996256828308,-0.717703576313335,0.0,True,0.01075291633605957,-1.2049999237060547,-0.8299996256828308,-0.717703640460968,0.0,0.0,0.0
1759683341.60059,0,-1.2049999237060547,-0.8299996256828308,-0.7177035788844783,0.0,True,0.010350942611694336,-1.2049999237060547,-0.8299996256828308,-0.717703640460968,0.0,0.0,0.0
1759683341.610912,0,-1.2049999237060547,-0.8299996256828308,-0.7177035812931223,0.0,True,0.010322093963623047,-1.2049999237060547,-0.8299996256828308,-0.717703640460968,0.0,0.0,0.0
1759683341.6218276,0,-1.2049999237060547,-0.8299996256828308,-0.7177035827491647,0.0,True,0.010915517807006836,-1.2049999237060547,-0.8299996256828308,-0.717703640460968,0.0,0.0,0.0
1759683341.6323562,0,-1.2049999237060547,-0.8299996256828308,-0.7177035847282873,0.0,True,0.010528564453125,-1.2049999237060547,-0.8299996256828308,-0.717703640460968,0.0,0.0,0.0
1759683341.643223,0,-1.2049999237060547,-0.8299996256828308,-0.717703586252906,0.0,True,0.010866880416870117,-1.2049999237060547,-0.8299996256828308,-0.717703640460968,0.0,0.0,0.0
1759683341.6540837,0,-1.2049999237060547,-0.8299996256828308,-0.717703587814011,0.0,True,0.010860681533813477,-1.2049999237060547,-0.8299996256828308,-0.717703640460968,0.0,0.0,0.0
1759683341.664783,0,-1.2049999237060547,-0.8299996256828308,-0.7177035895825199,0.0,True,0.010699272155761719,-1.2049999237060547,-0.8299996256828308,-0.717703640460968,0.0,0.0,0.0
1759683341.6828573,0,-1.2049999237060547,-0.8299996256828308,-0.7177035837108647,0.0,True,0.01807427406311035,-1.2049999237060547,-0.8299996256828308,-0.717703640460968,0.0,0.0,0.0
1759683341.6934137,0,-1.2049999237060547,-0.8299996256828308,-0.7177035876954605,0.0,True,0.010556459426879883,-1.2049999237060547,-0.8299996256828308,-0.717703640460968,0.0,0.0,0.0
1759683341.704243,0,-1.2049999237060547,-0.8299996256828308,-0.7177035912369583,0.0,True,0.01082921028137207,-1.2049999237060547,-0.8299996256828308,-0.717703640460968,0.0,0.0,0.0
1759683341.7148998,0,-1.2049999237060547,-0.8299996256828308,-0.717703594298623,0.0,True,0.01065683364868164,-1.2049999237060547,-0.8299996256828308,-0.717703640460968,0.0,0.0,0.0
1759683341.7263737,0,-1.2049999237060547,-0.8299996256828308,-0.7177035961123455,0.0,True,0.011473894119262695,-1.2049999237060547,-0.8299996256828308,-0.717703640460968,0.0,0.0,0.0
1759683341.7366478,0,-1.2049999237060547,-0.8299996256828308,-0.7177035987773763,0.0,True,0.010274171829223633,-1.2049999237060547,-0.8299996256828308,-0.717703640460968,0.0,0.0,0.0
1759683341.7476766,0,-1.2049999237060547,-0.8299996256828308,-0.7177036004289832,0.0,True,0.011028766632080078,-1.2049999237060547,-0.8299996256828308,-0.717703640460968,0.0,0.0,0.0
1759683341.7584376,0,-1.2049999237060547,-0.8299996256828308,-0.7177036021216203,0.0,True,0.010761022567749023,-1.2049999237060547,-0.8299996256828308,-0.717703640460968,0.0,0.0,0.0
1759683341.7686045,0,-1.2049999237060547,-0.8299996256828308,-0.7177036041186362,0.0,True,0.01016688346862793,-1.2049999237060547,-0.8299996256828308,-0.717703640460968,0.0,0.0,0.0
1759683341.7788684,0,-1.2049999237060547,-0.8299996256828308,-0.7177036057712485,0.0,True,0.010263919830322266,-1.2049999237060547,-0.8299996256828308,-0.717703640460968,0.0,0.0,0.0
1759683341.7899392,0,-1.2049999237060547,-0.8299996256828308,-0.7177036066244931,0.0,True,0.011070728302001953,-1.2049999237060547,-0.8299996256828308,-0.717703640460968,0.0,0.0,0.0
1759683341.8091176,0,-1.2049999237060547,-0.8299996256828308,-0.7177036019788794,0.0,True,0.019178390502929688,-1.2049999237060547,-0.8299996256828308,-0.717703640460968,0.0,0,0
1759683341.819949,0,-1.2049999237060547,-0.8299996256828308,-0.7177036046655196,0.0,True,0.010831356048583984,-1.2049999237060547,-0.8299996256828308,-0.717703640460968,0.0,0,0
1759683341.8305879,0,-1.2049999237060547,-0.8299996256828308,-0.7177036073916909,0.0,True,0.010638952255249023,-1.2049999237060547,-0.8299996256828308,-0.717703640460968,0.0,0,0
1759683341.8406627,0,-1.2049999237060547,-0.8299996256828308,-0.7177036099309024,0.0,True,0.010074853897094727,-1.2049999237060547,-0.8299996256828308,-0.717703640460968,0.0,0,0
1759683341.850983,0,-1.2049999237060547,-0.8299996256828308,-0.7177036118050815,0.0,True,0.010320186614990234,-1.2049999237060547,-0.8299996256828308,-0.717703640460968,0.0,0,0
1759683341.8621962,0,-1.2049999237060547,-0.8299996256828308,-0.7177036128190224,0.0,True,0.011213302612304688,-1.2049999237060547,-0.8299996256828308,-0.717703640460968,0.0,0,0
1759683341.8729553,0,-1.2049999237060547,-0.8299996256828308,-0.717703613994706,0.0,True,0.010759115219116211,-1.2049999237060547,-0.8299996256828308,-0.717703640460968,0.0,0,0
1759683341.891011,0,-1.2049999237060547,-0.8299996256828308,-0.7177036112814079,0.0,True,0.01805567741394043,-1.2049999237060547,-0.8299996256828308,-0.717703640460968,0.0,0,0
1759683341.9022655,0,-1.2049999237060547,-0.8299996256828308,-0.7177036130994665,0.0,True,0.011254549026489258,-1.2049999237060547,-0.8299996256828308,-0.717703640460968,0.0,0,0
1759683341.9126275,0,-1.2049999237060547,-0.8299996256828308,-0.7177036153056058,0.0,True,0.010361909866333008,-1.2049999237060547,-0.8299996256828308,-0.717703640460968,0.0,0,0
1759683341.9227495,0,-1.2049999237060547,-0.8299996256828308,-0.717703617192246,0.0,True,0.010122060775756836,-1.2049999237060547,-0.8299996256828308,-0.717703640460968,0.0,0,0
1759683341.9341304,0,-1.2049999237060547,-0.8299996256828308,-0.7177036181239487,0.0,True,0.011380910873413086,-1.2049999237060547,-0.8299996256828308,-0.717703640460968,0.0,0,0
1759683341.9441307,0,-1.2049999237060547,-0.8299996256828308,-0.7177036195356656,0.0,True,0.010000228881835938,-1.2049999237060547,-0.8299996256828308,-0.717703640460968,0.0,0,0
1759683341.9558227,0,-1.2049999237060547,-0.8299996256828308,-0.7177036200141327,0.0,True,0.011692047119140625,-1.2049999237060547,-0.8299996256828308,-0.717703640460968,0.0,0,0
1759683341.965839,0,-1.2049999237060547,-0.8299996256828308,-0.7177036211799184,0.0,True,0.010016202926635742,-1.2049999237060547,-0.8299996256828308,-0.717703640460968,0.0,0,0
1759683341.9760523,0,-1.2049999237060547,-0.8299996256828308,-0.7177036221164101,0.0,True,0.010213375091552734,-1.2049999237060547,-0.8299996256828308,-0.717703640460968,0.0,0,0
1759683341.9874299,0,-1.2049999237060547,-0.8299996256828308,-0.71770362247082,0.0,True,0.011377573013305664,-1.2049999237060547,-0.8299996256828308,-0.717703640460968,0.0,0,0
1759683341.9989398,0,-1.2049999237060547,-0.8299996256828308,-0.7177036228128539,0.0,True,0.011509895324707031,-1.2049999237060547,-0.8299996256828308,-0.717703640460968,0.0,0,0
1759683342.0099294,0,-1.2049999237060547,-0.8299996256828308,-0.7177036234113121,0.0,True,0.010989665985107422,-1.2049999237060547,-0.8299996256828308,-0.717703640460968,0.0,0,0
1759683342.020171,0,-1.2049999237060547,-0.8299996256828308,-0.7177036242603769,0.0,True,0.010241508483886719,-1.2049999237060547,-0.8299996256828308,-0.717703640460968,0.0,0,0
1759683342.0302908,0,-1.2049999237060547,-0.8299996256828308,-0.7177036250474522,0.0,True,0.010119915008544922,-1.2049999237060547,-0.8299996256828308,-0.717703640460968,0.0,0,0
1759683342.041668,0,-1.2049999237060547,-0.8299996256828308,-0.7177036253194107,0.0,True,0.011377096176147461,-1.2049999237060547,-0.8299996256828308,-0.717703640460968,0.0,0,0
1759683342.0531182,0,-1.2049999237060547,-0.8299996256828308,-0.717703625606573,0.0,True,0.01145029067993164,-1.2049999237060547,-0.8299996256828308,-0.717703640460968,0.0,0,0
1759683342.0642893,0,-1.2049999237060547,-0.8299996256828308,-0.7177036260399312,0.0,True,0.011171102523803711,-1.2049999237060547,-0.8299996256828308,-0.717703640460968,0.0,0,0
1759683342.0754275,0,-1.2049999237060547,-0.8299996256828308,-0.7177036265001675,0.0,True,0.011138200759887695,-1.2049999237060547,-0.8299996256828308,-0.717703640460968,0.0,0,0
1759683342.1010532,0,-1.2049999237060547,-0.8299996256828308,-0.7177036230956482,0.0,True,0.02562570571899414,-1.2049999237060547,-0.8299996256828308,-0.717703640460968,0.0,0,0
1759683342.1120594,0,-1.2049999237060547,-0.8299996256828308,-0.7177036247472728,0.0,True,0.01100611686706543,-1.2049999237060547,-0.8299996256828308,-0.717703640460968,0.0,0,0
1759683342.1224272,0,-1.2049999237060547,-0.8299996256828308,-0.7177036264544938,0.0,True,0.010367870330810547,-1.2049999237060547,-0.8299996256828308,-0.717703640460968,0.0,0,0
1759683342.1337261,0,-1.2049999237060547,-0.8299996256828308,-0.7177036275409705,0.0,True,0.011298894882202148,-1.2049999237060547,-0.8299996256828308,-0.717703640460968,0.0,0,0
1759683342.1440651,0,-1.2049999237060547,-0.8299996256828308,-0.7177036285999421,0.0,True,0.010339021682739258,-1.2049999237060547,-0.8299996256828308,-0.717703640460968,0.0,0,0
1759683342.1548595,0,-1.2049999237060547,-0.8299996256828308,-0.7177036293382955,0.0,True,0.010794401168823242,-1.2049999237060547,-0.8299996256828308,-0.717703640460968,0.0,0,0
1759683342.1654584,0,-1.2049999237060547,-0.8299996256828308,-0.7177036299770059,0.0,True,0.010598897933959961,-1.2049999237060547,-0.8299996256828308,-0.717703640460968,0.0,0,0
1759683342.176253,0,-1.2049999237060547,-0.8299996256828308,-0.7177036304698969,0.0,True,0.010794639587402344,-1.2049999237060547,-0.8299996256828308,-0.717703640460968,0.0,0,0
1759683342.1868389,0,-1.2049999237060547,-0.8299996256828308,-0.7177036309372937,0.0,True,0.010585784912109375,-1.2049999237060547,-0.8299996256828308,-0.717703640460968,0.0,0,0
1759683342.1969461,0,-1.2049999237060547,-0.8299996256828308,-0.7177036314379635,0.0,True,0.010107278823852539,-1.2049999237060547,-0.8299996256828308,-0.717703640460968,0.0,0,0
1759683342.2075346,0,-1.2049999237060547,-0.8299996256828308,-0.7177036317751622,0.0,True,0.010588407516479492,-1.2049999237060547,-0.8299996256828308,-0.717703640460968,0.0,0,0
1759683342.2188256,0,-1.2049999237060547,-0.8299996256828308,-0.7177036319511512,0.0,True,0.011291027069091797,-1.2049999237060547,-0.8299996256828308,-0.717703640460968,0.0,0,0
1759683342.2289133,0,-1.2049999237060547,-0.8299996256828308,-0.7177036323557502,0.0,True,0.010087728500366211,-1.2049999237060547,-0.8299996256828308,-0.717703640460968,0.0,0,0
1759683342.2401967,0,-1.2049999237060547,-0.8299996256828308,-0.717703632516832,0.0,True,0.011283397674560547,-1.2049999237060547,-0.8299996256828308,-0.717703640460968,0.0,0,0
1759683342.25129,0,-1.2049999237060547,-0.8299996256828308,-0.7177036327226851,0.0,True,0.011093378067016602,-1.2049999237060547,-0.8299996256828308,-0.717703640460968,0.0,0,0
1759683342.2622106,0,-1.2049999237060547,-0.8299996256828308,-0.7177036329692328,0.0,True,0.010920524597167969,-1.2049999237060547,-0.8299996256828308,-0.717703640460968,0.0,0,0
1759683342.2732315,0,-1.2049999237060547,-0.8299996256828308,-0.7177036331979139,0.0,True,0.011020898818969727,-1.2049999237060547,-0.8299996256828308,-0.717703640460968,0.0,0,0
1759683342.2942946,0,-1.2049999237060547,-0.8299996256828308,-0.7177036319887122,0.0,True,0.02106308937072754,-1.2049999237060547,-0.8299996256828308,-0.717703640460968,0.0,0,0
1759683342.305635,0,-1.2049999237060547,-0.8299996256828308,-0.7177036325900268,0.0,True,0.01134037971496582,-1.2049999237060547,-0.8299996256828308,-0.717703640460968,0.0,0,0
1759683342.3168333,0,-1.2049999237060547,-0.8299996256828308,-0.7177036332017455,0.0,True,0.011198282241821289,-1.2049999237060547,-0.8299996256828308,-0.717703640460968,0.0,0,0
1759683342.327498,0,-1.2049999237060547,-0.8299996256828308,-0.717703633763076,0.0,True,0.010664701461791992,-1.2049999237060547,-0.8299996256828308,-0.717703640460968,0.0,0,0
1759683342.3390002,0,-1.2049999237060547,-0.8299996256828308,-0.7177036341093057,0.0,True,0.011502265930175781,-1.2049999237060547,-0.8299996256828308,-0.717703640460968,0.0,0,0
1759683342.3504207,0,-1.2049999237060547,-0.8299996256828308,-0.7177036344110483,0.0,True,0.011420488357543945,-1.2049999237060547,-0.8299996256828308,-0.717703640460968,0.0,0,0
1759683342.3610234,0,-1.2049999237060547,-0.8299996256828308,-0.7177036347705616,0.0,True,0.010602712631225586,-1.2049999237060547,-0.8299996256828308,-0.717703640460968,0.0,0,0
1759683342.371503,0,-1.2049999237060547,-0.8299996256828308,-0.7177036350886681,0.0,True,0.01047968864440918,-1.2049999237060547,-0.8299996256828308,-0.717703640460968,0.0,0,0
1759683342.382047,0,-1.2049999237060547,-0.8299996256828308,-0.7177036353485473,0.0,True,0.0105438232421875,-1.2049999237060547,-0.8299996256828308,-0.717703640460968,0.0,0,0
1759683342.392763,0,-1.2049999237060547,-0.8299996256828308,-0.7177036355539492,0.0,True,0.010715961456298828,-1.2049999237060547,-0.8299996256828308,-0.717703640460968,0.0,0,0
1759683342.4029405,0,-1.2049999237060547,-0.8299996256828308,-0.7177036357920059,0.0,True,0.0101776123046875,-1.2049999237060547,-0.8299996256828308,-0.717703640460968,0.0,0,0
1759683342.413186,0,-1.2049999237060547,-0.8299996256828308,-0.7177036359928817,0.0,True,0.010245561599731445,-1.2049999237060547,-0.8299996256828308,-0.717703640460968,0.0,0,0
1759683342.4239647,0,-1.2049999237060547,-0.8299996256828308,-0.7177036361188254,0.0,True,0.010778665542602539,-1.2049999237060547,-0.8299996256828308,-0.717703640460968,0.0,0,0
1759683342.4354048,0,-1.2049999237060547,-0.8299996256828308,-0.7177036361816391,0.0,True,0.011440038681030273,-1.2049999237060547,-0.8299996256828308,-0.717703640460968,0.0,0,0
1759683342.4461977,0,-1.2049999237060547,-0.8299996256828308,-0.7177036363205218,0.0,True,0.010792970657348633,-1.2049999237060547,-0.8299996256828308,-0.717703640460968,0.0,0,0
1759683342.4569874,0,-1.2049999237060547,-0.8299996256828308,-0.7177036364599125,0.0,True,0.010789632797241211,-1.2049999237060547,-0.8299996256828308,-0.717703640460968,0.0,0,0
1759683342.4685004,0,-1.2049999237060547,-0.8299996256828308,-0.7177036365346403,0.0,True,0.011512994766235352,-1.2049999237060547,-0.8299996256828308,-0.717703640460968,0.0,0,0
1759683342.4788861,0,-1.2049999237060547,-0.8299996256828308,-0.7177036367115459,0.0,True,0.010385751724243164,-1.2049999237060547,-0.8299996256828308,-0.717703640460968,0.0,0,0
1759683342.493101,0,-1.2049999237060547,-0.8299996256828308,-0.7177036365826108,0.0,True,0.014214754104614258,-1.2049999237060547,-0.8299996256828308,-0.717703640460968,0.0,0,0
1759683342.5044472,0,-1.2049999237060547,-0.8299996256828308,-0.7177036367371521,0.0,True,0.01134634017944336,-1.2049999237060547,-0.8299996256828308,-0.717703640460968,0.0,0,0
1759683342.5155978,0,-1.2049999237060547,-0.8299996256828308,-0.7177036369116045,0.0,True,0.011150598526000977,-1.2049999237060547,-0.8299996256828308,-0.717703640460968,0.0,0,0
1759683342.5271745,0,-1.2049999237060547,-0.8299996256828308,-0.7177036370399676,0.0,True,0.011576652526855469,-1.2049999237060547,-0.8299996256828308,-0.717703640460968,0.0,0,0
1759683342.5386012,0,-1.2049999237060547,-0.8299996256828308,-0.7177036371715566,0.0,True,0.011426687240600586,-1.2049999237060547,-0.8299996256828308,-0.717703640460968,0.0,0,0
1759683342.5500336,0,-1.2049999237060547,-0.8299996256828308,-0.7177036372960703,0.0,True,0.011432409286499023,-1.2049999237060547,-0.8299996256828308,-0.717703640460968,0.0,0,0
1759683342.5608559,0,-1.2049999237060547,-0.8299996256828308,-0.7177036374511232,0.0,True,0.010822296142578125,-1.2049999237060547,-0.8299996256828308,-0.717703640460968,0.0,0,0
1759683342.5719595,0,-1.2049999237060547,-0.8299996256828308,-0.7177036375724111,0.0,True,0.011103630065917969,-1.2049999237060547,-0.8299996256828308,-0.717703640460968,0.0,0,0
1759683342.5822327,0,-1.2049999237060547,-0.8299996256828308,-0.7177036377298798,0.0,True,0.010273218154907227,-1.2049999237060547,-0.8299996256828308,-0.717703640460968,0.0,0,0
1759683342.5932362,0,-1.2049999237060547,-0.8299996256828308,-0.7177036378253128,0.0,True,0.011003494262695312,-1.2049999237060547,-0.8299996256828308,-0.717703640460968,0.0,0,0
1759683342.6044688,0,-1.2049999237060547,-0.8299996256828308,-0.7177036379011241,0.0,True,0.011232614517211914,-1.2049999237060547,-0.8299996256828308,-0.717703640460968,0.0,0,0
1759683342.6159465,0,-1.2049999237060547,-0.8299996256828308,-0.717703637965279,0.0,True,0.01147770881652832,-1.2049999237060547,-0.8299996256828308,-0.717703640460968,0.0,0,0
1759683342.6272774,0,-1.2049999237060547,-0.8299996256828308,-0.7177036380416961,0.0,True,0.011330842971801758,-1.2049999237060547,-0.8299996256828308,-0.717703640460968,0.0,0,0
1759683342.6374657,0,-1.2049999237060547,-0.8299996256828308,-0.7177036381740738,0.0,True,0.01018834114074707,-1.2049999237060547,-0.8299996256828308,-0.717703640460968,0.0,0,0
1759683342.6481972,0,-1.2049999237060547,-0.8299996256828308,-0.717703638264144,0.0,True,0.01073145866394043,-1.2049999237060547,-0.8299996256828308,-0.717703640460968,0.0,0,0
1759683342.6588552,0,-1.2049999237060547,-0.8299996256828308,-0.7177036383480146,0.0,True,0.010658025741577148,-1.2049999237060547,-0.8299996256828308,-0.717703640460968,0.0,0,0
1759683342.6688626,0,-1.2049999237060547,-0.8299996256828308,-0.717703638453612,0.0,True,0.010007381439208984,-1.2049999237060547,-0.8299996256828308,-0.717703640460968,0.0,0,0
1759683342.680208,0,-1.2049999237060547,-0.8299996256828308,-0.7177036384891444,0.0,True,0.011345386505126953,-1.2049999237060547,-0.8299996256828308,-0.717703640460968,0.0,0,0
1759683342.690499,0,-1.2049999237060547,-0.8299996256828308,-0.7177036385721358,0.0,True,0.010291099548339844,-1.2049999237060547,-0.8299996256828308,-0.717703640460968,0.0,0,0
1759683342.701856,0,-1.2049999237060547,-0.8299996256828308,-0.7177036386073148,0.0,True,0.011356830596923828,-1.2049999237060547,-0.8299996256828308,-0.717703640460968,0.0,0,0
1759683342.7122102,0,-1.2049999237060547,-0.8299996256828308,-0.7177036386855278,0.0,True,0.010354280471801758,-1.2049999237060547,-0.8299996256828308,-0.717703640460968,0.0,0,0
1759683342.7237267,0,-1.2049999237060547,-0.8299996256828308,-0.7177036387155287,0.0,True,0.011516571044921875,-1.2049999237060547,-0.8299996256828308,-0.717703640460968,0.0,0,0
1759683342.7355094,0,-1.2049999237060547,-0.8299996256828308,-0.7177036387421047,0.0,True,0.011782646179199219,-1.2049999237060547,-0.8299996256828308,-0.717703640460968,0.0,0,0
1759683342.745525,0,-1.2049999237060547,-0.8299996256828308,-0.7177036388387243,0.0,True,0.010015487670898438,-1.2049999237060547,-0.8299996256828308,-0.717703640460968,0.0,0,0
1759683342.7561858,0,-1.2049999237060547,-0.8299996256828308,-0.7177036389025311,0.0,True,0.010660886764526367,-1.2049999237060547,-0.8299996256828308,-0.717703640460968,0.0,0,0
1759683342.7666848,0,-1.2049999237060547,-0.8299996256828308,-0.7177036389646627,0.0,True,0.010499000549316406,-1.2049999237060547,-0.8299996256828308,-0.717703640460968,0.0,0,0
1759683342.7775362,0,-1.2049999237060547,-0.8299996256828308,-0.717703639010459,0.0,True,0.010851383209228516,-1.2049999237060547,-0.8299996256828308,-0.717703640460968,0.0,0,0
1759683342.7888062,0,-1.2049999237060547,-0.8299996256828308,-0.7177036390425915,0.0,True,0.01127004623413086,-1.2049999237060547,-0.8299996256828308,-0.717703640460968,0.0,0,0
1759683342.799019,0,-1.2049999237060547,-0.8299996256828308,-0.7177036391087768,0.0,True,0.010212898254394531,-1.2049999237060547,-0.8299996256828308,-0.717703640460968,0.0,0,0
1759683342.8104937,0,-1.2049999237060547,-0.8299996256828308,-0.7177036391334042,0.0,True,0.011474609375,-1.2049999237060547,-0.8299996256828308,-0.717703640460968,0.0,0.5235987755982988,0.0294367401153503
1759683342.8205023,0,-1.2049999237060547,-0.8299996256828308,-0.7177036392012361,0.0,True,0.010008573532104492,-1.2049999237060547,-0.8299996256828308,-0.717703640460968,0.0,0.5235987755982988,0.03037376427491285
1759683342.831404,0,-1.2049999237060547,-0.8299996256828308,-0.7177036392383549,0.0,True,0.010901689529418945,-1.2049999237060547,-0.8299996256828308,-0.717703640460968,0.0,0.5235987755982988,0.029695839546750435
1759683342.8418748,0,-1.2049999237060547,-0.8299996256828308,-0.7177036392849772,0.0,True,0.010470867156982422,-1.2049999237060547,-0.8299996256828308,-0.717703640460968,0.0,0.5235987755982988,0.030479053033122344
1759683342.8526442,0,-1.2049999237060547,-0.8299996256828308,-0.7177036393213179,0.0,True,0.010769367218017578,-1.2049999237060547,-0.8299996256828308,-0.717703640460968,0.0,0.5235987755982988,0.032471976950204345
1759683342.8640995,0,-1.2049999237060547,-0.8299996256828308,-0.7177036393405345,0.0,True,0.011455297470092773,-1.2049999237060547,-0.8299996256828308,-0.717703640460968,0.0,0.5235987755982988,0.03226742799754076
1759683342.8755455,0,-1.2049999237060547,-0.8299996256828308,-0.7177036393646024,0.0,True,0.011445999145507812,-1.2049999237060547,-0.8299996256828308,-0.717703640460968,0.0,0.5235987755982988,0.034218142111455775
1759683342.891642,0,-1.2044602166804979,-0.830470318476557,-0.7174841965595604,0.005415866021314711,True,0.01609659194946289,-1.2041672468185425,-0.8307257890701294,-0.7169838547706604,0.005415866021314711,0.5235987755982988,0.031256885864420166
1759683342.9019952,0,-1.2042630143133306,-0.8306422896153084,-0.7173314487596656,0.005415866021314711,True,0.01035308837890625,-1.2041672468185425,-0.8307257890701294,-0.7169838547706604,0.005415866021314711,0.5235987755982988,0.033420666467601015
1759683342.912767,0,-1.2041870349720492,-0.8307085436830027,-0.7172156404450138,0.005415866021314711,True,0.010771751403808594,-1.2041672468185425,-0.8307257890701294,-0.7169838547706604,0.005415866021314711,0.5235987755982988,0.034526030938797164
1759683342.9233887,0,-1.2041582455879136,-0.8307336446721226,-0.7171323712421671,0.005415866021314711,True,0.010621786117553711,-1.2041672468185425,-0.8307257890701294,-0.7169838547706604,0.005415866021314711,0.5235987755982988,0.035372153220118836
1759683342.93459,0,-1.2041463441896216,-0.8307440190818405,-0.7170707474026816,0.005415866021314711,True,0.01120138168334961,-1.2041672468185425,-0.8307257890701294,-0.7169838547706604,0.005415866021314711,0.5235987755982988,0.03407872653248002
1759683342.945905,0,-1.2041416203957622,-0.8307481349936785,-0.7170264560184716,0.005415866021314711,True,0.011314868927001953,-1.2041672468185425,-0.8307257890701294,-0.7169838547706604,0.005415866021314711,0.5235987755982988,0.03367098636408803
1759683342.9574184,0,-1.2041395057298565,-0.8307499763629476,-0.7169942745848061,0.005415866021314711,True,0.011513471603393555,-1.2041672468185425,-0.8307257890701294,-0.7169838547706604,0.005415866021314711,0.5235987755982988,0.03158870808849633
1759683342.9675515,0,-1.2041408500373134,-0.8307488025494106,-0.7169749273074686,0.005415866021314711,True,0.010133028030395508,-1.2041672468185425,-0.8307257890701294,-0.7169838547706604,0.005415866021314711,0.5235987755982988,0.031214347422458686
1759683342.9781036,0,-1.2041407096782473,-0.8307489236628729,-0.71695917991374,0.005415866021314711,True,0.010552167892456055,-1.2041672468185425,-0.8307257890701294,-0.7169838547706604,0.005415866021314711,0.5235987755982988,0.033230705807880095
1759683342.9885197,0,-1.2041408681315127,-0.8307487846134294,-0.716948675320559,0.005415866021314711,True,0.010416030883789062,-1.2041672468185425,-0.8307257890701294,-0.7169838547706604,0.005415866021314711,0.5235987755982988,0.0320077912530881
1759683342.999332,0,-1.204140310609972,-0.8307492699763429,-0.716940357935373,0.005415866021314711,True,0.01081228256225586,-1.2041672468185425,-0.8307257890701294,-0.7169838547706604,0.005415866021314711,0.5235987755982988,0.030325239977421342
1759683343.0107534,0,-1.2041391476307455,-0.8307502832820012,-0.7169335405725388,0.005415866021314711,True,0.011421442031860352,-1.2041672468185425,-0.8307257890701294,-0.7169838547706604,0.005415866021314711,0.5235987755982988,0.02977126364630612
1759683343.021285,0,-1.2041400908146536,-0.8307494607204627,-0.716931649212512,0.005415866021314711,True,0.01053166389465332,-1.2041672468185425,-0.8307257890701294,-0.7169838547706604,0.005415866021314711,0.5235987755982988,0.030364177389402433
1759683343.0327265,0,-1.2041390323151837,-0.8307503832125512,-0.7169278824791459,0.005415866021314711,True,0.011441469192504883,-1.2041672468185425,-0.8307257890701294,-0.7169838547706604,0.005415866021314711,0.5235987755982988,0.0325882756717685
1759683343.0441704,0,-1.2041386242313399,-0.8307507387507584,-0.716926234732771,0.005415866021314711,True,0.011443853378295898,-1.2041672468185425,-0.8307257890701294,-0.7169838547706604,0.005415866021314711,0.5235987755982988,0.029321831646447888
1759683343.054242,0,-1.2041406083450052,-0.8307490090966376,-0.7169286672489754,0.005415866021314711,True,0.010071516036987305,-1.2041672468185425,-0.8307257890701294,-0.7169838547706604,0.005415866021314711,0.5235987755982988,0.030168250597556834
1759683343.0648253,0,-1.204140568011732,-0.8307490442731382,-0.71692852875141,0.005415866021314711,True,0.01058340072631836,-1.2041672468185425,-0.8307257890701294,-0.7169838547706604,0.005415866021314711,0.5235987755982988,0.030054055808781375
1759683343.0757532,0,-1.2041400153722077,-0.8307495260115108,-0.716928295968625,0.005415866021314711,True,0.010927915573120117,-1.2041672468185425,-0.8307257890701294,-0.7169838547706604,0.005415866021314711,0.5235987755982988,0.029554064105082763
1759683343.088334,0,-1.1974041857866666,-0.8364873045956814,-0.7103480811570044,0.06809668017446271,True,0.01258087158203125,-1.1936404705047607,-0.8396856784820557,-0.6933680772781372,0.06809668017446271,0.5235987755982988,0.029209155015078855
1759683343.0996764,0,-1.194854367568697,-0.8386563327918616,-0.7051667897329157,0.06809668017446271,True,0.011342287063598633,-1.1936404705047607,-0.8396856784820557,-0.6933680772781372,0.06809668017446271,0.5235987755982988,0.031165024852635524
1759683343.1109293,0,-1.1938812238583336,-0.8394821855488237,-0.7013565367899304,0.06809668017446271,True,0.011252880096435547,-1.1936404705047607,-0.8396856784820557,-0.6933680772781372,0.06809668017446271,0.5235987755982988,0.03143891182188238
