timestamp,vehicle_id,x,y,theta,velocity,gps_available,dt,gps_x,gps_y,gps_theta,gps_velocity,control_steering,control_acceleration
1759683339.8038652,1,-1.735,-0.35,-0.7801621756414647,0.0,False,0.01,nan,nan,nan,nan,0.0,0.0
1759683339.8144557,1,-1.735,-0.35,-0.7801621756414647,0.0,False,0.010590553283691406,nan,nan,nan,nan,0.0,0.0
1759683340.6656365,1,-1.7350000141675657,-0.3499999940968477,-0.7230009155866384,0.0,True,0.1,-1.7350000143051147,-0.3499999940395355,-0.7177032828330994,0.0,0.0,0.0
1759683340.780453,1,-1.7350000142591175,-0.349999994058701,-0.7180958946155407,0.0,True,0.1,-1.7350000143051147,-0.3499999940395355,-0.7177032828330994,0.0,0.0,0.0
1759683340.8861396,1,-1.7350000142878588,-0.3499999940467255,-0.7176958864974807,0.0,True,0.1,-1.7350000143051147,-0.3499999940395355,-0.7177032828330994,0.0,0.0,0.0
1759683340.979972,1,-1.7350000142985407,-0.3499999940422747,-0.7176723848615989,0.0,True,0.09383225440979004,-1.7350000143051147,-0.3499999940395355,-0.7177032828330994,0.0,0.0,0.0
1759683341.0703962,1,-1.7350000143026045,-0.3499999940405814,-0.7176769644949452,0.0,True,0.0904242992401123,-1.7350000143051147,-0.3499999940395355,-0.7177032828330994,0.0,0.0,0.0
1759683341.1590905,1,-1.735000014304156,-0.349999994039935,-0.7176819163340511,0.0,True,0.08869433403015137,-1.7350000143051147,-0.3499999940395355,-0.7177032828330994,0.0,0.0,0.0
1759683341.263524,1,-1.7350000143047486,-0.3499999940396881,-0.7176854174409719,0.0,True,0.1,-1.7350000143051147,-0.3499999940395355,-0.7177032828330994,0.0,0.0,0.0
1759683341.363514,1,-1.7350000143049749,-0.3499999940395938,-0.7176885894293541,0.0,True,0.0999898910522461,-1.7350000143051147,-0.3499999940395355,-0.7177032828330994,0.0,0.0,0.0
1759683341.4519327,1,-1.7350000143050612,-0.3499999940395578,-0.717691535383933,0.0,True,0.08841872215270996,-1.7350000143051147,-0.3499999940395355,-0.7177032828330994,0.0,0.0,0.0
1759683341.5459666,1,-1.7350000143050943,-0.349999994039544,-0.717693734831629,0.0,True,0.09403395652770996,-1.7350000143051147,-0.3499999940395355,-0.7177032828330994,0.0,0.0,0.0
1759683341.6525311,1,-1.735000014305107,-0.34999999403953874,-0.7176955317345346,0.0,True,0.1,-1.7350000143051147,-0.3499999940395355,-0.7177032828330994,0.0,0.0,0.0
1759683341.7444572,1,-1.7350000143051119,-0.34999999403953674,-0.7176971883488932,0.0,True,0.09192609786987305,-1.7350000143051147,-0.3499999940395355,-0.7177032828330994,0.0,0.0,0.0
1759683341.8426967,1,-1.7350000143051136,-0.34999999403953597,-0.7176985097135891,0.0,True,0.09823942184448242,-1.7350000143051147,-0.3499999940395355,-0.7177032828330994,0.0,0.12113933356607376,-0.05
1759683341.9539323,1,-1.7370824817315973,-0.3481910189089939,-0.7162958024400226,0.017768025824731914,True,0.1,-1.73919677734375,-0.34635084867477417,-0.7143348455429077,0.017768025824731914,0.12113933356607376,-0.05
1759683342.0480201,1,-1.7379075657115999,-0.34747300488995864,-0.7153050963010283,0.017768025824731914,True,0.09408783912658691,-1.73919677734375,-0.34635084867477417,-0.7143348455429077,0.017768025824731914,0.12472801646001841,-0.05
1759683342.1806922,1,-1.742472515560373,-0.34354914662537506,-0.7117833914912239,0.05141408936947035,True,0.1,-1.747692584991455,-0.3390401303768158,-0.7074289917945862,0.05141408936947035,0.12472801646001841,-0.05
1759683342.2681594,1,-1.7443981030784144,-0.34188448017431716,-0.7094163176988264,0.05141408936947035,True,0.08746719360351562,-1.747692584991455,-0.3390401303768158,-0.7074289917945862,0.05141408936947035,0.13215593340907716,-0.05
1759683342.3605075,1,-1.7450583306552596,-0.34130810563972364,-0.7078200246619648,0.05141408936947035,True,0.09234809875488281,-1.747692584991455,-0.3390401303768158,-0.7074289917945862,0.05141408936947035,0.13215593340907716,-0.05
1759683342.4507508,1,-1.751814095236553,-0.3355747379286724,-0.7035118055051175,0.051662882542111904,True,0.09024333953857422,-1.7581788301467896,-0.3301581144332886,-0.6985135078430176,0.051662882542111904,0.13215593340907716,-0.05
1759683342.5447598,1,-1.7543330753240354,-0.3334271903768267,-0.7003007018529388,0.051662882542111904,True,0.0940089225769043,-1.7581788301467896,-0.3301581144332886,-0.6985135078430176,0.051662882542111904,0.14208181232286776,-0.05
1759683342.6379912,1,-1.7553032433337532,-0.33259260409738206,-0.6982680891380113,0.051662882542111904,True,0.0932314395904541,-1.7581788301467896,-0.3301581144332886,-0.6985135078430176,0.051662882542111904,0.14208181232286776,-0.05
1759683342.7424352,1,-1.7625537630850463,-0.32655242608472834,-0.6931145658477789,0.048901655256169206,True,0.1,-1.7693500518798828,-0.32087671756744385,-0.6884165406227112,0.048901655256169206,0.14208181232286776,-0.05
1759683342.8453789,1,-1.7653172299205104,-0.3242381139209176,-0.6894404172508075,0.048901655256169206,True,0.1,-1.7693500518798828,-0.32087671756744385,-0.6884165406227112,0.048901655256169206,0.15376865989041022,-0.05
1759683342.958423,1,-1.7714758401178698,-0.31918293539380843,-0.6841301862441203,0.048614899891900425,True,0.1,-1.777600646018982,-0.3141477406024933,-0.6805158853530884,0.048614899891900425,0.15611260662168291,-0.05
1759683343.0601974,1,-1.7738221673737333,-0.31724464665887725,-0.6805388590995847,0.048614899891900425,True,0.1,-1.777600646018982,-0.3141477406024933,-0.6805158853530884,0.048614899891900425,0.16547762188188386,-0.05
1759683343.1653402,1,-1.7796158399367679,-0.3125676286404668,-0.6749843518586918,0.05072648980498474,True,0.1,-1.7856330871582031,-0.30770429968833923,-0.6721118688583374,0.05072648980498474,0.24213126386166905,-0.05
1759683343.2761815,1,-1.7818223038682601,-0.31077306697779805,-0.6713715045807369,0.05072648980498474,True,0.1,-1.7856330871582031,-0.30770429968833923,-0.6721118688583374,0.05072648980498474,0.25025578245639224,-0.05
1759683343.3937259,1,-1.7882981168921401,-0.3056660661069321,-0.6633880756018815,0.049082749415649794,True,0.1,-1.7946751117706299,-0.30062225461006165,-0.6577083468437195,0.049082749415649794,0.4016601910459343,-0.05
1759683343.4883134,1,-1.790842580191154,-0.3036414303269259,-0.6582112028654983,0.049082749415649794,True,0.09458756446838379,-1.7946751117706299,-0.30062225461006165,-0.6577083468437195,0.049082749415649794,0.41633376834508695,-0.05
1759683343.5850763,1,-1.791777157165306,-0.30288653861101633,-0.6546656390559065,0.049082749415649794,True,0.09676289558410645,-1.7946751117706299,-0.30062225461006165,-0.6577083468437195,0.049082749415649794,0.5497855979647497,-0.05
1759683343.6917343,1,-1.7994843803231535,-0.2971112456265247,-0.639466201075809,0.050622103136400615,True,0.1,-1.8067294359207153,-0.2916368544101715,-0.6231424808502197,0.050622103136400615,0.5497855979647497,-0.05
1759683343.791494,1,-1.8024148686050094,-0.29487983506769044,-0.6282974300552606,0.050622103136400615,True,0.09975957870483398,-1.8067294359207153,-0.2916368544101715,-0.6231424808502197,0.050622103136400615,0.6,-0.05
1759683343.9228456,1,-1.8093663118107055,-0.2899612212601017,-0.6086269082020692,0.04868676399556205,True,0.1,-1.816097378730774,-0.2851533889770508,-0.5901999473571777,0.04868676399556205,0.6,-0.05
1759683344.0398266,1,-1.8120008695697083,-0.2880534469740656,-0.5948440282931209,0.04868676399556205,True,0.1,-1.816097378730774,-0.2851533889770508,-0.5901999473571777,0.04868676399556205,0.6,-0.05
1759683344.1636348,1,-1.8191620865765157,-0.2833455261670143,-0.572327413800565,0.05110443942824373,True,0.1,-1.8262046575546265,-0.2786670923233032,-0.5541728734970093,0.05110443942824373,0.6,-0.05
1759683344.281151,1,-1.8218738753657369,-0.2815115796000057,-0.556901322705766,0.05110443942824373,True,0.1,-1.8262046575546265,-0.2786670923233032,-0.5541728734970093,0.05110443942824373,0.6,-0.03988442217708469
1759683344.3970895,1,-1.828594752459599,-0.2773822873404495,-0.5358273401131335,0.044048687018327516,True,0.1,-1.8350602388381958,-0.27339252829551697,-0.523251473903656,0.044048687018327516,0.6,-0.004566855195767605
1759683344.5103307,1,-1.831144010256773,-0.2757756048106485,-0.5216709274370483,0.044048687018327516,True,0.1,-1.8350602388381958,-0.27339252829551697,-0.523251473903656,0.044048687018327516,0.6,0.008976999190501767
1759683344.6205592,1,-1.832855274854508,-0.2747132253095485,-0.5157530474161511,0.004721050714241459,True,0.1,-1.8341659307479858,-0.27391135692596436,-0.5263538956642151,0.004721050714241459,0.6,0.046891941327935754
1759683344.7473853,1,-1.8335084217445552,-0.2743065587955353,-0.5126342612894774,0.004721050714241459,True,0.1,-1.8341659307479858,-0.27391135692596436,-0.5263538956642151,0.004721050714241459,0.6,0.09847303698673876
1759683344.8722348,1,-1.8220747406920148,-0.2812897199444445,-0.5307557651933852,0.07199263028677269,True,0.1,-1.818877935409546,-0.2834092974662781,-0.5803587436676025,0.07199263028677269,0.6,0.09847303698673876
1759683344.986051,1,-1.8177323947233608,-0.28400007697821533,-0.5472051598834291,0.07199263028677269,True,0.1,-1.818877935409546,-0.2834092974662781,-0.5803587436676025,0.07199263028677269,0.6,0.09500925277058665
1759683345.103966,1,-1.8040115005230815,-0.29358663940868013,-0.5845952233180753,0.09590910587756939,True,0.1,-1.8005748987197876,-0.29639679193496704,-0.6476995348930359,0.09590910587756939,0.6,0.09500925277058665
1759683345.22077,1,-1.7988414214088655,-0.297358583119853,-0.6138392122337759,0.09590910587756939,True,0.1,-1.8005748987197876,-0.29639679193496704,-0.6476995348930359,0.09590910587756939,0.42371306859983093,0.1089175400629566
1759683345.3407204,1,-1.7851678702539642,-0.3084522620603191,-0.6563058652685463,0.1026077290720624,True,0.1,-1.781880259513855,-0.3116263151168823,-0.7086602449417114,0.1026077290720624,0.42371306859983093,0.1089175400629566
1759683345.4464452,1,-1.7800400527066154,-0.31281727646627266,-0.6871574216893883,0.1026077290720624,True,0.1,-1.781880259513855,-0.3116263151168823,-0.7086602449417114,0.1026077290720624,0.24887815166057337,0.12194760423727719
1759683345.5595927,1,-1.7661380204434363,-0.3253951549394718,-0.7221880985895712,0.11616946177541077,True,0.1,-1.7630767822265625,-0.328590452671051,-0.7502790689468384,0.11616946177541077,0.24887815166057337,0.12194760423727719
1759683345.6693823,1,-1.7609242764766442,-0.33031196018285774,-0.7463072724858613,0.11616946177541077,True,0.1,-1.7630767822265625,-0.328590452671051,-0.7502790689468384,0.11616946177541077,0.1108370386413462,0.1421664878524966
1759683345.780856,1,-1.7448149521724843,-0.34591914247682376,-0.7700546556035661,0.1390220994546895,True,0.1,-1.7411527633666992,-0.3497159481048584,-0.775279700756073,0.1390220994546895,0.06917488480091549,0.19167402025044444
1759683345.8896408,1,-1.7387448133338737,-0.3519679204806128,-0.7849946584214287,0.1390220994546895,True,0.1,-1.7411527633666992,-0.3497159481048584,-0.775279700756073,0.1390220994546895,0.020718961004646985,0.15111385835647592
1759683346.0024729,1,-1.7192724687241179,-0.3714045674442386,-0.7963204463215128,0.16108994233728513,True,0.1,-1.714274287223816,-0.37637367844581604,-0.7839121222496033,0.16108994233728513,-0.010983918806228843,0.19917741835431013
1759683346.1171205,1,-1.7118816392984044,-0.3788750977069048,-0.8021764396956463,0.16108994233728513,True,0.1,-1.714274287223816,-0.37637367844581604,-0.7839121222496033,0.16108994233728513,-0.02946192325049246,0.15106617751313667
1759683346.2278278,1,-1.6904634791880002,-0.4002773632097842,-0.8026810363885772,0.18746811423660703,True,0.1,-1.6852837800979614,-0.4051790237426758,-0.7795212268829346,0.18746811423660703,-0.05572440388442601,0.2031138388817985
1759683346.3438823,1,-1.6822843122027902,-0.4084540846982017,-0.8009631894212568,0.18746811423660703,True,0.1,-1.6852837800979614,-0.4051790237426758,-0.7795212268829346,0.18746811423660703,-0.04988443460448089,0.1505072994791552
1759683346.4600365,1,-1.6615063017886227,-0.4287708851393545,-0.7942346490211705,0.17337505989481652,True,0.1,-1.6561311483383179,-0.4336417615413666,-0.7685433626174927,0.17337505989481652,-0.06774820589265396,0.197108505882755
1759683346.5737355,1,-1.6535382921869979,-0.4365003917400628,-0.7880761732496957,0.17337505989481652,True,0.1,-1.6561311483383179,-0.4336417615413666,-0.7685433626174927,0.17337505989481652,-0.06519311509196157,0.2110003474615108
1759683346.693344,1,-1.627895151914851,-0.4609059989180941,-0.7769383255105833,0.20666648531907522,True,0.1,-1.6210682392120361,-0.4669475853443146,-0.7524875402450562,0.20666648531907522,-0.06519311509196157,0.2110003474615108
1759683346.8055947,1,-1.6180402829982758,-0.4701675322251428,-0.768084135191188,0.20666648531907522,True,0.1,-1.6210682392120361,-0.4669475853443146,-0.7524875402450562,0.20666648531907522,-0.04959043921245865,0.2016961295368309
1759683346.9290597,1,-1.5925121837318275,-0.4936600888926974,-0.7565943018056487,0.2046823863379175,True,0.1,-1.5858460664749146,-0.49940362572669983,-0.738913357257843,0.2046823863379175,-0.04959043921245865,0.2016961295368309
1759683347.0478964,1,-1.5827011756646943,-0.5025703002745578,-0.7482304712933043,0.2046823863379175,True,0.1,-1.5858460664749146,-0.49940362572669983,-0.738913357257843,0.2046823863379175,-0.04245026595700807,0.20475849004656468
1759683347.1703367,1,-1.5560204392754113,-0.5265112428673652,-0.7384860660463133,0.21044009076545567,True,0.1,-1.5490760803222656,-0.5324733853340149,-0.727259635925293,0.21044009076545567,-0.07190036120765164,0.25458087480867986
1759683347.2945404,1,-1.5457786201811843,-0.5356005826913368,-0.7314363070923946,0.21044009076545567,True,0.1,-1.5490760803222656,-0.5324733853340149,-0.727259635925293,0.21044009076545567,-0.052200462762233,0.20025005486933287
1759683347.4160326,1,-1.5152225008556788,-0.5622138834944511,-0.7205554838124293,0.22483971069106654,True,0.1,-1.506697177886963,-0.5694001317024231,-0.7089640498161316,0.22483971069106654,-0.10078706066146381,0.2527428974608729
1759683347.5342903,1,-1.5034922685555225,-0.5723127540347419,-0.7124472852547079,0.22483971069106654,True,0.1,-1.506697177886963,-0.5694001317024231,-0.7089640498161316,0.22483971069106654,-0.0697826591369477,0.18859896343947602
1759683347.6620758,1,-1.472628070814712,-0.5980457784068713,-0.6985571904840562,0.2224092795205754,True,0.1,-1.4639780521392822,-0.6049907803535461,-0.6838139295578003,0.2224092795205754,-0.13811742540858774,0.2453603592368177
1759683347.7752903,1,-1.460763105890744,-0.6077853671994102,-0.6888244657452454,0.2224092795205754,True,0.1,-1.4639780521392822,-0.6049907803535461,-0.6838139295578003,0.2224092795205754,-0.1674569803047934,0.24241972266001974
1759683347.8987513,1,-1.4272761122219642,-0.6339218001766305,-0.6657467807086768,0.24675364645397233,True,0.1,-1.418389916419983,-0.6404262185096741,-0.6394212245941162,0.24675364645397233,-0.1674569803047934,0.24241972266001974
1759683348.0168128,1,-1.4143535056317436,-0.6437400616213795,-0.6491603538236284,0.24675364645397233,True,0.1,-1.418389916419983,-0.6404262185096741,-0.6394212245941162,0.24675364645397233,-0.15584209138993899,0.227302942594469
1759683348.1323385,1,-1.3820353663285363,-0.6666102696907598,-0.6217199865353216,0.23340709142137528,True,0.1,-1.3735874891281128,-0.6720701456069946,-0.5951297283172607,0.23340709142137528,-0.15584209138993899,0.227302942594469
1759683348.2560153,1,-1.369551021407008,-0.6751547386799809,-0.6027221700348733,0.23340709142137528,True,0.1,-1.3735874891281128,-0.6720701456069946,-0.5951297283172607,0.23340709142137528,-0.14360683192128043,0.2338020758272353
1759683348.3825102,1,-1.3345457714549758,-0.6976350195566817,-0.5747741950418792,0.2321397235642537,True,0.1,-1.3247665166854858,-0.7034479379653931,-0.5511105060577393,0.2321397235642537,-0.19779035346879503,0.29017037345792224
1759683348.4989126,1,-1.3210454500729762,-0.7060261255850911,-0.554784175240826,0.2321397235642537,True,0.1,-1.3247665166854858,-0.7034479379653931,-0.5511105060577393,0.2321397235642537,-0.12042568035414547,0.22889607736951487
1759683348.6255639,1,-1.281089478191092,-0.728972925681475,-0.5239703943420242,0.25359032451973296,True,0.1,-1.2697553634643555,-0.7349602580070496,-0.49925145506858826,0.25359032451973296,-0.1741831020492839,0.2866043216336697
1759683348.7494855,1,-1.2656813650073353,-0.7374911192611799,-0.502349469269129,0.25359032451973296,True,0.1,-1.2697553634643555,-0.7349602580070496,-0.49925145506858826,0.25359032451973296,-0.1372934410808515,0.27372933653829995
1759683348.8696454,1,-1.2206648336545034,-0.7603626828020302,-0.4694745726073464,0.29237480065496063,True,0.1,-1.208720326423645,-0.7658703327178955,-0.4460739195346832,0.29237480065496063,-0.1372934410808515,0.27372933653829995
1759683348.9902618,1,-1.203307257727079,-0.7687875788250309,-0.4467975931711159,0.29237480065496063,True,0.1,-1.208720326423645,-0.7658703327178955,-0.4460739195346832,0.29237480065496063,-0.09425307303890484,0.2480621425151462
1759683349.108657,1,-1.1626633394662875,-0.7870930295968128,-0.41991892694363386,0.26457537824809746,True,0.1,-1.1523147821426392,-0.7913917303085327,-0.4102523624897003,0.26457537824809746,-0.09425307303890484,0.2480621425151462
1759683349.2191048,1,-1.1470296685078787,-0.793847437921849,-0.40271554821375233,0.26457537824809746,True,0.1,-1.1523147821426392,-0.7913917303085327,-0.4102523624897003,0.26457537824809746,-0.08114218318877775,0.24881325351737707
1759683349.3484855,1,-1.1078238242331702,-0.8101135321950813,-0.38329559116234435,0.2389410393418273,True,0.1,-1.097193956375122,-0.8144133687019348,-0.3842822313308716,0.2389410393418273,-0.08114218318877775,0.24881325351737707
1759683349.4663014,1,-1.0927830774240006,-0.8161677155847327,-0.371668451412301,0.2389410393418273,True,0.1,-1.097193956375122,-0.8144133687019348,-0.3842822313308716,0.2389410393418273,-0.09030885039251046,0.25481151116047807
1759683349.5834386,1,-1.052107227879023,-0.8319311434110016,-0.35627484282214716,0.2538078754965549,True,0.1,-1.0415996313095093,-0.836018443107605,-0.3579466938972473,0.2538078754965549,-0.13782339123198284,0.314682112221239
1759683349.692788,1,-1.0365209220515248,-0.8378212597936635,-0.34616215090727565,0.2538078754965549,True,0.1,-1.0415996313095093,-0.836018443107605,-0.3579466938972473,0.2538078754965549,-0.09325037786320323,0.2451536932169071
1759683349.8193817,1,-0.990868924137388,-0.8537850493214825,-0.3269556065292267,0.28276170985112736,True,0.1,-0.9791133403778076,-0.8577769994735718,-0.3187495768070221,0.28276170985112736,-0.13757180100693311,0.3097940411669504
1759683349.9289696,1,-0.9733682059982349,-0.8597003392584386,-0.31318001542349094,0.28276170985112736,True,0.1,-0.9791133403778076,-0.8577769994735718,-0.3187495768070221,0.28276170985112736,-0.06672618447310086,0.22832007519776487
1759683350.0558045,1,-0.9295303916626577,-0.8731936260086947,-0.2934131331462986,0.27137236534969605,True,0.1,-0.9184082746505737,-0.8764126896858215,-0.285119891166687,0.27137236534969605,-0.10332540188112382,0.2910523204231412
1759683350.1746593,1,-0.9127280481981352,-0.8781612507972711,-0.28003310225212275,0.27137236534969605,True,0.1,-0.9184082746505737,-0.8764126896858215,-0.285119891166687,0.27137236534969605,-0.07082469690454296,0.28249368137114955
1759683350.297343,1,-0.864842018364606,-0.8912800140256558,-0.2613733813000465,0.27670451375576977,True,0.1,-0.8516936302185059,-0.8947018384933472,-0.2553749680519104,0.27670451375576977,-0.07082469690454296,0.28249368137114955
1759683350.412159,1,-0.8465011661966164,-0.8961091865512467,-0.24916428474873697,0.27670451375576977,True,0.1,-0.8516936302185059,-0.8947018384933472,-0.2553749680519104,0.27670451375576977,-0.048792604513163695,0.27389316671650465
1759683350.5434825,1,-0.7980491101362762,-0.908115969130007,-0.23493519487888648,0.2902494058905334,True,0.1,-0.785496711730957,-0.9111451506614685,-0.23523776233196259,0.2902494058905334,-0.048792604513163695,0.27389316671650465
1759683350.6596367,1,-0.7795059627886841,-0.9125548582026055,-0.2261707946634246,0.2902494058905334,True,0.1,-0.785496711730957,-0.9111451506614685,-0.23523776233196259,0.2902494058905334,-0.04260506024268551,0.26044392369041347
1759683350.777201,1,-0.7349981605398267,-0.9227985977867336,-0.21635387128539385,0.2706264819191007,True,0.1,-0.7237967252731323,-0.9254059195518494,-0.22039920091629028,0.2706264819191007,-0.06835453285777682,0.31625277186888967
1759683350.9029486,1,-0.7179769795151341,-0.9266186457231789,-0.2102406345660004,0.2706264819191007,True,0.1,-0.7237967252731323,-0.9254059195518494,-0.22039920091629028,0.2706264819191007,-0.04271507857020218,0.2534378387512469
1759683351.0269074,1,-0.6676956755021509,-0.93725685402389,-0.20004779837129938,0.2857651017525725,True,0.1,-0.6538991928100586,-0.9401772022247314,-0.19970428943634033,0.2857651017525725,-0.07548709899082873,0.32434193867060807
1759683351.1494932,1,-0.648469043318754,-0.9412191299539436,-0.1930174921691652,0.2857651017525725,True,0.1,-0.6538991928100586,-0.9401772022247314,-0.19970428943634033,0.2857651017525725,-0.0386135698052108,0.24111442570126182
1759683351.2756197,1,-0.5984797957671718,-0.9507085796357019,-0.1818485263288636,0.28177386455089765,True,0.1,-0.5846818685531616,-0.9532632231712341,-0.1786692887544632,0.28177386455089765,-0.06580209236018852,0.30731917956062066
1759683351.3910902,1,-0.579364399955766,-0.9542204563064912,-0.17433702305837073,0.28177386455089765,True,0.1,-0.5846818685531616,-0.9532632231712341,-0.1786692887544632,0.28177386455089765,-0.050374111117436726,0.2938701306645034
1759683351.5235188,1,-0.5259122270036574,-0.963229023322824,-0.16215605545488287,0.2986176880968744,True,0.1,-0.5110582709312439,-0.9656264185905457,-0.15722298622131348,0.2986176880968744,-0.050374111117436726,0.2938701306645034
1759683351.6447773,1,-0.5054733395011094,-0.966539442594532,-0.15399491410297728,0.2986176880968744,True,0.1,-0.5110582709312439,-0.9656264185905457,-0.15722298622131348,0.2986176880968744,-0.03276508108454479,0.2723891768930966
1759683351.7661426,1,-0.456917989885598,-0.9738145727225294,-0.14414410287361967,0.2729279476386651,True,0.1,-0.44358062744140625,-0.9757443070411682,-0.14314626157283783,0.2729279476386651,-0.03276508108454479,0.2723891768930966
1759683351.8821363,1,-0.4383569528055363,-0.976495850363065,-0.13799919990449538,0.2729279476386651,True,0.1,-0.44358062744140625,-0.9757443070411682,-0.14314626157283783,0.2729279476386651,-0.027519585926265577,0.27652541570063305
1759683352.0023866,1,-0.39090137930444085,-0.983042364505318,-0.1311461530418292,0.2789364036167957,True,0.1,-0.3786501884460449,-0.9847358465194702,-0.13304075598716736,0.2789364036167957,-0.04276621230764022,0.3373686173236718
1759683352.115283,1,-0.37276584929593237,-0.9854751021379978,-0.126805406020285,0.2789364036167957,True,0.1,-0.3786501884460449,-0.9847358465194702,-0.13304075598716736,0.2789364036167957,-0.025071361733395747,0.2634125341881718
1759683352.241583,1,-0.32079215182804477,-0.9920368950830851,-0.12021659483216496,0.30660013214939086,True,0.1,-0.30747005343437195,-0.9937164783477783,-0.12044327706098557,0.30660013214939086,-0.03954836740135903,0.3260050250773786
1759683352.3587923,1,-0.3009312270438187,-0.9944723488881505,-0.11573955783945067,0.30660013214939086,True,0.1,-0.30747005343437195,-0.9937164783477783,-0.12044327706098557,0.30660013214939086,-0.016520390515115224,0.2380736635470839
1759683352.480036,1,-0.2526015867550587,-1.0000172408156045,-0.10993705322178648,0.28834810961327384,True,0.1,-0.24043573439121246,-1.0014020204544067,-0.11043740063905716,0.28834810961327384,-0.031125121422860502,0.30890944489584393
1759683352.6023943,1,-0.23413446994139284,-1.0020744297984523,-0.10625543996370723,0.28834810961327384,True,0.1,-0.24043573439121246,-1.0014020204544067,-0.11043740063905716,0.28834810961327384,-0.025997698272608005,0.30241627469508137
1759683352.7203588,1,-0.18172971778640887,-1.0075759370133037,-0.10045059799368872,0.2937609707388563,True,0.1,-0.1673964411020279,-1.0090656280517578,-0.10000845789909363,0.2937609707388563,-0.025997698272608005,0.30241627469508137
1759683352.8394306,1,-0.16170649230859274,-1.0096152578788602,-0.09675293480835911,0.2937609707388563,True,0.1,-0.1673964411020279,-1.0090656280517578,-0.10000845789909363,0.2937609707388563,-0.021166108678158935,0.29089700225036813
1759683352.9594235,1,-0.10997073703995258,-1.0145638654921667,-0.09167302356676643,0.30258652628809285,True,0.1,-0.09661099314689636,-1.015829086303711,-0.09165928512811661,0.30258652628809285,-0.021166108678158935,0.29089700225036813
1759683353.080805,1,-0.09020421781358012,-1.0163984604317307,-0.08845170313613693,0.30258652628809285,True,0.1,-0.09661099314689636,-1.015829086303711,-0.09165928512811661,0.30258652628809285,-0.014533768374265676,0.275447924147407
1759683353.2021797,1,-0.040223051509636426,-1.0208078153427729,-0.08447453939601957,0.29620126566088073,True,0.1,-0.027568409219384193,-1.0219241380691528,-0.08565617352724075,0.29620126566088073,-0.008564780159757035,0.33321540913962816
1759683353.3171635,1,-0.021128351164194807,-1.0224504134740549,-0.08201033306177408,0.29620126566088073,True,0.1,-0.027568409219384193,-1.0219241380691528,-0.08565617352724075,0.29620126566088073,0.0033282890275927457,0.2591419641217069
1759683353.4400425,1,0.029310628636619,-1.02671365935486,-0.08044070889126331,0.28339822445074075,True,0.1,0.043027810752391815,-1.0279102325439453,-0.08513535559177399,0.28339822445074075,0.027159312786295686,0.3282487070400309
1759683353.5607917,1,0.04857786696186548,-1.0283266224596175,-0.07995375781676017,0.28339822445074075,True,0.1,0.043027810752391815,-1.0279102325439453,-0.08513535559177399,0.28339822445074075,0.03073040746472344,0.25461052629379893
1759683353.681193,1,0.10001752087493535,-1.032941305766099,-0.08382879830523393,0.30131871026980944,True,0.1,0.11324767023324966,-1.0342844724655151,-0.09598768502473831,0.30131871026980944,0.0630094713663496,0.3186717346794152
1759683353.8025002,1,0.11966188523523727,-1.034750039025769,-0.08725575000816832,0.30131871026980944,True,0.1,0.11324767023324966,-1.0342844724655151,-0.09598768502473831,0.30131871026980944,0.07671995793962338,0.29493584310970333
1759683353.9209948,1,0.1726139801719188,-1.040467342869995,-0.09981664732987738,0.3120133455350011,True,0.1,0.18613362312316895,-1.0422794818878174,-0.12161530554294586,0.3120133455350011,0.07671995793962338,0.29493584310970333
1759683354.0398846,1,0.19282620697235062,-1.0427939784648115,-0.10962509181124247,0.3120133455350011,True,0.1,0.18613362312316895,-1.0422794818878174,-0.12161530554294586,0.3120133455350011,0.05578549143055511,0.27935665742451343
1759683354.1642218,1,0.24196096438341688,-1.0494587806700655,-0.12500739687973628,0.27881460553267984,True,0.1,0.2552034556865692,-1.051658034324646,-0.14455130696296692,0.27881460553267984,0.05578549143055511,0.27935665742451343
1759683354.2822394,1,0.2607102713243155,-1.0521591753123418,-0.1362620407181403,0.27881460553267984,True,0.1,0.2552034556865692,-1.051658034324646,-0.14455130696296692,0.27881460553267984,0.023699279866271183,0.2774387787587725
1759683354.403272,1,0.30920146916900526,-1.0596777258670305,-0.148249865429257,0.2870786371740086,True,0.1,0.3215958774089813,-1.0618910789489746,-0.15751726925373077,0.2870786371740086,0.022593831323263203,0.3317528393010855
1759683354.5187185,1,0.32770568700239316,-1.0626726954049248,-0.1564942589622227,0.2870786371740086,True,0.1,0.3215958774089813,-1.0618910789489746,-0.15751726925373077,0.2870786371740086,-0.002881369812744339,0.25629399108681966
1759683354.6421437,1,0.37749848166172595,-1.070827482152038,-0.16267135230657814,0.2815746581897219,True,0.1,0.3910834491252899,-1.0731492042541504,-0.1608995795249939,0.2815746581897219,-0.01553565288336678,0.3224195842877767
1759683354.7645824,1,0.3965076347842442,-1.0740043947196771,-0.16622770899892814,0.2815746581897219,True,0.1,0.3910834491252899,-1.0731492042541504,-0.1608995795249939,0.2815746581897219,-0.024079597345391335,0.24852611031285762
1759683354.884737,1,0.4469087468263227,-1.082108463833755,-0.16534936436165815,0.29679516694370656,True,0.1,0.4599662721157074,-1.084093689918518,-0.153723806142807,0.29679516694370656,-0.044442688518577356,0.3094073967635525
1759683355.004682,1,0.466162322022355,-1.085191571271025,-0.1638448927289815,0.29679516694370656,True,0.1,0.4599662721157074,-1.084093689918518,-0.153723806142807,0.29679516694370656,-0.05786253442660083,0.287132675631965
1759683355.1231394,1,0.517169219161476,-1.0927021719955592,-0.15516919966485077,0.30328657829830086,True,0.1,0.5301954746246338,-1.0943145751953125,-0.13560403883457184,0.30328657829830086,-0.05786253442660083,0.287132675631965
1759683355.2416048,1,0.5366676617829196,-1.095473471611638,-0.14823443761935629,0.30328657829830086,True,0.1,0.5301954746246338,-1.0943145751953125,-0.13560403883457184,0.30328657829830086,-0.057689459616270256,0.2712644295179693
1759683355.3538175,1,0.5827031681569887,-1.1012921374488904,-0.13601082683928034,0.2760269525109862,True,0.1,0.5942779183387756,-1.10239839553833,-0.11694697290658951,0.2760269525109862,-0.057689459616270256,0.2712644295179693
1759683355.4642947,1,0.6003048075896669,-1.103389919567981,-0.12711293431107507,0.2760269525109862,True,0.1,0.5942779183387756,-1.10239839553833,-0.11694697290658951,0.2760269525109862,-0.059484881010250845,0.27288909109375703
1759683355.5746973,1,0.6430903387297199,-1.10798656223845,-0.11450215867001745,0.26968301205592726,True,0.1,0.6529965996742249,-1.1087441444396973,-0.09964363276958466,0.26968301205592726,-0.059484881010250845,0.27288909109375703
1759683355.680091,1,0.6594480737309147,-1.109616021848576,-0.10576264174781258,0.26968301205592726,True,0.1,0.6529965996742249,-1.1087441444396973,-0.09964363276958466,0.26968301205592726,-0.06596442195849228,0.27118062266593235
1759683355.782062,1,0.7006822434579614,-1.1133027327584473,-0.0932638417939824,0.2617121672662686,True,0.1,0.7100788950920105,-1.113903284072876,-0.08166656643152237,0.2617121672662686,-0.06596442195849228,0.27118062266593235
1759683355.8992198,1,0.7164442394204028,-1.1145891598905329,-0.08484556213611327,0.2617121672662686,True,0.1,0.7100788950920105,-1.113903284072876,-0.08166656643152237,0.2617121672662686,-0.07451912110664516,0.27017699691038805
1759683356.0161994,1,0.7616671602839387,-1.1177429667138628,-0.07116487089443524,0.2696013159805258,True,0.1,0.7730112075805664,-1.118314266204834,-0.059464551508426666,0.2696013159805258,-0.07451912110664516,0.27017699691038805
1759683356.1162064,1,0.7789512188927676,-1.118810665398049,-0.06187131428278114,0.2696013159805258,True,0.1,0.7730112075805664,-1.118314266204834,-0.059464551508426666,0.2696013159805258,-0.07759555292520659,0.2522521534886309
1759683356.2332494,1,0.8214020809519548,-1.1208312185726785,-0.04830953696144746,0.28218166149460444,True,0.1,0.8302286863327026,-1.1210507154464722,-0.036884862929582596,0.28218166149460444,-0.13374253637703504,0.309862486045111
1759683356.3477995,1,0.8376240974025819,-1.1214654645627833,-0.038317246412443495,0.28218166149460444,True,0.1,0.8302286863327026,-1.1210507154464722,-0.036884862929582596,0.28218166149460444,-0.09523861095196651,0.246825293028824
1759683356.4635339,1,0.8832355137461096,-1.1221726427997847,-0.01865506437783182,0.2736278757447084,True,0.1,0.8945239186286926,-1.1220208406448364,0.0009374325745739043,0.2736278757447084,-0.14891465214583555,0.2947903428877131
1759683356.5826397,1,0.9006624192664198,-1.1222503997403073,-0.0038725741450882367,0.2736278757447084,True,0.1,0.8945239186286926,-1.1220208406448364,0.0009374325745739043,0.2736278757447084,-0.08044761990950455,0.23172933747605817
1759683356.6958196,1,0.9443381730040941,-1.1212457114968553,0.018048646837039328,0.25971086543176347,True,0.1,0.9552801251411438,-1.1206204891204834,0.03741741180419922,0.25971086543176347,-0.1495708327810199,0.28705650644074837
1759683356.7960205,1,0.9610187273135617,-1.1206571501709184,0.034077899628842445,0.25971086543176347,True,0.1,0.9552801251411438,-1.1206204891204834,0.03741741180419922,0.25971086543176347,-0.0833599552934352,0.22962123889826516
1759683356.915928,1,1.0025255303150344,-1.1182351698475061,0.05561282647208987,0.2599814275509339,True,0.1,1.0121216773986816,-1.117343544960022,0.07135302573442459,0.2599814275509339,-0.15233820967319645,0.2802828030323476
1759683357.0248818,1,1.018369636476721,-1.1171013304697388,0.07026576643985383,0.2599814275509339,True,0.1,1.0121216773986816,-1.117343544960022,0.07135302573442459,0.2599814275509339,-0.16156304236511865,0.27068578556587
1759683357.1462002,1,1.0637738127390395,-1.1126486227746533,0.09799197337542331,0.2706662728334716,True,0.1,1.0751533508300781,-1.1111431121826172,0.12114037573337555,0.2706662728334716,-0.16156304236511865,0.27068578556587
1759683357.2601688,1,1.0810923762123006,-1.1106726908748903,0.11724648946255911,0.2706662728334716,True,0.1,1.0751533508300781,-1.1111431121826172,0.12114037573337555,0.2706662728334716,-0.13846215994465183,0.24741582451246893
1759683357.3652081,1,1.1220530473385595,-1.1046800592057133,0.14514948166745523,0.25972023724497256,True,0.1,1.1314342021942139,-1.1029177904129028,0.16400834918022156,0.25972023724497256,-0.13846215994465183,0.24741582451246893
1759683357.4682825,1,1.1376624085934843,-1.1021242047452386,0.16360624294351656,0.25972023724497256,True,0.1,1.1314342021942139,-1.1029177904129028,0.16400834918022156,0.25972023724497256,-0.14468772768841198,0.24583218208763966
1759683357.590344,1,1.1768340938223278,-1.0947342156730113,0.18948213008121773,0.25202418414476546,True,0.1,1.1856852769851685,-1.0927629470825195,0.20317500829696655,0.25202418414476546,-0.14468772768841198,0.24583218208763966
1759683357.6937337,1,1.1917528854228767,-1.0916728339072754,0.2062508673314758,0.25202418414476546,True,0.1,1.1856852769851685,-1.0927629470825195,0.20317500829696655,0.25202418414476546,-0.15530383289886984,0.24042618168934693
1759683357.8148952,1,1.2299892022609231,-1.0828617018473536,0.23142537765770754,0.23545419511661364,True,0.1,1.2393906116485596,-1.080461025238037,0.24544580280780792,0.23545419511661364,-0.22675306339120027,0.279922576819329
1759683357.9258356,1,1.2445470153928535,-1.0792880909205171,0.2490475430226997,0.23545419511661364,True,0.1,1.2393906116485596,-1.080461025238037,0.24544580280780792,0.23545419511661364,-0.15239686332460245,0.23080150335960323
1759683358.045451,1,1.2861434695142784,-1.0674475029859014,0.27923503808695127,0.2680261586132998,True,0.1,1.2958205938339233,-1.0643030405044556,0.30260610580444336,0.2680261586132998,-0.2557810961424174,0.28360207955382694
1759683358.1598094,1,1.301954921909432,-1.0626456928584023,0.3016139830012001,0.2680261586132998,True,0.1,1.2958205938339233,-1.0643030405044556,0.30260610580444336,0.2680261586132998,-0.15279885954292638,0.21474674152963696
1759683358.2685254,1,1.3397904444761664,-1.0493151251999706,0.3365906200560289,0.2408738650587265,True,0.1,1.3489843606948853,-1.0455795526504517,0.36302754282951355,0.2408738650587265,-0.24693942152166848,0.2604716945107997
1759683358.3773074,1,1.354145939187863,-1.0439363482581685,0.36172299523166984,0.2408738650587265,True,0.1,1.3489843606948853,-1.0455795526504517,0.36302754282951355,0.2408738650587265,-0.13640704782940993,0.21336187258032466
1759683358.4993715,1,1.3909686507589818,-1.0285377876961046,0.3952663998717405,0.24922129585562186,True,0.1,1.3993507623672485,-1.024552345275879,0.41650038957595825,0.24922129585562186,-0.24381026911926362,0.2650864991616402
1759683358.6107538,1,1.404921076599159,-1.022376928562045,0.41907830873226004,0.24922129585562186,True,0.1,1.3993507623672485,-1.024552345275879,0.41650038957595825,0.24922129585562186,-0.14728668679696355,0.20786945376790525
1759683358.7294936,1,1.439648811994059,-1.0055868637064054,0.45206784600019656,0.23116632616021024,True,0.1,1.4480929374694824,-1.0010950565338135,0.4705131947994232,0.23116632616021024,-0.2534636086677331,0.2596738102399216
1759683358.8333173,1,1.4527965466156079,-0.9989251958041387,0.47517785139634494,0.23116632616021024,True,0.1,1.4480929374694824,-1.0010950565338135,0.4705131947994232,0.23116632616021024,-0.15661449006779016,0.21151220866088244
1759683358.94344,1,1.485005127310223,-0.9812123379277499,0.5072769291869195,0.23021716923724014,True,0.1,1.4922945499420166,-0.9768432974815369,0.5237916707992554,0.23021716923724014,-0.25926083665205013,0.26364059262083916
1759683359.059931,1,1.4971769800650416,-0.9742052335695147,0.5287126416545345,0.23021716923724014,True,0.1,1.4922945499420166,-0.9768432974815369,0.5237916707992554,0.23021716923724014,-0.2636392767604878,0.2674730836626098
1759683359.1878233,1,1.53690753641021,-0.948888920750358,0.572873071441669,0.27643475363755227,True,0.1,1.5467710494995117,-0.9419641494750977,0.6084301471710205,0.27643475363755227,-0.2636392767604878,0.2674730836626098
1759683359.2987852,1,1.5518469400474608,-0.9388395724940138,0.6040482044665749,0.27643475363755227,True,0.1,1.5467710494995117,-0.9419641494750977,0.6084301471710205,0.27643475363755227,-0.20552296303895723,0.2431625036992579
1759683359.4274971,1,1.5864244596758852,-0.9125993249326638,0.6498701673029936,0.24431122910022648,True,0.1,1.5954203605651855,-0.9050352573394775,0.6796889305114746,0.24431122910022648,-0.20552296303895723,0.2431625036992579
1759683359.544381,1,1.5993894809903797,-0.9022456844376407,0.6806887596151281,0.24431122910022648,True,0.1,1.5954203605651855,-0.9050352573394775,0.6796889305114746,0.24431122910022648,-0.15563011109240144,0.24116685261327525
1759683359.6697042,1,1.6322247622568253,-0.8739218768472591,0.7182459933833618,0.25267813954267954,True,0.1,1.6404414176940918,-0.8663181662559509,0.7344910502433777,0.25267813954267954,-0.250519363788829,0.3038027641859804
1759683359.7909148,1,1.6445451699379783,-0.8628426520952864,0.7440162204729122,0.25267813954267954,True,0.1,1.6404414176940918,-0.8663181662559509,0.7344910502433777,0.25267813954267954,-0.15364838304094697,0.23988865303060178
1759683359.914677,1,1.6789824551735295,-0.8290912185384282,0.7835733470634709,0.26743954786025564,True,0.1,1.6881746053695679,-0.8195016384124756,0.8043099045753479,0.26743954786025564,-0.2384979804892744,0.2995222428109016
1759683360.041711,1,1.6918731797628117,-0.8159274619737735,0.8116082437634633,0.26743954786025564,True,0.1,1.6881746053695679,-0.8195016384124756,0.8043099045753479,0.26743954786025564,-0.11094504267132166,0.22509209657279017
1759683360.163134,1,1.7236242882707793,-0.7803726722161908,0.849518678102605,0.26383035559199985,True,0.1,1.7320889234542847,-0.7702884674072266,0.8659023642539978,0.26383035559199985,-0.19119382231397708,0.2845228093352862
1759683360.2854624,1,1.7354802929560602,-0.7665460763518994,0.8749506020152227,0.26383035559199985,True,0.1,1.7320889234542847,-0.7702884674072266,0.8659023642539978,0.26383035559199985,-0.15299259984730362,0.274990424845282
1759683360.408409,1,1.76641806537659,-0.7276040458491894,0.9114316982614552,0.2742644948514395,True,0.1,1.7747377157211304,-0.7166005373001099,0.9247162938117981,0.2742644948514395,-0.15299259984730362,0.274990424845282
1759683360.519357,1,1.7779480190614096,-0.7125004826882991,0.9352614616607333,0.2742644948514395,True,0.1,1.7747377157211304,-0.7166005373001099,0.9247162938117981,0.2742644948514395,-0.12660957148557017,0.26610259974502654
1759683360.648232,1,1.8054200912309626,-0.6740221550017153,0.9654174019729869,0.2762039427667607,True,0.1,1.8123224973678589,-0.6640206575393677,0.9695837497711182,0.2762039427667607,-0.12660957148557017,0.26610259974502654
1759683360.7649481,1,1.8156636483571953,-0.6591476082011926,0.9843707061765379,0.2762039427667607,True,0.1,1.8123224973678589,-0.6640206575393677,0.9695837497711182,0.2762039427667607,-0.11393729126895558,0.25461227752978566
1759683360.888087,1,1.84067982401834,-0.620863583001094,1.0085314992683934,0.26921498094461593,True,0.1,1.8469932079315186,-0.6111012101173401,1.009050965309143,0.26921498094461593,-0.18912172680041728,0.32167455608884044
1759683361.0088642,1,1.8500392131924994,-0.6061146555145179,1.0246003096460488,0.26921498094461593,True,0.1,1.8469932079315186,-0.6111012101173401,1.009050965309143,0.26921498094461593,-0.12102365750935995,0.2567436864804956
1759683361.1306357,1,1.8756687735982291,-0.5623716892197228,1.0531938834037593,0.2818277934784728,True,0.1,1.8825329542160034,-0.5502644777297974,1.0654146671295166,0.2818277934784728,-0.19025981455572172,0.319718376312661
1759683361.243195,1,1.8852041083948627,-0.5455152121747857,1.0728348305882074,0.2818277934784728,True,0.1,1.8825329542160034,-0.5502644777297974,1.0654146671295166,0.2818277934784728,-0.15183418454411068,0.30004656748118835
1759683361.3704655,1,1.9099193616042556,-0.49709122326817085,1.1074709710476967,0.31580322540814937,True,0.1,1.9159590005874634,-0.48435842990875244,1.1282778978347778,0.31580322540814937,-0.15183418454411068,0.30004656748118835
1759683361.4875846,1,1.9190057667414753,-0.478412331108764,1.1313281317196404,0.31580322540814937,True,0.1,1.9159590005874634,-0.48435842990875244,1.1282778978347778,0.31580322540814937,-0.10178342443754929,0.2778915192045043
1759683361.6080594,1,1.9390278557037282,-0.43313440291670696,1.1614093592097525,0.29336375658767905,True,0.1,1.9437525272369385,-0.4215894341468811,1.1715699434280396,0.29336375658767905,-0.10178342443754929,0.2778915192045043
1759683361.7284784,1,1.9463807837968912,-0.4157077686375901,1.1808435541722284,0.29336375658767905,True,0.1,1.9437525272369385,-0.4215894341468811,1.1715699434280396,0.29336375658767905,-0.07698303621872071,0.27516399201225517
1759683361.8502781,1,1.964239086598405,-0.3709567422917956,1.2027559899950155,0.2706788181309851,True,0.1,1.9689680337905884,-0.3587931990623474,1.20246422290802,0.2706788181309851,-0.11933432371237451,0.3335273197472592
1759683361.968414,1,1.9708624445574572,-0.3537852115195967,1.2169278981988825,0.2706788181309851,True,0.1,1.9689680337905884,-0.3587931990623474,1.20246422290802,0.2706788181309851,-0.06434747812916441,0.26755827683115097
1759683362.0966794,1,1.9892241475493688,-0.3029914286234481,1.2367782831388237,0.2974469796990658,True,0.1,1.994255781173706,-0.28886324167251587,1.2378692626953125,0.2974469796990658,-0.10876094795337288,0.3377765179383244
1759683362.2068558,1,1.996040014830873,-0.2835197097531054,1.250260769429353,0.2974469796990658,True,0.1,1.994255781173706,-0.28886324167251587,1.2378692626953125,0.2974469796990658,-0.04387685638142713,0.24800703434131569
1759683362.337856,1,2.0119640955231093,-0.23471753351456506,1.2670118140365672,0.2988319246686304,True,0.1,2.0160303115844727,-0.22209879755973816,1.265580654144287,0.2988319246686304,-0.08000744948504313,0.3110485924671468
1759683362.4547942,1,2.0178725102295934,-0.21602102344668644,1.2776333561654312,0.2988319246686304,True,0.1,2.0160303115844727,-0.22209879755973816,1.265580654144287,0.2988319246686304,-0.06398800863886223,0.29856008733820977
1759683362.580786,1,2.0330954260071463,-0.16499670496428823,1.2930265906774068,0.29667990322109794,True,0.1,2.037242889404297,-0.1510269194841385,1.2921175956726074,0.29667990322109794,-0.06398800863886223,0.29856008733820977
1759683362.70055,1,2.038750267772371,-0.14546058170311804,1.3026790516405393,0.29667990322109794,True,0.1,2.037242889404297,-0.1510269194841385,1.2921175956726074,0.29667990322109794,-0.04796226894369937,0.2807102908836442
1759683362.8253326,1,2.0523340634098575,-0.0964917797071484,1.315028575505167,0.2974678795795375,True,0.1,2.0558888912200928,-0.0839633047580719,1.311957597732544,0.2974678795795375,-0.04796226894369937,0.2807102908836442
1759683362.9482148,1,2.0573917700399558,-0.07775249723538483,1.322401301690597,0.2974678795795375,True,0.1,2.0558888912200928,-0.0839633047580719,1.311957597732544,0.2974678795795375,-0.04790742721058194,0.2741420903436259
1759683363.0750477,1,2.069862144671446,-0.02907552307474362,1.3324346758729595,0.2812481399511311,True,0.1,2.073326587677002,-0.01584789529442787,1.3297940492630005,0.2812481399511311,-0.07765030250384442,0.3385919768902773
1759683363.193983,1,2.0745278666010023,-0.010458520450787314,1.3389496602131077,0.2812481399511311,True,0.1,2.073326587677002,-0.01584789529442787,1.3297940492630005,0.2812481399511311,-0.04713372723442255,0.26708302438159176
1759683363.317335,1,2.0863320068676514,0.040374841104767537,1.3505627274240757,0.2885151644581851,True,0.1,2.089564085006714,0.05442945659160614,1.3532891273498535,0.2885151644581851,-0.07559972775688273,0.3311503578629562
1759683363.439458,1,2.090721522791277,0.059818663369528326,1.3583690180932217,0.2885151644581851,True,0.1,2.089564085006714,0.05442945659160614,1.3532891273498535,0.2885151644581851,-0.060974565489981813,0.31807881186833004
1759683363.5672963,1,2.1028475814943146,0.11879082695085935,1.3731515758946982,0.33010464973686204,True,0.1,2.106083393096924,0.1352853775024414,1.3813636302947998,0.33010464973686204,-0.060974565489981813,0.31807881186833004
1759683363.6894999,1,2.1073065416487755,0.14135178897831674,1.3834320429803109,0.33010464973686204,True,0.1,2.106083393096924,0.1352853775024414,1.3813636302947998,0.33010464973686204,-0.032494257321530995,0.276239403396034
1759683363.8284316,1,2.117205024314685,0.19583312553961332,1.3964150362063616,0.3071918175468173,True,0.1,2.1198153495788574,0.2108456790447235,1.400347113609314,0.3071918175468173,-0.032494257321530995,0.276239403396034
1759683363.9535275,1,2.1208424876260294,0.21666917139226846,1.4048071719063469,0.3071918175468173,True,0.1,2.1198153495788574,0.2108456790447235,1.400347113609314,0.3071918175468173,-0.02065968944291008,0.2662577504523576
1759683364.093153,1,2.1293098050462835,0.26779929233161115,1.4128628997482977,0.2738534030497929,True,0.1,2.1317667961120605,0.28270357847213745,1.4102786779403687,0.2738534030497929,-0.043653327257679564,0.3331057529879427
1759683364.2118897,1,2.132465739602181,0.28734196703900544,1.417852421135656,0.2738534030497929,True,0.1,2.1317667961120605,0.28270357847213745,1.4102786779403687,0.2738534030497929,-0.026646750635716643,0.26417915190287034
1759683364.347209,1,2.140899215819098,0.3422891113443874,1.4252425801839657,0.28958745328095054,True,0.1,2.143406867980957,0.35855633020401,1.4244104623794556,0.28958745328095054,-0.04875356551571386,0.33022569760368303
1759683364.465614,1,2.1440429754577504,0.3632886219815437,1.4299817231346896,0.28958745328095054,True,0.1,2.143406867980957,0.35855633020401,1.4244104623794556,0.28958745328095054,-0.04283985551576741,0.30451078117529573
1759683364.5979388,1,2.1519908865426713,0.4209139082125872,1.4392012748093883,0.31717815289845347,True,0.1,2.1541786193847656,0.4371158182621002,1.4425015449523926,0.31717815289845347,-0.04283985551576741,0.30451078117529573
1759683364.7249577,1,2.154921682590257,0.44293907565316926,1.4454409437912785,0.31717815289845347,True,0.1,2.1541786193847656,0.4371158182621002,1.4425015449523926,0.31717815289845347,-0.02722012146566044,0.27405652239706363
1759683364.8564262,1,2.1614241152820854,0.49648667784941475,1.4537018214290827,0.2987419640329735,True,0.1,2.1631569862365723,0.5112596750259399,1.4557092189788818,0.2987419640329735,-0.03955049437524849,0.33123046176991733
1759683364.974853,1,2.163820446696224,0.5169505943664238,1.45930012420411,0.2987419640329735,True,0.1,2.1631569862365723,0.5112596750259399,1.4557092189788818,0.2987419640329735,-0.015310014191442178,0.25526370062313125
1759683365.1080918,1,2.1696160718406654,0.5702864850648186,1.4660769084336538,0.29677869850959104,True,0.1,2.1711745262145996,0.5850198864936829,1.4663443565368652,0.29677869850959104,-0.02840526069810423,0.3300895288204893
1759683365.2304463,1,2.171758540618218,0.5906666597888421,1.4705831336536956,0.29677869850959104,True,0.1,2.1711745262145996,0.5850198864936829,1.4663443565368652,0.29677869850959104,-0.008476732226242234,0.2492010844301052
1759683365.365308,1,2.177040226262861,0.6436210153060034,1.4754410175350747,0.27999689165766156,True,0.1,2.1785848140716553,0.6591295003890991,1.4736318588256836,0.27999689165766156,-0.020645236255585786,0.3175228862070833
1759683365.4929478,1,2.1790078878300716,0.6638526301655012,1.4783554999791626,0.27999689165766156,True,0.1,2.1785848140716553,0.6591295003890991,1.4736318588256836,0.27999689165766156,-0.019579182540557127,0.3077277070328508
1759683365.6208525,1,2.1844425641178282,0.7222914512119907,1.482749053170762,0.3197720823971182,True,0.1,2.1859898567199707,0.7387288212776184,1.4816675186157227,0.3197720823971182,-0.019579182540557127,0.3077277070328508
1759683365.745837,1,2.1864673015805165,0.7446176910554092,1.4854584933422945,0.3197720823971182,True,0.1,2.1859898567199707,0.7387288212776184,1.4816675186157227,0.3197720823971182,-0.01615677282876149,0.2738186997159569
1759683365.8760972,1,2.1909903078842667,0.797357221472159,1.4892358892339335,0.2793007213934655,True,0.1,2.1923253536224365,0.8127521872520447,1.4884010553359985,0.2793007213934655,-0.025364626121179512,0.33294928641858984
1759683365.9978316,1,2.1926805641358746,0.8175050352948552,1.491686506433421,0.2793007213934655,True,0.1,2.1923253536224365,0.8127521872520447,1.4884010553359985,0.2793007213934655,-0.013505968884899744,0.26463783888927855
1759683366.1238391,1,2.19699747921691,0.8726250856122163,1.4955291150422125,0.31854026240130096,True,0.1,2.19812273979187,0.8870648145675659,1.4959230422973633,0.31854026240130096,-0.024250570660530713,0.3319952041314832
1759683366.2408352,1,2.1986032560551076,0.8936823832577101,1.498211469873123,0.31854026240130096,True,0.1,2.19812273979187,0.8870648145675659,1.4959230422973633,0.31854026240130096,-0.010599542684754937,0.23710028951763856
1759683366.3701882,1,2.202130349616244,0.9433207187559929,1.5019139579559306,0.279515891727104,True,0.1,2.2030673027038574,0.9567686319351196,1.5024107694625854,0.279515891727104,-0.020675573520119173,0.30867793328703086
1759683366.488053,1,2.20343984146297,0.9622835298868918,1.5043298346134675,0.279515891727104,True,0.1,2.2030673027038574,0.9567686319351196,1.5024107694625854,0.279515891727104,-0.016974563204902537,0.3138538395573601
1759683366.6147308,1,2.206937785420993,1.0164163498679817,1.5082503620913208,0.29922339350677557,True,0.1,2.2078816890716553,1.0314193964004517,1.5094094276428223,0.29922339350677557,-0.016974563204902537,0.3138538395573601
1759683366.7349358,1,2.2082313644275557,1.0370959728674718,1.5108540369072427,0.29922339350677557,True,0.1,2.2078816890716553,1.0314193964004517,1.5094094276428223,0.29922339350677557,-0.010832568564916656,0.28940587058725037
1759683366.8623571,1,2.2114480943731105,1.092215062787971,1.5142494727529137,0.3047549342409837,True,0.1,2.2123160362243652,1.1074789762496948,1.5146801471710205,0.3047549342409837,-0.010832568564916656,0.28940587058725037
1759683366.9827518,1,2.212638985419632,1.1132708707546977,1.5164058226119987,0.3047549342409837,True,0.1,2.2123160362243652,1.1074789762496948,1.5146801471710205,0.3047549342409837,-0.008094721828701523,0.2719072905433638
1759683367.10868,1,2.2153709555960273,1.1637531954767084,1.5187328971876628,0.296151170527685,True,0.1,2.216071605682373,1.1766765117645264,1.518069863319397,0.296151170527685,-0.015051830301585412,0.3343988331495634
1759683367.2244794,1,2.21638986743289,1.1830370301477402,1.5202148061746712,0.296151170527685,True,0.1,2.216071605682373,1.1766765117645264,1.518069863319397,0.296151170527685,-0.009216403587519295,0.2610318358266367
1759683367.3460608,1,2.2189399781522767,1.2338854812995925,1.5225304952695797,0.28462293086568446,True,0.1,2.2196340560913086,1.247743010520935,1.522613763809204,0.28462293086568446,-0.01784568921210905,0.3324032756054125
1759683367.4557266,1,2.2198898504149773,1.2533090480955025,1.5240414612600528,0.28462293086568446,True,0.1,2.2196340560913086,1.247743010520935,1.522613763809204,0.28462293086568446,-0.016372683695831114,0.314489162046389
1759683367.5807602,1,2.2223875704912364,1.3089332252377994,1.5272668996962855,0.3223158098641161,True,0.1,2.223010301589966,1.3234119415283203,1.5290778875350952,0.3223158098641161,-0.016372683695831114,0.314489162046389
1759683367.688941,1,2.2233036199626723,1.3301814693976524,1.5294817784175088,0.3223158098641161,True,0.1,2.223010301589966,1.3234119415283203,1.5290778875350952,0.3223158098641161,-0.01277759189739669,0.29459270196717846
1759683367.8168073,1,2.2253017343786223,1.3815670619832372,1.5327060709323117,0.3041963604380008,True,0.1,2.225768566131592,1.3945404291152954,1.5342235565185547,0.3041963604380008,-0.01277759189739669,0.29459270196717846
1759683367.9266157,1,2.226029222967303,1.4011960167446584,1.534851972397722,0.3041963604380008,True,0.1,2.225768566131592,1.3945404291152954,1.5342235565185547,0.3041963604380008,-0.00876910742299053,0.2868664718394154
1759683368.0539343,1,2.2277076277861925,1.4501150968475935,1.537425715080472,0.29026013540130463,True,0.1,2.2281062602996826,1.4624210596084595,1.5378464460372925,0.29026013540130463,-0.00876910742299053,0.2868664718394154
1759683368.1763456,1,2.2283216686119496,1.4688014529610658,1.5390777033904408,0.29026013540130463,True,0.1,2.2281062602996826,1.4624210596084595,1.5378464460372925,0.29026013540130463,-0.004663013920819026,0.2860086007304471
1759683368.3039854,1,2.229978089884321,1.5217558692354156,1.5408571899604446,0.2954039713186019,True,0.1,2.2304272651672363,1.5362355709075928,1.5403558015823364,0.2954039713186019,-0.0069575239169630265,0.35076295023175097
1759683368.419803,1,2.2305920357001523,1.5419832308671948,1.5419774701198534,0.2954039713186019,True,0.1,2.2304272651672363,1.5362355709075928,1.5403558015823364,0.2954039713186019,-0.0022870650562243355,0.26783614111362997
1759683368.5492003,1,2.232201193572259,1.5971827683927573,1.5431586828201302,0.3050085201751723,True,0.1,2.2326557636260986,1.612455129623413,1.542220115661621,0.3050085201751723,-0.005244029057319466,0.33387469204863035
1759683368.6728423,1,2.232802625352426,1.6182674865535647,1.543833821229974,0.3050085201751723,True,0.1,2.2326557636260986,1.612455129623413,1.542220115661621,0.3050085201751723,-0.005016439904350634,0.3049825321193054
1759683368.7929583,1,2.2343622022994545,1.6750172554738687,1.5448608629984326,0.32907953579070265,True,0.1,2.23478102684021,1.689759612083435,1.5442019701004028,0.32907953579070265,-0.005016439904350634,0.3049825321193054
1759683368.9213703,1,2.2349452331457513,1.6966940717215324,1.545433399687222,0.32907953579070265,True,0.1,2.23478102684021,1.689759612083435,1.5442019701004028,0.32907953579070265,-0.00646598362445161,0.2900757736763864
1759683369.0505495,1,2.236327236879896,1.7507664189944594,1.5465420565730472,0.28902961175895936,True,0.1,2.23673152923584,1.7663276195526123,1.546410322189331,0.28902961175895936,-0.00646598362445161,0.2900757736763864
1759683369.171086,1,2.236843255262163,1.7714205101381217,1.547215603694621,0.28902961175895936,True,0.1,2.23673152923584,1.7663276195526123,1.546410322189331,0.28902961175895936,-0.006822144378476835,0.28145540848227674
1759683369.303323,1,2.238075998985531,1.824554755755027,1.548465236784022,0.2921400557614814,True,0.1,2.2384166717529297,1.8393431901931763,1.5489366054534912,0.2921400557614814,-0.011185259494954636,0.3468793426524791
1759683369.429547,1,2.2385338759739226,1.8448505269661297,1.5493586251041052,0.2921400557614814,True,0.1,2.2384166717529297,1.8393431901931763,1.5489366054534912,0.2921400557614814,-0.006887074906229529,0.2655189970780236
1759683369.572267,1,2.239704074834683,1.903933539891009,1.551238630981035,0.3084948712418186,True,0.1,2.2400243282318115,1.9213870763778687,1.5527421236038208,0.3084948712418186,-0.010319455424044222,0.33600686190001594
1759683369.6975935,1,2.2401304922882734,1.9265016589872968,1.5526421552229532,0.3084948712418186,True,0.1,2.2400243282318115,1.9213870763778687,1.5527421236038208,0.3084948712418186,-0.0032937248167499433,0.24034722542838674
1759683369.8375018,1,2.2410244815534797,1.981165227339278,1.5544432950101914,0.28546072425745095,True,0.1,2.241260528564453,1.9973095655441284,1.5554202795028687,0.28546072425745095,-0.004718134619706049,0.30230651330838976
1759683369.9527972,1,2.2413473619523465,2.002045170002234,1.5556720508282629,0.28546072425745095,True,0.1,2.241260528564453,1.9973095655441284,1.5554202795028687,0.28546072425745095,-0.0010550672891973534,0.29684862163054815
1759683370.0964224,1,2.2421271759097188,2.0557371428237916,1.5567401004246992,0.2803550032499336,True,0.1,2.2423489093780518,2.0715956687927246,1.5564382076263428,0.2803550032499336,-0.0010550672891973534,0.29684862163054815
1759683370.212737,1,2.2424141210297637,2.07624580985977,1.557368700703087,0.2803550032499336,True,0.1,2.2423489093780518,2.0715956687927246,1.5564382076263428,0.2803550032499336,-0.0002139314068685394,0.2714832378105143
1759683370.3400836,1,2.2431569152241435,2.129214443099586,1.5577432858890026,0.304457694784206,True,0.1,2.243364095687866,2.1431360244750977,1.5566719770431519,0.304457694784206,-0.0006201629809510223,0.34955300723206706
1759683370.4883018,1,2.243436502748129,2.1494467152652583,1.5578853557650003,0.304457694784206,True,0.1,2.243364095687866,2.1431360244750977,1.5566719770431519,0.304457694784206,-0.0006970520568145844,0.32767054483088015
1759683370.6225572,1,2.2443910889130474,2.2181361641022126,1.5579959372171848,0.3426561512744737,True,0.1,2.2447080612182617,2.239413022994995,1.5569860935211182,0.3426561512744737,-0.0006970520568145844,0.32767054483088015
1759683370.7523062,1,2.2447542335131225,2.2443732178207796,1.5579784631670517,0.3426561512744737,True,0.1,2.2447080612182617,2.239413022994995,1.5569860935211182,0.3426561512744737,-0.0015766702060133753,0.2706521881357714
1759683370.875394,1,2.2455102673345784,2.299565172541717,1.5580635197965176,0.2875845902894484,True,0.1,2.2457501888275146,2.315903425216675,1.55740487575531,0.2875845902894484,-0.0015766702060133753,0.2706521881357714
1759683370.9963,1,2.24579792528531,2.320646637633178,1.5580454909903958,0.2875845902894484,True,0.1,2.2457501888275146,2.315903425216675,1.55740487575531,0.2875845902894484,-0.0036671831746097894,0.2748913805050801
1759683371.1149063,1,2.24643967488357,2.3695781756164043,1.5583582584163675,0.2837125374621574,True,0.1,2.2466132640838623,2.382286548614502,1.5582367181777954,0.2837125374621574,-0.0002933332402275113,0.3410625681499378
1759683371.2396712,1,2.2466817507838295,2.388268398376253,1.5585522199341337,0.2837125374621574,True,0.1,2.2466132640838623,2.382286548614502,1.5582367181777954,0.2837125374621574,0.0014093993826804763,0.26931444934534277
1759683371.3596756,1,2.247379009913992,2.4432834840770283,1.5586814100287336,0.3211784064904316,True,0.1,2.247560739517212,2.4574363231658936,1.5575997829437256,0.3211784064904316,0.023179337462156724,0.3338493092580542
1759683371.4788783,1,2.2476518464472672,2.464297298647373,1.5592047912584022,0.3211784064904316,True,0.1,2.247560739517212,2.4574363231658936,1.5575997829437256,0.3211784064904316,0.07281660804941481,0.30605462298442276
1759683371.6065445,1,2.2487758987619193,2.520468983907523,1.5517349872262471,0.31355585764185345,True,0.1,2.2492141723632812,2.5358078479766846,1.5385525226593018,0.31355585764185345,0.07281660804941481,0.30605462298442276
1759683371.7260172,1,2.2492974746206644,2.5419230933490264,1.5463829454797988,0.31355585764185345,True,0.1,2.2492141723632812,2.5358078479766846,1.5385525226593018,0.31355585764185345,0.10328005525578021,0.28694675892309124
1759683371.8498166,1,2.2516809146695977,2.593482036762025,1.5301632333716668,0.28745380765077616,True,0.1,2.2526721954345703,2.607588052749634,1.5067579746246338,0.28745380765077616,0.10328005525578021,0.28694675892309124
1759683371.9711478,1,2.2527653370625966,2.6131696961080015,1.5183464393073614,0.28745380765077616,True,0.1,2.2526721954345703,2.607588052749634,1.5067579746246338,0.28745380765077616,0.10575968682972103,0.28145221514798374
1759683372.0929444,1,2.256911315572075,2.663645824329696,1.496689585394523,0.2948885680824443,True,0.1,2.2584593296051025,2.676644802093506,1.47052001953125,0.2948885680824443,0.10575968682972103,0.28145221514798374
