timestamp,observer_vehicle_id,vehicle_0_x,vehicle_0_y,vehicle_0_theta,vehicle_0_velocity,vehicle_1_x,vehicle_1_y,vehicle_1_theta,vehicle_1_velocity
1759506851.9325135,0,0.0,6.0,-0.05483113549895436,0.0,0.0,0.0,0.0,0.0
1759506851.9436436,0,0.0,6.0,-0.05483113549895436,0.0,0.0,0.0,0.0,0.0
1759506851.9541435,0,0.0,6.0,-0.05483113549895436,0.0,0.0,0.0,0.0,0.0
1759506851.964673,0,0.0,6.0,-0.05483113549895436,0.0,0.0,0.0,0.0,0.0
1759506851.9748354,0,0.0,6.0,-0.05483113549895436,0.0,0.0,0.0,0.0,0.0
1759506851.9850311,0,0.0,6.0,-0.05483113549895436,0.0,0.0,0.0,0.0,0.0
1759506851.9950867,0,0.0,6.0,-0.05483113549895436,0.0,0.0,0.0,0.0,0.0
1759506852.0065007,0,0.0,6.0,-0.05483113549895436,0.0,0.0,0.0,0.0,0.0
1759506852.0178607,0,0.0,6.0,-0.05483113549895436,0.0,0.0,0.0,0.0,0.0
1759506852.028205,0,0.0,6.0,-0.05483113549895436,0.0,0.0,0.0,0.0,0.0
1759506852.0383275,0,0.0,6.0,-0.05483113549895436,0.0,0.0,0.0,0.0,0.0
1759506852.0498378,0,0.0,6.0,-0.05483113549895436,0.0,0.0,0.0,0.0,0.0
1759506852.0611625,0,0.0,6.0,-0.05483113549895436,0.0,0.0,0.0,0.0,0.0
1759506852.0717509,0,0.0,6.0,-0.05483113549895436,0.0,0.0,0.0,0.0,0.0
1759506852.0827544,0,0.0,6.0,-0.05483113549895436,0.0,0.0,0.0,0.0,0.0
1759506852.0940666,0,0.0,6.0,-0.05483113549895436,0.0,0.0,0.0,0.0,0.0
1759506852.104787,0,0.0,6.0,-0.05483113549895436,0.0,0.0,0.0,0.0,0.0
1759506852.1148505,0,0.0,6.0,-0.05483113549895436,0.0,0.0,0.0,0.0,0.0
1759506852.127902,0,1.5131632148760826e-07,5.999996689955394,-2.8798471078288443,0.0,0.0,0.0,0.0,0.0
1759506852.1386638,0,1.5216285131686174e-07,5.999996671437553,-3.1211299473642384,0.0,0.0,0.0,0.0,0.0
1759506852.1496036,0,1.5242844323611442e-07,5.999996665627729,3.13931032790844,0.0,0.0,0.0,0.0,0.0
1759506852.1605175,0,1.5252714362872036e-07,5.999996663468658,3.136339476957742,0.0,0.0,0.0,0.0,0.0
1759506852.1708496,0,1.5256469404108368e-07,5.999996662647243,3.1360875962546295,0.0,0.0,0.0,0.0,0.0
1759506852.18208,0,1.5257902870134905e-07,5.999996662333673,3.136357466083709,0.0,0.0,0.0,0.0,0.0
1759506852.192245,0,1.5258450359085367e-07,5.99999666221391,3.1369837577027226,0.0,0.0,0.0,0.0,0.0
1759506852.2034996,0,1.5258659478673156e-07,5.999996662168164,3.1374909511842013,0.0,0.0,0.0,0.0,0.0
1759506852.2151637,0,1.5258739355104042e-07,5.999996662150691,3.1379582608703664,0.0,0.0,0.0,0.0,0.0
1759506852.225224,0,1.525876986517772e-07,5.999996662144017,3.138479564084374,0.0,0.0,0.0,0.0,0.0
1759506852.2363822,0,1.525878151898842e-07,5.999996662141468,3.1388317415052445,0.0,0.0,0.0,0.0,0.0
1759506852.2472942,0,1.5258785970347982e-07,5.999996662140495,3.13914123673025,0.0,0.0,0.0,0.0,0.0
1759506852.2585204,0,1.5258787670616037e-07,5.999996662140123,3.139389275390492,0.0,0.0,0.0,0.0,0.0
1759506852.2690122,0,1.5258788320060645e-07,5.9999966621399805,3.139629558287499,0.0,0.0,0.0,0.0,0.0
1759506852.2796621,0,1.5258788568126412e-07,5.999996662139926,3.139821157154328,0.0,0.0,0.0,0.0,0.0
1759506852.2896779,0,1.5258788662879104e-07,5.999996662139906,3.1400002780653438,0.0,0.0,0.0,0.0,0.0
1759506852.3008819,0,1.5258788699071411e-07,5.999996662139898,3.1401117693102503,0.0,0.0,0.0,0.0,0.0
1759506852.311292,0,1.5258788712895643e-07,5.999996662139894,3.1402344282530485,0.0,0.0,0.0,0.0,0.0
1759506852.3276753,0,1.5258788718176028e-07,5.9999966621398935,3.140197702687818,0.0,0.0,0.0,0.0,0.0
1759506852.332235,0,1.5258788720192956e-07,5.999996662139893,3.140477199682282,0.0,0.0,0.0,0.0,0.0
1759506852.3430202,0,1.5258788720963354e-07,5.999996662139893,3.140545576799287,0.0,0.0,0.0,0.0,0.0
1759506852.3535514,0,1.525878872125762e-07,5.999996662139893,3.140602996358247,0.0,0.0,0.0,0.0,0.0
1759506852.3641121,0,1.525878872137002e-07,5.999996662139893,3.140655938582544,0.0,0.0,0.0,0.0,0.0
1759506852.3753035,0,1.5258788721412954e-07,5.999996662139893,3.140694050023372,0.0,0.0,0.0,0.0,0.0
1759506852.385681,0,1.5258788721429352e-07,5.999996662139893,3.140747646670988,0.0,1.580614471435547,1.1854608535766602,-0.6207058507431937,0.0
1759506852.3966823,0,1.5258788721435614e-07,5.999996662139893,3.140786169787372,0.0,2.8348117999918396,2.1261088499938796,-1.1132279893734545,0.0
1759506852.4079225,0,1.5258788721438007e-07,5.999996662139893,3.140819684095968,0.0,3.832356799939228,2.8742675999544205,-1.504962994358325,0.0
1759506852.4185157,0,1.525878872143892e-07,5.999996662139893,3.140863255293098,0.0,4.628417724401443,3.471313293301082,-1.8175753880136625,0.0
1759506852.4300508,0,1.525878872143927e-07,5.999996662139893,3.1408897869754853,0.0,5.264644813507029,3.948483610130272,-2.067421181371788,0.0
1759506852.4402845,0,1.5258788721439405e-07,5.999996662139893,3.1409347011142117,0.0,5.775215527219228,4.331411645414421,-2.2679218315597254,0.0
1759506852.4507444,0,1.5258788721439455e-07,5.999996662139893,3.1409713059910622,0.0,6.185830901426749,4.6393731760700625,-2.429170111758144,0.0
1759506852.4609768,0,1.5258788721439474e-07,5.999996662139893,3.1410062053601244,0.0,6.516948734653624,4.887711550990218,-2.5591997806518285,0.0
1759506852.4718962,0,1.5258788721439482e-07,5.999996662139893,3.141028663407301,0.0,6.784392941751121,5.088294706313341,-2.66422487506465,0.0
1759506852.4825776,0,1.5258788721439484e-07,5.999996662139893,3.1410530823122027,0.0,7.001011055287205,5.250758291465404,-2.749290609232378,0.0
1759506852.494325,0,1.5258788721439487e-07,5.999996662139893,3.1410648793948983,0.0,7.176681270431928,5.382510952823946,-2.8182761413227,0.0
1759506852.504828,0,1.5258788721439487e-07,5.999996662139893,3.1410921743121634,0.0,7.31973075615864,5.489798067118981,-2.8744515429408657,0.0
1759506852.5151494,0,1.5258788721439487e-07,5.999996662139893,3.1411192136564043,0.0,7.436521502876288,5.577391127157217,-2.9203151618753873,0.0
1759506852.6357408,0,1.5258788721439487e-07,5.999996662139893,3.1406035979144473,0.0,7.519671117326284,5.639753337994714,-2.952967939076192,0.0
1759506852.64646,0,1.5258788721439487e-07,5.999996662139893,3.1408731312984095,0.0,7.589521014384825,5.69214076078862,-2.9803979294764886,0.0
1759506852.6569657,0,1.5258788721439487e-07,5.999996662139893,3.141061596289699,0.0,7.648350799060875,5.736263099295656,-3.0035003318689086,0.0
1759506852.6683443,0,1.5258788721439487e-07,5.999996662139893,3.1411741404157247,0.0,7.697948858140514,5.773461643605386,-3.0229774441012665,0.0
1759506852.679759,0,1.5258788721439487e-07,5.999996662139893,3.141246943160482,0.0,7.7398618329987405,5.804896374749056,-3.0394366308205463,0.0
1759506852.6898458,0,1.5258788721439487e-07,5.999996662139893,3.141301987756151,0.0,7.775434122708874,5.8315755920316565,-3.0534058363076744,0.0
1759506852.7000816,0,1.5258788721439487e-07,5.999996662139893,3.14134037935937,0.0,7.805682399551788,5.854261799663842,-3.0652843068332825,0.0
1759506852.7109754,0,1.5258788721439487e-07,5.999996662139893,3.1413655242576937,0.0,7.831432961840111,5.873574721380084,-3.0753965289855785,0.0
1759506852.7213438,0,1.5258788721439487e-07,5.999996662139893,3.1413861209761915,0.0,7.853421561118024,5.8900661708385185,-3.084031431719989,0.0
1759506852.7740781,0,1.5258788721439487e-07,5.999996662139893,3.141265200444529,0.0,7.870995929789346,5.90324694734201,-3.090932870150766,0.0
1759506852.7852583,0,1.5258788721439487e-07,5.999996662139893,3.1413179475801627,0.0,7.8861747206636075,5.9146310404977065,-3.0968935673815743,0.0
1759506852.7966125,0,1.5258788721439487e-07,5.999996662139893,3.1413635294271813,0.0,7.899309075589719,5.92448180669229,-3.1020514164938695,0.0
1759506852.8071473,0,1.5258788721439487e-07,5.999996662139893,3.1413980469150946,0.0,7.9107156998338075,5.933036774875356,-3.106530787354687,0.0
1759506852.817813,0,1.5258788721439487e-07,5.999996662139893,3.1414223345358163,0.0,7.920639686206626,5.94047976465497,-3.11042792768563,0.0
1759506852.8286705,0,1.5258788721439487e-07,5.999996662139893,3.1414394775136216,0.0,7.9293693207238976,5.947026990542923,-3.113856047140211,0.0
1759506852.8402972,0,1.5258788721439487e-07,5.999996662139893,3.1414503608426774,0.0,7.937138695444269,5.952854021583202,-3.116907073454788,0.0
1759506852.8508303,0,1.5258788721439487e-07,5.999996662139893,3.141461457974156,0.0,7.944053438945399,5.95804007920905,-3.119622486874761,0.0
1759506852.861957,0,1.5258788721439487e-07,5.999996662139893,3.1414688632132908,0.0,7.950207560661405,5.962655670496055,-3.1220392048185373,0.0
1759506852.8720582,0,1.5258788721439487e-07,5.999996662139893,3.1414771841199425,0.0,7.9556847289886505,5.966763546741489,-3.124190083788498,0.0
1759506852.8828566,0,1.5258788721439487e-07,5.999996662139893,3.14148236715862,0.0,7.9556847289886505,5.966763546741489,-3.124190083788498,0.0
1759506852.8940728,0,1.5258788721439487e-07,5.999996662139893,3.141485772737914,0.0,7.9556847289886505,5.966763546741489,-3.124190083788498,0.0
1759506852.9052787,0,1.5258788721439487e-07,5.999996662139893,3.1414889441642924,0.0,7.9556847289886505,5.966763546741489,-3.124190083788498,0.0
1759506852.916675,0,1.5258788721439487e-07,5.999996662139893,3.1414916103144392,0.0,7.9556847289886505,5.966763546741489,-3.124190083788498,0.0
1759506852.9450696,0,1.5258788721439487e-07,5.999996662139893,3.1414620573968026,0.0,7.9556847289886505,5.966763546741489,-3.124190083788498,0.0
1759506852.955892,0,1.5258788721439487e-07,5.999996662139893,3.1414750840401844,0.0,7.9556847289886505,5.966763546741489,-3.124190083788498,0.0
1759506852.9658988,0,1.5258788721439487e-07,5.999996662139893,3.141488774220372,0.0,7.9556847289886505,5.966763546741489,-3.124190083788498,0.0
1759506852.9763963,0,1.5258788721439487e-07,5.999996662139893,3.1414982729848724,0.0,7.9556847289886505,5.966763546741489,-3.124190083788498,0.0
1759506852.9868612,0,1.5258788721439487e-07,5.999996662139893,3.1415054655214973,0.0,7.9556847289886505,5.966763546741489,-3.124190083788498,0.0
1759506852.9979968,0,1.5258788721439487e-07,5.999996662139893,3.141509988881104,0.0,7.9556847289886505,5.966763546741489,-3.124190083788498,0.0
1759506853.00933,0,1.5258788721439487e-07,5.999996662139893,3.1415133975653386,0.0,7.9556847289886505,5.966763546741489,-3.124190083788498,0.0
1759506853.0202148,0,1.5258788721439487e-07,5.999996662139893,3.141517073249796,0.0,7.9556847289886505,5.966763546741489,-3.124190083788498,0.0
1759506853.030546,0,1.5258788721439487e-07,5.999996662139893,3.141521088719836,0.0,7.9556847289886505,5.966763546741489,-3.124190083788498,0.0
1759506853.0413356,0,1.5258788721439487e-07,5.999996662139893,3.141523831907831,0.0,7.9556847289886505,5.966763546741489,-3.124190083788498,0.0
1759506853.0518918,0,1.5258788721439487e-07,5.999996662139893,3.1415265621789406,0.0,7.9556847289886505,5.966763546741489,-3.124190083788498,0.0
1759506853.0628188,0,1.5258788721439487e-07,5.999996662139893,3.1415285084903335,0.0,7.9556847289886505,5.966763546741489,-3.124190083788498,0.0
1759506853.0739179,0,1.5258788721439487e-07,5.999996662139893,3.141530139603038,0.0,7.9556847289886505,5.966763546741489,-3.124190083788498,0.0
1759506853.085409,0,1.5258788721439487e-07,5.999996662139893,3.1415313100440603,0.0,7.9556847289886505,5.966763546741489,-3.124190083788498,0.0
1759506853.0958436,0,1.5258788721439487e-07,5.999996662139893,3.1415339316386177,0.0,7.9556847289886505,5.966763546741489,-3.124190083788498,0.0
1759506853.1067748,0,1.5258788721439487e-07,5.999996662139893,3.1415357401273294,0.0,7.9556847289886505,5.966763546741489,-3.124190083788498,0.0
1759506853.1184883,0,1.5258788721439487e-07,5.999996662139893,3.1415365588513104,0.0,7.9556847289886505,5.966763546741489,-3.124190083788498,0.0
1759506853.1288407,0,1.5258788721439487e-07,5.999996662139893,3.141539094888447,0.0,7.9556847289886505,5.966763546741489,-3.124190083788498,0.0
1759506853.1403475,0,1.5258788721439487e-07,5.999996662139893,3.141540171748902,0.0,7.9556847289886505,5.966763546741489,-3.124190083788498,0.0
1759506853.1512494,0,1.5258788721439487e-07,5.999996662139893,3.1415419495865393,0.0,7.9556847289886505,5.966763546741489,-3.124190083788498,0.0
1759506853.161761,0,1.5258788721439487e-07,5.999996662139893,3.141544061737447,0.0,7.9556847289886505,5.966763546741489,-3.124190083788498,0.0
1759506853.1728141,0,1.5258788721439487e-07,5.999996662139893,3.14154543863571,0.0,7.9556847289886505,5.966763546741489,-3.124190083788498,0.0
1759506853.1840553,0,1.5258788721439487e-07,5.999996662139893,3.141546602554948,0.0,7.9556847289886505,5.966763546741489,-3.124190083788498,0.0
1759506853.1950471,0,1.5258788721439487e-07,5.999996662139893,3.1415480482456744,0.0,7.9556847289886505,5.966763546741489,-3.124190083788498,0.0
1759506853.2063463,0,1.5258788721439487e-07,5.999996662139893,3.1415492026181404,0.0,7.9556847289886505,5.966763546741489,-3.124190083788498,0.0
1759506853.2165134,0,1.5258788721439487e-07,5.999996662139893,3.141551349135895,0.0,7.9556847289886505,5.966763546741489,-3.124190083788498,0.0
1759506853.2287722,0,1.5258788721439487e-07,5.999996662139893,3.1415515299957057,0.0,7.9556847289886505,5.966763546741489,-3.124190083788498,0.0
1759506853.2390199,0,1.5258788721439487e-07,5.999996662139893,3.141553552712802,0.0,7.9556847289886505,5.966763546741489,-3.124190083788498,0.0
1759506853.2506573,0,1.5258788721439487e-07,5.999996662139893,3.1415543300136566,0.0,7.9556847289886505,5.966763546741489,-3.124190083788498,0.0
1759506853.2610705,0,1.5258788721439487e-07,5.999996662139893,3.1415560739538577,0.0,7.9556847289886505,5.966763546741489,-3.124190083788498,0.0
1759506853.271634,0,1.5258788721439487e-07,5.999996662139893,3.1415575453684514,0.0,7.9556847289886505,5.966763546741489,-3.124190083788498,0.0
1759506853.28197,0,1.5258788721439487e-07,5.999996662139893,3.141559013839945,0.0,7.9556847289886505,5.966763546741489,-3.124190083788498,0.0
1759506853.2932618,0,1.5258788721439487e-07,5.999996662139893,3.1415596763329674,0.0,7.9556847289886505,5.966763546741489,-3.124190083788498,0.0
1759506853.3036954,0,1.5258788721439487e-07,5.999996662139893,3.1415609539927125,0.0,7.9556847289886505,5.966763546741489,-3.124190083788498,0.0
1759506853.3139415,0,1.5258788721439487e-07,5.999996662139893,3.1415622647611876,0.0,7.9556847289886505,5.966763546741489,-3.124190083788498,0.0
1759506853.324074,0,1.5258788721439487e-07,5.999996662139893,3.1415635000204514,0.0,7.9556847289886505,5.966763546741489,-3.124190083788498,0.0
1759506853.3451483,0,1.5258788721439487e-07,5.999996662139893,3.141558295946627,0.0,7.9556847289886505,5.966763546741489,-3.124190083788498,0.0
1759506853.3557947,0,1.5258788721439487e-07,5.999996662139893,3.1415607812813953,0.0,7.9556847289886505,5.966763546741489,-3.124190083788498,0.0
1759506853.3663561,0,1.5258788721439487e-07,5.999996662139893,3.141563250868426,0.0,7.9556847289886505,5.966763546741489,-3.124190083788498,0.0
1759506853.377185,0,1.5258788721439487e-07,5.999996662139893,3.141565081556788,0.0,7.9556847289886505,5.966763546741489,-3.124190083788498,0.0
1759506853.3884015,0,1.5258788721439487e-07,5.999996662139893,3.141566373216314,0.0,7.9556847289886505,5.966763546741489,-3.124190083788498,0.0
1759506853.3993788,0,1.5258788721439487e-07,5.999996662139893,3.141567597201462,0.0,7.9556847289886505,5.966763546741489,-3.124190083788498,0.0
1759506853.4100652,0,1.5258788721439487e-07,5.999996662139893,3.1415688023277166,0.0,7.9556847289886505,5.966763546741489,-3.124190083788498,0.0
1759506853.4215012,0,1.5258788721439487e-07,5.999996662139893,3.141569514308152,0.0,7.9556847289886505,5.966763546741489,-3.124190083788498,0.0
1759506853.4328976,0,1.5258788721439487e-07,5.999996662139893,3.141570215804652,0.0,7.9556847289886505,5.966763546741489,-3.124190083788498,0.0
1759506853.444352,0,1.5258788721439487e-07,5.999996662139893,3.1415708890665837,0.0,7.9556847289886505,5.966763546741489,-3.124190083788498,0.0
1759506853.4556081,0,1.5258788721439487e-07,5.999996662139893,3.1415716389072976,0.0,7.9556847289886505,5.966763546741489,-3.124190083788498,0.0
1759506853.4660792,0,1.5258788721439487e-07,5.999996662139893,3.1415726584188253,0.0,7.9556847289886505,5.966763546741489,-3.124190083788498,0.0
1759506853.4768558,0,1.5258788721439487e-07,5.999996662139893,3.141573436315962,0.0,7.9556847289886505,5.966763546741489,-3.124190083788498,0.0
1759506853.4868672,0,1.5258788721439487e-07,5.999996662139893,3.1415744046443326,0.0,7.9556847289886505,5.966763546741489,-3.124190083788498,0.0
1759506853.497706,0,1.5258788721439487e-07,5.999996662139893,3.1415749432888234,0.0,7.9556847289886505,5.966763546741489,-3.124190083788498,0.0
1759506853.5079687,0,1.5258788721439487e-07,5.999996662139893,3.141575639972709,0.0,7.9556847289886505,5.966763546741489,-3.124190083788498,0.0
1759506853.5185652,0,1.5258788721439487e-07,5.999996662139893,3.1415761603882064,0.0,7.9556847289886505,5.966763546741489,-3.124190083788498,0.0
1759506853.5444603,0,1.5258788721439487e-07,5.999996662139893,3.1415719955362977,0.0,7.9556847289886505,5.966763546741489,-3.124190083788498,0.0
1759506853.5557997,0,1.5258788721439487e-07,5.999996662139893,3.1415736290008685,0.0,7.9556847289886505,5.966763546741489,-3.124190083788498,0.0
1759506853.5658605,0,1.5258788721439487e-07,5.999996662139893,3.141575587649978,0.0,7.9556847289886505,5.966763546741489,-3.124190083788498,0.0
1759506853.5760098,0,1.5258788721439487e-07,5.999996662139893,3.141577065972937,0.0,7.9556847289886505,5.966763546741489,-3.124190083788498,0.0
1759506853.5861907,0,1.5258788721439487e-07,5.999996662139893,3.1415781779600813,0.0,7.9556847289886505,5.966763546741489,-3.124190083788498,0.0
1759506853.5962305,0,1.5258788721439487e-07,5.999996662139893,3.141579078504744,0.0,7.9556847289886505,5.966763546741489,-3.124190083788498,0.0
1759506853.6067152,0,1.5258788721439487e-07,5.999996662139893,3.141579688636984,0.0,7.9556847289886505,5.966763546741489,-3.124190083788498,0.0
1759506853.6169426,0,1.5258788721439487e-07,5.999996662139893,3.14158025990632,0.0,7.9556847289886505,5.966763546741489,-3.124190083788498,0.0
1759506853.6287985,0,1.5258788721439487e-07,5.999996662139893,3.1415803792278503,0.0,7.9556847289886505,5.966763546741489,-3.124190083788498,0.0
1759506853.639621,0,1.5258788721439487e-07,5.999996662139893,3.1415807749514606,0.0,7.9556847289886505,5.966763546741489,-3.124190083788498,0.0
1759506853.650228,0,1.5258788721439487e-07,5.999996662139893,3.1415812086600123,0.0,7.9556847289886505,5.966763546741489,-3.124190083788498,0.0
1759506853.6613646,0,1.5258788721439487e-07,5.999996662139893,3.1415814944848215,0.0,7.9556847289886505,5.966763546741489,-3.124190083788498,0.0
1759506853.6723173,0,1.5258788721439487e-07,5.999996662139893,3.141581815102729,0.0,7.9556847289886505,5.966763546741489,-3.124190083788498,0.0
1759506853.6823761,0,1.5258788721439487e-07,5.999996662139893,3.141582301200325,0.0,7.9556847289886505,5.966763546741489,-3.124190083788498,0.0
1759506853.6930387,0,1.5258788721439487e-07,5.999996662139893,3.141582612511817,0.0,7.9556847289886505,5.966763546741489,-3.124190083788498,0.0
1759506853.7044413,0,1.5258788721439487e-07,5.999996662139893,3.1415827642622904,0.0,7.9556847289886505,5.966763546741489,-3.124190083788498,0.0
1759506853.7149358,0,1.5258788721439487e-07,5.999996662139893,3.1415831033564316,0.0,7.9556847289886505,5.966763546741489,-3.124190083788498,0.0
1759506853.725002,0,1.5258788721439487e-07,5.999996662139893,3.141583495867307,0.0,7.9556847289886505,5.966763546741489,-3.124190083788498,0.0
1759506853.744318,0,1.5258788721439487e-07,5.999996662139893,3.141582353277551,0.0,7.9556847289886505,5.966763546741489,-3.124190083788498,0.0
1759506853.754754,0,1.5258788721439487e-07,5.999996662139893,3.1415830134016627,0.0,7.9556847289886505,5.966763546741489,-3.124190083788498,0.0
1759506853.7652466,0,1.5258788721439487e-07,5.999996662139893,3.141583637204665,0.0,7.9556847289886505,5.966763546741489,-3.124190083788498,0.0
1759506853.7761152,0,1.5258788721439487e-07,5.999996662139893,3.141584084029448,0.0,7.9556847289886505,5.966763546741489,-3.124190083788498,0.0
1759506853.7864432,0,1.5258788721439487e-07,5.999996662139893,3.1415845270515295,0.0,7.9556847289886505,5.966763546741489,-3.124190083788498,0.0
1759506853.798002,0,1.5258788721439487e-07,5.999996662139893,3.1415847308484093,0.0,7.9556847289886505,5.966763546741489,-3.124190083788498,0.0
1759506853.809185,0,1.5258788721439487e-07,5.999996662139893,3.141584973992515,0.0,7.964419781050192,5.973314694805507,-1.8891586423972968,0.0
1759506853.8195577,0,1.5258788721439487e-07,5.999996662139893,3.1415853075233464,0.0,7.971359276323295,5.978519204258154,-0.9079973637596017,0.0
1759506853.8303163,0,1.5258788721439487e-07,5.999996662139893,3.1415855513703637,0.0,7.976883713400817,5.982662442902893,-0.12690831716244522,0.0
1759506853.8406203,0,1.5258788721439487e-07,5.999996662139893,3.1415858221103736,0.0,7.981294951311627,5.98597080013943,0.49678773833043127,0.0
1759506853.8515894,0,1.5258788721439487e-07,5.999996662139893,3.1415859849352614,0.0,7.984823397802119,5.98861707805882,0.995667690541636,0.0
1759506853.8624887,0,1.5258788721439487e-07,5.999996662139893,3.1415861499002933,0.0,7.987653201055965,5.990739384826699,1.395767880766921,0.0
1759506853.8740137,0,1.5258788721439487e-07,5.999996662139893,3.1415862472719205,0.0,7.989926935833945,5.992444649212523,1.7172466676598033,0.0
1759506853.884912,0,1.5258788721439487e-07,5.999996662139893,3.141586426013749,0.0,7.991760023440909,5.993819435332047,1.9764232373555208,0.0
1759506853.8961105,0,1.5258788721439487e-07,5.999996662139893,3.141586571613903,0.0,7.993241101665776,5.994930220096366,2.1858299085446062,0.0
1759506853.906993,0,1.5258788721439487e-07,5.999996662139893,3.1415867473762784,0.0,7.994441284580891,5.99583033791197,2.3555213568777646,0.0
1759506853.9174597,0,1.5258788721439487e-07,5.999996662139893,3.1415869525902043,0.0,7.995416741729837,5.9965619150299805,2.4934392811431816,0.0
1759506853.9276955,0,1.5258788721439487e-07,5.999996662139893,3.1415871568322267,0.0,7.996211668001998,5.997158096904137,2.6058323078578085,0.0
1759506853.937743,0,1.5258788721439487e-07,5.999996662139893,3.141587351544306,0.0,7.9968611353896675,5.997645186962605,2.6976591954686935,0.0
1759506853.947957,0,1.5258788721439487e-07,5.999996662139893,3.1415875063727814,0.0,7.997392872762158,5.99804398140983,2.772840473034308,0.0
1759506853.9588597,0,1.5258788721439487e-07,5.999996662139893,3.1415875889141542,0.0,7.997828871866592,5.99837097370121,2.8344855094462766,0.0
1759506853.9700315,0,1.5258788721439487e-07,5.999996662139893,3.1415876560437734,0.0,7.998258214293788,5.998692973592099,2.8951893716527257,0.0
1759506853.9809976,0,1.5258788721439487e-07,5.999996662139893,3.141587753032635,0.0,7.9985988689720084,5.998948459102659,2.943353851417092,0.0
1759506853.99194,0,1.5258788721439487e-07,5.999996662139893,3.1415878579721976,0.0,7.998869867153464,5.99915170336489,2.9816697392103144,0.0
1759506854.0028555,0,1.5258788721439487e-07,5.999996662139893,3.141587966378207,0.0,7.9990860168991915,5.9993138121855685,3.0122307169974043,0.0
1759506854.0136325,0,1.5258788721439487e-07,5.999996662139893,3.141588083399494,0.0,7.999258888544179,5.999443463129193,3.0366726911700126,0.0
1759506854.0237222,0,1.5258788721439487e-07,5.999996662139893,3.1415882410773293,0.0,7.999397599727629,5.999547494278008,3.056284786395874,0.0
1759506854.0347562,0,1.5258788721439487e-07,5.999996662139893,3.1415883192875427,0.0,7.999509050717011,5.999631080721246,3.0720426176131936,0.0
1759506854.0461075,0,1.5258788721439487e-07,5.999996662139893,3.1415883785578664,0.0,7.9995987978293055,5.999698389606964,3.08473178130414,0.0
1759506854.0563688,0,1.5258788721439487e-07,5.999996662139893,3.1415885131640042,0.0,7.999671345359064,5.999752799083379,3.094989130615407,0.0
1759506854.067189,0,1.5258788721439487e-07,5.999996662139893,3.1415886036641716,0.0,7.99973710007668,5.999802114060322,3.1042860578807443,0.0
1759506854.0772223,0,1.5258788721439487e-07,5.999996662139893,3.1415887337087174,0.0,7.999789207687197,5.999841193927202,3.1116534481231066,0.0
1759506854.0878484,0,1.5258788721439487e-07,5.999996662139893,3.141588816583468,0.0,7.999830574725046,5.999872218537933,3.1175022503994625,0.0
1759506854.0984397,0,1.5258788721439487e-07,5.999996662139893,3.141588896400087,0.0,7.999863499325765,5.999896911457076,3.1221573934708715,0.0
1759506854.108644,0,1.5258788721439487e-07,5.999996662139893,3.1415889935989814,0.0,7.999889780940498,5.999916622243945,3.12587329811537,0.0
1759506854.1191504,0,1.5258788721439487e-07,5.999996662139893,3.1415890677590923,0.0,7.999910803840002,5.999932389079268,3.1288456835910425,0.0
1759506854.1294434,0,1.5258788721439487e-07,5.999996662139893,3.141589148628718,0.0,7.999927665701007,5.999945035202873,3.1312297482026445,0.0
1759506854.1563148,0,1.5258788721439487e-07,5.999996662139893,3.141588495549719,0.0,7.999940979804671,5.999955020565735,3.133112202539919,0.0
1759506854.1674747,0,1.5258788721439487e-07,5.999996662139893,3.1415887478109426,0.0,7.999951741296928,5.999963091511239,3.1346337482845357,0.0
1759506854.1783946,0,1.5258788721439487e-07,5.999996662139893,3.141589004066704,0.0,7.99996046430834,5.999969633629009,3.135867077322608,0.0
1759506854.1884205,0,1.5258788721439487e-07,5.999996662139893,3.141589236236637,0.0,7.999968505734144,5.9999756645685745,3.1370040383426367,0.0
1759506854.19948,0,1.5258788721439487e-07,5.999996662139893,3.1415893753163964,0.0,7.999974878313825,5.999980443900483,3.137905044565995,0.0
1759506854.2110672,0,1.5258788721439487e-07,5.999996662139893,3.1415894666349207,0.0,7.999979938929519,5.999984239280575,3.138620554840049,0.0
1759506854.221629,0,1.5258788721439487e-07,5.999996662139893,3.1415895811935357,0.0,7.999983973008132,5.999987264774426,3.13919092510114,0.0
1759506854.231918,0,1.5258788721439487e-07,5.999996662139893,3.1415896868398487,0.0,7.999987197744616,5.999989683274743,3.139646864106376,0.0
1759506854.2427807,0,1.5258788721439487e-07,5.999996662139893,3.1415897556534205,0.0,7.999989780198135,5.999991620073201,3.1400119920150353,0.0
1759506854.2542782,0,1.5258788721439487e-07,5.999996662139893,3.1415897962514627,0.0,7.999991852144332,5.999993173999409,3.140304940320392,0.0
1759506854.2648115,0,1.5258788721439487e-07,5.999996662139893,3.141589866886452,0.0,7.999993520706662,5.999994425394226,3.1405408549920852,0.0
1759506854.275061,0,1.5258788721439487e-07,5.999996662139893,3.141589938962058,0.0,7.999994868138683,5.999995435946494,3.1407313656953346,0.0
1759506854.2854078,0,1.5258788721439487e-07,5.999996662139893,3.141589998381056,0.0,7.999995958717919,5.99999625386332,3.140885560499965,0.0
1759506854.2960808,0,1.5258788721439487e-07,5.999996662139893,3.1415900415937372,0.0,7.999996843193891,5.999996917206024,3.1410106147787005,0.0
1759506854.3069394,0,1.5258788721439487e-07,5.999996662139893,3.141590077341359,0.0,7.9999975621255714,5.999997456393181,3.141112263082928,0.0
1759506854.318387,0,1.5258788721439487e-07,5.999996662139893,3.141590098200359,0.0,7.9999981475495225,5.9999978954516955,3.141195034997841,0.0
1759506854.329369,0,1.5258788721439487e-07,5.999996662139893,3.1415901354123985,0.0,7.999998625758546,5.9999982541007455,3.1412626480099104,0.0
1759506854.3452601,0,1.5258788721439487e-07,5.999996662139893,3.141590058208511,0.0,7.999999084518748,5.999998598163493,3.1413275111921446,0.0
1759506854.3560388,0,1.5258788721439487e-07,5.999996662139893,3.1415901328355282,0.0,7.999999448842102,5.999998871400128,3.141379022138364,0.0
1759506854.3675416,0,1.5258788721439487e-07,5.999996662139893,3.1415901885537885,0.0,7.9999997386920345,5.999999088782899,3.1414200034373563,0.0
1759506854.3788137,0,1.5258788721439487e-07,5.999996662139893,3.141590242466613,0.0,7.99999996997406,5.999999262240685,3.141452703937745,0.0
1759506854.390266,0,1.5258788721439487e-07,5.999996662139893,3.141590286809251,0.0,8.000000154976515,5.999999400989539,3.14147886106262,0.0
1759506854.4007587,0,1.5258788721439487e-07,5.999996662139893,3.1415903460493535,0.0,8.000000303509829,5.999999512387126,3.1414998618890055,0.0
1759506854.411364,0,1.5258788721439487e-07,5.999996662139893,3.141590394664682,0.0,8.000000423041456,5.999999602033918,3.1415167622252604,0.0
1759506854.4224958,0,1.5258788721439487e-07,5.999996662139893,3.14159042664172,0.0,8.000000519416021,5.999999674313287,3.1415303884313053,0.0
1759506854.4338813,0,1.5258788721439487e-07,5.999996662139893,3.1415904520291793,0.0,8.000000597298008,5.99999973272352,3.1415414000087445,0.0
1759506854.444127,0,1.5258788721439487e-07,5.999996662139893,3.1415904972023476,0.0,8.00000066048199,5.999999780110486,3.1415503334648363,0.0
1759506854.4548655,0,1.5258788721439487e-07,5.999996662139893,3.1415905287489565,0.0,8.000000711834044,5.999999818623697,3.1415575940282836,0.0
1759506854.4656327,0,1.5258788721439487e-07,5.999996662139893,3.1415905566741245,0.0,8.000000759936775,5.99999985467921,2.6054649607032783,-3.0784508599750376e-08
1759506854.476533,0,1.5258788721439487e-07,5.999996662139893,3.1415905808186704,0.0,8.000000798515119,5.999999883490513,1.5675842988471302,-5.825712366636065e-08
1759506854.4866102,0,1.5258788721439487e-07,5.999996662139893,3.1415906165398013,0.0,8.000000829087917,5.999999905637468,0.7430956053938496,-8.038933967051313e-08
1759506854.4968638,0,1.5258788721439487e-07,5.999996662139893,3.141590645447984,0.0,8.000000852557251,5.99999992332474,0.08685515717174153,-9.832218458876162e-08
1759506854.5076156,0,1.5258788721439487e-07,5.999996662139893,3.1415906639779614,0.0,8.000000870912725,5.999999938352149,-0.43625459743642764,-1.1295338062636621e-07
1759506854.5185823,0,1.5258788721439487e-07,5.999996662139893,3.141590679313307,0.0,8.000000886047367,5.999999951317029,-0.854003623622659,-1.2498521200362142e-07
1759506854.5301201,0,1.5258788721439487e-07,5.999996662139893,3.1415906883108438,0.0,8.000000899101478,5.999999962211876,-1.1880318373587524,-1.3497643083663125e-07
1759506854.5402281,0,1.5258788721439487e-07,5.999996662139893,3.1415907186087715,0.0,8.0000009106183,5.999999971002511,-1.456173570687267,-1.4332660191630114e-07
1759506854.5505352,0,1.5258788721439487e-07,5.999996662139893,3.141590743584622,0.0,8.000000920789725,5.999999977776735,-1.6716966340772006,-1.5037913374283639e-07
1759506854.560769,0,1.5258788721439487e-07,5.999996662139893,3.141590766548621,0.0,8.000000929699826,5.999999982757752,-1.8451849441022976,-1.5639990755305047e-07
1759506854.571201,0,1.5258788721439487e-07,5.999996662139893,3.1415907848898588,0.0,8.000000937419244,5.9999999862333775,-1.9849426170672932,-1.6160623870551927e-07
1759506854.5812883,0,1.5258788721439487e-07,5.999996662139893,3.1415908059452153,0.0,8.000000944041327,5.9999999885019655,-2.0976907355276926,-1.6615704627450462e-07
1759506854.59188,0,1.5258788721439487e-07,5.999996662139893,3.141590819622664,0.0,7.837889616574998,5.973392866286881,-1.6340701653958667,0.682727006516134
1759506854.6027906,0,1.5258788721439487e-07,5.999996662139893,3.1415908298488606,0.0,7.702971584774804,5.946473230247001,-1.2586037226858418,1.224559458960822
1759506854.614229,0,1.5258788721439487e-07,5.999996662139893,3.1415908359977056,0.0,7.598780788203236,5.916955352522134,-0.9521067183011098,1.6553442068500865
1759506854.625047,0,1.5258788721439487e-07,5.999996662139893,3.1415908509097505,0.0,7.523847598561498,5.889065833335558,-0.7000110087351772,1.9989204312562705
1759506854.6362245,0,1.5258788721439487e-07,5.999996662139893,3.1415908627658755,0.0,7.473192721319559,5.866910716493444,-0.4905885574260847,2.2734353351838625
1759506854.6463127,0,1.5258788721439487e-07,5.999996662139893,3.141590885189835,0.0,7.44062810534954,5.852591615678819,-0.31534555923329527,2.4935553157015504
1759506854.6576772,0,1.5258788721439487e-07,5.999996662139893,3.141590893863903,0.0,7.420717284390371,5.84642516797545,-0.16644713721975762,2.6700991966322434
1759506854.668067,0,1.5258788721439487e-07,5.999996662139893,3.141590911614358,0.0,7.408953240974886,5.8476527228505795,-0.03888156110565638,2.812165866618808
1759506854.6787715,0,1.5258788721439487e-07,5.999996662139893,3.1415909254983383,0.0,7.40211252411433,5.85500905504633,0.07199096106501364,2.9266268247425815
1759506854.690094,0,1.5258788721439487e-07,5.999996662139893,3.141590933645144,0.0,7.397972964078029,5.867142969500437,0.17006493405860493,3.0188966057889415
1759506854.7013178,0,1.5258788721439487e-07,5.999996662139893,3.141590943552826,0.0,7.357043102305056,5.879455478279977,0.1770769373837132,3.1384880418127135
1759506854.7125468,0,1.5258788721439487e-07,5.999996662139893,3.1415909541848563,0.0,7.3256979717415875,5.8902341600911425,0.19002694771262132,3.2331856505987564
1759506854.7229924,0,1.5258788721439487e-07,5.999996662139893,3.14159097077515,0.0,7.301558649166138,5.900125294650553,0.20728108148447957,3.3084217479310656
1759506854.7344956,0,1.5258788721439487e-07,5.999996662139893,3.1415909784786926,0.0,7.282904209192961,5.909603991230083,0.22876353741189837,3.3682568964342856
1759506854.7456152,0,1.5258788721439487e-07,5.999996662139893,3.141590989315233,0.0,7.268321468890815,5.919019055929489,0.253497847358799,3.415978435068432
1759506854.7556858,0,1.5258788721439487e-07,5.999996662139893,3.141591006931188,0.0,7.256697695771819,5.928570575453427,0.2802693481123141,3.4541724575222696
1759506854.7657642,0,1.5258788721439487e-07,5.999996662139893,3.1415910221755894,0.0,7.247226285893751,5.938369719249802,0.3088048694968796,3.484799195382094
1759506854.7759519,0,1.5258788721439487e-07,5.999996662139893,3.1415910345038895,0.0,7.2392775338348345,5.948487407795491,0.3389626475698371,3.509398168212963
1759506854.7869575,0,1.5258788721439487e-07,5.999996662139893,3.1415910405630907,0.0,7.2323722857863455,5.95899151777568,0.3711249351794173,3.5291648100991595
1759506854.797103,0,1.5258788721439487e-07,5.999996662139893,3.141591051883294,0.0,7.226058949325224,5.9698931488305735,0.4044704749021752,3.5450945376400744
1759506854.8077846,0,1.5258788721439487e-07,5.999996662139893,3.14159105938918,0.0,7.220036133863126,5.981196051649597,0.43929438876952875,3.5579362483614467
1759506854.8196614,0,1.5258788721439487e-07,5.999996662139893,3.1415910604328605,0.0,7.21405615406766,5.992941131981309,0.47632319605465073,3.5682757749849143
1759506854.8311017,0,1.5258788721439487e-07,5.999996662139893,3.1415910657045547,0.0,7.20783552426124,6.00512358748514,0.5150310314785146,3.576613041813814
1759506854.8423443,0,1.5258788721439487e-07,5.999996662139893,3.141591073103113,0.0,7.201158025311184,6.01770481391428,0.5551591239305319,3.583339269528776
1759506854.8542106,0,1.5258788721439487e-07,5.999996662139893,3.1415910778408076,0.0,7.193861460286913,6.0306630593959705,0.5970971797255538,3.588753925118172
1759506854.8655987,0,1.5258788721439487e-07,5.999996662139893,3.141591085682496,0.0,7.001636386075544,6.026945113703028,0.5175057000515738,3.6295790209608887
1759506854.8759725,0,1.5258788721439487e-07,5.999996662139893,3.1415910980429,0.0,6.731256454145914,6.014993344191814,0.46550906826744654,3.702519328235651
1759506854.8864856,0,1.5258788721439487e-07,5.999996662139893,3.1415911082336194,0.0,6.519860307331368,6.003914370503071,0.4312202422495778,3.7604713266760466
1759506854.8972647,0,1.5258788721439487e-07,5.999996662139893,3.141591115972835,0.0,6.354101394342572,5.994190915702689,0.41119535952586544,3.806617348967552
1759506854.9078226,0,1.5258788721439487e-07,5.999996662139893,3.141591123934706,0.0,6.22365374311345,5.98616185913231,0.4024145434402313,3.8434648332061814
1759506854.9186044,0,1.5258788721439487e-07,5.999996662139893,3.1415911303494646,0.0,6.120701963009527,5.980053692160364,0.4028307295031711,3.872953779666265
1759506854.929583,0,1.5258788721439487e-07,5.999996662139893,3.1415911356997874,0.0,6.039188148303221,5.9759820125815715,0.41083074114210816,3.8966084719440572
1759506854.9727993,0,1.5258788721439487e-07,5.999996662139893,3.141591037822497,0.0,5.979353286084114,5.975917364697701,0.4475717518219713,3.914965261290866
1759506854.9830449,0,1.5258788721439487e-07,5.999996662139893,3.141591079436173,0.0,5.930076570831463,5.978755518532935,0.4850317583412647,3.929888618559951
1759506854.9937124,0,1.5258788721439487e-07,5.999996662139893,3.141591114863754,0.0,5.889130108027411,5.983965916013791,0.5235380846255951,3.9420433799523056
1759506855.0042226,0,1.5258788721439487e-07,5.999996662139893,3.141591140555418,0.0,5.83802369457309,5.982500293800567,0.4318056266333857,3.9535591938824313
1759506855.015018,0,1.5258788721439487e-07,5.999996662139893,3.1415911583483265,0.0,5.743836114450198,5.976345099706452,0.36231579893746035,3.9626863417810054
1759506855.0257566,0,1.5258788721439487e-07,5.999996662139893,3.141591171700675,0.0,5.671961035442872,5.967865062990886,0.3139550632439989,3.9699393298531707
1759506855.0362184,0,1.5258788721439487e-07,5.999996662139893,3.1415911826208855,0.0,5.616621052738684,5.958600113153464,0.2821727015473821,3.9757193595342826
1759506855.0467837,0,1.5258788721439487e-07,5.999996662139893,3.14159119093992,0.0,5.573707623688491,5.949665807401818,0.263683017734867,3.9803364754670407
1759506855.0568216,0,1.5258788721439487e-07,5.999996662139893,3.1415911988321863,0.0,5.54017058783855,5.941780524486471,0.25549497558918466,3.984035914118702
1759506855.0672371,0,1.5258788721439487e-07,5.999996662139893,3.1415912043861525,0.0,5.513811058552449,5.935414086957898,0.25587091468337375,3.9870058708764757
1759506855.077674,0,1.5258788721439487e-07,5.999996662139893,3.1415912089788094,0.0,5.49293096800463,5.930830122904783,0.2632149865017453,3.989395951122526
1759506855.0891995,0,1.5258788721439487e-07,5.999996662139893,3.1415912107080004,0.0,5.4762763833793,5.9282039282938355,0.27699685420786824,3.991321747136562
1759506855.1005266,0,1.5258788721439487e-07,5.999996662139893,3.141591213100991,0.0,5.4627774294831095,5.927581453919687,0.2959605559842788,3.9928779231089506
1759506855.1120903,0,1.5258788721439487e-07,5.999996662139893,3.14159121526221,0.0,5.451612275513486,5.92894359588812,0.31941190923399904,3.9941383607915544
1759506855.122485,0,1.5258788721439487e-07,5.999996662139893,3.14159121988582,0.0,5.268349541381102,5.939285051694136,0.2658420801695322,3.9952959921679234
1759506855.1330543,0,1.5258788721439487e-07,5.999996662139893,3.141591223706019,0.0,5.125086328558744,5.9444527740633575,0.23001131324428628,3.9962148196254037
1759506855.1597753,0,1.5258788721439487e-07,5.999996662139893,3.1415911996331225,0.0,5.015571622629793,5.947272444050983,0.2190694436156586,3.9969337111504313
1759506855.1699355,0,1.5258788721439487e-07,5.999996662139893,3.1415912113675937,0.0,4.928767981066878,5.949227768507157,0.21698585786425081,3.9975096106783328
1759506855.1811984,0,1.5258788721439487e-07,5.999996662139893,3.141591220521555,0.0,4.859949202767894,5.951146194399355,0.22280191379998898,3.9979715121369623
1759506855.19252,0,1.5258788721439487e-07,5.999996662139893,3.1415912274698705,0.0,4.805239806158302,5.95359104058157,0.235096209655791,3.998342927895059
1759506855.2030807,0,1.5258788721439487e-07,5.999996662139893,3.1415912340434957,0.0,4.761507180010223,5.9568869415667836,0.25220988764009317,3.9986426182986867
1759506855.21441,0,1.5258788721439487e-07,5.999996662139893,3.1415912381959217,0.0,4.726477068825795,5.961248483609325,0.27384774969714437,3.998884815888764
1759506855.2253516,0,1.5258788721439487e-07,5.999996662139893,3.141591242157098,0.0,4.6981954843825795,5.966779012950809,0.2990233835619389,3.9990811441882106
1759506855.2357893,0,1.5258788721439487e-07,5.999996662139893,3.1415912461817435,0.0,4.630653831736377,5.968462833303072,0.24147611016838305,3.9992621187856776
1759506855.2462904,0,1.5258788721439487e-07,5.999996662139893,3.141591249463687,0.0,4.578928943014484,5.9664216774667596,0.20242149127571224,3.999405588429441
1759506855.2564163,0,1.5258788721439487e-07,5.999996662139893,3.141591252696852,0.0,4.538974067207637,5.962551621418009,0.17777209527750726,3.9995196516894658
1759506855.2675276,0,1.5258788721439487e-07,5.999996662139893,3.1415912542551823,0.0,4.507990579684943,5.958209771290332,0.16524624342028577,3.9996104564667294
1759506855.280114,0,1.5258788721439487e-07,5.999996662139893,3.1415912540750988,0.0,4.48393111495055,5.954372585443647,0.16339877356165927,3.999682816362624
1759506855.2911828,0,1.5258788721439487e-07,5.999996662139893,3.141591256139332,0.0,4.465070469361698,5.951608666461914,0.16917016505924942,3.9997407394093245
1759506855.3015885,0,1.5258788721439487e-07,5.999996662139893,3.141591258919684,0.0,4.450167721293889,5.950211298107254,0.1807036868687481,3.9997872567107366
1759506855.311783,0,1.5258788721439487e-07,5.999996662139893,3.141591261564143,0.0,4.438288402491764,5.950314026204081,0.19682694911471502,3.9998247105566738
1759506855.3228993,0,1.5258788721439487e-07,5.999996662139893,3.14159126288512,0.0,4.428744387649374,5.951995881190721,0.21736563182379498,3.99985490277688
1759506855.3334851,0,1.5258788721439487e-07,5.999996662139893,3.1415912646907973,0.0,4.420899968007324,5.955251574863986,0.24124687394107552,3.999879315355599
1759506855.3446963,0,-0.12050872569776097,5.966019038658951,3.1411629857273056,0.9244102418000115,4.414294021395876,5.960053364773151,0.26838632413969604,3.9998990841494853
1759506855.355285,0,-0.1627936125869099,5.964138472595545,3.140815199864168,0.9244102418000115,4.408482232151281,5.96631912230372,0.29790018997736273,3.9999151422461883
1759506855.3667407,0,-0.17925480178546122,5.96342399226789,3.14055744660946,0.9244102418000115,4.403162124414159,5.973985099633884,0.3300861700191913,3.99992819934336
1759506855.377404,0,-0.18526513502846845,5.963153437079509,3.140371179442223,0.9244102418000115,4.397994712784663,5.982940064505981,0.3640779210390318,3.999938851157187
1759506855.3891847,0,-0.17307042689824848,5.934198672784839,3.1251075213298716,0.8500765330927507,4.311800466188157,5.995718687406441,0.2979878804928677,3.5834849322073383
1759506855.3991919,0,-0.17343370127344487,5.934164438433244,3.1250215503102114,0.8500765330927507,4.242886262894719,6.000460645576765,0.2517907688083515,3.2528700318061157
1759506855.4093301,0,-0.17361505990897066,5.934152262451272,3.124959724437617,0.8500765330927507,4.187116660347748,6.000738491260986,0.2214624185295735,2.989861123238627
1759506855.4206107,0,-0.17404806927732766,5.934148817840947,3.1249128981294803,0.8500765330927507,4.141723224944737,5.998831891843902,0.20454214210131216,2.7804554262451426
1759506855.4312599,0,-0.17401329531954846,5.934147634997088,3.124880712298159,0.8500765330927507,4.104523577554799,5.9961121503356205,0.19794031428828232,2.6132139066036326
1759506855.4418437,0,-0.17397957926622543,5.934147458304899,3.124858240511305,0.8500765330927507,4.073923998897553,5.99338481241652,0.19961299322356207,2.4793532546177137
1759506855.452649,0,-0.17403732740157546,5.934147728566558,3.1248421563776096,0.8500765330927507,4.048696459094158,5.9911150395127235,0.20815026924088972,2.3720279134407143
1759506855.462715,0,-0.1738244685200604,5.934147565190951,3.124832645667726,0.8500765330927507,4.027795479519386,5.98953066925319,0.22181346334165447,2.2857264268333757
1759506855.473755,0,-0.17405288492136872,5.934148135545261,3.1248245375891943,0.8500765330927507,4.010480378035993,5.988761597354454,0.2403619777839055,2.2163160493947514
1759506855.4846733,0,-0.17410155423398163,5.9341483558128365,3.1248194924670503,0.8500765330927507,3.996064945394049,5.988853808028539,0.26290323802584886,2.1603929839670504
1759506855.496184,0,-0.17430848814392272,5.934148814221323,3.1248154862645126,0.8500765330927507,3.9785700712696874,5.9867322308089586,0.21675748229211314,2.1065990849381135
1759506855.5065286,0,-0.17730024587212415,5.938422135493816,3.127604377737349,0.8638077096426281,3.9504655969868607,5.983164142349884,0.1864513537789336,2.04579368836739
1759506855.5176914,0,-0.17744889457618784,5.938422410432072,3.127603669004978,0.8638077096426281,3.928189958846101,5.979314814609048,0.16948669836064803,1.9975566653521837
1759506855.5281718,0,-0.17728878370535903,5.9384221236343535,3.127604918184263,0.8638077096426281,3.9104032103879303,5.97573721133678,0.16271268205104214,1.959168317404445
1759506855.5410085,0,-0.3049709081992186,5.9347590093417395,3.1269185603063208,1.0247735112148382,3.896208969560244,5.97280623766198,0.1656629550400163,1.9286360370934237
1759506855.5489974,0,-0.35129463884135426,5.935500668237258,3.1263810633999185,1.0247735112148382,3.884680053385433,5.970625827815125,0.1732976433038025,1.9041445573223135
1759506855.559373,0,-0.3699013696050402,5.935792938409081,3.1259795497861953,1.0247735112148382,3.8753413476370833,5.969265031011763,0.18632168779614786,1.8845281081474028
1759506855.5695636,0,-0.3769436957806477,5.93590915722136,3.125688263120313,1.0247735112148382,3.867719909653963,5.968742843390972,0.20365182325567352,1.8687829910008935
1759506855.5802627,0,-0.3798303106343991,5.935957817843283,3.1254747750769383,1.0247735112148382,3.8614516806627686,5.969052344807329,0.22489402451957355,1.8561329847886743
1759506855.6174803,0,-0.3909984294872689,5.936023119398644,3.1251843314196455,1.0247735112148382,3.856781526888947,5.970718368396764,0.2671424916978285,1.8463669171374604
1759506855.6370745,0,-0.38858073124954656,5.93602333568812,3.1250627707266347,1.0247735112148382,3.85269651066675,5.973796056841922,0.3152725428574916,1.8385739202491194
1759506855.6519067,0,-0.392748485632129,5.9389447913287166,3.127182259158848,1.0389182414195677,3.8007931876810677,5.97607109430929,0.26599067832343526,1.7016480342901503
1759506855.6639597,0,-0.39065191445833997,5.938937615401461,3.1271625222227515,1.0389182414195677,3.759546977879933,5.976145219048097,0.23459263394181312,1.5931769149238888
1759506855.6739848,0,-0.3890817820669952,5.938931336766754,3.127159460740997,1.0389182414195677,3.7264256748485285,5.975128635695238,0.2160379057484218,1.5068251143675844
1759506855.69401,0,-0.3922763510246513,5.9389473364534195,3.127116824902152,1.0389182414195677,3.700199099552701,5.973888863096192,0.21441796036183033,1.4387353395749347
1759506855.704416,0,-0.38984734535754606,5.938936258106272,3.1271266261419286,1.0389182414195677,3.6788855308996435,5.9727860427306005,0.22004064463732165,1.3842000201356426
1759506855.7147777,0,-0.38890246022043856,5.938931745411518,3.127137405662411,1.0389182414195677,3.661509095509502,5.972002209342138,0.23153151764638383,1.3404290687902054
1759506855.725775,0,-0.3887825363723045,5.938931041900157,3.127143587888945,1.0389182414195677,3.6473177774507572,5.971643066103639,0.24826771436467576,1.3052596639917797
1759506855.7359529,0,-0.3884257177014703,5.938929176799501,3.1271518767203137,1.0389182414195677,3.6356501112625828,5.971743893473004,0.26880194212643216,1.276915306463989
1759506855.7470853,0,-0.5671749685074955,5.920091278276442,3.1258669559623824,1.424755338133216,3.6260361796797387,5.972323454406089,0.29317115980288116,1.2540671416533296
1759506855.757708,0,-0.6337142468543611,5.918033646809527,3.124829608897839,1.424755338133216,3.618039030224252,5.97337017082728,0.3204437519088158,1.2356061853128582
1759506855.768642,0,-0.6593132232884618,5.917266805897507,3.1240661944485524,1.424755338133216,3.6113290403745535,5.974865323772992,0.3504319332554613,1.2206797911399236
1759506855.7796004,0,-0.6691179612874193,5.916987094690798,3.123511641428334,1.424755338133216,3.6056233964589883,5.976783000215768,0.3828054790262895,1.2086005389537664
1759506855.7903395,0,-0.6727573982705322,5.916888652235407,3.1231124924539237,1.424755338133216,3.600681579125482,5.979088950896597,0.4171376693194502,1.198815636601364
1759506855.801141,0,-0.6741875908492533,5.91685809882204,3.1228242210487327,1.424755338133216,3.596312062545803,5.981748807393326,0.45328366743045845,1.1908900443960175
1759506855.81303,0,-0.6753122075877803,5.916857019588424,3.1226064935065723,1.424755338133216,3.5923746622322517,5.984746568493203,0.4918687607667478,1.184492432844987
1759506855.824077,0,-0.6753017083406061,5.916855841129878,3.1224587337891236,1.424755338133216,3.5886966164818794,5.988042753492071,0.5320598616810689,1.17932333260539
1759506855.8344777,0,-0.6749596010638728,5.916854275511948,3.1223612578096755,1.424755338133216,3.5851472750426034,5.991587698719545,0.573297653644273,1.175147659347277
1759506855.844934,0,-0.6748598030648505,5.916855521090454,3.1222932355432764,1.424755338133216,3.536727098655741,5.986014735277364,0.466778990791749,1.2469210586663073
1759506855.855795,0,-0.6868369607137292,5.918430931655832,3.1239407605704756,1.4442925122739458,3.4659039963024787,5.976617660205414,0.392718982759722,1.3666003552215382
1759506855.8662262,0,-0.6866785889972569,5.918430757740441,3.1239107958018857,1.4442925122739458,3.411640242008961,5.968613755149275,0.3406172135922275,1.461551503260412
1759506855.8763404,0,-0.6864513441787532,5.918429325830807,3.1238948439325562,1.4442925122739458,3.3699697471373393,5.961780504253845,0.305699796635009,1.5370818471276746
1759506855.8867679,0,-0.6865298088500188,5.918430710769075,3.123883345308238,1.4442925122739458,3.337932020308403,5.956056998261346,0.2846819627456938,1.5972701608318858
1759506855.8976562,0,-0.6868027539986541,5.918433931710859,3.123873719855875,1.4442925122739458,3.313281888256829,5.951443078998201,0.27510178636796173,1.6453077246017191
1759506855.9090803,0,-0.6871893864218909,5.918438234064749,3.123865227590432,1.4442925122739458,3.2943065430894762,5.947953294265719,0.2750932389217249,1.6837022347343202
1759506855.9194276,0,-0.6867696099096369,5.918433907281372,3.123870475292922,1.4442925122739458,3.2796157268409933,5.9455549728903065,0.2821146005971301,1.7144972607607811
1759506855.9295409,0,-0.686485617857827,5.918430756511309,3.1238792292158286,1.4442925122739458,3.2681929832894796,5.944201842853466,0.2947220231897191,1.7392484238907184
1759506855.9683268,0,-0.8547202920829832,5.918160232583094,3.1231819594553594,1.237314426673268,3.260390230271738,5.944561157311542,0.3315224126420865,1.7583124147091496
1759506855.971843,0,-0.9040128840400592,5.915161601571815,3.1229207594403694,1.237314426673268,3.2536586127530107,5.946113419297956,0.36431064768182086,1.773948069239123
1759506855.9834707,0,-0.9264772436673187,5.914060981102163,3.1226890599461834,1.237314426673268,3.2480662217862983,5.948719868234825,0.3994893328115757,1.78659028014618
1759506855.9940288,0,-0.9345822844711396,5.913638302710341,3.1225310939326065,1.237314426673268,3.2432230838100877,5.952217015316654,0.4360523480473467,1.7968415644545648
1759506856.0043383,0,-0.9375690004722976,5.913477688351027,3.1224223923963272,1.237314426673268,3.2388592690123543,5.956460213296327,0.47373912811757707,1.8051609892390434
1759506856.014723,0,-0.9536627505950347,5.914007007968908,3.123708842011001,1.2491651578128202,3.214045175216452,5.955644265473987,0.3904556903846285,1.82084720085864
1759506856.0259461,0,-0.954488555364399,5.913989987491189,3.123648393525293,1.2491651578128202,3.1961363388081483,5.953131807683679,0.3315469790248023,1.8332751702380161
1759506856.0366504,0,-0.954572424220163,5.913981437762987,3.1236111768488115,1.2491651578128202,3.1830451341502326,5.949759175997843,0.29156556096610287,1.8431513804706994
1759506856.0481522,0,-0.954962115713409,5.913983074707909,3.1235806840772993,1.2491651578128202,3.1733945186056967,5.946187496962629,0.26718154549235756,1.851010087074352
1759506856.0585737,0,-0.9546274511637508,5.913978058572544,3.123569725211102,1.2491651578128202,3.166186441310782,5.94285308273973,0.2545311515701814,1.8572861743925173
1759506856.0693812,0,-0.9546725391116415,5.913978367992493,3.1235618916408776,1.2491651578128202,3.160757885011661,5.940057259045799,0.2515786450192718,1.8623059916232247
1759506856.07955,0,-0.9544036971657985,5.9139749737059555,3.1235633751945864,1.2491651578128202,3.1566053624975123,5.937968949692998,0.25604552899815697,1.8663323109242198
1759506856.0903249,0,-0.9545723126592992,5.913976958979656,3.123562610738146,1.2491651578128202,3.153382774043257,5.936694026006039,0.2669724427836339,1.869564504846018
1759506856.1017268,0,-0.9549174602867467,5.913981153012831,3.1235599096399,1.2491651578128202,3.1508197226308288,5.936293609650297,0.28363703929503287,1.8721609124695908
1759506856.1122525,0,-0.9546568122700174,5.913977854461002,3.123566492043535,1.2491651578128202,3.1486734072913127,5.936760840571015,0.3044691232100059,1.8742525967117993
1759506856.122773,0,-0.9545546789963179,5.913976392348487,3.123574077351438,1.2491651578128202,3.1467730875263813,5.938063796776144,0.32880048132193646,1.8759394937292377
1759506856.1338563,0,-0.9547675405821309,5.913978777343188,3.123578268486917,1.2491651578128202,3.098244871771773,5.937711334987302,0.2711341624737256,1.8508450797215916
1759506856.1439524,0,-1.144128749081595,5.894434609360956,3.1256412394393873,1.698845924324798,3.0309776163045976,5.935969745818762,0.23041424361381915,1.807604459519883
1759506856.1545484,0,-1.2103267470627497,5.89273840764509,3.12642343603535,1.698845924324798,2.9779862016521146,5.933396589614652,0.20481656595077033,1.7732770314130595
1759506856.1660068,0,-1.2361258590286097,5.892079876750568,3.127000899481408,1.698845924324798,2.936148652788966,5.930676843617154,0.19182966240801042,1.745989402179013
1759506856.177254,0,-1.245837616473538,5.891815104068576,3.127425209373102,1.698845924324798,2.903003736341495,5.928238297158953,0.18879818918421096,1.724240203408665
1759506856.1877873,0,-1.2490985154399163,5.89170132977717,3.127736006713353,1.698845924324798,2.876638841615168,5.926321292964511,0.19331984517284526,1.706850630639343
1759506856.1987448,0,-1.2505985340199242,5.8916538934031415,3.127962668715722,1.698845924324798,2.855642997672888,5.925064065953835,0.20425841806554043,1.692925738968207
1759506856.2094812,0,-1.2510305482787187,5.891630046433075,3.1281280733857915,1.698845924324798,2.8388689075860696,5.924527902318392,0.2203078319261926,1.6817495318442766
1759506856.2204068,0,-1.251308414567902,5.891618555052894,3.1282487201915004,1.698845924324798,2.8254311688124374,5.924730800351273,0.24071333534263545,1.6727654347622851
1759506856.2309408,0,-1.2511709516277536,5.891609806920095,3.128336438281938,1.698845924324798,2.8145966400051132,5.925653607240085,0.26450031573564614,1.665527125986542
1759506856.2415192,0,-1.2511438775438422,5.891604936122481,3.128400206872106,1.698845924324798,2.8058003243795784,5.9272609265489935,0.291185087100362,1.6596875499355388
1759506856.2521248,0,-1.2669427874521257,5.890897126347112,3.129408628025625,1.7153773836357962,2.7798633520492,5.926988741173179,0.24175220965200933,1.6519771204640912
1759506856.2623816,0,-1.2667289919625422,5.890893393440669,3.129441968622962,1.7153773836357962,2.759885282186432,5.925565980560687,0.20900454069201602,1.645861301195566
1759506856.2727275,0,-1.2667015237866166,5.890891737810748,3.1294660937481464,1.7153773836357962,2.7443862620888195,5.923675268809417,0.18956550802138328,1.64099995076758
1759506856.2831874,0,-1.266760687195177,5.890891171685557,3.129483546814048,1.7153773836357962,2.7322953252479234,5.921780326234424,0.18082398416588774,1.6371278066773072
1759506856.2936308,0,-1.2667727962224025,5.890890537032334,3.129496051822494,1.7153773836357962,2.722815632914756,5.920181562187524,0.18065979126792248,1.6340369394278536
1759506856.3041916,0,-1.266849381630369,5.890890605175891,3.1295050267519593,1.7153773836357962,2.7153480613160794,5.919065457265583,0.18750577633579696,1.6315650596555873
1759506856.3153882,0,-1.2672699146093998,5.8908934484867554,3.129511754716599,1.7153773836357962,2.709440553973473,5.9185491293571575,0.20048296458141857,1.629586053453563
1759506856.3261847,0,-1.2671841179916528,5.890892526179501,3.129516191761489,1.7153773836357962,2.7047124534027422,5.918685297983735,0.2182341178450506,1.6279977657012763
1759506856.3376625,0,-1.2675706156614757,5.890895291601762,3.129519580455074,1.7153773836357962,2.7008841979145766,5.919499210131853,0.240406896456,1.6267222734526998
1759506856.3611104,0,-1.4327149844371059,5.883478732680046,3.1303620585055003,1.3371302934435785,2.6979195366976,5.921208006696883,0.27434721831132436,1.6257163828578272
1759506856.3714297,0,-1.5040304136845497,5.874447817434079,3.131790339697552,1.3505223210256037,2.637273077862885,5.919032325626601,0.22913706934518485,1.5896211287807234
1759506856.3830516,0,-1.526925553282209,5.871421850837493,3.1322615185792646,1.3505223210256037,2.5896403422744547,5.9161755297802605,0.2006482608545081,1.5610261477431007
1759506856.3936996,0,-1.5352045224245892,5.870256322195504,3.13259458568191,1.3505223210256037,2.5520082032423814,5.913230929358255,0.1847953907549768,1.5382905939743532
1759506856.404475,0,-1.5384215001458055,5.86980640044446,3.1328333722341406,1.3505223210256037,2.5221908322530258,5.9105723953708384,0.1791258617876798,1.5201753081812523
1759506856.41518,0,-1.5396133605210338,5.869630775343715,3.133004019980855,1.3505223210256037,2.4985005678978216,5.908420455405303,0.18160060306290893,1.5057079820070025
1759506856.4253888,0,-1.5398322572972214,5.869560115700469,3.133123148645258,1.3505223210256037,2.4796114467028523,5.906885251242513,0.19034614159130492,1.4941222779381407
1759506856.435414,0,-1.539827554250396,5.869531015057327,3.1332067054710735,1.3505223210256037,2.4645054298696847,5.9060101590224425,0.20409160782304797,1.4848240752278863
1759506856.4463718,0,-1.540263606740321,5.869520480954598,3.13327087826939,1.3505223210256037,2.4524221196168923,5.905816452997271,0.2225770948939473,1.4773580340303487
1759506856.456515,0,-1.540045618147183,5.869513958077534,3.133311689864908,1.3505223210256037,2.4426835065610506,5.906283524974751,0.24446276130946704,1.4713454430695347
1759506856.4668696,0,-1.5400612606466781,5.869511300450472,3.133340558660198,1.3505223210256037,2.434790584931576,5.907378850634644,0.26935812031735185,1.466497895233331
1759506856.4771528,0,-1.5400332633151441,5.869509757858121,3.1333596029923094,1.3505223210256037,2.4283299582389475,5.909061205614911,0.2967740735737739,1.4625842978706542
1759506856.4876468,0,-1.5567488706331662,5.867851723153494,3.134117213312512,1.354318031305548,2.40837554703627,5.908492928632059,0.246187174415014,1.4571542873262069
1759506856.4979625,0,-1.5566984772937975,5.867851067612606,3.1341243813048107,1.354318031305548,2.393099749267359,5.906962534363801,0.21256868497324963,1.452849377126796
1759506856.5082688,0,-1.556674810710029,5.867850739317588,3.1341278906541197,1.354318031305548,2.38130717557589,5.905061788070463,0.1924104731131929,1.449428767872991
1759506856.5209048,0,-1.5577630083936245,5.8678549398614335,3.1341395020820766,1.354318031305548,2.3721915412535015,5.90323092802368,0.18453193986615393,1.44671234138086
1759506856.5322511,0,-1.5575711550781906,5.8678540109912145,3.1341404108354065,1.354318031305548,2.3650734720714803,5.9017359126428826,0.18565809127125169,1.4445462864550513
1759506856.5693214,0,-1.7056050609405653,5.862983684172553,3.1312570320383326,1.1625169515715241,2.3599315870428366,5.901163224899938,0.21106849320076895,1.4428722894666803
1759506856.5720165,0,-1.7492553300980989,5.858544313043314,3.1290896613611094,1.1625169515715241,2.355554812505769,5.901372850421225,0.23365221848121162,1.4415078054863046
1759506856.5822735,0,-1.7689669366142977,5.8568996466472925,3.1275205533672663,1.1625169515715241,2.351918611147672,5.902271383702186,0.2590174844840106,1.4404072162006303
1759506856.5925312,0,-1.7765170397166847,5.856291428570635,3.126401077684172,1.1625169515715241,2.3180216772434,5.89461919160953,0.21254994805679786,1.4264511269776612
1759506856.6030054,0,-1.7972893218100905,5.8543641300429385,3.126044172127595,1.1615979569859456,2.271798570276188,5.883337989656751,0.18154657631310855,1.4035060812772924
1759506856.6138246,0,-1.7985776996356646,5.854293761990084,3.125461017049917,1.1615979569859456,2.235336639327798,5.8737487464848765,0.16381400692783107,1.3852916687703565
1759506856.625112,0,-1.7992642023191245,5.854277397136117,3.1250348108888844,1.1615979569859456,2.2065109318145955,5.865832978749832,0.1569744279432862,1.370806457623372
1759506856.6351657,0,-1.7990403853316905,5.854269032109402,3.1247479147574357,1.1615979569859456,2.183609616832119,5.859476408081996,0.15806626888041145,1.3592429069185155
