timestamp,vehicle_id,x,y,theta,velocity,gps_available,dt,gps_x,gps_y,gps_theta,gps_velocity,control_steering,control_acceleration
1759506851.9325135,0,0.0,6.0,-0.05483113549895435,0.0,False,0.01,nan,nan,nan,nan,0.0,0.0
1759506851.9436436,0,0.0,6.0,-0.05483113549895435,0.0,False,0.011130094528198242,nan,nan,nan,nan,0.0,0.0
1759506851.9541435,0,0.0,6.0,-0.05483113549895435,0.0,False,0.010499954223632812,nan,nan,nan,nan,0.0,0.0
1759506851.964673,0,0.0,6.0,-0.05483113549895435,0.0,False,0.010529518127441406,nan,nan,nan,nan,0.0,0.0
1759506851.9748354,0,0.0,6.0,-0.05483113549895435,0.0,False,0.010162353515625,nan,nan,nan,nan,0.0,0.0
1759506851.9850311,0,0.0,6.0,-0.05483113549895435,0.0,False,0.010195732116699219,nan,nan,nan,nan,0.0,0.0
1759506851.9950867,0,0.0,6.0,-0.05483113549895435,0.0,False,0.0100555419921875,nan,nan,nan,nan,0.0,0.0
1759506852.0065007,0,0.0,6.0,-0.05483113549895435,0.0,False,0.011414051055908203,nan,nan,nan,nan,0.0,0.0
1759506852.0178607,0,0.0,6.0,-0.05483113549895435,0.0,False,0.011359930038452148,nan,nan,nan,nan,0.0,0.0
1759506852.028205,0,0.0,6.0,-0.05483113549895435,0.0,False,0.010344266891479492,nan,nan,nan,nan,0.0,0.0
1759506852.0383275,0,0.0,6.0,-0.05483113549895435,0.0,False,0.010122537612915039,nan,nan,nan,nan,0.0,0.0
1759506852.0498378,0,0.0,6.0,-0.05483113549895435,0.0,False,0.011510372161865234,nan,nan,nan,nan,0.0,0.0
1759506852.0611625,0,0.0,6.0,-0.05483113549895435,0.0,False,0.011324644088745117,nan,nan,nan,nan,0.0,0.0
1759506852.0717509,0,0.0,6.0,-0.05483113549895435,0.0,False,0.010588407516479492,nan,nan,nan,nan,0.0,0.0
1759506852.0827544,0,0.0,6.0,-0.05483113549895435,0.0,False,0.011003494262695312,nan,nan,nan,nan,0.0,0.0
1759506852.0940666,0,0.0,6.0,-0.05483113549895435,0.0,False,0.011312246322631836,nan,nan,nan,nan,0.0,0.0
1759506852.104787,0,0.0,6.0,-0.05483113549895435,0.0,False,0.010720491409301758,nan,nan,nan,nan,0.0,0.0
1759506852.1148505,0,0.0,6.0,-0.05483113549895435,0.0,False,0.010063409805297852,nan,nan,nan,nan,0.0,0.0
1759506852.127902,0,1.5131632148760826e-07,5.999996689955394,-2.8798471078288443,0.0,True,0.013051509857177734,1.5258788721439487e-07,5.999996662139893,3.1415913105010986,0.0,0.0,0.0
1759506852.1386638,0,1.5216285131686174e-07,5.999996671437553,-3.1211299473642384,0.0,True,0.010761737823486328,1.5258788721439487e-07,5.999996662139893,3.1415913105010986,0.0,0.0,0.0
1759506852.1496036,0,1.5242844323611442e-07,5.999996665627729,3.13931032790844,0.0,True,0.010939836502075195,1.5258788721439487e-07,5.999996662139893,3.1415913105010986,0.0,0.0,0.0
1759506852.1605175,0,1.5252714362872036e-07,5.999996663468658,3.136339476957742,0.0,True,0.010913848876953125,1.5258788721439487e-07,5.999996662139893,3.1415913105010986,0.0,0.0,0.0
1759506852.1708496,0,1.5256469404108368e-07,5.999996662647243,3.1360875962546295,0.0,True,0.010332107543945312,1.5258788721439487e-07,5.999996662139893,3.1415913105010986,0.0,0.0,0.0
1759506852.18208,0,1.5257902870134905e-07,5.999996662333673,3.136357466083709,0.0,True,0.01123046875,1.5258788721439487e-07,5.999996662139893,3.1415913105010986,0.0,0.0,0.0
1759506852.192245,0,1.5258450359085367e-07,5.99999666221391,3.1369837577027226,0.0,True,0.010164976119995117,1.5258788721439487e-07,5.999996662139893,3.1415913105010986,0.0,0.0,0.0
1759506852.2034996,0,1.5258659478673156e-07,5.999996662168164,3.1374909511842013,0.0,True,0.011254549026489258,1.5258788721439487e-07,5.999996662139893,3.1415913105010986,0.0,0.0,0.0
1759506852.2151637,0,1.5258739355104042e-07,5.999996662150691,3.1379582608703664,0.0,True,0.011664152145385742,1.5258788721439487e-07,5.999996662139893,3.1415913105010986,0.0,0.0,0.0
1759506852.225224,0,1.525876986517772e-07,5.999996662144017,3.138479564084374,0.0,True,0.010060310363769531,1.5258788721439487e-07,5.999996662139893,3.1415913105010986,0.0,0.0,0.0
1759506852.2363822,0,1.525878151898842e-07,5.999996662141468,3.1388317415052445,0.0,True,0.011158227920532227,1.5258788721439487e-07,5.999996662139893,3.1415913105010986,0.0,0.0,0.0
1759506852.2472942,0,1.5258785970347982e-07,5.999996662140495,3.13914123673025,0.0,True,0.010911941528320312,1.5258788721439487e-07,5.999996662139893,3.1415913105010986,0.0,0.0,0.0
1759506852.2585204,0,1.5258787670616037e-07,5.999996662140123,3.139389275390492,0.0,True,0.011226177215576172,1.5258788721439487e-07,5.999996662139893,3.1415913105010986,0.0,0.0,0.0
1759506852.2690122,0,1.5258788320060645e-07,5.9999966621399805,3.139629558287499,0.0,True,0.01049184799194336,1.5258788721439487e-07,5.999996662139893,3.1415913105010986,0.0,0.0,0.0
1759506852.2796621,0,1.5258788568126412e-07,5.999996662139926,3.139821157154328,0.0,True,0.010649919509887695,1.5258788721439487e-07,5.999996662139893,3.1415913105010986,0.0,0.0,0.0
1759506852.2896779,0,1.5258788662879104e-07,5.999996662139906,3.1400002780653438,0.0,True,0.010015726089477539,1.5258788721439487e-07,5.999996662139893,3.1415913105010986,0.0,0.0,0.0
1759506852.3008819,0,1.5258788699071411e-07,5.999996662139898,3.1401117693102503,0.0,True,0.011204004287719727,1.5258788721439487e-07,5.999996662139893,3.1415913105010986,0.0,0.0,0.0
1759506852.311292,0,1.5258788712895643e-07,5.999996662139894,3.1402344282530485,0.0,True,0.010410070419311523,1.5258788721439487e-07,5.999996662139893,3.1415913105010986,0.0,0.0,0.0
1759506852.3276753,0,1.5258788718176028e-07,5.9999966621398935,3.140197702687818,0.0,True,0.01638340950012207,1.5258788721439487e-07,5.999996662139893,3.1415913105010986,0.0,0.0,0.0
1759506852.332235,0,1.5258788720192956e-07,5.999996662139893,3.140477199682282,0.0,True,0.004559755325317383,1.5258788721439487e-07,5.999996662139893,3.1415913105010986,0.0,0.0,0.0
1759506852.3430202,0,1.5258788720963354e-07,5.999996662139893,3.140545576799287,0.0,True,0.010785102844238281,1.5258788721439487e-07,5.999996662139893,3.1415913105010986,0.0,0.0,0.0
1759506852.3535514,0,1.525878872125762e-07,5.999996662139893,3.140602996358247,0.0,True,0.010531187057495117,1.5258788721439487e-07,5.999996662139893,3.1415913105010986,0.0,0.0,0.0
1759506852.3641121,0,1.525878872137002e-07,5.999996662139893,3.140655938582544,0.0,True,0.010560750961303711,1.5258788721439487e-07,5.999996662139893,3.1415913105010986,0.0,0.0,0.0
1759506852.3753035,0,1.5258788721412954e-07,5.999996662139893,3.140694050023372,0.0,True,0.011191368103027344,1.5258788721439487e-07,5.999996662139893,3.1415913105010986,0.0,0.0,0.0
1759506852.385681,0,1.5258788721429352e-07,5.999996662139893,3.140747646670988,0.0,True,0.01037740707397461,1.5258788721439487e-07,5.999996662139893,3.1415913105010986,0.0,0.0,0.0
1759506852.3966823,0,1.5258788721435614e-07,5.999996662139893,3.140786169787372,0.0,True,0.011001348495483398,1.5258788721439487e-07,5.999996662139893,3.1415913105010986,0.0,0.0,0.0
1759506852.4079225,0,1.5258788721438007e-07,5.999996662139893,3.140819684095968,0.0,True,0.011240243911743164,1.5258788721439487e-07,5.999996662139893,3.1415913105010986,0.0,0.0,0.0
1759506852.4185157,0,1.525878872143892e-07,5.999996662139893,3.140863255293098,0.0,True,0.010593175888061523,1.5258788721439487e-07,5.999996662139893,3.1415913105010986,0.0,0.0,0.0
1759506852.4300508,0,1.525878872143927e-07,5.999996662139893,3.1408897869754853,0.0,True,0.011535167694091797,1.5258788721439487e-07,5.999996662139893,3.1415913105010986,0.0,0.0,0.0
1759506852.4402845,0,1.5258788721439405e-07,5.999996662139893,3.1409347011142117,0.0,True,0.010233640670776367,1.5258788721439487e-07,5.999996662139893,3.1415913105010986,0.0,0.0,0.0
1759506852.4507444,0,1.5258788721439455e-07,5.999996662139893,3.1409713059910622,0.0,True,0.01045989990234375,1.5258788721439487e-07,5.999996662139893,3.1415913105010986,0.0,0.0,0.0
1759506852.4609768,0,1.5258788721439474e-07,5.999996662139893,3.1410062053601244,0.0,True,0.01023244857788086,1.5258788721439487e-07,5.999996662139893,3.1415913105010986,0.0,0.0,0.0
1759506852.4718962,0,1.5258788721439482e-07,5.999996662139893,3.141028663407301,0.0,True,0.010919332504272461,1.5258788721439487e-07,5.999996662139893,3.1415913105010986,0.0,0.0,0.0
1759506852.4825776,0,1.5258788721439484e-07,5.999996662139893,3.1410530823122027,0.0,True,0.010681390762329102,1.5258788721439487e-07,5.999996662139893,3.1415913105010986,0.0,0.0,0.0
1759506852.494325,0,1.5258788721439487e-07,5.999996662139893,3.1410648793948983,0.0,True,0.011747360229492188,1.5258788721439487e-07,5.999996662139893,3.1415913105010986,0.0,0.0,0.0
1759506852.504828,0,1.5258788721439487e-07,5.999996662139893,3.1410921743121634,0.0,True,0.010503053665161133,1.5258788721439487e-07,5.999996662139893,3.1415913105010986,0.0,0.0,0.0
1759506852.5151494,0,1.5258788721439487e-07,5.999996662139893,3.1411192136564043,0.0,True,0.010321378707885742,1.5258788721439487e-07,5.999996662139893,3.1415913105010986,0.0,0.0,0.0
1759506852.6357408,0,1.5258788721439487e-07,5.999996662139893,3.1406035979144473,0.0,True,0.1,1.5258788721439487e-07,5.999996662139893,3.1415913105010986,0.0,0.0,0.0
1759506852.64646,0,1.5258788721439487e-07,5.999996662139893,3.1408731312984095,0.0,True,0.01071929931640625,1.5258788721439487e-07,5.999996662139893,3.1415913105010986,0.0,0.0,0.0
1759506852.6569657,0,1.5258788721439487e-07,5.999996662139893,3.141061596289699,0.0,True,0.01050567626953125,1.5258788721439487e-07,5.999996662139893,3.1415913105010986,0.0,0.0,0.0
1759506852.6683443,0,1.5258788721439487e-07,5.999996662139893,3.1411741404157247,0.0,True,0.01137852668762207,1.5258788721439487e-07,5.999996662139893,3.1415913105010986,0.0,0.0,0.0
1759506852.679759,0,1.5258788721439487e-07,5.999996662139893,3.141246943160482,0.0,True,0.011414766311645508,1.5258788721439487e-07,5.999996662139893,3.1415913105010986,0.0,0.0,0.0
1759506852.6898458,0,1.5258788721439487e-07,5.999996662139893,3.141301987756151,0.0,True,0.010086774826049805,1.5258788721439487e-07,5.999996662139893,3.1415913105010986,0.0,0.0,0.0
1759506852.7000816,0,1.5258788721439487e-07,5.999996662139893,3.14134037935937,0.0,True,0.010235786437988281,1.5258788721439487e-07,5.999996662139893,3.1415913105010986,0.0,0.0,0.0
1759506852.7109754,0,1.5258788721439487e-07,5.999996662139893,3.1413655242576937,0.0,True,0.010893821716308594,1.5258788721439487e-07,5.999996662139893,3.1415913105010986,0.0,0.0,0.0
1759506852.7213438,0,1.5258788721439487e-07,5.999996662139893,3.1413861209761915,0.0,True,0.01036834716796875,1.5258788721439487e-07,5.999996662139893,3.1415913105010986,0.0,0.0,0.0
1759506852.7740781,0,1.5258788721439487e-07,5.999996662139893,3.141265200444529,0.0,True,0.052734375,1.5258788721439487e-07,5.999996662139893,3.1415913105010986,0.0,0.0,0.0
1759506852.7852583,0,1.5258788721439487e-07,5.999996662139893,3.1413179475801627,0.0,True,0.01118016242980957,1.5258788721439487e-07,5.999996662139893,3.1415913105010986,0.0,0.0,0.0
1759506852.7966125,0,1.5258788721439487e-07,5.999996662139893,3.1413635294271813,0.0,True,0.011354207992553711,1.5258788721439487e-07,5.999996662139893,3.1415913105010986,0.0,0.0,0.0
1759506852.8071473,0,1.5258788721439487e-07,5.999996662139893,3.1413980469150946,0.0,True,0.01053476333618164,1.5258788721439487e-07,5.999996662139893,3.1415913105010986,0.0,0.0,0.0
1759506852.817813,0,1.5258788721439487e-07,5.999996662139893,3.1414223345358163,0.0,True,0.010665655136108398,1.5258788721439487e-07,5.999996662139893,3.1415913105010986,0.0,0.0,0.0
1759506852.8286705,0,1.5258788721439487e-07,5.999996662139893,3.1414394775136216,0.0,True,0.010857582092285156,1.5258788721439487e-07,5.999996662139893,3.1415913105010986,0.0,0.0,0.0
1759506852.8402972,0,1.5258788721439487e-07,5.999996662139893,3.1414503608426774,0.0,True,0.011626720428466797,1.5258788721439487e-07,5.999996662139893,3.1415913105010986,0.0,0.0,0.0
1759506852.8508303,0,1.5258788721439487e-07,5.999996662139893,3.141461457974156,0.0,True,0.01053309440612793,1.5258788721439487e-07,5.999996662139893,3.1415913105010986,0.0,0.0,0.0
1759506852.861957,0,1.5258788721439487e-07,5.999996662139893,3.1414688632132908,0.0,True,0.01112675666809082,1.5258788721439487e-07,5.999996662139893,3.1415913105010986,0.0,0.0,0.0
1759506852.8720582,0,1.5258788721439487e-07,5.999996662139893,3.1414771841199425,0.0,True,0.010101079940795898,1.5258788721439487e-07,5.999996662139893,3.1415913105010986,0.0,0.0,0.0
1759506852.8828566,0,1.5258788721439487e-07,5.999996662139893,3.14148236715862,0.0,True,0.010798454284667969,1.5258788721439487e-07,5.999996662139893,3.1415913105010986,0.0,0.0,0.0
1759506852.8940728,0,1.5258788721439487e-07,5.999996662139893,3.141485772737914,0.0,True,0.011216163635253906,1.5258788721439487e-07,5.999996662139893,3.1415913105010986,0.0,0.0,0.0
1759506852.9052787,0,1.5258788721439487e-07,5.999996662139893,3.1414889441642924,0.0,True,0.011205911636352539,1.5258788721439487e-07,5.999996662139893,3.1415913105010986,0.0,0.0,0.0
1759506852.916675,0,1.5258788721439487e-07,5.999996662139893,3.1414916103144392,0.0,True,0.011396408081054688,1.5258788721439487e-07,5.999996662139893,3.1415913105010986,0.0,0.0,0.0
1759506852.9450696,0,1.5258788721439487e-07,5.999996662139893,3.1414620573968026,0.0,True,0.028394460678100586,1.5258788721439487e-07,5.999996662139893,3.1415913105010986,0.0,0.0,0.0
1759506852.955892,0,1.5258788721439487e-07,5.999996662139893,3.1414750840401844,0.0,True,0.010822534561157227,1.5258788721439487e-07,5.999996662139893,3.1415913105010986,0.0,0.0,0.0
1759506852.9658988,0,1.5258788721439487e-07,5.999996662139893,3.141488774220372,0.0,True,0.01000666618347168,1.5258788721439487e-07,5.999996662139893,3.1415913105010986,0.0,0.0,0.0
1759506852.9763963,0,1.5258788721439487e-07,5.999996662139893,3.1414982729848724,0.0,True,0.010497570037841797,1.5258788721439487e-07,5.999996662139893,3.1415913105010986,0.0,0.0,0.0
1759506852.9868612,0,1.5258788721439487e-07,5.999996662139893,3.1415054655214973,0.0,True,0.010464906692504883,1.5258788721439487e-07,5.999996662139893,3.1415913105010986,0.0,0.0,0.0
1759506852.9979968,0,1.5258788721439487e-07,5.999996662139893,3.141509988881104,0.0,True,0.011135578155517578,1.5258788721439487e-07,5.999996662139893,3.1415913105010986,0.0,0.0,0.0
1759506853.00933,0,1.5258788721439487e-07,5.999996662139893,3.1415133975653386,0.0,True,0.011333227157592773,1.5258788721439487e-07,5.999996662139893,3.1415913105010986,0.0,0.0,0.0
1759506853.0202148,0,1.5258788721439487e-07,5.999996662139893,3.141517073249796,0.0,True,0.010884761810302734,1.5258788721439487e-07,5.999996662139893,3.1415913105010986,0.0,0.0,0.0
1759506853.030546,0,1.5258788721439487e-07,5.999996662139893,3.141521088719836,0.0,True,0.010331153869628906,1.5258788721439487e-07,5.999996662139893,3.1415913105010986,0.0,0.0,0.0
1759506853.0413356,0,1.5258788721439487e-07,5.999996662139893,3.141523831907831,0.0,True,0.010789632797241211,1.5258788721439487e-07,5.999996662139893,3.1415913105010986,0.0,0.0,0.0
1759506853.0518918,0,1.5258788721439487e-07,5.999996662139893,3.1415265621789406,0.0,True,0.010556221008300781,1.5258788721439487e-07,5.999996662139893,3.1415913105010986,0.0,0.0,0.0
1759506853.0628188,0,1.5258788721439487e-07,5.999996662139893,3.1415285084903335,0.0,True,0.010926961898803711,1.5258788721439487e-07,5.999996662139893,3.1415913105010986,0.0,0.0,0.0
1759506853.0739179,0,1.5258788721439487e-07,5.999996662139893,3.141530139603038,0.0,True,0.011099100112915039,1.5258788721439487e-07,5.999996662139893,3.1415913105010986,0.0,0.0,0.0
1759506853.085409,0,1.5258788721439487e-07,5.999996662139893,3.1415313100440603,0.0,True,0.011491060256958008,1.5258788721439487e-07,5.999996662139893,3.1415913105010986,0.0,0.0,0.0
1759506853.0958436,0,1.5258788721439487e-07,5.999996662139893,3.1415339316386177,0.0,True,0.010434627532958984,1.5258788721439487e-07,5.999996662139893,3.1415913105010986,0.0,0.0,0.0
1759506853.1067748,0,1.5258788721439487e-07,5.999996662139893,3.1415357401273294,0.0,True,0.010931253433227539,1.5258788721439487e-07,5.999996662139893,3.1415913105010986,0.0,0.0,0.0
1759506853.1184883,0,1.5258788721439487e-07,5.999996662139893,3.1415365588513104,0.0,True,0.011713504791259766,1.5258788721439487e-07,5.999996662139893,3.1415913105010986,0.0,0.0,0.0
1759506853.1288407,0,1.5258788721439487e-07,5.999996662139893,3.141539094888447,0.0,True,0.010352373123168945,1.5258788721439487e-07,5.999996662139893,3.1415913105010986,0.0,0.0,0.0
1759506853.1403475,0,1.5258788721439487e-07,5.999996662139893,3.141540171748902,0.0,True,0.011506795883178711,1.5258788721439487e-07,5.999996662139893,3.1415913105010986,0.0,0.0,0.0
1759506853.1512494,0,1.5258788721439487e-07,5.999996662139893,3.1415419495865393,0.0,True,0.010901927947998047,1.5258788721439487e-07,5.999996662139893,3.1415913105010986,0.0,0.0,0.0
1759506853.161761,0,1.5258788721439487e-07,5.999996662139893,3.141544061737447,0.0,True,0.010511636734008789,1.5258788721439487e-07,5.999996662139893,3.1415913105010986,0.0,0.0,0.0
1759506853.1728141,0,1.5258788721439487e-07,5.999996662139893,3.14154543863571,0.0,True,0.011053085327148438,1.5258788721439487e-07,5.999996662139893,3.1415913105010986,0.0,0.0,0.0
1759506853.1840553,0,1.5258788721439487e-07,5.999996662139893,3.141546602554948,0.0,True,0.01124119758605957,1.5258788721439487e-07,5.999996662139893,3.1415913105010986,0.0,0.0,0.0
1759506853.1950471,0,1.5258788721439487e-07,5.999996662139893,3.1415480482456744,0.0,True,0.010991811752319336,1.5258788721439487e-07,5.999996662139893,3.1415913105010986,0.0,0.0,0.0
1759506853.2063463,0,1.5258788721439487e-07,5.999996662139893,3.1415492026181404,0.0,True,0.01129913330078125,1.5258788721439487e-07,5.999996662139893,3.1415913105010986,0.0,0.0,0.0
1759506853.2165134,0,1.5258788721439487e-07,5.999996662139893,3.141551349135895,0.0,True,0.010167121887207031,1.5258788721439487e-07,5.999996662139893,3.1415913105010986,0.0,0.0,0.0
1759506853.2287722,0,1.5258788721439487e-07,5.999996662139893,3.1415515299957057,0.0,True,0.012258768081665039,1.5258788721439487e-07,5.999996662139893,3.1415913105010986,0.0,0.0,0.0
1759506853.2390199,0,1.5258788721439487e-07,5.999996662139893,3.141553552712802,0.0,True,0.01024770736694336,1.5258788721439487e-07,5.999996662139893,3.1415913105010986,0.0,0.0,0.0
1759506853.2506573,0,1.5258788721439487e-07,5.999996662139893,3.1415543300136566,0.0,True,0.011637449264526367,1.5258788721439487e-07,5.999996662139893,3.1415913105010986,0.0,0.0,0.0
1759506853.2610705,0,1.5258788721439487e-07,5.999996662139893,3.1415560739538577,0.0,True,0.010413169860839844,1.5258788721439487e-07,5.999996662139893,3.1415913105010986,0.0,0.0,0.0
1759506853.271634,0,1.5258788721439487e-07,5.999996662139893,3.1415575453684514,0.0,True,0.01056361198425293,1.5258788721439487e-07,5.999996662139893,3.1415913105010986,0.0,0.0,0.0
1759506853.28197,0,1.5258788721439487e-07,5.999996662139893,3.141559013839945,0.0,True,0.010335922241210938,1.5258788721439487e-07,5.999996662139893,3.1415913105010986,0.0,0.0,0.0
1759506853.2932618,0,1.5258788721439487e-07,5.999996662139893,3.1415596763329674,0.0,True,0.011291742324829102,1.5258788721439487e-07,5.999996662139893,3.1415913105010986,0.0,0.0,0.0
1759506853.3036954,0,1.5258788721439487e-07,5.999996662139893,3.1415609539927125,0.0,True,0.010433673858642578,1.5258788721439487e-07,5.999996662139893,3.1415913105010986,0.0,0.0,0.0
1759506853.3139415,0,1.5258788721439487e-07,5.999996662139893,3.1415622647611876,0.0,True,0.010246038436889648,1.5258788721439487e-07,5.999996662139893,3.1415913105010986,0.0,0.0,0.0
1759506853.324074,0,1.5258788721439487e-07,5.999996662139893,3.1415635000204514,0.0,True,0.010132551193237305,1.5258788721439487e-07,5.999996662139893,3.1415913105010986,0.0,0.0,0.0
1759506853.3451483,0,1.5258788721439487e-07,5.999996662139893,3.141558295946627,0.0,True,0.021074295043945312,1.5258788721439487e-07,5.999996662139893,3.1415913105010986,0.0,0.0,0.0
1759506853.3557947,0,1.5258788721439487e-07,5.999996662139893,3.1415607812813953,0.0,True,0.010646343231201172,1.5258788721439487e-07,5.999996662139893,3.1415913105010986,0.0,0.0,0.0
1759506853.3663561,0,1.5258788721439487e-07,5.999996662139893,3.141563250868426,0.0,True,0.010561466217041016,1.5258788721439487e-07,5.999996662139893,3.1415913105010986,0.0,0.0,0.0
1759506853.377185,0,1.5258788721439487e-07,5.999996662139893,3.141565081556788,0.0,True,0.010828971862792969,1.5258788721439487e-07,5.999996662139893,3.1415913105010986,0.0,0.0,0.0
1759506853.3884015,0,1.5258788721439487e-07,5.999996662139893,3.141566373216314,0.0,True,0.011216402053833008,1.5258788721439487e-07,5.999996662139893,3.1415913105010986,0.0,0.0,0.0
1759506853.3993788,0,1.5258788721439487e-07,5.999996662139893,3.141567597201462,0.0,True,0.01097726821899414,1.5258788721439487e-07,5.999996662139893,3.1415913105010986,0.0,0.0,0.0
1759506853.4100652,0,1.5258788721439487e-07,5.999996662139893,3.1415688023277166,0.0,True,0.010686397552490234,1.5258788721439487e-07,5.999996662139893,3.1415913105010986,0.0,0.0,0.0
1759506853.4215012,0,1.5258788721439487e-07,5.999996662139893,3.141569514308152,0.0,True,0.011435985565185547,1.5258788721439487e-07,5.999996662139893,3.1415913105010986,0.0,0.0,0.0
1759506853.4328976,0,1.5258788721439487e-07,5.999996662139893,3.141570215804652,0.0,True,0.011396408081054688,1.5258788721439487e-07,5.999996662139893,3.1415913105010986,0.0,0.0,0.0
1759506853.444352,0,1.5258788721439487e-07,5.999996662139893,3.1415708890665837,0.0,True,0.011454343795776367,1.5258788721439487e-07,5.999996662139893,3.1415913105010986,0.0,0.0,0.0
1759506853.4556081,0,1.5258788721439487e-07,5.999996662139893,3.1415716389072976,0.0,True,0.011256217956542969,1.5258788721439487e-07,5.999996662139893,3.1415913105010986,0.0,0.0,0.0
1759506853.4660792,0,1.5258788721439487e-07,5.999996662139893,3.1415726584188253,0.0,True,0.010471105575561523,1.5258788721439487e-07,5.999996662139893,3.1415913105010986,0.0,0.0,0.0
1759506853.4768558,0,1.5258788721439487e-07,5.999996662139893,3.141573436315962,0.0,True,0.010776519775390625,1.5258788721439487e-07,5.999996662139893,3.1415913105010986,0.0,0.0,0.0
1759506853.4868672,0,1.5258788721439487e-07,5.999996662139893,3.1415744046443326,0.0,True,0.010011434555053711,1.5258788721439487e-07,5.999996662139893,3.1415913105010986,0.0,0.0,0.0
1759506853.497706,0,1.5258788721439487e-07,5.999996662139893,3.1415749432888234,0.0,True,0.010838747024536133,1.5258788721439487e-07,5.999996662139893,3.1415913105010986,0.0,0.0,0.0
1759506853.5079687,0,1.5258788721439487e-07,5.999996662139893,3.141575639972709,0.0,True,0.010262727737426758,1.5258788721439487e-07,5.999996662139893,3.1415913105010986,0.0,0.0,0.0
1759506853.5185652,0,1.5258788721439487e-07,5.999996662139893,3.1415761603882064,0.0,True,0.010596513748168945,1.5258788721439487e-07,5.999996662139893,3.1415913105010986,0.0,0.0,0.0
1759506853.5444603,0,1.5258788721439487e-07,5.999996662139893,3.1415719955362977,0.0,True,0.025895118713378906,1.5258788721439487e-07,5.999996662139893,3.1415913105010986,0.0,0.0,0.0
1759506853.5557997,0,1.5258788721439487e-07,5.999996662139893,3.1415736290008685,0.0,True,0.011339426040649414,1.5258788721439487e-07,5.999996662139893,3.1415913105010986,0.0,0.0,0.0
1759506853.5658605,0,1.5258788721439487e-07,5.999996662139893,3.141575587649978,0.0,True,0.010060787200927734,1.5258788721439487e-07,5.999996662139893,3.1415913105010986,0.0,0.0,0.0
1759506853.5760098,0,1.5258788721439487e-07,5.999996662139893,3.141577065972937,0.0,True,0.010149240493774414,1.5258788721439487e-07,5.999996662139893,3.1415913105010986,0.0,0.0,0.0
1759506853.5861907,0,1.5258788721439487e-07,5.999996662139893,3.1415781779600813,0.0,True,0.010180950164794922,1.5258788721439487e-07,5.999996662139893,3.1415913105010986,0.0,0.0,0.0
1759506853.5962305,0,1.5258788721439487e-07,5.999996662139893,3.141579078504744,0.0,True,0.010039806365966797,1.5258788721439487e-07,5.999996662139893,3.1415913105010986,0.0,0.0,0.0
1759506853.6067152,0,1.5258788721439487e-07,5.999996662139893,3.141579688636984,0.0,True,0.010484695434570312,1.5258788721439487e-07,5.999996662139893,3.1415913105010986,0.0,0.0,0.0
1759506853.6169426,0,1.5258788721439487e-07,5.999996662139893,3.14158025990632,0.0,True,0.010227441787719727,1.5258788721439487e-07,5.999996662139893,3.1415913105010986,0.0,0.0,0.0
1759506853.6287985,0,1.5258788721439487e-07,5.999996662139893,3.1415803792278503,0.0,True,0.011855840682983398,1.5258788721439487e-07,5.999996662139893,3.1415913105010986,0.0,0.0,0.0
1759506853.639621,0,1.5258788721439487e-07,5.999996662139893,3.1415807749514606,0.0,True,0.010822534561157227,1.5258788721439487e-07,5.999996662139893,3.1415913105010986,0.0,0.0,0.0
1759506853.650228,0,1.5258788721439487e-07,5.999996662139893,3.1415812086600123,0.0,True,0.010607004165649414,1.5258788721439487e-07,5.999996662139893,3.1415913105010986,0.0,0.0,0.0
1759506853.6613646,0,1.5258788721439487e-07,5.999996662139893,3.1415814944848215,0.0,True,0.011136531829833984,1.5258788721439487e-07,5.999996662139893,3.1415913105010986,0.0,0.0,0.0
1759506853.6723173,0,1.5258788721439487e-07,5.999996662139893,3.141581815102729,0.0,True,0.01095271110534668,1.5258788721439487e-07,5.999996662139893,3.1415913105010986,0.0,0.0,0.0
1759506853.6823761,0,1.5258788721439487e-07,5.999996662139893,3.141582301200325,0.0,True,0.010058879852294922,1.5258788721439487e-07,5.999996662139893,3.1415913105010986,0.0,0.0,0.0
1759506853.6930387,0,1.5258788721439487e-07,5.999996662139893,3.141582612511817,0.0,True,0.010662555694580078,1.5258788721439487e-07,5.999996662139893,3.1415913105010986,0.0,0.0,0.0
1759506853.7044413,0,1.5258788721439487e-07,5.999996662139893,3.1415827642622904,0.0,True,0.011402606964111328,1.5258788721439487e-07,5.999996662139893,3.1415913105010986,0.0,0.0,0.0
1759506853.7149358,0,1.5258788721439487e-07,5.999996662139893,3.1415831033564316,0.0,True,0.010494470596313477,1.5258788721439487e-07,5.999996662139893,3.1415913105010986,0.0,0.0,0.0
1759506853.725002,0,1.5258788721439487e-07,5.999996662139893,3.141583495867307,0.0,True,0.01006627082824707,1.5258788721439487e-07,5.999996662139893,3.1415913105010986,0.0,0.0,0.0
1759506853.744318,0,1.5258788721439487e-07,5.999996662139893,3.141582353277551,0.0,True,0.01931595802307129,1.5258788721439487e-07,5.999996662139893,3.1415913105010986,0.0,0.0,0.0
1759506853.754754,0,1.5258788721439487e-07,5.999996662139893,3.1415830134016627,0.0,True,0.010436058044433594,1.5258788721439487e-07,5.999996662139893,3.1415913105010986,0.0,0.0,0.0
1759506853.7652466,0,1.5258788721439487e-07,5.999996662139893,3.141583637204665,0.0,True,0.010492563247680664,1.5258788721439487e-07,5.999996662139893,3.1415913105010986,0.0,0.0,0.0
1759506853.7761152,0,1.5258788721439487e-07,5.999996662139893,3.141584084029448,0.0,True,0.010868549346923828,1.5258788721439487e-07,5.999996662139893,3.1415913105010986,0.0,0.0,0.0
1759506853.7864432,0,1.5258788721439487e-07,5.999996662139893,3.1415845270515295,0.0,True,0.010328054428100586,1.5258788721439487e-07,5.999996662139893,3.1415913105010986,0.0,0.0,0.0
1759506853.798002,0,1.5258788721439487e-07,5.999996662139893,3.1415847308484093,0.0,True,0.011558771133422852,1.5258788721439487e-07,5.999996662139893,3.1415913105010986,0.0,0.0,0.0
1759506853.809185,0,1.5258788721439487e-07,5.999996662139893,3.141584973992515,0.0,True,0.011183023452758789,1.5258788721439487e-07,5.999996662139893,3.1415913105010986,0.0,0.0,0.0
1759506853.8195577,0,1.5258788721439487e-07,5.999996662139893,3.1415853075233464,0.0,True,0.010372638702392578,1.5258788721439487e-07,5.999996662139893,3.1415913105010986,0.0,0.0,0.0
1759506853.8303163,0,1.5258788721439487e-07,5.999996662139893,3.1415855513703637,0.0,True,0.010758638381958008,1.5258788721439487e-07,5.999996662139893,3.1415913105010986,0.0,0.0,0.0
1759506853.8406203,0,1.5258788721439487e-07,5.999996662139893,3.1415858221103736,0.0,True,0.010303974151611328,1.5258788721439487e-07,5.999996662139893,3.1415913105010986,0.0,0.0,0.0
1759506853.8515894,0,1.5258788721439487e-07,5.999996662139893,3.1415859849352614,0.0,True,0.010969161987304688,1.5258788721439487e-07,5.999996662139893,3.1415913105010986,0.0,0.0,0.0
1759506853.8624887,0,1.5258788721439487e-07,5.999996662139893,3.1415861499002933,0.0,True,0.01089930534362793,1.5258788721439487e-07,5.999996662139893,3.1415913105010986,0.0,0.0,0.0
1759506853.8740137,0,1.5258788721439487e-07,5.999996662139893,3.1415862472719205,0.0,True,0.01152491569519043,1.5258788721439487e-07,5.999996662139893,3.1415913105010986,0.0,0.0,0.0
1759506853.884912,0,1.5258788721439487e-07,5.999996662139893,3.141586426013749,0.0,True,0.010898351669311523,1.5258788721439487e-07,5.999996662139893,3.1415913105010986,0.0,0.0,0.0
1759506853.8961105,0,1.5258788721439487e-07,5.999996662139893,3.141586571613903,0.0,True,0.01119852066040039,1.5258788721439487e-07,5.999996662139893,3.1415913105010986,0.0,0.0,0.0
1759506853.906993,0,1.5258788721439487e-07,5.999996662139893,3.1415867473762784,0.0,True,0.010882377624511719,1.5258788721439487e-07,5.999996662139893,3.1415913105010986,0.0,0.0,0.0
1759506853.9174597,0,1.5258788721439487e-07,5.999996662139893,3.1415869525902043,0.0,True,0.010466814041137695,1.5258788721439487e-07,5.999996662139893,3.1415913105010986,0.0,0.0,0.0
1759506853.9276955,0,1.5258788721439487e-07,5.999996662139893,3.1415871568322267,0.0,True,0.010235786437988281,1.5258788721439487e-07,5.999996662139893,3.1415913105010986,0.0,0.0,0.0
1759506853.937743,0,1.5258788721439487e-07,5.999996662139893,3.141587351544306,0.0,True,0.010047435760498047,1.5258788721439487e-07,5.999996662139893,3.1415913105010986,0.0,0.0,0.0
1759506853.947957,0,1.5258788721439487e-07,5.999996662139893,3.1415875063727814,0.0,True,0.010214090347290039,1.5258788721439487e-07,5.999996662139893,3.1415913105010986,0.0,0.0,0.0
1759506853.9588597,0,1.5258788721439487e-07,5.999996662139893,3.1415875889141542,0.0,True,0.010902643203735352,1.5258788721439487e-07,5.999996662139893,3.1415913105010986,0.0,0.0,0.0
1759506853.9700315,0,1.5258788721439487e-07,5.999996662139893,3.1415876560437734,0.0,True,0.011171817779541016,1.5258788721439487e-07,5.999996662139893,3.1415913105010986,0.0,0.0,0.0
1759506853.9809976,0,1.5258788721439487e-07,5.999996662139893,3.141587753032635,0.0,True,0.010966062545776367,1.5258788721439487e-07,5.999996662139893,3.1415913105010986,0.0,0.0,0.0
1759506853.99194,0,1.5258788721439487e-07,5.999996662139893,3.1415878579721976,0.0,True,0.010942459106445312,1.5258788721439487e-07,5.999996662139893,3.1415913105010986,0.0,0.0,0.0
1759506854.0028555,0,1.5258788721439487e-07,5.999996662139893,3.141587966378207,0.0,True,0.010915517807006836,1.5258788721439487e-07,5.999996662139893,3.1415913105010986,0.0,0.0,0.0
1759506854.0136325,0,1.5258788721439487e-07,5.999996662139893,3.141588083399494,0.0,True,0.010776996612548828,1.5258788721439487e-07,5.999996662139893,3.1415913105010986,0.0,0.0,0.0
1759506854.0237222,0,1.5258788721439487e-07,5.999996662139893,3.1415882410773293,0.0,True,0.010089635848999023,1.5258788721439487e-07,5.999996662139893,3.1415913105010986,0.0,0.0,0.0
1759506854.0347562,0,1.5258788721439487e-07,5.999996662139893,3.1415883192875427,0.0,True,0.011034011840820312,1.5258788721439487e-07,5.999996662139893,3.1415913105010986,0.0,0.0,0.0
1759506854.0461075,0,1.5258788721439487e-07,5.999996662139893,3.1415883785578664,0.0,True,0.011351346969604492,1.5258788721439487e-07,5.999996662139893,3.1415913105010986,0.0,0.0,0.0
1759506854.0563688,0,1.5258788721439487e-07,5.999996662139893,3.1415885131640042,0.0,True,0.010261297225952148,1.5258788721439487e-07,5.999996662139893,3.1415913105010986,0.0,0.0,0.0
1759506854.067189,0,1.5258788721439487e-07,5.999996662139893,3.1415886036641716,0.0,True,0.010820150375366211,1.5258788721439487e-07,5.999996662139893,3.1415913105010986,0.0,0.0,0.0
1759506854.0772223,0,1.5258788721439487e-07,5.999996662139893,3.1415887337087174,0.0,True,0.010033369064331055,1.5258788721439487e-07,5.999996662139893,3.1415913105010986,0.0,0.0,0.0
1759506854.0878484,0,1.5258788721439487e-07,5.999996662139893,3.141588816583468,0.0,True,0.010626077651977539,1.5258788721439487e-07,5.999996662139893,3.1415913105010986,0.0,0.0,0.0
1759506854.0984397,0,1.5258788721439487e-07,5.999996662139893,3.141588896400087,0.0,True,0.010591268539428711,1.5258788721439487e-07,5.999996662139893,3.1415913105010986,0.0,0.0,0.0
1759506854.108644,0,1.5258788721439487e-07,5.999996662139893,3.1415889935989814,0.0,True,0.010204315185546875,1.5258788721439487e-07,5.999996662139893,3.1415913105010986,0.0,0.0,0.0
1759506854.1191504,0,1.5258788721439487e-07,5.999996662139893,3.1415890677590923,0.0,True,0.010506391525268555,1.5258788721439487e-07,5.999996662139893,3.1415913105010986,0.0,0.0,0.0
1759506854.1294434,0,1.5258788721439487e-07,5.999996662139893,3.141589148628718,0.0,True,0.010293006896972656,1.5258788721439487e-07,5.999996662139893,3.1415913105010986,0.0,0.0,0.0
1759506854.1563148,0,1.5258788721439487e-07,5.999996662139893,3.141588495549719,0.0,True,0.026871442794799805,1.5258788721439487e-07,5.999996662139893,3.1415913105010986,0.0,0.0,0.0
1759506854.1674747,0,1.5258788721439487e-07,5.999996662139893,3.1415887478109426,0.0,True,0.011159896850585938,1.5258788721439487e-07,5.999996662139893,3.1415913105010986,0.0,0.0,0.0
1759506854.1783946,0,1.5258788721439487e-07,5.999996662139893,3.141589004066704,0.0,True,0.010919809341430664,1.5258788721439487e-07,5.999996662139893,3.1415913105010986,0.0,0.0,0.0
1759506854.1884205,0,1.5258788721439487e-07,5.999996662139893,3.141589236236637,0.0,True,0.010025978088378906,1.5258788721439487e-07,5.999996662139893,3.1415913105010986,0.0,0.0,0.0
1759506854.19948,0,1.5258788721439487e-07,5.999996662139893,3.1415893753163964,0.0,True,0.01105952262878418,1.5258788721439487e-07,5.999996662139893,3.1415913105010986,0.0,0.0,0.0
1759506854.2110672,0,1.5258788721439487e-07,5.999996662139893,3.1415894666349207,0.0,True,0.011587142944335938,1.5258788721439487e-07,5.999996662139893,3.1415913105010986,0.0,0.0,0.0
1759506854.221629,0,1.5258788721439487e-07,5.999996662139893,3.1415895811935357,0.0,True,0.010561704635620117,1.5258788721439487e-07,5.999996662139893,3.1415913105010986,0.0,0.0,0.0
1759506854.231918,0,1.5258788721439487e-07,5.999996662139893,3.1415896868398487,0.0,True,0.010289192199707031,1.5258788721439487e-07,5.999996662139893,3.1415913105010986,0.0,0.0,0.0
1759506854.2427807,0,1.5258788721439487e-07,5.999996662139893,3.1415897556534205,0.0,True,0.010862588882446289,1.5258788721439487e-07,5.999996662139893,3.1415913105010986,0.0,0.0,0.0
1759506854.2542782,0,1.5258788721439487e-07,5.999996662139893,3.1415897962514627,0.0,True,0.01149749755859375,1.5258788721439487e-07,5.999996662139893,3.1415913105010986,0.0,0.0,0.0
1759506854.2648115,0,1.5258788721439487e-07,5.999996662139893,3.141589866886452,0.0,True,0.010533332824707031,1.5258788721439487e-07,5.999996662139893,3.1415913105010986,0.0,0.0,0.0
1759506854.275061,0,1.5258788721439487e-07,5.999996662139893,3.141589938962058,0.0,True,0.01024937629699707,1.5258788721439487e-07,5.999996662139893,3.1415913105010986,0.0,0.0,0.0
1759506854.2854078,0,1.5258788721439487e-07,5.999996662139893,3.141589998381056,0.0,True,0.01034688949584961,1.5258788721439487e-07,5.999996662139893,3.1415913105010986,0.0,0.0,0.0
1759506854.2960808,0,1.5258788721439487e-07,5.999996662139893,3.1415900415937372,0.0,True,0.010673046112060547,1.5258788721439487e-07,5.999996662139893,3.1415913105010986,0.0,0.0,0.0
1759506854.3069394,0,1.5258788721439487e-07,5.999996662139893,3.141590077341359,0.0,True,0.010858535766601562,1.5258788721439487e-07,5.999996662139893,3.1415913105010986,0.0,0.0,0.0
1759506854.318387,0,1.5258788721439487e-07,5.999996662139893,3.141590098200359,0.0,True,0.011447668075561523,1.5258788721439487e-07,5.999996662139893,3.1415913105010986,0.0,0.0,0.0
1759506854.329369,0,1.5258788721439487e-07,5.999996662139893,3.1415901354123985,0.0,True,0.010982036590576172,1.5258788721439487e-07,5.999996662139893,3.1415913105010986,0.0,0.0,0.0
1759506854.3452601,0,1.5258788721439487e-07,5.999996662139893,3.141590058208511,0.0,True,0.015891075134277344,1.5258788721439487e-07,5.999996662139893,3.1415913105010986,0.0,0.0,0.0
1759506854.3560388,0,1.5258788721439487e-07,5.999996662139893,3.1415901328355282,0.0,True,0.010778665542602539,1.5258788721439487e-07,5.999996662139893,3.1415913105010986,0.0,0.0,0.0
1759506854.3675416,0,1.5258788721439487e-07,5.999996662139893,3.1415901885537885,0.0,True,0.011502742767333984,1.5258788721439487e-07,5.999996662139893,3.1415913105010986,0.0,0.0,0.0
1759506854.3788137,0,1.5258788721439487e-07,5.999996662139893,3.141590242466613,0.0,True,0.011272192001342773,1.5258788721439487e-07,5.999996662139893,3.1415913105010986,0.0,0.0,0.0
1759506854.390266,0,1.5258788721439487e-07,5.999996662139893,3.141590286809251,0.0,True,0.011452198028564453,1.5258788721439487e-07,5.999996662139893,3.1415913105010986,0.0,0.0,0.0
1759506854.4007587,0,1.5258788721439487e-07,5.999996662139893,3.1415903460493535,0.0,True,0.010492801666259766,1.5258788721439487e-07,5.999996662139893,3.1415913105010986,0.0,0.0,0.0
1759506854.411364,0,1.5258788721439487e-07,5.999996662139893,3.141590394664682,0.0,True,0.010605335235595703,1.5258788721439487e-07,5.999996662139893,3.1415913105010986,0.0,0.0,0.0
1759506854.4224958,0,1.5258788721439487e-07,5.999996662139893,3.14159042664172,0.0,True,0.011131763458251953,1.5258788721439487e-07,5.999996662139893,3.1415913105010986,0.0,0.0,0.0
1759506854.4338813,0,1.5258788721439487e-07,5.999996662139893,3.1415904520291793,0.0,True,0.011385440826416016,1.5258788721439487e-07,5.999996662139893,3.1415913105010986,0.0,0.0,0.0
1759506854.444127,0,1.5258788721439487e-07,5.999996662139893,3.1415904972023476,0.0,True,0.010245800018310547,1.5258788721439487e-07,5.999996662139893,3.1415913105010986,0.0,0.0,0.0
1759506854.4548655,0,1.5258788721439487e-07,5.999996662139893,3.1415905287489565,0.0,True,0.010738372802734375,1.5258788721439487e-07,5.999996662139893,3.1415913105010986,0.0,0.0,0.0
1759506854.4656327,0,1.5258788721439487e-07,5.999996662139893,3.1415905566741245,0.0,True,0.010767221450805664,1.5258788721439487e-07,5.999996662139893,3.1415913105010986,0.0,0.0,0.0
1759506854.476533,0,1.5258788721439487e-07,5.999996662139893,3.1415905808186704,0.0,True,0.010900259017944336,1.5258788721439487e-07,5.999996662139893,3.1415913105010986,0.0,0.0,0.0
1759506854.4866102,0,1.5258788721439487e-07,5.999996662139893,3.1415906165398013,0.0,True,0.010077238082885742,1.5258788721439487e-07,5.999996662139893,3.1415913105010986,0.0,0.0,0.0
1759506854.4968638,0,1.5258788721439487e-07,5.999996662139893,3.141590645447984,0.0,True,0.010253667831420898,1.5258788721439487e-07,5.999996662139893,3.1415913105010986,0.0,0.0,0.0
1759506854.5076156,0,1.5258788721439487e-07,5.999996662139893,3.1415906639779614,0.0,True,0.010751724243164062,1.5258788721439487e-07,5.999996662139893,3.1415913105010986,0.0,0.0,0.0
1759506854.5185823,0,1.5258788721439487e-07,5.999996662139893,3.141590679313307,0.0,True,0.010966777801513672,1.5258788721439487e-07,5.999996662139893,3.1415913105010986,0.0,0.0,0.0
1759506854.5301201,0,1.5258788721439487e-07,5.999996662139893,3.1415906883108438,0.0,True,0.011537790298461914,1.5258788721439487e-07,5.999996662139893,3.1415913105010986,0.0,0.0,0.0
1759506854.5402281,0,1.5258788721439487e-07,5.999996662139893,3.1415907186087715,0.0,True,0.010107994079589844,1.5258788721439487e-07,5.999996662139893,3.1415913105010986,0.0,0.0,0.0
1759506854.5505352,0,1.5258788721439487e-07,5.999996662139893,3.141590743584622,0.0,True,0.010307073593139648,1.5258788721439487e-07,5.999996662139893,3.1415913105010986,0.0,0.0,0.0
1759506854.560769,0,1.5258788721439487e-07,5.999996662139893,3.141590766548621,0.0,True,0.010233879089355469,1.5258788721439487e-07,5.999996662139893,3.1415913105010986,0.0,0.0,0.0
1759506854.571201,0,1.5258788721439487e-07,5.999996662139893,3.1415907848898588,0.0,True,0.010432004928588867,1.5258788721439487e-07,5.999996662139893,3.1415913105010986,0.0,0.0,0.0
1759506854.5812883,0,1.5258788721439487e-07,5.999996662139893,3.1415908059452153,0.0,True,0.010087251663208008,1.5258788721439487e-07,5.999996662139893,3.1415913105010986,0.0,0.0,0.0
1759506854.59188,0,1.5258788721439487e-07,5.999996662139893,3.141590819622664,0.0,True,0.010591745376586914,1.5258788721439487e-07,5.999996662139893,3.1415913105010986,0.0,0.0,0.0
1759506854.6027906,0,1.5258788721439487e-07,5.999996662139893,3.1415908298488606,0.0,True,0.010910511016845703,1.5258788721439487e-07,5.999996662139893,3.1415913105010986,0.0,0.0,0.0
1759506854.614229,0,1.5258788721439487e-07,5.999996662139893,3.1415908359977056,0.0,True,0.011438369750976562,1.5258788721439487e-07,5.999996662139893,3.1415913105010986,0.0,0.0,0.0
1759506854.625047,0,1.5258788721439487e-07,5.999996662139893,3.1415908509097505,0.0,True,0.010818004608154297,1.5258788721439487e-07,5.999996662139893,3.1415913105010986,0.0,0.0,0.0
1759506854.6362245,0,1.5258788721439487e-07,5.999996662139893,3.1415908627658755,0.0,True,0.011177539825439453,1.5258788721439487e-07,5.999996662139893,3.1415913105010986,0.0,0.0,0.0
1759506854.6463127,0,1.5258788721439487e-07,5.999996662139893,3.141590885189835,0.0,True,0.010088205337524414,1.5258788721439487e-07,5.999996662139893,3.1415913105010986,0.0,0.0,0.0
1759506854.6576772,0,1.5258788721439487e-07,5.999996662139893,3.141590893863903,0.0,True,0.011364459991455078,1.5258788721439487e-07,5.999996662139893,3.1415913105010986,0.0,0.0,0.0
1759506854.668067,0,1.5258788721439487e-07,5.999996662139893,3.141590911614358,0.0,True,0.01038980484008789,1.5258788721439487e-07,5.999996662139893,3.1415913105010986,0.0,0.0,0.0
1759506854.6787715,0,1.5258788721439487e-07,5.999996662139893,3.1415909254983383,0.0,True,0.010704517364501953,1.5258788721439487e-07,5.999996662139893,3.1415913105010986,0.0,0.0,0.0
1759506854.690094,0,1.5258788721439487e-07,5.999996662139893,3.141590933645144,0.0,True,0.011322498321533203,1.5258788721439487e-07,5.999996662139893,3.1415913105010986,0.0,0.0,0.0
1759506854.7013178,0,1.5258788721439487e-07,5.999996662139893,3.141590943552826,0.0,True,0.011223793029785156,1.5258788721439487e-07,5.999996662139893,3.1415913105010986,0.0,0.0,0.0
1759506854.7125468,0,1.5258788721439487e-07,5.999996662139893,3.1415909541848563,0.0,True,0.01122903823852539,1.5258788721439487e-07,5.999996662139893,3.1415913105010986,0.0,0.0,0.0
1759506854.7229924,0,1.5258788721439487e-07,5.999996662139893,3.14159097077515,0.0,True,0.010445594787597656,1.5258788721439487e-07,5.999996662139893,3.1415913105010986,0.0,0.0,0.0
1759506854.7344956,0,1.5258788721439487e-07,5.999996662139893,3.1415909784786926,0.0,True,0.011503219604492188,1.5258788721439487e-07,5.999996662139893,3.1415913105010986,0.0,0.0,0.0
1759506854.7456152,0,1.5258788721439487e-07,5.999996662139893,3.141590989315233,0.0,True,0.011119604110717773,1.5258788721439487e-07,5.999996662139893,3.1415913105010986,0.0,0.0,0.0
1759506854.7556858,0,1.5258788721439487e-07,5.999996662139893,3.141591006931188,0.0,True,0.010070562362670898,1.5258788721439487e-07,5.999996662139893,3.1415913105010986,0.0,0.0,0.0
1759506854.7657642,0,1.5258788721439487e-07,5.999996662139893,3.1415910221755894,0.0,True,0.01007843017578125,1.5258788721439487e-07,5.999996662139893,3.1415913105010986,0.0,0.0,0.0
1759506854.7759519,0,1.5258788721439487e-07,5.999996662139893,3.1415910345038895,0.0,True,0.010187625885009766,1.5258788721439487e-07,5.999996662139893,3.1415913105010986,0.0,0.0,0.0
1759506854.7869575,0,1.5258788721439487e-07,5.999996662139893,3.1415910405630907,0.0,True,0.011005640029907227,1.5258788721439487e-07,5.999996662139893,3.1415913105010986,0.0,0.0,0.0
1759506854.797103,0,1.5258788721439487e-07,5.999996662139893,3.141591051883294,0.0,True,0.010145425796508789,1.5258788721439487e-07,5.999996662139893,3.1415913105010986,0.0,0.0,0.0
1759506854.8077846,0,1.5258788721439487e-07,5.999996662139893,3.14159105938918,0.0,True,0.010681629180908203,1.5258788721439487e-07,5.999996662139893,3.1415913105010986,0.0,0.0,0.0
1759506854.8196614,0,1.5258788721439487e-07,5.999996662139893,3.1415910604328605,0.0,True,0.011876821517944336,1.5258788721439487e-07,5.999996662139893,3.1415913105010986,0.0,0.0,0.0
1759506854.8311017,0,1.5258788721439487e-07,5.999996662139893,3.1415910657045547,0.0,True,0.011440277099609375,1.5258788721439487e-07,5.999996662139893,3.1415913105010986,0.0,0.0,0.0
1759506854.8423443,0,1.5258788721439487e-07,5.999996662139893,3.141591073103113,0.0,True,0.01124262809753418,1.5258788721439487e-07,5.999996662139893,3.1415913105010986,0.0,0.0,0.0
1759506854.8542106,0,1.5258788721439487e-07,5.999996662139893,3.1415910778408076,0.0,True,0.011866331100463867,1.5258788721439487e-07,5.999996662139893,3.1415913105010986,0.0,0.0,0.0
1759506854.8655987,0,1.5258788721439487e-07,5.999996662139893,3.141591085682496,0.0,True,0.011388063430786133,1.5258788721439487e-07,5.999996662139893,3.1415913105010986,0.0,0.0,0.0
1759506854.8759725,0,1.5258788721439487e-07,5.999996662139893,3.1415910980429,0.0,True,0.010373830795288086,1.5258788721439487e-07,5.999996662139893,3.1415913105010986,0.0,0.0,0.0
1759506854.8864856,0,1.5258788721439487e-07,5.999996662139893,3.1415911082336194,0.0,True,0.010513067245483398,1.5258788721439487e-07,5.999996662139893,3.1415913105010986,0.0,0.0,0.0
1759506854.8972647,0,1.5258788721439487e-07,5.999996662139893,3.141591115972835,0.0,True,0.010779142379760742,1.5258788721439487e-07,5.999996662139893,3.1415913105010986,0.0,0.0,0.0
1759506854.9078226,0,1.5258788721439487e-07,5.999996662139893,3.141591123934706,0.0,True,0.010557889938354492,1.5258788721439487e-07,5.999996662139893,3.1415913105010986,0.0,0.0,0.0
1759506854.9186044,0,1.5258788721439487e-07,5.999996662139893,3.1415911303494646,0.0,True,0.01078176498413086,1.5258788721439487e-07,5.999996662139893,3.1415913105010986,0.0,0.0,0.0
1759506854.929583,0,1.5258788721439487e-07,5.999996662139893,3.1415911356997874,0.0,True,0.01097869873046875,1.5258788721439487e-07,5.999996662139893,3.1415913105010986,0.0,0.0,0.0
1759506854.9727993,0,1.5258788721439487e-07,5.999996662139893,3.141591037822497,0.0,True,0.04321622848510742,1.5258788721439487e-07,5.999996662139893,3.1415913105010986,0.0,0.0,0.0
1759506854.9830449,0,1.5258788721439487e-07,5.999996662139893,3.141591079436173,0.0,True,0.010245561599731445,1.5258788721439487e-07,5.999996662139893,3.1415913105010986,0.0,0.0,0.0
1759506854.9937124,0,1.5258788721439487e-07,5.999996662139893,3.141591114863754,0.0,True,0.010667562484741211,1.5258788721439487e-07,5.999996662139893,3.1415913105010986,0.0,0.0,0.0
1759506855.0042226,0,1.5258788721439487e-07,5.999996662139893,3.141591140555418,0.0,True,0.01051020622253418,1.5258788721439487e-07,5.999996662139893,3.1415913105010986,0.0,0.0,0.0
1759506855.015018,0,1.5258788721439487e-07,5.999996662139893,3.1415911583483265,0.0,True,0.010795354843139648,1.5258788721439487e-07,5.999996662139893,3.1415913105010986,0.0,0.0,0.0
1759506855.0257566,0,1.5258788721439487e-07,5.999996662139893,3.141591171700675,0.0,True,0.010738611221313477,1.5258788721439487e-07,5.999996662139893,3.1415913105010986,0.0,0.0,0.0
1759506855.0362184,0,1.5258788721439487e-07,5.999996662139893,3.1415911826208855,0.0,True,0.010461807250976562,1.5258788721439487e-07,5.999996662139893,3.1415913105010986,0.0,0.0,0.0
1759506855.0467837,0,1.5258788721439487e-07,5.999996662139893,3.14159119093992,0.0,True,0.01056528091430664,1.5258788721439487e-07,5.999996662139893,3.1415913105010986,0.0,0.0,0.0
1759506855.0568216,0,1.5258788721439487e-07,5.999996662139893,3.1415911988321863,0.0,True,0.010037899017333984,1.5258788721439487e-07,5.999996662139893,3.1415913105010986,0.0,0.0,0.0
1759506855.0672371,0,1.5258788721439487e-07,5.999996662139893,3.1415912043861525,0.0,True,0.01041555404663086,1.5258788721439487e-07,5.999996662139893,3.1415913105010986,0.0,0.0,0.0
1759506855.077674,0,1.5258788721439487e-07,5.999996662139893,3.1415912089788094,0.0,True,0.010436773300170898,1.5258788721439487e-07,5.999996662139893,3.1415913105010986,0.0,0.0,0.0
1759506855.0891995,0,1.5258788721439487e-07,5.999996662139893,3.1415912107080004,0.0,True,0.011525630950927734,1.5258788721439487e-07,5.999996662139893,3.1415913105010986,0.0,0.0,0.0
1759506855.1005266,0,1.5258788721439487e-07,5.999996662139893,3.141591213100991,0.0,True,0.011327028274536133,1.5258788721439487e-07,5.999996662139893,3.1415913105010986,0.0,0.0,0.0
1759506855.1120903,0,1.5258788721439487e-07,5.999996662139893,3.14159121526221,0.0,True,0.011563777923583984,1.5258788721439487e-07,5.999996662139893,3.1415913105010986,0.0,0.0,0.0
1759506855.122485,0,1.5258788721439487e-07,5.999996662139893,3.14159121988582,0.0,True,0.010394573211669922,1.5258788721439487e-07,5.999996662139893,3.1415913105010986,0.0,0.0,0.0
1759506855.1330543,0,1.5258788721439487e-07,5.999996662139893,3.141591223706019,0.0,True,0.010569334030151367,1.5258788721439487e-07,5.999996662139893,3.1415913105010986,0.0,0.0,0.0
1759506855.1597753,0,1.5258788721439487e-07,5.999996662139893,3.1415911996331225,0.0,True,0.02672100067138672,1.5258788721439487e-07,5.999996662139893,3.1415913105010986,0.0,0.0,0.0
1759506855.1699355,0,1.5258788721439487e-07,5.999996662139893,3.1415912113675937,0.0,True,0.010160207748413086,1.5258788721439487e-07,5.999996662139893,3.1415913105010986,0.0,0.0,0.0
1759506855.1811984,0,1.5258788721439487e-07,5.999996662139893,3.141591220521555,0.0,True,0.011262893676757812,1.5258788721439487e-07,5.999996662139893,3.1415913105010986,0.0,0.0,0.0
1759506855.19252,0,1.5258788721439487e-07,5.999996662139893,3.1415912274698705,0.0,True,0.011321544647216797,1.5258788721439487e-07,5.999996662139893,3.1415913105010986,0.0,0.0,0.0
1759506855.2030807,0,1.5258788721439487e-07,5.999996662139893,3.1415912340434957,0.0,True,0.010560750961303711,1.5258788721439487e-07,5.999996662139893,3.1415913105010986,0.0,0.0,0.0
1759506855.21441,0,1.5258788721439487e-07,5.999996662139893,3.1415912381959217,0.0,True,0.011329412460327148,1.5258788721439487e-07,5.999996662139893,3.1415913105010986,0.0,0.0,0.0
1759506855.2253516,0,1.5258788721439487e-07,5.999996662139893,3.141591242157098,0.0,True,0.010941505432128906,1.5258788721439487e-07,5.999996662139893,3.1415913105010986,0.0,0.0,0.0
1759506855.2357893,0,1.5258788721439487e-07,5.999996662139893,3.1415912461817435,0.0,True,0.010437726974487305,1.5258788721439487e-07,5.999996662139893,3.1415913105010986,0.0,0.0,0.0
1759506855.2462904,0,1.5258788721439487e-07,5.999996662139893,3.141591249463687,0.0,True,0.01050114631652832,1.5258788721439487e-07,5.999996662139893,3.1415913105010986,0.0,0.0,0.0
1759506855.2564163,0,1.5258788721439487e-07,5.999996662139893,3.141591252696852,0.0,True,0.010125875473022461,1.5258788721439487e-07,5.999996662139893,3.1415913105010986,0.0,0.0,0.0
1759506855.2675276,0,1.5258788721439487e-07,5.999996662139893,3.1415912542551823,0.0,True,0.011111259460449219,1.5258788721439487e-07,5.999996662139893,3.1415913105010986,0.0,0.0,0.0
1759506855.280114,0,1.5258788721439487e-07,5.999996662139893,3.1415912540750988,0.0,True,0.012586355209350586,1.5258788721439487e-07,5.999996662139893,3.1415913105010986,0.0,0.0,0.0
1759506855.2911828,0,1.5258788721439487e-07,5.999996662139893,3.141591256139332,0.0,True,0.01106882095336914,1.5258788721439487e-07,5.999996662139893,3.1415913105010986,0.0,0.0,0.0
1759506855.3015885,0,1.5258788721439487e-07,5.999996662139893,3.141591258919684,0.0,True,0.010405778884887695,1.5258788721439487e-07,5.999996662139893,3.1415913105010986,0.0,0.0,0.0
1759506855.311783,0,1.5258788721439487e-07,5.999996662139893,3.141591261564143,0.0,True,0.010194540023803711,1.5258788721439487e-07,5.999996662139893,3.1415913105010986,0.0,0.0,0.0
1759506855.3228993,0,1.5258788721439487e-07,5.999996662139893,3.14159126288512,0.0,True,0.011116266250610352,1.5258788721439487e-07,5.999996662139893,3.1415913105010986,0.0,0.0,0.0
1759506855.3334851,0,1.5258788721439487e-07,5.999996662139893,3.1415912646907973,0.0,True,0.010585784912109375,1.5258788721439487e-07,5.999996662139893,3.1415913105010986,0.0,0.0,0.0
1759506855.3446963,0,-0.11125214776788517,5.995052296436694,3.1411629857273056,0.9244102418000115,True,0.011211156845092773,-0.17360472679138184,5.9919962882995605,3.139991044998169,0.9244102418000115,0.0,0.0
1759506855.355285,0,-0.15352694035992515,5.993165294343383,3.140815199864168,0.9244102418000115,True,0.010588645935058594,-0.17360472679138184,5.9919962882995605,3.139991044998169,0.9244102418000115,0.0,0.0
1759506855.3667407,0,-0.16998065057518835,5.992446041840395,3.14055744660946,0.9244102418000115,True,0.011455774307250977,-0.17360472679138184,5.9919962882995605,3.139991044998169,0.9244102418000115,0.0,0.0
1759506855.377404,0,-0.17598558022737357,5.9921720368071965,3.140371179442223,0.9244102418000115,True,0.010663270950317383,-0.17360472679138184,5.9919962882995605,3.139991044998169,0.9244102418000115,0.0,0.0
1759506855.3891847,0,-0.17867382858431696,5.992068548378597,3.140233616207599,0.9244102418000115,True,0.011780738830566406,-0.17360472679138184,5.9919962882995605,3.139991044998169,0.9244102418000115,0.0,0.0
1759506855.3991919,0,-0.17907440316188852,5.9920287206245675,3.140138092852421,0.9244102418000115,True,0.010007143020629883,-0.17360472679138184,5.9919962882995605,3.139991044998169,0.9244102418000115,0.0,0.0
1759506855.4093301,0,-0.17927370972114276,5.992013904598287,3.1400693974384275,0.9244102418000115,True,0.010138273239135742,-0.17360472679138184,5.9919962882995605,3.139991044998169,0.9244102418000115,0.0,0.0
1759506855.4206107,0,-0.17975316277178136,5.99200910227243,3.1400173682071646,0.9244102418000115,True,0.011280536651611328,-0.17360472679138184,5.9919962882995605,3.139991044998169,0.9244102418000115,0.0,0.0
1759506855.4312599,0,-0.1797133782704076,5.992007117802755,3.1399816061723627,0.9244102418000115,True,0.01064920425415039,-0.17360472679138184,5.9919962882995605,3.139991044998169,0.9244102418000115,0.0,0.0
1759506855.4418437,0,-0.17967511534783384,5.992006453528562,3.139956637520303,0.9244102418000115,True,0.010583877563476562,-0.17360472679138184,5.9919962882995605,3.139991044998169,0.9244102418000115,0.0,0.0
1759506855.452649,0,-0.1797387068962114,5.992006418873136,3.1399387662606415,0.9244102418000115,True,0.010805368423461914,-0.17360472679138184,5.9919962882995605,3.139991044998169,0.9244102418000115,0.0,0.0
1759506855.462715,0,-0.17950185818393874,5.992006039282841,3.1399281988052152,0.9244102418000115,True,0.010065793991088867,-0.17360472679138184,5.9919962882995605,3.139991044998169,0.9244102418000115,0.0,0.0
1759506855.473755,0,-0.17975536531634945,5.992006504155171,3.139919189829069,0.9244102418000115,True,0.011039972305297852,-0.17360472679138184,5.9919962882995605,3.139991044998169,0.9244102418000115,0.0,0.0
1759506855.4846733,0,-0.17980926258736984,5.992006643828487,3.1399135841377976,0.9244102418000115,True,0.010918378829956055,-0.17360472679138184,5.9919962882995605,3.139991044998169,0.9244102418000115,0.0,0.0
1759506855.496184,0,-0.18003904642528043,5.9920070697383725,3.1399091328016446,0.9244102418000115,True,0.011510848999023438,-0.17360472679138184,5.9919962882995605,3.139991044998169,0.9244102418000115,0.0,0.0
1759506855.5065286,0,-0.1797149884633786,5.992006555652853,3.1399090501035456,0.9244102418000115,True,0.010344505310058594,-0.17360472679138184,5.9919962882995605,3.139991044998169,0.9244102418000115,0.0,0.0
1759506855.5176914,0,-0.17988012841786238,5.992006846259545,3.139908262623134,0.9244102418000115,True,0.011162757873535156,-0.17360472679138184,5.9919962882995605,3.139991044998169,0.9244102418000115,0.0,0.0
1759506855.5281718,0,-0.17970227199400585,5.992006553822663,3.139909650600117,0.9244102418000115,True,0.010480403900146484,-0.17360472679138184,5.9919962882995605,3.139991044998169,0.9244102418000115,0.0,0.0
1759506855.5410085,0,-0.3197431325278167,5.994131527434571,3.139147030735737,1.1032611324358006,True,0.012836694717407227,-0.397540420293808,5.995429515838623,3.1371822357177734,1.1032611324358006,0.0,0.0
1759506855.5489974,0,-0.37119109103825254,5.99494214107087,3.1385498119508455,1.1032611324358006,True,0.007988929748535156,-0.397540420293808,5.995429515838623,3.1371822357177734,1.1032611324358006,0.0,0.0
1759506855.559373,0,-0.3918481725718568,5.99525682822741,3.138103685713375,1.1032611324358006,True,0.010375499725341797,-0.397540420293808,5.995429515838623,3.1371822357177734,1.1032611324358006,0.0,0.0
1759506855.5695636,0,-0.3996606043467854,5.995378659068106,3.137780033862395,1.1032611324358006,True,0.010190725326538086,-0.397540420293808,5.995429515838623,3.1371822357177734,1.1032611324358006,0.0,0.0
1759506855.5802627,0,-0.40285888654608837,5.99542737275434,3.137542824925312,1.1032611324358006,True,0.010699033737182617,-0.397540420293808,5.995429515838623,3.1371822357177734,1.1032611324358006,0.0,0.0
1759506855.6174803,0,-0.41525557429824306,5.995492643090061,3.137220109750542,1.1032611324358006,True,0.03721761703491211,-0.397540420293808,5.995429515838623,3.1371822357177734,1.1032611324358006,0.0,0.0
1759506855.6370745,0,-0.41256408209437945,5.995489832392569,3.1370850423138634,1.1032611324358006,True,0.019594192504882812,-0.397540420293808,5.995429515838623,3.1371822357177734,1.1032611324358006,0.0,0.0
1759506855.6519067,0,-0.4095293208664493,5.995480760915742,3.1370271368436793,1.1032611324358006,True,0.014832258224487305,-0.397540420293808,5.995429515838623,3.1371822357177734,1.1032611324358006,0.0,0.0
1759506855.6639597,0,-0.4071989589459375,5.99547228872782,3.137005206914683,1.1032611324358006,True,0.01205301284790039,-0.397540420293808,5.995429515838623,3.1371822357177734,1.1032611324358006,0.0,0.0
1759506855.6739848,0,-0.40545423735451275,5.995465235073354,3.137001805268289,1.1032611324358006,True,0.0100250244140625,-0.397540420293808,5.995429515838623,3.1371822357177734,1.1032611324358006,0.0,0.0
1759506855.69401,0,-0.40900194737593726,5.995481934631106,3.136954432114017,1.1032611324358006,True,0.020025253295898438,-0.397540420293808,5.995429515838623,3.1371822357177734,1.1032611324358006,0.0,0.0
1759506855.704416,0,-0.40630346851084065,5.995469873148129,3.1369653223804352,1.1032611324358006,True,0.010406017303466797,-0.397540420293808,5.995429515838623,3.1371822357177734,1.1032611324358006,0.0,0.0
1759506855.7147777,0,-0.4052540540152417,5.9954651315618115,3.136977299625416,1.1032611324358006,True,0.010361671447753906,-0.397540420293808,5.995429515838623,3.1371822357177734,1.1032611324358006,0.0,0.0
1759506855.725775,0,-0.4051210678981524,5.995464506174015,3.136984168766009,1.1032611324358006,True,0.010997295379638672,-0.397540420293808,5.995429515838623,3.1371822357177734,1.1032611324358006,0.0,0.0
1759506855.7359529,0,-0.40472495479636367,5.995462643385225,3.136993378578641,1.1032611324358006,True,0.010177850723266602,-0.397540420293808,5.995429515838623,3.1371822357177734,1.1032611324358006,0.0,0.0
1759506855.7470853,0,-0.5989039467337001,5.989362834820351,3.1355656888476062,1.5319690176731877,True,0.011132478713989258,-0.708372950553894,5.985543251037598,3.131831169128418,1.5319690176731877,0.0,0.0
1759506855.757708,0,-0.6727753987255983,5.987040269439703,3.1344130809981134,1.5319690176731877,True,0.010622739791870117,-0.708372950553894,5.985543251037598,3.131831169128418,1.5319690176731877,0.0,0.0
1759506855.768642,0,-0.7011737954097044,5.986161458846629,3.1335648427211282,1.5319690176731877,True,0.010933876037597656,-0.708372950553894,5.985543251037598,3.131831169128418,1.5319690176731877,0.0,0.0
1759506855.7796004,0,-0.712035346420183,5.985831202290659,3.1329486726986637,1.5319690176731877,True,0.010958433151245117,-0.708372950553894,5.985543251037598,3.131831169128418,1.5319690176731877,0.0,0.0
1759506855.7903395,0,-0.7160557102408347,5.985707798165551,3.132505173838208,1.5319690176731877,True,0.01073908805847168,-0.708372950553894,5.985543251037598,3.131831169128418,1.5319690176731877,0.0,0.0
1759506855.801141,0,-0.7176278792587968,5.985663715408146,3.132184872276884,1.5319690176731877,True,0.010801553726196289,-0.708372950553894,5.985543251037598,3.131831169128418,1.5319690176731877,0.0,0.0
1759506855.81303,0,-0.7188646666980512,5.985654858206659,3.131942952785595,1.5319690176731877,True,0.011888980865478516,-0.708372950553894,5.985543251037598,3.131831169128418,1.5319690176731877,0.0,0.0
