timestamp,observer_vehicle_id,vehicle_0_x,vehicle_0_y,vehicle_0_theta,vehicle_0_velocity,vehicle_1_x,vehicle_1_y,vehicle_1_theta,vehicle_1_velocity
1759830131.9166756,1,0.0,1.1906335830688477,-0.6234142855687095,0.0,8.0,6.0,-0.05483113549895436,0.0
1759830131.9271808,1,0.0,2.1348944406118244,-1.1178281138586617,0.0,8.0,6.0,-0.05483113549895436,0.0
1759830131.938028,1,0.0,2.885375898015368,-1.510779285615372,0.0,8.0,6.0,-0.05483113549895436,0.0
1759830131.949344,1,0.0,3.4830886463770385,-1.823740948459426,0.0,8.0,6.0,-0.05483113549895436,0.0
1759830131.9602077,1,0.0,3.9606285395715872,-2.073780251549722,0.0,8.0,6.0,-0.05483113549895436,0.0
1759830131.970258,1,0.0,4.365020008816806,-2.2855191294669686,0.0,8.0,6.0,-0.05483113549895436,0.0
1759830131.9803019,1,0.0,4.685939498985704,-2.453552181393028,0.0,8.0,6.0,-0.05483113549895436,0.0
1759830131.9917696,1,0.0,4.9408539599326415,-2.58702508087463,0.0,8.0,6.0,-0.05483113549895436,0.0
1759830132.0020072,1,0.0,5.144148948347504,-2.6934700877722912,0.0,8.0,6.0,-0.05483113549895436,0.0
1759830132.0125318,1,0.0,5.306621534493758,-2.7785405348495518,0.0,8.0,6.0,-0.05483113549895436,0.0
1759830132.023051,1,0.0,5.44441560638764,-2.85068934209545,0.0,8.0,6.0,-0.05483113549895436,0.0
1759830132.0335033,1,0.0,5.553664643500555,-2.9078920040977025,0.0,8.0,6.0,-0.05483113549895436,0.0
1759830132.043685,1,0.0,5.640522274487615,-2.953370553281929,0.0,8.0,6.0,-0.05483113549895436,0.0
1759830132.0539346,1,0.0,5.709740358885048,-2.989613057480272,0.0,8.0,6.0,-0.05483113549895436,0.0
1759830132.0640404,1,0.0,5.765043712309927,-3.01856982558693,0.0,8.0,6.0,-0.05483113549895436,0.0
1759830132.074054,1,0.0,5.811809116700266,-3.0430561340380913,0.0,8.0,6.0,-0.05483113549895436,0.0
1759830132.085787,1,0.0,5.848824782938203,-3.062437491536084,0.0,8.0,6.0,-0.05483113549895436,0.0
1759830132.0962331,1,0.0,5.878243921402178,-3.0778413163973766,0.0,8.0,6.0,-0.05483113549895436,0.0
1759830132.1108851,1,0.0,5.901581215309383,-3.0900606948990044,0.0,8.0,6.0,-2.8798456282656097,0.0
1759830132.11767,1,0.0,5.920311838743921,-3.099868026384315,0.0,8.0,6.0,-3.1201298646096607,0.0
1759830132.127724,1,0.0,5.935317498670442,-3.107724971539908,0.0,8.0,6.0,3.140008444533688,0.0
1759830132.1390476,1,6.041223106450067e-08,5.948121497249563,-1.8706177996732811,0.0,8.0,6.0,3.1364083328853063,0.0
1759830132.1501777,1,1.0832048089528741e-07,5.958275354373406,-0.8895641551891742,0.0,8.0,6.0,3.135853774635569,0.0
1759830132.1616015,1,1.464017474644618e-07,5.966346443198485,-0.10974511595866521,0.0,8.0,6.0,3.1361637696002678,0.0
1759830132.171927,1,1.767883863756034e-07,5.97278670330123,0.5125051844111254,0.0,8.0,6.0,3.136861745499232,0.0
1759830132.1826196,1,2.0108498231258683e-07,5.977936216477171,1.0100450460576202,0.0,8.0,6.0,3.1374730481666973,0.0
1759830132.1940746,1,2.2166466750174542e-07,5.982297953418145,1.431470901280269,0.0,8.0,6.0,3.1379599634200996,0.0
1759830132.2054045,1,2.3798632963557422e-07,5.98575722871866,1.765701982085502,0.0,8.0,6.0,3.1384086972827845,0.0
1759830132.2157125,1,2.5097951886257234e-07,5.988511054781185,2.031773393369382,0.0,8.0,6.0,3.1388426320162512,0.0
1759830132.2268534,1,2.613393087209711e-07,5.990706748141446,2.2439186842654055,0.0,8.0,6.0,3.139146716802312,0.0
1759830132.2377675,1,2.6962310417741337e-07,5.992462447333233,2.413552259931555,0.0,8.0,6.0,3.139411358113268,0.0
1759830132.248088,1,2.7666400954686033e-07,5.993954723661347,2.5577342306268145,0.0,8.0,6.0,3.1396543958722134,0.0
1759830132.259275,1,2.82246730553841e-07,5.995137946836216,2.6720558518377984,0.0,8.0,6.0,3.1398225071631156,0.0
1759830132.2695653,1,2.866891420572253e-07,5.996079488467355,2.7630264886505964,0.0,8.0,6.0,3.13999686108143,0.0
1759830132.2797978,1,2.9023302121075193e-07,5.9968305917265265,2.8355971956052124,0.0,8.0,6.0,3.140143075914718,0.0
1759830132.291156,1,2.930635955777601e-07,5.997430514449701,2.8935610182984823,0.0,8.0,6.0,3.140234597459127,0.0
1759830132.302633,1,2.9545822906822994e-07,5.9979380422014374,2.9425977483257078,0.0,8.0,6.0,3.1403180598752645,0.0
1759830132.312833,1,2.973596086607342e-07,5.9983410278414615,2.981533743386319,0.0,8.0,6.0,3.140427670606183,0.0
1759830132.3243346,1,2.98870975977036e-07,5.998661352792708,3.0124831606380265,0.0,8.0,6.0,3.140492532228528,0.0
1759830132.3357773,1,3.000756700960673e-07,5.998916680257306,3.0371525977420446,0.0,8.0,6.0,3.1405552575841504,0.0
1759830132.3469722,1,3.010387573008966e-07,5.999120800631358,3.0568744664304437,0.0,8.0,6.0,3.1406201472023305,0.0
1759830132.357818,1,3.018592804009963e-07,5.999294705425514,3.0736769415903473,0.0,8.0,6.0,3.140685897308444,0.0
1759830132.3689537,1,3.0250967712958314e-07,5.999432552987869,3.0869956097361113,0.0,8.0,6.0,3.1407390071542594,0.0
1759830132.379051,1,3.030271406768881e-07,5.999542226184964,3.097592104092809,0.0,8.0,6.0,3.1408035866087296,0.0
1759830132.3901186,1,3.034394135278814e-07,5.999629604864832,3.106034528610871,0.0,8.0,6.0,3.1408433076888507,0.0
1759830132.4016669,1,3.0376857040946036e-07,5.999699367629255,3.1127749242508824,0.0,8.0,6.0,3.1408728007659796,0.0
1759830132.4129384,1,3.0404740421628645e-07,5.999758464729354,3.118484816041093,0.0,8.0,6.0,3.140906787092714,0.0
1759830132.4243624,1,3.042684097165642e-07,5.999805305477687,3.1230105136456667,0.0,8.0,6.0,3.140937810199439,0.0
1759830132.4358687,1,3.04444040423934e-07,5.999842529319416,3.126607037128721,0.0,8.0,6.0,3.1409669355789216,0.0
1759830132.447429,1,3.045839840220074e-07,5.99987218949914,3.1294727685506993,0.0,8.0,6.0,3.1409947215331933,0.0
1759830132.4586346,1,3.0470214098822154e-07,5.999897232137044,3.1318923585531526,0.0,8.0,6.0,3.1410256782584867,0.0
1759830132.470044,1,3.0479562595231156e-07,5.999917045696753,3.133806721216137,0.0,8.0,6.0,3.1410520832424,0.0
1759830132.4801257,1,3.0486989249921065e-07,5.999932786031851,3.1353275337433306,0.0,8.0,6.0,3.1410902577362396,0.0
1759830132.4905984,1,3.0492900950234054e-07,5.999945315514884,3.136538117548341,0.0,8.0,6.0,3.141118590294006,0.0
1759830132.5012991,1,3.049761730047656e-07,5.999955311527403,3.137503920434152,0.0,8.0,6.0,3.141140586546504,0.0
1759830132.5116873,1,3.050160216685951e-07,5.999963757205141,3.1383199318103947,0.0,8.0,6.0,3.1411632306961277,0.0
1759830132.5232387,1,3.0504754582518197e-07,5.999970438555078,3.1389654759247803,0.0,8.0,6.0,3.141173350776615,0.0
1759830132.5345454,1,3.0507255932137307e-07,5.999975740010826,3.1394776962978117,0.0,8.0,6.0,3.1411867516361127,0.0
1759830132.545519,1,3.050924669159231e-07,5.999979959302315,3.1398853592421934,0.0,8.0,6.0,3.141203559411485,0.0
1759830132.5558672,1,3.0510836242230733e-07,5.999983328256541,3.140210863607815,0.0,8.0,6.0,3.1412244333869914,0.0
1759830132.5658798,1,3.0512182427359325e-07,5.999986181412628,3.140486532168287,0.0,8.0,6.0,3.1412452831516333,0.0
1759830132.57719,1,3.051324758220235e-07,5.999988438942412,3.1407046520212107,0.0,8.0,6.0,3.1412538024449894,0.0
1759830132.5873816,1,3.051409361447235e-07,5.999990232055461,3.140877900479413,0.0,8.0,6.0,3.141270441443478,0.0
1759830132.5976508,1,3.0514767181232617e-07,5.999991659638533,3.141015831864361,0.0,8.0,6.0,3.141285022163908,0.0
1759830132.6082869,1,3.0515304541902856e-07,5.999992798541225,3.1411258712930197,0.0,8.0,6.0,3.1412956460011383,0.0
1759830132.619866,1,3.05157583840278e-07,5.999993760431527,3.1412188079943744,0.0,8.0,6.0,3.1412999928291505,0.0
1759830132.6301222,1,3.0516117873742964e-07,5.999994522347735,3.141292423435652,0.0,8.0,6.0,3.1413137564678006,0.0
1759830132.6403618,1,3.051640333057581e-07,5.99999512735583,3.1413508786009317,0.0,8.0,6.0,3.1413265872069562,0.0
1759830132.6513,1,3.051663039034841e-07,5.999995608594969,3.1413973753563367,0.0,8.0,6.0,3.141334101300597,0.0
1759830132.6627471,1,3.0516811371162505e-07,5.999995992172607,3.141434436173185,0.0,8.0,6.0,3.141338974302796,0.0
1759830132.6741276,1,3.0516964343463675e-07,5.999996316387935,3.1414657614739627,0.0,8.0,6.0,3.1413453205707373,0.0
1759830132.6856072,1,3.0517085362007375e-07,5.99999657287925,3.1414905433609577,0.0,8.0,6.0,3.1413520028340187,0.0
1759830132.6961236,1,3.0517181457943347e-07,5.99999677654864,3.141510221656145,0.0,8.0,6.0,3.141363816693392,0.0
1759830132.7061837,1,3.051725799107212e-07,5.999996938755872,3.1415258939266137,0.0,8.0,6.0,3.1413765886670966,0.0
1759830132.7179625,1,3.0517318979872777e-07,5.999997068017861,3.1415383830668704,0.0,8.0,6.0,3.141379909573093,0.0
1759830132.7293613,1,3.0517370512046303e-07,5.999997177237114,3.141548935701714,0.0,8.0,6.0,3.141385657633391,0.0
1759830132.7393715,1,3.051741135548553e-07,5.999997263802256,3.1415572995231953,0.0,8.0,6.0,3.141397631706173,0.0
1759830132.7500114,1,3.051744378392809e-07,5.999997332532334,3.1415639401418503,0.0,8.0,6.0,3.1414055570159416,0.0
1759830132.7603898,1,3.05174696033087e-07,5.999997387254913,3.141569227372659,0.0,8.0,6.0,3.14141362494272,0.0
1759830132.77064,1,3.051749021399354e-07,5.999997430937984,3.1415734479792445,0.0,8.0,6.0,3.141421369684375,0.0
1759830132.7813828,1,3.0517506698072204e-07,5.999997465874968,3.1415768235493187,0.0,8.0,6.0,3.141426531402729,0.0
1759830132.7920794,1,3.0517520695687074e-07,5.999997495542047,3.1415796899473056,0.0,8.0,6.0,3.1414317265859797,0.0
1759830132.8021107,1,3.0517531809875736e-07,5.9999975190978825,3.141581965884192,0.0,8.0,6.0,3.14143909143786,0.0
1759830132.813239,1,3.051754064573667e-07,5.999997537824942,3.1415837752705924,0.0,8.0,6.0,3.141442148845252,0.0
1759830132.8239021,1,3.051754769224716e-07,5.999997552759585,3.141585218238102,0.0,8.0,6.0,3.1414469811727344,0.0
1759830132.83546,1,3.0517553320607653e-07,5.999997564688548,3.141586370800259,0.0,8.0,6.0,3.1414491428453566,0.0
1759830132.846112,1,3.0517558096223895e-07,5.9999975748101715,3.1415873487394945,0.0,8.0,6.0,3.141454623005558,0.0
1759830132.8572006,1,3.051756188348012e-07,5.999997582837026,3.1415881242847354,0.0,8.0,6.0,3.1414587134899215,0.0
1759830132.868838,1,3.051756489313752e-07,5.999997589215809,3.141588740595157,0.0,8.0,6.0,3.1414613471270165,0.0
1759830132.87912,1,3.051756729482895e-07,5.999997594306046,3.1415892324077643,0.0,8.0,6.0,3.1414679964197543,0.0
1759830132.8904881,1,3.051756932119975e-07,5.999997598600813,3.1415896473631144,0.0,8.0,6.0,3.1414712582899558,0.0
1759830132.9018338,1,3.051757092451409e-07,5.999997601998938,3.141589975685978,0.0,8.0,6.0,3.1414746379344294,0.0
1759830132.9167786,1,3.051757219183233e-07,5.999997604684941,3.141590235204367,0.0,8.0,6.0,3.141469976431729,0.0
1759830132.9274929,1,3.051757320150286e-07,5.999997606824874,3.1415904419622755,0.0,8.0,6.0,3.1414774181052536,0.0
1759830132.9389756,1,3.0517574007293577e-07,5.999997608532698,3.141590606970165,0.0,8.0,6.0,3.141482728930848,0.0
1759830132.9502099,1,3.0517574691284615e-07,5.999997609982374,3.1415907470362088,0.0,8.0,6.0,3.141487942413068,0.0
1759830132.9602413,1,3.0517575233579306e-07,5.999997611131734,3.141590858086014,0.0,8.0,6.0,3.1414949673823624,0.0
1759830132.9711173,1,3.0517575664190856e-07,5.999997612044389,3.1415909462656133,0.0,8.0,6.0,3.141499187602033,0.0
1759830132.9825704,1,3.0517576006798187e-07,5.999997612770524,3.14159101642392,0.0,8.0,6.0,3.141501793349459,0.0
1759830132.9939594,1,3.051757628014207e-07,5.999997613349859,3.141591072398625,0.0,8.0,6.0,3.1415045511840436,0.0
1759830133.005412,1,3.0517576511270427e-07,5.999997613839722,3.1415911197285356,0.0,8.0,6.0,3.141507258547392,0.0
1759830133.0167344,1,3.0517576694345603e-07,5.9999976142277385,3.141591157218231,0.0,8.0,6.0,3.141510220134098,0.0
1759830133.0270853,1,3.0517576839894133e-07,5.99999761453622,3.1415911870233093,0.0,8.0,6.0,3.1415146551189554,0.0
1759830133.0372756,1,3.0517576955912575e-07,5.999997614782114,3.141591210781287,0.0,8.0,6.0,3.141518762691799,0.0
1759830133.0473433,1,3.0517577048627737e-07,5.999997614978618,3.1415912297672763,0.0,8.0,6.0,3.1415224266151114,0.0
1759830133.0577853,1,3.051757712727612e-07,5.999997615145308,3.141591245872703,0.0,8.0,6.0,3.1415250078754653,0.0
1759830133.069222,1,3.0517577189513197e-07,5.999997615277215,3.1415912586174635,0.0,8.0,6.0,3.141525951099794,0.0
1759830133.080487,1,3.051757723890625e-07,5.999997615381901,3.141591268732055,0.0,8.0,6.0,3.14152740886637,0.0
1759830133.0919104,1,3.051757727820424e-07,5.99999761546519,3.1415912767794025,0.0,8.0,6.0,3.1415288875253253,0.0
1759830133.1021564,1,3.0517577309593506e-07,5.9999976155317185,3.1415912832072213,0.0,8.0,6.0,3.1415320304145133,0.0
1759830133.1149304,1,3.0517577336125585e-07,5.999997615587952,3.141591288640397,0.0,8.0,6.0,3.141531785527782,0.0
1759830133.125216,1,3.0517577357156534e-07,5.999997615632525,3.141591292947063,0.0,8.0,6.0,3.141535021681399,0.0
1759830133.1362565,1,3.0517577373854995e-07,5.999997615667916,3.1415912963665336,0.0,8.0,6.0,3.141537125330334,0.0
1759830133.1464071,1,3.051757738716052e-07,5.999997615696117,3.1415912990912074,0.0,8.0,6.0,3.1415400225749153,0.0
1759830133.1573107,1,3.051757739777968e-07,5.999997615718623,3.141591301265773,0.0,8.0,6.0,3.141541741976905,0.0
1759830133.1689725,1,3.0517577406768493e-07,5.999997615737675,3.1415913031064804,0.0,8.0,6.0,3.141542578125346,0.0
1759830133.1798527,1,3.0517577413887153e-07,5.999997615752762,3.1415913045642223,0.0,8.0,6.0,3.1415443862190155,0.0
1759830133.1912534,1,3.0517577419536366e-07,5.999997615764735,3.1415913057210547,0.0,8.0,6.0,3.1415456591057147,0.0
1759830133.202431,1,3.051757742403261e-07,5.999997615774264,3.141591306641786,0.0,8.0,6.0,3.141547184739901,0.0
1759830133.2138941,1,3.051757742761959e-07,5.999997615781866,3.1415913073763186,0.0,8.0,6.0,3.141548450397096,0.0
1759830133.2243714,1,3.051757743066009e-07,5.999997615788311,3.141591307998944,0.0,8.0,6.0,3.141550592665679,0.0
1759830133.2356627,1,3.051757743306716e-07,5.999997615793412,3.1415913084918583,0.0,8.0,6.0,3.141551839532344,0.0
1759830133.2470965,1,3.051757743497761e-07,5.999997615797462,3.141591308883076,0.0,8.0,6.0,3.141552942533817,0.0
1759830133.257445,1,3.051757743649973e-07,5.999997615800689,3.1415913091947707,0.0,8.0,6.0,3.1415549218406724,0.0
1759830133.2674534,1,3.051757743771586e-07,5.999997615803267,3.141591309443806,0.0,8.0,6.0,3.1415569289588525,0.0
1759830133.2778327,1,3.051757743874679e-07,5.9999976158054515,3.1415913096549186,0.0,8.0,6.0,3.141558359214825,0.0
1759830133.2892077,1,3.051757743956248e-07,5.99999761580718,3.141591309821953,0.0,8.0,6.0,3.1415589282537866,0.0
1759830133.3002722,1,3.051757744020981e-07,5.999997615808551,3.141591309954512,0.0,8.0,6.0,3.141559810166523,0.0
1759830133.3104155,1,3.0517577440725377e-07,5.999997615809644,3.1415913100600883,0.0,8.0,6.0,3.1415613455267906,0.0
1759830133.3213656,1,3.051757744113664e-07,5.999997615810516,3.1415913101443067,0.0,8.0,6.0,3.141562209728736,0.0
1759830133.332886,1,3.051757744148404e-07,5.999997615811252,3.1415913102154462,0.0,8.0,6.0,3.1415627103445587,0.0
1759830133.3431792,1,3.05175774417593e-07,5.999997615811836,3.1415913102718136,0.0,8.0,6.0,3.1415640490473145,0.0
1759830133.3544123,1,3.051757744197773e-07,5.9999976158122985,3.1415913103165427,0.0,8.0,6.0,3.141564743207132,0.0
1759830133.3658924,1,3.051757744215148e-07,5.999997615812667,3.1415913103521222,0.0,8.0,6.0,3.1415653227701554,0.0
1759830133.3773568,1,3.0517577442290063e-07,5.999997615812961,3.1415913103805013,0.0,8.0,6.0,3.14156599778582,0.0
1759830133.3887634,1,3.051757744240749e-07,5.999997615813211,3.1415913104045474,0.0,8.0,6.0,3.1415667650944936,0.0
1759830133.400093,1,3.051757744250043e-07,5.999997615813407,3.14159131042358,0.0,8.0,6.0,3.1415675951969284,0.0
1759830133.4110239,1,3.0517577442574227e-07,5.999997615813563,3.1415913104386917,0.0,8.0,6.0,3.141568605529134,0.0
1759830133.4222097,1,3.0517577442632953e-07,5.999997615813688,3.1415913104507176,0.0,8.0,6.0,3.1415694246611565,0.0
1759830133.4336886,1,3.0517577442679794e-07,5.999997615813787,3.1415913104603104,0.0,8.0,6.0,3.141570076083495,0.0
1759830133.445127,1,3.051757744271726e-07,5.999997615813867,3.1415913104679833,0.0,8.0,6.0,3.1415707578424694,0.0
1759830133.456105,1,3.0517577442749097e-07,5.9999976158139345,3.141591310474502,0.0,8.0,6.0,3.1415716327756655,0.0
1759830133.467436,1,3.051757744277437e-07,5.999997615813988,3.1415913104796775,0.0,8.0,6.0,3.1415723073299766,0.0
1759830133.4788303,1,3.051757744279449e-07,5.9999976158140305,3.1415913104837974,0.0,8.0,6.0,3.1415729356964857,0.0
1759830133.4895372,1,3.0517577442810555e-07,5.999997615814064,3.1415913104870876,0.0,8.0,6.0,3.141573808659764,0.0
1759830133.4997573,1,3.0517577442824144e-07,5.999997615814093,3.1415913104898716,0.0,8.0,6.0,3.1415747669218828,0.0
1759830133.5110762,1,3.051757744283492e-07,5.999997615814116,3.141591310492077,0.0,8.0,6.0,3.141575212186181,0.0
1759830133.5214167,1,3.051757744284348e-07,5.999997615814134,3.1415913104938307,0.0,8.0,6.0,3.1415759776168493,0.0
1759830133.5323617,1,3.05175774428503e-07,5.999997615814149,3.1415913104952273,0.0,8.0,6.0,3.141576474728055,0.0
1759830133.5428207,1,3.0517577442855754e-07,5.99999761581416,3.1415913104963433,0.0,8.0,6.0,3.1415770990299254,0.0
1759830133.5542426,1,3.0517577442860365e-07,5.99999761581417,3.141591310497287,0.0,8.0,6.0,3.1415773846382233,0.0
1759830133.5645254,1,3.0517577442864024e-07,5.999997615814177,3.1415913104980353,0.0,8.0,6.0,3.1415780343377335,0.0
1759830133.575897,1,3.0517577442866925e-07,5.999997615814183,3.14159131049863,0.0,8.0,6.0,3.141578324164424,0.0
1759830133.587044,1,3.051757744286924e-07,5.999997615814189,3.141591310499104,0.0,8.0,6.0,3.1415786987715837,0.0
1759830133.5984101,1,3.0517577442871086e-07,5.999997615814192,3.1415913104994817,0.0,8.0,6.0,3.141579034143467,0.0
1759830133.6095746,1,3.051757744287265e-07,5.999997615814196,3.1415913104998023,0.0,8.0,6.0,3.141579442148272,0.0
1759830133.6197748,1,3.051757744287389e-07,5.999997615814198,3.141591310500057,0.0,8.0,6.0,3.141580081884303,0.0
1759830133.6309247,1,3.0517577442874876e-07,5.9999976158142,3.141591310500259,0.0,8.0,6.0,3.1415804197101664,0.0
1759830133.6409297,1,3.051757744287566e-07,5.999997615814202,3.14159131050042,0.0,8.0,6.0,3.1415810050447135,0.0
1759830133.651943,1,3.051757744287629e-07,5.999997615814204,3.141591310500549,0.0,8.0,6.0,3.141581296663544,0.0
1759830133.6621969,1,3.0517577442876824e-07,5.999997615814205,3.1415913105006577,0.0,8.0,6.0,3.1415817420889915,0.0
1759830133.6733403,1,3.051757744287725e-07,5.999997615814205,3.141591310500744,0.0,8.0,6.0,3.1415819655319464,0.0
1759830133.6846404,1,3.051757744287758e-07,5.999997615814205,3.1415913105008126,0.0,8.0,6.0,3.1415821715103895,0.0
1759830133.6960452,1,3.0517577442877846e-07,5.999997615814205,3.1415913105008673,0.0,8.0,6.0,3.1415823880706313,0.0
1759830133.7072644,1,3.051757744287806e-07,5.999997615814205,3.141591310500911,0.0,8.0,6.0,3.141582666677447,0.0
1759830133.7187061,1,3.051757744287824e-07,5.999997615814205,3.1415913105009476,0.0,8.0,6.0,3.1415829135892075,0.0
1759830133.7298152,1,3.051757744287838e-07,5.999997615814205,3.141591310500977,0.0,8.0,6.0,3.1415832287340617,0.0
1759830133.7412019,1,3.051757744287849e-07,5.999997615814205,3.141591310501,0.0,8.0,6.0,3.1415834884488945,0.0
1759830133.7526448,1,3.051757744287858e-07,5.999997615814205,3.1415913105010187,0.0,8.0,6.0,3.141583739332333,0.0
1759830133.7628827,1,3.0517577442878656e-07,5.999997615814205,3.1415913105010347,0.0,8.0,6.0,3.1415841770590287,0.0
1759830133.7741036,1,3.051757744287872e-07,5.999997615814205,3.141591310501047,0.0,8.0,6.0,3.141584412342084,0.0
1759830133.7855637,1,3.051757744287877e-07,5.999997615814205,3.1415913105010573,0.0,8.0,6.0,3.1415846016003766,0.0
1759830133.7959619,1,3.0517577442878815e-07,5.999997615814205,3.1415913105010653,0.0,8.0,6.0,3.1415849474700153,0.0
1759830133.8073833,1,3.0517577442878847e-07,5.999997615814205,3.141591310501072,0.0,8.0,6.0,3.1415851206137493,0.0
1759830133.8189948,1,3.051757744287887e-07,5.999997615814205,3.141591310501077,0.0,8.0,6.0,3.141585272500155,0.0
1759830133.8298728,1,3.051757744287889e-07,5.999997615814205,3.1415913105010813,0.0,8.0,6.0,3.1415855326852746,0.0
1759830133.8411498,1,3.051757744287891e-07,5.999997615814205,3.141591310501085,0.0,8.0,6.0,3.141585729865227,0.0
1759830133.8525379,1,3.051757744287892e-07,5.999997615814205,3.1415913105010875,0.0,8.0,6.0,3.141585909053152,0.0
1759830133.8629055,1,3.051757744287893e-07,5.999997615814205,3.1415913105010898,0.0,8.0,6.0,3.141586202854487,0.0
1759830133.874095,1,3.051757744287894e-07,5.999997615814205,3.1415913105010915,0.0,8.0,6.0,3.1415863736325633,0.0
1759830133.8854516,1,3.051757744287895e-07,5.999997615814205,3.1415913105010933,0.0,8.0,6.0,3.141586519362658,0.0
1759830133.8968897,1,3.051757744287895e-07,5.999997615814205,3.141591310501094,0.0,8.0,6.0,3.1415866619673665,0.0
1759830133.9234474,1,3.051757744287895e-07,5.999997615814205,3.141591310501095,0.0,7.994072114647283,5.99872100232886,-3.131599882251047,0.040712027714084165
1759830133.9344194,1,3.051757744287895e-07,5.999997615814205,3.141591310501096,0.0,7.992205740900625,5.998721001493152,-3.1318854697153986,0.040712027714084165
1759830133.9446673,1,3.051757744287895e-07,5.999997615814205,3.141591310501097,0.0,7.992286277054257,5.9987337495283874,3.088569043553831,0.03704794521981659
1759830133.9559126,1,3.051757744287895e-07,5.999997615814205,3.141591310501097,0.0,7.991951057080468,5.998741815196052,3.037663459011815,0.037378298272618335
1759830133.9662495,1,3.051757744287895e-07,5.999997615814205,3.141591310501097,0.0,7.9917090009221186,5.9987447348759355,2.9989883204492886,0.038002624336634726
1759830133.9774644,1,3.051757744287895e-07,5.999997615814205,3.141591310501097,0.0,7.991533960090971,5.99875752331214,2.9684534173058443,0.03850087363546357
1759830133.9876328,1,3.051757744287895e-07,5.999997615814205,3.141591310501097,0.0,7.991430531344409,5.998776975579527,2.9444766551102606,0.03890286444073479
1759830133.9992473,1,3.051757744287895e-07,5.999997615814205,3.141591310501097,0.0,7.991335267280152,5.998798028010436,2.925787279058491,0.039227785394194276
1759830134.009326,1,3.051757744287895e-07,5.999997615814205,3.141591310501097,0.0,7.991296782884781,5.9988170831391665,2.9112954416372703,0.03949125231119771
1759830134.020738,1,3.051757744287895e-07,5.999997615814205,3.141591310501097,0.0,7.991246248315548,5.998831977487141,2.895933621024886,0.03971880606175516
1759830134.0322008,1,3.051757744287895e-07,5.999997615814205,3.141591310501097,0.0,7.991206248632808,5.998845021795173,2.8754580436066752,0.04004933653453244
1759830134.0437655,1,3.051757744287895e-07,5.999997615814205,3.141591310501097,0.0,7.991202576258126,5.998845021720379,2.875458118730899,0.04004933653453244
1759830134.0553002,1,3.051757744287895e-07,5.999997615814205,3.141591310501097,0.0,7.991195704563388,5.998845029341396,2.86898012309157,0.04017001105020229
1759830134.0655515,1,3.051757744287895e-07,5.999997615814205,3.141591310501097,0.0,7.991210911433496,5.9988367045693565,2.857669571612479,0.04034854229960676
1759830134.0765834,1,3.051757744287895e-07,5.999997615814205,3.141591310501097,0.0,7.991208653448446,5.998828424855547,2.85277922221707,0.04041653115417032
1759830134.086876,1,3.051757744287895e-07,5.999997615814205,3.141591310501097,0.0,7.991217394032648,5.998828424694005,2.8527793394635945,0.04041653115417032
1759830134.0990689,1,3.051757744287895e-07,5.999997615814205,3.141591310501097,0.0,7.991197321607218,5.99881885217116,2.8494642204444944,0.04047120928441743
1759830134.110041,1,3.051757744287895e-07,5.999997615814205,3.141591310501097,0.0,7.991213412634774,5.998800344350002,2.846626277764872,0.040549371286666726
1759830134.123237,1,3.051757744287895e-07,5.999997615814205,3.141591310501097,0.0,7.871638925249616,5.973153512178172,2.8431200259606535,0.8549876897217585
1759830134.1333232,1,3.051757744287895e-07,5.999997615814205,3.141591310501097,0.0,7.828893180675715,5.972912696993188,2.8344932386805013,0.8631565876254882
1759830134.1446958,1,3.051757744287895e-07,5.999997615814205,3.141591310501097,0.0,7.811281622135084,5.972711913629628,2.833302210290333,0.8698136354713379
1759830134.1563118,1,3.051757744287895e-07,5.999997615814205,3.141591310501097,0.0,7.804980355893634,5.972711972281264,2.83330226693891,0.8698136354713379
1759830134.1677256,1,3.051757744287895e-07,5.999997615814205,3.141591310501097,0.0,7.800665965935761,5.972399033450532,2.8334108536611393,0.8796611546506933
1759830134.1792262,1,3.051757744287895e-07,5.999997615814205,3.141591310501097,0.0,7.798932525306211,5.972280724888361,2.83440025642171,0.8833196101852573
1759830134.1895177,1,3.051757744287895e-07,5.999997615814205,3.141591310501097,0.0,7.7963626628540466,5.9719464380687155,2.8314744109617345,0.8950124712979224
1759830134.2008288,1,3.051757744287895e-07,5.999997615814205,3.141591310501097,0.0,7.794057196569104,5.9716554394361285,2.8297860036638043,0.9043190849762957
1759830134.2123208,1,3.051757744287895e-07,5.999997615814205,3.141591310501097,0.0,7.792349884410606,5.971400398341854,2.829037473611472,0.91183209807865
1759830134.222589,1,3.051757744287895e-07,5.999997615814205,3.141591310501097,0.0,7.790606620768583,5.971000471083511,2.829745255447763,0.9228342776583747
1759830134.2340524,1,3.051757744287895e-07,5.999997615814205,3.141591310501097,0.0,7.789589771126152,5.970861709259237,2.8275557314206243,0.9270234156081479
1759830134.245586,1,3.051757744287895e-07,5.999997615814205,3.141591310501097,0.0,7.78889162445489,5.9707139623083245,2.8264573865491247,0.9304511258725469
1759830134.2569902,1,3.051757744287895e-07,5.999997615814205,3.141591310501097,0.0,7.788886593817461,5.97071396118672,2.8264574301864633,0.9304511258725469
1759830134.26831,1,3.051757744287895e-07,5.999997615814205,3.141591310501097,0.0,7.788155797650082,5.970454905209121,2.8267207798136065,0.9354726309739212
1759830134.2805998,1,3.051757744287895e-07,5.999997615814205,3.141591310501097,0.0,7.787623634308821,5.97036425868761,2.827756598037032,0.9372492713491195
1759830134.2918217,1,3.051757744287895e-07,5.999997615814205,3.141591310501097,0.0,7.787854067722834,5.970364256801017,2.827756652492271,0.9372492713491195
1759830134.303064,1,3.051757744287895e-07,5.999997615814205,3.141591310501097,0.0,7.787595047110563,5.9702778138341905,2.8275027835391033,0.9399984879768895
1759830134.313658,1,3.051757744287895e-07,5.999997615814205,3.141591310501097,0.0,7.787836931231625,5.9702778116585575,2.8275028464268686,0.9399984879768895
1759830134.329752,1,3.051757744287895e-07,5.999997615814205,3.141591310501097,0.0,7.754045300599564,5.986763718168634,2.826929864704676,0.41309679676339867
1759830134.341144,1,3.051757744287895e-07,5.999997615814205,3.141591310501097,0.0,7.739729456078093,5.986726326408931,2.8299463065575257,0.4137596109969004
1759830134.3527517,1,3.051757744287895e-07,5.999997615814205,3.141591310501097,0.0,7.733199406782112,5.987055185439933,2.8298214599939815,0.40378809607007404
1759830134.363449,1,3.051757744287895e-07,5.999997615814205,3.141591310501097,0.0,7.731218994498613,5.987055198867139,2.8298215305679952,0.40378809607007404
1759830134.3746166,1,3.051757744287895e-07,5.999997615814205,3.141591310501097,0.0,7.728400719994189,5.98752597510747,2.82962493112911,0.3887231636883276
1759830134.3855603,1,3.051757744287895e-07,5.999997615814205,3.141591310501097,0.0,7.727271849901928,5.987708155355859,2.830519654256238,0.38320315625667456
1759830134.3963757,1,3.051757744287895e-07,5.999997615814205,3.141591310501097,0.0,7.726383911864796,5.987869843524165,2.828669323284467,0.3785068340344914
1759830134.4076269,1,3.051757744287895e-07,5.999997615814205,3.141591310501097,0.0,7.725612691729013,5.98798732648482,2.827813879442336,0.3746866207267494
1759830134.419131,1,3.051757744287895e-07,5.999997615814205,3.141591310501097,0.0,7.725547561790573,5.987987326420325,2.8278139042119608,0.3746866207267494
1759830134.429247,1,3.051757744287895e-07,5.999997615814205,3.141591310501097,0.0,7.724650103438991,5.988151673888373,2.8283796812485615,0.36920530592870204
1759830134.4400918,1,3.051757744287895e-07,5.999997615814205,3.141591310501097,0.0,7.724212668935667,5.988220627846082,2.829544342340243,0.36719810803643366
1759830134.4503684,1,3.051757744287895e-07,5.999997615814205,3.141591310501097,0.0,7.72393740835797,5.98828658073861,2.8311941383014316,0.365594945095475
1759830134.462323,1,3.051757744287895e-07,5.999997615814205,3.141591310501097,0.0,7.723432201648184,5.988356375424519,2.829847843137771,0.3642095414622565
1759830134.4735162,1,3.051757744287895e-07,5.999997615814205,3.141591310501097,0.0,7.723455331830314,5.988356375180227,2.829847864094054,0.3642095414622565
1759830134.484618,1,3.051757744287895e-07,5.999997615814205,3.141591310501097,0.0,7.722988276954412,5.988439680712458,2.8297793977481427,0.36218307204001915
1759830134.4952168,1,3.051757744287895e-07,5.999997615814205,3.141591310501097,0.0,7.7228813579719375,5.988470983713625,2.830715662335991,0.3614672840774312
1759830134.5066144,1,3.051757744287895e-07,5.999997615814205,3.141591310501097,0.0,7.722662911225482,5.988503697072442,2.832149040240743,0.3608751554734597
1759830134.5177681,1,3.051757744287895e-07,5.999997615814205,3.141591310501097,0.0,7.722516131962524,5.9885421687927884,2.8304913267248883,0.36036264151308395
1759830134.534945,1,3.051757744287895e-07,5.999997615814205,3.141591310501097,0.0,7.65694934513457,5.9831997373738695,2.8298769050196872,0.5308340352213505
1759830134.5449903,1,3.051757744287895e-07,5.999997615814205,3.141591310501097,0.0,7.633850949792171,5.983211563150888,2.8280187966351615,0.5305016778947824
1759830134.5561202,1,3.051757744287895e-07,5.999997615814205,3.141591310501097,0.0,7.6233224442232,5.983134922241748,2.830097146448264,0.533108611157884
1759830134.5674298,1,3.051757744287895e-07,5.999997615814205,3.141591310501097,0.0,7.619854592224652,5.98313495141789,2.8300971734459837,0.533108611157884
1759830134.5778003,1,3.051757744287895e-07,5.999997615814205,3.141591310501097,0.0,7.6169376350844145,5.983066820399868,2.8279022750330736,0.5358891520973679
1759830134.589299,1,3.051757744287895e-07,5.999997615814205,3.141591310501097,0.0,7.61477350050416,5.982992739700942,2.8268472325850285,0.5381167840197904
1759830134.6005533,1,3.051757744287895e-07,5.999997615814205,3.141591310501097,0.0,7.613363724318504,5.982922049427595,2.8266882734839736,0.5399119201576008
1759830134.6107874,1,3.051757744287895e-07,5.999997615814205,3.141591310501097,0.0,7.612516465786203,5.982861281206102,2.8272669898363865,0.541362058618998
1759830134.6209195,1,3.051757744287895e-07,5.999997615814205,3.141591310501097,0.0,7.611815636275623,5.98281516145917,2.8284458719888774,0.5425367095027023
1759830134.6322675,1,3.051757744287895e-07,5.999997615814205,3.141591310501097,0.0,7.610945695673337,5.982789184435034,2.826532256930302,0.5435388791706703
1759830134.6441143,1,3.051757744287895e-07,5.999997615814205,3.141591310501097,0.0,7.610251428048808,5.98274925256815,2.825707403141696,0.5443462518909987
1759830134.6553617,1,3.051757744287895e-07,5.999997615814205,3.141591310501097,0.0,7.609549532272466,5.982672509092297,2.8262777319633705,0.5455452131643173
1759830134.6668687,1,3.051757744287895e-07,5.999997615814205,3.141591310501097,0.0,7.609258333102647,5.982648069391456,2.827393884736115,0.5459851686563489
1759830134.677447,1,3.051757744287895e-07,5.999997615814205,3.141591310501097,0.0,7.609421463347652,5.982648068890688,2.8273939029308615,0.5459851686563489
1759830134.6886108,1,3.051757744287895e-07,5.999997615814205,3.141591310501097,0.0,7.609131748262476,5.982640626326235,2.825509171190061,0.5463593375626826
1759830134.6986556,1,3.051757744287895e-07,5.999997615814205,3.141591310501097,0.0,7.60913699809366,5.982615572500568,2.8246527823809138,0.546659938719066
1759830134.7101092,1,3.051757744287895e-07,5.999997615814205,3.141591310501097,0.0,7.608697619144002,5.982561315066135,2.8252349558633107,0.5470977085378355
1759830134.7204437,1,3.051757744287895e-07,5.999997615814205,3.141591310501097,0.0,7.608835151483007,5.982561314655351,2.825234970540166,0.5470977085378355
1759830134.735443,1,3.051757744287895e-07,5.999997615814205,3.141591310501097,0.0,7.572219231581262,5.988374068349454,2.8281533625836515,0.36167654823537426
1759830134.746663,1,3.051757744287895e-07,5.999997615814205,3.141591310501097,0.0,7.55801907132904,5.9883740674716,2.8284915643306423,0.36167654823537426
1759830134.7577884,1,3.051757744287895e-07,5.999997615814205,3.141591310501097,0.0,7.552122453335305,5.988446799914833,2.8267064425037742,0.3600181356197092
1759830134.7682538,1,3.051757744287895e-07,5.999997615814205,3.141591310501097,0.0,7.549647645820297,5.988491917641891,2.82703631089556,0.3585904934549652
1759830134.7793043,1,3.051757744287895e-07,5.999997615814205,3.141591310501097,0.0,7.5483621905075795,5.98853406710574,2.8279956649595315,0.3574132228186181
1759830134.789442,1,3.051757744287895e-07,5.999997615814205,3.141591310501097,0.0,7.547752731090228,5.988578803504105,2.829398867635481,0.3564363298861417
1759830134.801925,1,3.051757744287895e-07,5.999997615814205,3.141591310501097,0.0,7.546392217831742,5.988687853964479,2.827560338878196,0.3536722890233941
1759830134.812705,1,3.051757744287895e-07,5.999997615814205,3.141591310501097,0.0,7.545623111489217,5.9887623367238625,2.8267526697262055,0.35145967201550626
1759830134.8242116,1,3.051757744287895e-07,5.999997615814205,3.141591310501097,0.0,7.544873311121042,5.9888182783945245,2.8267253019271905,0.349673852709279
1759830134.8343518,1,3.051757744287895e-07,5.999997615814205,3.141591310501097,0.0,7.544445145581494,5.988864908022018,2.8273783108286343,0.3482303313672781
1759830134.8456428,1,3.051757744287895e-07,5.999997615814205,3.141591310501097,0.0,7.543897722769182,5.988908501598247,2.8286204133884985,0.3470611896540574
1759830134.8589349,1,3.051757744287895e-07,5.999997615814205,3.141591310501097,0.0,7.543207248903445,5.988955120050104,2.8268577511088595,0.34606550900066807
1759830134.8692563,1,3.051757744287895e-07,5.999997615814205,3.141591310501097,0.0,7.542817019350471,5.988998691773971,2.8261875783681205,0.3445939832094817
1759830134.8806632,1,3.051757744287895e-07,5.999997615814205,3.141591310501097,0.0,7.542549932676377,5.989013505118446,2.826874189625697,0.3440561381801935
1759830134.8919508,1,3.051757744287895e-07,5.999997615814205,3.141591310501097,0.0,7.542551281812236,5.989013505048533,2.826874196581942,0.3440561381801935
1759830134.9033108,1,3.051757744287895e-07,5.999997615814205,3.141591310501097,0.0,7.5423545168417,5.989030134324526,2.8281497205905386,0.34362182292610294
1759830134.9136853,1,3.051757744287895e-07,5.999997615814205,3.141591310501097,0.0,7.542284296116403,5.98905403421622,2.8261792296941937,0.3432508023903888
1759830134.9252715,1,3.051757744287895e-07,5.999997615814205,3.141591310501097,0.0,7.542040269336786,5.989060456132415,2.8252562654099713,0.342957208657908
1759830134.9418836,1,3.051757744287895e-07,5.999997615814205,3.141591310501097,0.0,7.497818132482775,5.9879755006622455,2.825541840678877,0.37730177454191405
1759830134.9530184,1,3.051757744287895e-07,5.999997615814205,3.141591310501097,0.0,7.481215057105893,5.987970884904368,2.8267723072325186,0.37729706035075494
1759830134.9634035,1,3.051757744287895e-07,5.999997615814205,2.519527697552698,0.0,7.475201455337128,5.987970884472425,2.826772319715728,0.37729706035075494
1759830134.9748075,1,3.051757744287895e-07,5.999997615814205,2.03439067916115,0.0,7.471097670068261,5.987979857172711,2.8268602673186334,0.37794113010261704
1759830134.9849656,1,3.051757744287895e-07,5.999997615814205,1.6553791921824386,0.0,7.469277651722603,5.987972639493411,2.826172805698251,0.3783285234467502
1759830134.996178,1,3.051757744287895e-07,5.999997615814205,1.3610483146062635,0.0,7.467956915990733,5.987961717297591,2.826276651518419,0.3786468819787282
1759830135.0083554,1,3.051757744287895e-07,5.999997615814205,1.1344293049688303,0.0,7.466963051798762,5.987953010626936,2.82702253702626,0.3789007365201638
1759830135.0194707,1,3.051757744287895e-07,5.999997615814205,0.9604546698120917,0.0,7.466990909732895,5.987953010475471,2.8270225423733346,0.3789007365201638
1759830135.0329316,1,3.051757744287895e-07,5.999997615814205,0.7859319121953766,0.0,7.466125549084211,5.987950345166436,2.8282572741309377,0.3791069354299197
1759830135.0429645,1,3.051757744287895e-07,5.999997615814205,0.6535434702552374,0.0,7.465549006322811,5.987950881782078,2.82569053449664,0.3794267846184083
1759830135.0541048,1,3.051757744287895e-07,5.999997615814205,0.5553274484042708,0.0,7.465210958542603,5.987939916965406,2.825784023755764,0.3795411295776275
1759830135.0657086,1,3.051757744287895e-07,5.999997615814205,0.4845494075734672,0.0,7.464886959857111,5.987931297343481,2.8264607992389683,0.37963548265470337
1759830135.0770607,1,3.051757744287895e-07,5.999997615814205,0.3966306648580301,0.0,7.464690756375558,5.987928402951252,2.827666069143317,0.37971199930902044
1759830135.0872684,1,3.051757744287895e-07,5.999997615814205,0.33335063892202216,0.0,7.4646522449645865,5.987935661767506,2.825778859301711,0.37977729810050215
1759830135.099293,1,3.051757744287895e-07,5.999997615814205,0.29083131035900744,0.0,7.464320144550478,5.987928195166528,2.8249129962623063,0.37983075260447724
1759830135.110181,1,3.051757744287895e-07,5.999997615814205,0.2640174501762865,0.0,7.464282139537642,5.98791600465762,2.824818513548606,0.37987388017363516
1759830135.1240559,1,3.051757744287895e-07,5.999997615814205,0.2517834516074734,0.0,7.463829524174166,5.9879050618585685,2.8253725550951203,0.37990875319019896
1759830135.13903,1,-0.01078605158236874,5.998140379523906,-0.4164142940939095,0.06414130796142532,7.433815923575483,5.990847482657526,2.826870131065918,0.28608961857212833
1759830135.156655,1,-0.02119608938173542,5.995501165728148,-0.9429910568396666,0.11469124047153942,7.4216553591097245,5.990871170350163,2.827432697466468,0.28613157650306276
1759830135.1679742,1,-0.029840608828533843,5.992749434600335,-0.7696742171231621,0.15235144915890408,7.41726493678496,5.990898543320678,2.8268129445420453,0.2852216092494245
1759830135.181755,1,-0.03648397156805224,5.9902814727108495,-0.6266013240251838,0.18319597120253273,7.415062205224675,5.990922004874805,2.827609867792395,0.28446374130196345
1759830135.1928828,1,-0.04170398318254241,5.988214415597583,-0.5339249823723714,0.20951698529241006,7.414640386471883,5.990922077929009,2.8276098749302516,0.28446374130196345
1759830135.2065065,1,-0.04544901254755392,5.986585041908643,-0.4525277607896817,0.23030543239028906,7.413039901749301,5.991006147104449,2.827102940423359,0.2823459543289539
1759830135.2174835,1,-0.04813042514126051,5.9853586513234776,-0.3797173796366021,0.24712996725177067,7.412438976862815,5.9910436977144546,2.8263076770334172,0.2811478577683121
1759830135.2310905,1,-0.05007214255027882,5.9844849903037645,-0.31100957852199895,0.26112975245079867,7.41117218761435,5.991093514231124,2.827065246910932,0.27938914834368905
1759830135.2415338,1,-0.05158345796752767,5.98397324924624,-0.2808972123170373,0.2730317771297725,7.411391347344865,5.9910935154792835,2.8270652523989273,0.27938914834368905
1759830135.25245,1,-0.05260141971261396,5.983644315044048,-0.25055474010350665,0.28244512839773356,7.411049901327083,5.991116260166007,2.8283214854008736,0.27876145946792436
1759830135.263993,1,-0.053280851168515275,5.983471733133843,-0.2185456695957627,0.2901614563684004,7.410360928772907,5.991154981730536,2.825257549781722,0.2777656514562791
1759830135.2740667,1,-0.05369750984897688,5.983459900182685,-0.1862750044883465,0.2964738717481802,7.410246839045275,5.991159397207272,2.825132651671806,0.27740070318721827
1759830135.2840705,1,-0.053900823243512946,5.983599959467294,-0.15432718615968302,0.301510865612527,7.410300169444552,5.991159397152533,2.8251326549271343,0.27740070318721827
1759830135.2951882,1,-0.05395215033670305,5.983874437155031,-0.12152258082078048,0.30559688235204624,7.410026273360707,5.991162384681922,2.8257200123455206,0.2771068596838817
1759830135.3054442,1,-0.05407130365514467,5.984237466644555,-0.12165605442245803,0.3090794597591834,7.410075407636194,5.991162384612679,2.8257200145920245,0.2771068596838817
1759830135.316914,1,-0.0540909326582076,5.984530155696849,-0.11452099560112794,0.311888057813816,7.40968881012174,5.991179461704472,2.8250339833676947,0.2766731830548956
1759830135.3276403,1,-0.05405453130217345,5.984810914201076,-0.10196079901513716,0.3141612257354619,7.409609052945007,5.991179521260212,2.8243092574975415,0.27651280433398967
1759830135.34558,1,-0.06631692790223737,5.983807784665981,-0.08073755686180739,0.35689978188863986,7.369197879528311,5.989315309827335,2.825085687269818,0.3355735182596432
1759830135.355338,1,-0.09154268860270529,5.981578323043017,-0.09115246499013407,0.4360694318990287,7.355011024352172,5.989315815715495,2.8240626717998767,0.3355735182596432
1759830135.3666418,1,-0.11277677126334083,5.979612911225243,-0.09238847385633348,0.4991567789161331,7.348910729411078,5.989303159419708,2.8286431430335033,0.33601059671972333
1759830135.3777392,1,-0.12924426876599635,5.9779600390458505,-0.0866194242497053,0.5492276413639195,7.345740281701967,5.989284760565543,2.82689893093639,0.33707161266344104
1759830135.3879793,1,-0.1424209366267554,5.976602784690437,-0.07583541534251403,0.5905238410214433,7.344006331233506,5.989259372131436,2.826160048398113,0.33791757815037565
1759830135.3981447,1,-0.1527305552391094,5.975585772087934,-0.06083818358296578,0.6240001657745408,7.342906992862527,5.989233594185952,2.826180667272477,0.33860062347567177
1759830135.4082162,1,-0.16146962711737173,5.974727780883159,-0.0750876187141869,0.6524332847479518,7.342818204384072,5.989233598251066,2.826180669094148,0.33860062347567177
1759830135.4211078,1,-0.16834954357086326,5.9738598938664245,-0.07834342731471028,0.6756375910415912,7.34123591171691,5.989196864193792,2.8281000174051623,0.3396005098068237
1759830135.4325485,1,-0.1735417418247563,5.973133312998181,-0.07395448101123507,0.6940541466827751,7.340795172066451,5.989192491926784,2.826556603837416,0.33998143642078704
1759830135.446042,1,-0.1776005197223618,5.972610947769277,-0.062319378031111206,0.7091881462835896,7.340182017468855,5.989178898854941,2.826048326208317,0.3402929146680048
1759830135.4576604,1,-0.1811863650832585,5.972160005307592,-0.07884712577894708,0.7220146444368276,7.340015109542751,5.989164336369283,2.826262022001796,0.3405405386812933
1759830135.471078,1,-0.183941805309134,5.971604535303466,-0.08369736145557065,0.7324642153646304,7.3396111768921655,5.989153090530421,2.8270797778980117,0.34074459075583424
1759830135.4824095,1,-0.18599952989936294,5.97111618527074,-0.08083393721499044,0.7408794607349097,7.339458585302483,5.989151798100134,2.830085234761944,0.3410404835207586
1759830135.4958644,1,-0.18746147185347473,5.970797585630951,-0.07029491888109617,0.7475549019128394,7.339135081962369,5.989166523528092,2.828175926959778,0.34115514887600096
1759830135.5071273,1,-0.1885243228156587,5.970703631795185,-0.054884380753691876,0.7530674338411544,7.339208327168428,5.98916626091784,2.8273610144598416,0.34125094394249506
1759830135.5202918,1,-0.18968435070279804,5.970683910378485,-0.06646768309699636,0.7578006358855518,7.338966106934392,5.9891608720266145,2.8273541381456164,0.341328186786155
1759830135.5308378,1,-0.19051644953633573,5.970542665062644,-0.06912429895594005,0.76160996766794,7.339148565012387,5.989156111576563,2.828019684718456,0.3413906457641344
1759830135.5519755,1,-0.20636008840341,5.969889401287311,-0.05839420481616641,0.7826191326099234,7.292448897196419,5.987669103061813,2.8273490590182715,0.3892748237064417
1759830135.562029,1,-0.22055031897117447,5.96952549483208,-0.04354796701070059,0.7996568476342271,7.276297782012533,5.987665692407749,2.825337484294586,0.3893097186132352
1759830135.5729008,1,-0.2514393094845656,5.968647421115318,-0.05811874977166034,0.8328207491884285,7.270033835126222,5.9876661564742095,2.827323334024028,0.3893097186132352
1759830135.5867379,1,-0.27664492482989006,5.967748501387445,-0.06102100936420631,0.8594019862756711,7.266186340722489,5.987618635128634,2.8277437786469704,0.39022521590081616
1759830135.5977745,1,-0.29681768423697913,5.966996749803036,-0.05670517446881187,0.8808676376252841,7.263783358655442,5.9875834801913195,2.8272000838748257,0.39134351070591145
1759830135.6116471,1,-0.31254326490233925,5.966505255558191,-0.04466739699957792,0.897923429537866,7.263135860100922,5.987583506383796,2.827200084227123,0.39134351070591145
1759830135.6280487,1,-0.326580919243147,5.966069629271691,-0.0598021062557375,0.912864842719124,7.261535754601779,5.987554753738372,2.8265290896457573,0.3919856330700434
1759830135.6388545,1,-0.33750777391199943,5.965509739655159,-0.06528219492318983,0.9247045805720009,7.2612775605880495,5.987526160844926,2.8266743459509973,0.392495029339031
1759830135.6530569,1,-0.3462390775706586,5.965015041871561,-0.06098700139229786,0.9343919570454623,7.259883306040587,5.987488682423645,2.828758184174454,0.39322974593624055
1759830135.6643171,1,-0.35317918537362636,5.964721859817879,-0.050595185317001704,0.9423249107913185,7.25937480242303,5.987473977523082,2.8265509788474046,0.3937436898028487
1759830135.677712,1,-0.3593840833823367,5.964450166604173,-0.067771783822589,0.9490414251187039,7.259200125284953,5.987473977918419,2.8265509794087285,0.3937436898028487
1759830135.68917,1,-0.3642396510283766,5.9639846598520085,-0.0743868904492414,0.954432626658518,7.258884609802246,5.987445864815555,2.827500172160546,0.394086354010698
1759830135.7025611,1,-0.36796938241578725,5.963551703473985,-0.07165934027868012,0.9587658090527643,7.258523331789059,5.987440964908004,2.8288218386936244,0.3942074216237439
1759830135.7140434,1,-0.3708445353779459,5.9632938001933695,-0.06248051833362973,0.9622666670330304,7.258574850024519,5.987445456161131,2.830602075133106,0.3943075815800102
1759830135.7254522,1,-0.3729562608071472,5.963294251719171,-0.04804194536704024,0.9650592374913741,7.258519264989071,5.987463650589443,2.828773904246781,0.3943938204879423
1759830135.7370443,1,-0.39590480548477813,5.963153207286067,-0.06499775655896652,0.9727406785339525,7.258525541721961,5.987463650576379,2.8287739048946277,0.3943938204879423
1759830135.7548008,1,-0.42949560998969966,5.962664300520105,-0.06739507321712622,0.9836105686524061,7.202097821401794,5.985133925399923,2.8302025778742856,0.4687858378345266
1759830135.7660208,1,-0.45862368772486134,5.96227051185957,-0.06259956544542705,0.9923257720063737,7.1818689228390165,5.985130803758326,2.8306396029605616,0.4688672675852473
1759830135.7790039,1,-0.48180646788457454,5.96209387331599,-0.0507378278499001,0.9992555709391432,7.17287049952491,5.985116541948856,2.82918219391325,0.4697118704365305
1759830135.7898045,1,-0.5008857893580964,5.962204099169681,-0.034440833987692876,1.0049907711801305,7.168626207654045,5.9850698394793875,2.8286965010297362,0.4711171966455639
1759830135.8037684,1,-0.5178632649739872,5.962349971537931,-0.04920985948594378,1.0099581747593536,7.165771118247838,5.985026952154286,2.828935743122386,0.4722419738049542
1759830135.8151138,1,-0.5315994432519434,5.962255752534576,-0.054033525171461094,1.01400242840394,7.163706094884464,5.984970432353905,2.8312166698938595,0.4738758181326185
1759830135.8255923,1,-0.5423942613961013,5.962142284934282,-0.05144918064419471,1.0172201836470582,7.163786884280337,5.984970438656001,2.8312166706506847,0.4738758181326185
1759830135.8374429,1,-0.5510796900739431,5.962154466179252,-0.04206781660537423,1.0198548285207112,7.1622141398303825,5.984944314408749,2.828400519761582,0.4750218268505407
1759830135.8479197,1,-0.5588816672804099,5.962107715051411,-0.061351174982770144,1.0220908957253343,7.162365340059247,5.984944315166965,2.8284005203209506,0.4750218268505407
1759830135.8589745,1,-0.5649284841965644,5.961771519024145,-0.06998180392538367,1.0238597081850092,7.161848601829895,5.9849194405955695,2.8283457333496664,0.47543078939733774
1759830135.8714075,1,-0.5698449019464132,5.961400676916714,-0.06946325865250974,1.0253264451659292,7.16091420630967,5.984884429152892,2.8301027900773748,0.47603979222227666
1759830135.8827074,1,-0.5736111804994158,5.961166800821076,-0.06210579441390484,1.0264930275292143,7.160772483841055,5.9848828202436835,2.831732535445298,0.47625743291047845
1759830135.8964527,1,-0.5764044752818626,5.961181635009674,-0.04770438482486066,1.027420560235173,7.160183988088831,5.984896974585493,2.8300735048038903,0.47644392716246586
1759830135.9077191,1,-0.5792214307956938,5.961241914321156,-0.0625932194470539,1.0282098546978276,7.160451185108751,5.984896974291414,2.8300735051914856,0.47644392716246586
1759830135.920907,1,-0.5814387715710344,5.9610752490739705,-0.06619108042068916,1.0288688036439166,7.159911799579447,5.984884980786621,2.8295530306439427,0.47672581009873627
1759830135.9312387,1,-0.5831138128184089,5.960926348300464,-0.06288061494214361,1.029400684517793,7.160192474231911,5.984878637977903,2.8302742433014947,0.4768261282573486
1759830135.9422889,1,-0.5968826939884425,5.960724179557647,-0.0534465736657438,1.035969039169339,7.1601395948483075,5.984879041084295,2.83164963117023,0.4769088209853842
1759830135.9605186,1,-0.6350884044430413,5.960329426303553,-0.06863158533032698,1.0479836805654699,7.092494078933201,5.983134320861534,2.8298183589633505,0.5330816872539789
1759830135.9706478,1,-0.6669695650622078,5.959766010952161,-0.07454330900020789,1.0575105254462347,7.068342529072644,5.983130475125257,2.8297831135823306,0.5331386261422136
1759830135.9820783,1,-0.6935158418538226,5.959243346120567,-0.0723423049457636,1.0652520378387096,7.058145688971418,5.983092732182623,2.8305929017432105,0.5337829533566841
1759830135.9923315,1,-0.7148802127988622,5.958902726462967,-0.064336712701917,1.071512426088462,7.053953292912941,5.983076247978521,2.831825117193931,0.5342677238597213
1759830136.0040014,1,-0.7319933597305756,5.958830904327929,-0.05067095716375769,1.076579404494948,7.051649422848381,5.983072349923987,2.833462256778596,0.534668591015637
1759830136.0153372,1,-0.7469505444204179,5.958806478971114,-0.06587143813167773,1.0808830124402227,7.051116719100688,5.983072367172968,2.8334622570009285,0.534668591015637
1759830136.0283577,1,-0.7590523382293078,5.958551889808788,-0.069831926048672,1.0843955880960747,7.047354804093487,5.983047969069813,2.8312050619101505,0.5363350549622666
1759830136.0398412,1,-0.7686459737066935,5.958325897889655,-0.06611935732785473,1.0872270516461406,7.046302551814705,5.983025977257559,2.8313513156900987,0.5369228194348199
1759830136.0535338,1,-0.7762913529597101,5.958279905136522,-0.05470997009625122,1.089538634145618,7.044241722408871,5.9830011485653385,2.833361971491764,0.5378012092434357
1759830136.065042,1,-0.7822265696790978,5.958525298067162,-0.03837843673161561,1.0913848063096994,7.044503252455425,5.9830011486265775,2.833361971735711,0.5378012092434357
1759830136.0785291,1,-0.7877282470631295,5.958828174400188,-0.05009765093116593,1.0929522488837526,7.043568701196902,5.983008182726054,2.831138943084509,0.5381390672139009
1759830136.089831,1,-0.7921103750839664,5.958902908628135,-0.052252106225317306,1.0942370470325373,7.042913413557707,5.9829687141933485,2.82992470141159,0.5386335344653154
1759830136.100863,1,-0.7955423940468312,5.958982545448132,-0.047293501668164366,1.0952750075786153,7.042745678586654,5.982947873496917,2.8304925490362027,0.5388105878998409
1759830136.1114957,1,-0.7981456724416851,5.959202922923481,-0.03673390618971163,1.0961162515007543,7.042617705050858,5.982935640746016,2.831578089696809,0.5389567507351832
1759830136.123011,1,-0.8008428727973993,5.95934741831995,-0.05527177646006074,1.0968315268144355,7.042506464285286,5.982935640869791,2.8315780898354803,0.5389567507351832
1759830136.1339324,1,-0.8160527497634843,5.958754331735851,-0.06322955502813656,1.1101451961372362,7.042167422228358,5.982951665314595,2.8316366664073014,0.539177929831584
1759830136.1444082,1,-0.832968772161546,5.958162913463273,-0.06335982322473503,1.1208693900634765,7.042121043162615,5.982949955279725,2.8310277198852627,0.5392593916775139
1759830136.1590955,1,-0.8484844376114818,5.957745274349688,-0.054509753308036514,1.1297017755308048,6.969904174431323,5.979392939484882,2.8312199555057185,0.6525828937687266
1759830136.1691048,1,-0.8617707204042065,5.957627280166497,-0.04118064350577234,1.137008585943521,6.94377841559645,5.979389455502547,2.830119217499767,0.6526370791781759
1759830136.180235,1,-0.8954308258198473,5.957122751792306,-0.05691871758286402,1.1564976645353318,6.933577243055535,5.979390229484307,2.830119217694557,0.6526370791781759
1759830136.1903336,1,-0.9224575389780858,5.956430793330527,-0.06322348102958991,1.17204124357774,6.927235673056851,5.979309425660368,2.831755390425945,0.6559969670562672
1759830136.2022367,1,-0.9441333527483639,5.955792428347877,-0.06098902789787239,1.1846386085641953,6.923588008987855,5.979249619448701,2.830787599039549,0.6577277251967445
1759830136.213504,1,-0.9614508071171914,5.955374763450945,-0.05231154441798309,1.1948223545506247,6.921540935418336,5.979188953514447,2.8307213087660568,0.6591350531481087
1759830136.2270315,1,-0.9766938504658719,5.954955368381737,-0.07018349924096433,1.2035577417809478,6.919601225715046,5.979137438981343,2.8313076772980312,0.6602733739336606
1759830136.2381613,1,-0.9887723667878353,5.954287431656935,-0.07756836797977089,1.2105671508672413,6.9188996734184585,5.97910066341433,2.832464786189256,0.661195857372839
1759830136.2491243,1,-0.9984305962983065,5.953636739958638,-0.07703647394127365,1.2162829175091991,6.9175000444469275,5.979048785685803,2.8300507747272943,0.6626269677619508
1759830136.2600114,1,-1.0060257237395807,5.953175050174456,-0.06993066724222428,1.2208855170420163,6.917021803983864,5.9790112416505785,2.8301141591789,0.6631523456168277
1759830136.2711651,1,-1.0119530057236255,5.953013846432225,-0.05727827529776485,1.2246000253352802,6.916556890306281,5.978980488773879,2.830813248124412,0.6635757661225394
1759830136.281663,1,-1.0165014871773288,5.9532211446178405,-0.04056804495173765,1.2275705939193906,6.916694078125183,5.978980488751977,2.830813248235269,0.6635757661225394
1759830136.2934613,1,-1.0208612361238525,5.9535057842124,-0.05276584741990143,1.2300961771982857,6.916448949626639,5.9789804890727,2.8308132482775057,0.6635757661225394
1759830136.3043375,1,-1.024241664217938,5.9535267238645035,-0.055718056185969374,1.2321367215708592,6.915969947700557,5.978962717864452,2.8337603119350305,0.6641909703381883
1759830136.3180552,1,-1.0268726096801302,5.953564630352416,-0.0495883420177451,1.233809185911557,6.914923777959641,5.978982699952447,2.83164568516933,0.6646100985744955
1759830136.3294373,1,-1.0288124727822932,5.95380011030258,-0.03763184853885721,1.2351634611802926,6.91507832615143,5.978974174440791,2.8318969667976615,0.6647634564109456
1759830136.3427308,1,-1.056323374978423,5.953916906881683,-0.056406313492018606,1.2380322257241254,6.9147568423891705,5.9789741747972025,2.8318969668136873,0.6647634564109456
1759830136.354089,1,-1.0974511896281693,5.953614818568387,-0.06426042583745506,1.2418721396471197,6.914877748906497,5.978978837038511,2.837126669236348,0.6649926468746227
1759830136.3739808,1,-1.1329512003851832,5.9533152354621395,-0.05859959082176833,1.2449566894442305,6.830376991698302,5.9787200329418795,2.834693156188824,0.6744608686341751
1759830136.384147,1,-1.1614075807333868,5.953260333708345,-0.047767562323942865,1.2474187440370093,6.800412968047208,5.978714298526159,2.8333269213244265,0.6745176104449737
1759830136.3945086,1,-1.1861434024613418,5.953180395826663,-0.06629217005121957,1.2495114783673051,6.788942394205382,5.978714994460409,2.8333269215487813,0.6745176104449737
1759830136.4057252,1,-1.2063016499058152,5.952764948376344,-0.07406017061911557,1.2512214061092952,6.783183426869285,5.978708083611491,2.8340747969112723,0.6746580793519009
1759830136.4172266,1,-1.2226545890118472,5.95232037614486,-0.07350415903332008,1.2526147078203669,6.776837277806691,5.978688537511698,2.8316861160704674,0.6750482900505086
1759830136.4286325,1,-1.235492473744871,5.9520419831345714,-0.06606495097991805,1.2537223463290912,6.774513744542147,5.978663448695205,2.8317952112361384,0.6751857484707682
1759830136.4387312,1,-1.2455791952789925,5.95204435966024,-0.05385166115802792,1.254606387711621,6.77456102894215,5.978663463184808,2.831795211331726,0.6751857484707682
1759830136.4504225,1,-1.2550085730898022,5.952052605781857,-0.07054145163019533,1.2553827392831334,6.772818176661762,5.978643576894709,2.8325577138143254,0.6753002952718256
1759830136.4612944,1,-1.2623269019576555,5.951748078083652,-0.07723113921177495,1.2559970174613884,6.771772136554191,5.978636272462304,2.8338058154375125,0.6753917425914395
1759830136.4728289,1,-1.2682335244406022,5.951420739809293,-0.0755809806027138,1.2565004369027732,6.769894592298527,5.978633057759325,2.831189496977449,0.6755323337175485
1759830136.4832087,1,-1.272945671379915,5.951248380461254,-0.0679413950618284,1.2569122691590602,6.7694762097023355,5.978611683076192,2.831287272832385,0.6755843174017708
1759830136.4938066,1,-1.2765079113837845,5.951343535908662,-0.055266220495726284,1.257240811656575,6.769010567854133,5.978595117872765,2.83202854579564,0.6756256714018765
1759830136.5047534,1,-1.279181171505611,5.951772381282507,-0.03825505006765546,1.2575034068766544,6.7689419235108375,5.978595117993114,2.832028545830898,0.6756256714018765
1759830136.516388,1,-1.2820412489180328,5.95225593879129,-0.049800505250709136,1.2577342424800104,6.768357998365311,5.978589838534639,2.8332895164391405,0.6756595854865556
1759830136.5278,1,-1.2842069674588497,5.952452849384513,-0.05202489659516967,1.2579173429222086,6.767972357176413,5.9786029707526165,2.831661240509879,0.6756883356836336
1759830136.5378187,1,-1.3001783613435702,5.952625535098274,-0.04759616601604973,1.2583220337808594,6.767777398761532,5.978576693895145,2.8312313991884626,0.6757297426298029
1759830136.5491285,1,-1.3129325191456434,5.95293538119434,-0.03702595416646181,1.2586478750650716,6.767598241975991,5.978576694093664,2.831231399212325,0.6757297426298029
1759830136.5593088,1,-1.3287367619925163,5.953492284774337,-0.02210635198629298,1.2589155843909678,6.767618373609237,5.9785654028989805,2.832129984085722,0.6757449773593645
1759830136.573984,1,-1.3687770454237747,5.953996203402537,-0.03715288255054669,1.2594061014595472,6.67697362616967,5.9756219860223645,2.8360759765109522,0.7695631631200491
1759830136.5840962,1,-1.401216354248222,5.954125469970673,-0.04296133436130173,1.259795707826515,6.64388484263212,5.975637734822626,2.8357357609148983,0.7695728914603854
1759830136.595239,1,-1.4278274803627642,5.954181055319241,-0.04073618470951576,1.2601130647422698,6.629901705483171,5.97566107091564,2.833967543687945,0.7705262537524193
1759830136.6070526,1,-1.4492684205628952,5.954355228406015,-0.0316763135019666,1.2603697841704522,6.623688555640774,5.975641895283056,2.8343249767747074,0.7712888848833651
1759830136.6170728,1,-1.4680136855296768,5.95442212634669,-0.05055818424616502,1.2605876802818703,6.622221913444984,5.975641906122241,2.8343249768241545,0.7712888848833651
1759830136.62783,1,-1.4832185565792877,5.954121012604479,-0.058928339742722276,1.2607659397716928,6.61954691512782,5.975630609952303,2.836670574501701,0.7724385469011014
1759830136.6402292,1,-1.4953305181710972,5.953770662456723,-0.05820274494497777,1.2609093846531105,6.616527932392502,5.97562116825654,2.8349931984809538,0.7738553094192789
1759830136.651446,1,-1.5049761182880157,5.953573879745144,-0.05079122132008863,1.2610253254823487,6.614743372772317,5.975591208215908,2.8343416914379733,0.7749900066962164
1759830136.6626415,1,-1.5126539011732962,5.953651707505775,-0.03787731350826893,1.261119274320247,6.613302733030736,5.9755578182969655,2.834500775451748,0.7759054838520631
1759830136.6734917,1,-1.5198006270244586,5.953733425712128,-0.05351744024997121,1.2612002489548473,6.612236323338842,5.975532182865107,2.8352897981074516,0.7766463652011764
1759830136.684756,1,-1.525401193220218,5.9535178666937005,-0.05897738721794469,1.2612653285590885,6.611230670923143,5.975521407365651,2.8365770689789467,0.7772476330060211
