timestamp,observer_vehicle_id,vehicle_0_x,vehicle_0_y,vehicle_0_theta,vehicle_0_velocity,vehicle_1_x,vehicle_1_y,vehicle_1_theta,vehicle_1_velocity
1759830131.906794,0,0.0,6.0,-0.05483113549895436,0.0,0.0,0.0,0.0,0.0
1759830131.9176817,0,0.0,6.0,-0.05483113549895436,0.0,0.0,0.0,0.0,0.0
1759830131.9287384,0,0.0,6.0,-0.05483113549895436,0.0,1.5856521606445313,1.1892391204833985,-0.6226841466671849,0.0
1759830131.939694,0,0.0,6.0,-0.05483113549895436,0.0,2.842963154387471,2.1322223657906036,-1.1164290187555619,0.0
1759830131.9498506,0,0.0,6.0,-0.05483113549895436,0.0,3.843346199114176,2.882509649335633,-1.5092785213178168,0.0
1759830131.9607124,0,0.0,6.0,-0.05483113549895436,0.0,4.640641050242216,3.480480787681662,-1.8223754768411535,0.0
1759830131.9712627,0,0.0,6.0,-0.05483113549895436,0.0,5.277916994442149,3.9584377458316125,-2.0726331546311934,0.0
1759830131.9824438,0,0.0,6.0,-0.05483113549895436,0.0,5.8170699851887395,4.362802488891555,-2.2843580387505695,0.0
1759830131.9938352,0,0.0,6.0,-0.05483113549895436,0.0,6.244461595415592,4.683346196561693,-2.4521943314206123,0.0
1759830132.0040221,0,0.0,6.0,-0.05483113549895436,0.0,6.584598333252142,4.9384487499391065,-2.5857657158683978,0.0
1759830132.0146124,0,0.0,6.0,-0.05483113549895436,0.0,6.855835441204799,5.141876580903599,-2.692280278962313,0.0
1759830132.025743,0,0.0,6.0,-0.05483113549895436,0.0,7.072547634641512,5.304410725981133,-2.7773829582205822,0.0
1759830132.0370493,0,0.0,6.0,-0.05483113549895436,0.0,7.255722519436815,5.44179188957761,-2.8493155671877726,0.0
1759830132.0482984,0,0.0,6.0,-0.05483113549895436,0.0,7.401045278343459,5.550783958757594,-2.906383681095127,0.0
1759830132.0586154,0,0.0,6.0,-0.05483113549895436,0.0,7.516757371042965,5.637568028282224,-2.9518237135877374,0.0
1759830132.0687428,0,0.0,6.0,-0.05483113549895436,0.0,7.60913624956013,5.706852187170098,-2.9881008143083334,0.0
1759830132.0788236,0,0.0,6.0,-0.05483113549895436,0.0,7.687056885640526,5.765292664230395,-3.0187001765075205,0.0
1759830132.0889285,0,0.0,6.0,-0.05483113549895436,0.0,7.748811203248718,5.811608402436539,-3.042951040295479,0.0
1759830132.1052637,0,3.026326429752165e-07,5.999997635682424,-2.87985042413543,0.0,7.797558647827524,5.848168985870642,-3.062094116994861,0.0
1759830132.1155353,0,3.043257026337235e-07,5.999997622455395,-3.1210502129098145,0.0,7.83642994707546,5.877322460306595,-3.0773588404965193,0.0
1759830132.1267147,0,3.0485688647222883e-07,5.999997618305521,3.13923663885555,0.0,7.867471740833125,5.900603805624844,-3.089548924385506,0.0
1759830132.1380346,0,3.050542872574407e-07,5.999997616763327,3.136176621329719,0.0,7.893749930748601,5.920312448061452,-1.8540155085172392,0.0
1759830132.14807,0,3.0512938808216737e-07,5.999997616176602,3.1360275591578475,0.0,7.914604329836214,5.935953247377162,-0.8734948933806695,0.0
1759830132.1595788,0,3.051580574026981e-07,5.999997615952623,3.1362754116377616,0.0,7.931168940329672,5.948376705247256,-0.09466918843909294,0.0
1759830132.1703355,0,3.0516900718170733e-07,5.999997615867078,3.136879637918522,0.0,7.944372353900724,5.958279265425544,0.52612161652254,0.0
1759830132.1809137,0,3.051731895734631e-07,5.9999976158344035,3.137490701089966,0.0,7.954925355121209,5.966194016340908,1.0222967978248292,0.0
1759830132.1920047,0,3.0517478710208084e-07,5.999997615821923,3.137986503730861,0.0,7.963871744222389,5.972903808166793,1.4429331780861772,0.0
1759830132.2022529,0,3.051753973035544e-07,5.999997615817155,3.138467435240562,0.0,7.9709684094534365,5.978226307090078,1.7766002633151459,0.0
1759830132.2136884,0,3.051756303797684e-07,5.999997615815334,3.1387942280707932,0.0,7.976604680113257,5.982453510084944,2.0416033233997952,0.0
1759830132.22482,0,3.0517571940695965e-07,5.999997615814639,3.1390982411289983,0.0,7.981094624990077,5.9858209687425585,2.2527090711153384,0.0
1759830132.236097,0,3.0517575341232075e-07,5.999997615814373,3.1393541433193484,0.0,7.984680236008436,5.988510177006327,2.4212953490795606,0.0
1759830132.2464094,0,3.051757664012129e-07,5.999997615814272,3.139609383189825,0.0,7.98772480928543,5.990793606964073,2.5644434134205643,0.0
1759830132.256643,0,3.0517577136252824e-07,5.999997615814233,3.1398173664571374,0.0,7.9901391953179814,5.9926043964884865,2.67796168205392,0.0
1759830132.2679958,0,3.051757732575821e-07,5.999997615814218,3.139950541273766,0.0,7.992056310433037,5.994042232824778,2.768099541409389,0.0
1759830132.2792916,0,3.0517577398142823e-07,5.9999976158142125,3.140073337158915,0.0,7.993582758349414,5.9951870687620605,2.8398692262443173,0.0
1759830132.2894819,0,3.0517577425791286e-07,5.999997615814211,3.14021509360364,0.0,7.994802807580987,5.996102105685741,2.8972328269893324,0.0
1759830132.3052452,0,3.0517577436352055e-07,5.99999761581421,3.1401988836137207,0.0,7.995828652314992,5.996871489236244,2.9454654279573735,0.0
1759830132.3159592,0,3.051757744038591e-07,5.999997615814209,3.1403378431417845,0.0,7.996643072887453,5.99748230466559,2.9837574045007873,0.0
1759830132.327433,0,3.051757744192671e-07,5.999997615814209,3.1404418608830795,0.0,7.997290781283653,5.99796808596274,3.014211000042115,0.0
1759830132.3378785,0,3.051757744251524e-07,5.999997615814209,3.1405490700635994,0.0,7.997807856656445,5.998355892492334,3.038522564258,0.0
1759830132.348491,0,3.051757744274004e-07,5.999997615814209,3.1406328105874994,0.0,7.9982215913711014,5.998666193528327,3.0579753145009447,0.0
1759830132.3588252,0,3.0517577442825907e-07,5.999997615814209,3.1407065609584013,0.0,7.998573597391829,5.998930198043872,3.07452573911521,0.0
1759830132.3699613,0,3.0517577442858703e-07,5.999997615814209,3.1407544655501773,0.0,7.99885275285271,5.999139564639533,3.087650916353474,0.0
1759830132.3800592,0,3.051757744287123e-07,5.999997615814209,3.1408143159365665,0.0,7.999074958956314,5.999306219217235,3.0980984801733005,0.0
1759830132.3901186,0,3.0517577442876014e-07,5.999997615814209,3.140865865506182,0.0,7.9992522657089244,5.999439199281693,3.106434991113144,0.0
1759830132.4016669,0,3.051757744287784e-07,5.999997615814209,3.1408878445270965,0.0,7.999393860274443,5.999545395205832,3.113092406169718,0.0
1759830132.4119308,0,3.051757744287854e-07,5.999997615814209,3.140929096381516,0.0,7.99951408742447,5.999635565568352,3.1187451798893084,0.0
1759830132.4227533,0,3.051757744287881e-07,5.999997615814209,3.1409589267227602,0.0,7.99960941588997,5.999707061917477,3.123227281015317,0.0
1759830132.4342906,0,3.051757744287891e-07,5.999997615814209,3.140977816818765,0.0,7.999685141139712,5.999763855854783,3.1267876889727155,0.0
1759830132.4443324,0,3.0517577442878947e-07,5.999997615814209,3.141016407603308,0.0,7.999745552665696,5.999809164499272,3.1296280847266686,0.0
1759830132.454905,0,3.0517577442878963e-07,5.999997615814209,3.1410441724202602,0.0,7.999793835079656,5.999845376309741,3.1318982005922353,0.0
1759830132.4654188,0,3.051757744287897e-07,5.999997615814209,3.141069653413057,0.0,7.999834810233707,5.99987610767528,3.1338247477484074,0.0
1759830132.4767818,0,3.0517577442878974e-07,5.999997615814209,3.1410840267457782,0.0,7.9998672661892725,5.999900449641954,3.1353507439366535,0.0
1759830132.4873335,0,3.0517577442878974e-07,5.999997615814209,3.141107847476432,0.0,7.999893065189532,5.999919798892149,3.136563747078038,0.0
1759830132.5012991,0,3.0517577442878974e-07,5.999997615814209,3.1410974308625175,0.0,7.9999135510476655,5.99993516328575,3.137526939838226,0.0
1759830132.5083826,0,3.0517577442878974e-07,5.999997615814209,3.1411596513820346,0.0,7.999929989890885,5.999947492418164,3.1382998522869228,0.0
1759830132.5184865,0,3.0517577442878974e-07,5.999997615814209,3.1411822909369,0.0,7.999943926955246,5.999957945216435,3.138955137479435,0.0
1759830132.5293622,0,3.0517577442878974e-07,5.999997615814209,3.141193160135469,0.0,7.999954967571215,5.999966225678412,3.139474239061552,0.0
1759830132.5408428,0,3.0517577442878974e-07,5.999997615814209,3.1411993903081843,0.0,7.999963730923102,5.999972798192327,3.1398862694992062,0.0
1759830132.5522099,0,3.0517577442878974e-07,5.999997615814209,3.1412089901138387,0.0,7.999970706463967,5.999978029847976,3.1402142416259062,0.0
1759830132.5623255,0,3.0517577442878974e-07,5.999997615814209,3.141229796803511,0.0,7.999976281152024,5.999982210864019,3.14047634922921,0.0
1759830132.5736454,0,3.0517577442878974e-07,5.999997615814209,3.141239504881712,0.0,7.99998099577907,5.9999857468343025,3.14069801895902,0.0
1759830132.5846438,0,3.0517577442878974e-07,5.999997615814209,3.141251862999118,0.0,7.9999847314698735,5.9999885486024045,3.1408736616053803,0.0
1759830132.5948882,0,3.0517577442878974e-07,5.999997615814209,3.14126936275348,0.0,7.99998770154653,5.999990776159898,3.1410133070287762,0.0
1759830132.605224,0,3.0517577442878974e-07,5.999997615814209,3.1412843150972307,0.0,7.999990068453086,5.9999925513398145,3.1411245929336,0.0
1759830132.6165376,0,3.0517577442878974e-07,5.999997615814209,3.141291356385331,0.0,7.999991957362698,5.999993968022023,3.141213404642173,0.0
1759830132.6271882,0,3.0517577442878974e-07,5.999997615814209,3.141303126332362,0.0,7.9999935557380715,5.999995166803553,3.141288556172458,0.0
1759830132.6386547,0,3.0517577442878974e-07,5.999997615814209,3.1413096897459667,0.0,7.999994821677343,5.999996116258007,3.1413480774057523,0.0
1759830132.6487768,0,3.0517577442878974e-07,5.999997615814209,3.1413246534025614,0.0,7.999995828446854,5.99999687133514,3.1413954131384374,0.0
1759830132.6590533,0,3.0517577442878974e-07,5.999997615814209,3.1413371609422818,0.0,7.999996630906393,5.9999974731797945,3.1414331427377205,0.0
1759830132.6704292,0,3.0517577442878974e-07,5.999997615814209,3.1413423309052266,0.0,7.999997271335753,5.999997953501814,3.1414632540915264,0.0
1759830132.680852,0,3.0517577442878974e-07,5.999997615814209,3.1413530225783024,0.0,7.999997814508371,5.999998360881278,3.141488792681651,0.0
1759830132.6914973,0,3.0517577442878974e-07,5.999997615814209,3.1413619535643402,0.0,7.999998244903028,5.999998683677272,3.1415090287398697,0.0
1759830132.7029614,0,3.0517577442878974e-07,5.999997615814209,3.1413664525864053,0.0,7.999998586514797,5.9999989398860984,3.1415250904532943,0.0
1759830132.713373,0,3.0517577442878974e-07,5.999997615814209,3.1413765371760327,0.0,7.9999988586920106,5.999999144019008,3.1415378875311384,0.0
1759830132.7247365,0,3.0517577442878974e-07,5.999997615814209,3.141381727843399,0.0,7.999999075865601,5.999999306899201,3.1415480984790323,0.0
1759830132.7362049,0,3.0517577442878974e-07,5.999997615814209,3.1413868529198243,0.0,7.999999259613829,5.999999444710372,3.14155673785172,0.0
1759830132.7464552,0,3.0517577442878974e-07,5.999997615814209,3.141397549252307,0.0,7.999999405309042,5.999999553981782,3.141563588068777,0.0
1759830132.7577262,0,3.0517577442878974e-07,5.999997615814209,3.141403084191648,0.0,7.999999520993401,5.9999996407450515,3.141569027252057,0.0
1759830132.7691271,0,3.0517577442878974e-07,5.999997615814209,3.1414081176454225,0.0,7.999999613081627,5.99999970981122,3.1415733570053708,0.0
1759830132.7797494,0,3.0517577442878974e-07,5.999997615814209,3.1414163537036686,0.0,7.999999686644054,5.99999976498304,3.1415768157229187,0.0
1759830132.791071,0,3.0517577442878974e-07,5.999997615814209,3.1414214881406224,0.0,7.999999748834664,5.999999811625998,3.1415797397666836,0.0
1759830132.8021107,0,3.0517577442878974e-07,5.999997615814209,3.141427604882473,0.0,7.999999798127972,5.999999848595979,3.1415820574121778,0.0
1759830132.8122299,0,3.0517577442878974e-07,5.999997615814209,3.1414365587083246,0.0,7.999999837338497,5.999999878003872,3.141583900990979,0.0
1759830132.8233945,0,3.0517577442878974e-07,5.999997615814209,3.141441032113214,0.0,7.999999868569771,5.999999901427327,3.1415853694057465,0.0
1759830132.8337915,0,3.0517577442878974e-07,5.999997615814209,3.141447747340445,0.0,7.999999893531293,5.999999920148469,3.1415865430328584,0.0
1759830132.844598,0,3.0517577442878974e-07,5.999997615814209,3.141452662271316,0.0,7.999999914671106,5.999999936003328,3.1415875369728603,0.0
1759830132.8546844,0,3.0517577442878974e-07,5.999997615814209,3.14145936898392,0.0,7.999999931441388,5.99999994858104,3.1415883254687325,0.0
1759830132.8659196,0,3.0517577442878974e-07,5.999997615814209,3.1414621379272045,0.0,7.999999944761636,5.999999958571226,3.1415889517527678,0.0
1759830132.8765984,0,3.0517577442878974e-07,5.999997615814209,3.1414666260456805,0.0,7.999999955375918,5.999999966531937,3.1415894508092173,0.0
1759830132.8868155,0,3.0517577442878974e-07,5.999997615814209,3.141472214675286,0.0,7.999999963859435,5.999999972894575,3.1415898496825307,0.0
1759830132.9059734,0,3.0517577442878974e-07,5.999997615814209,3.1414555054673343,0.0,7.999999970987153,5.999999978240364,3.141590184809632,0.0
1759830132.9111903,0,3.0517577442878974e-07,5.999997615814209,3.14147784434995,0.0,7.999999976678856,5.9999999825091415,3.141590452418998,0.0
1759830132.922598,0,3.0517577442878974e-07,5.999997615814209,3.1414818907508355,0.0,7.99999998120076,5.99999998590057,3.1415906650274095,0.0
1759830132.932722,0,3.0517577442878974e-07,5.999997615814209,3.1414876184718707,0.0,7.999999984807814,5.999999988605861,3.141590834621904,0.0
1759830132.9441404,0,3.0517577442878974e-07,5.999997615814209,3.1414898574524877,0.0,7.9999999876880805,5.999999990766061,3.1415909700446827,0.0
1759830132.9545949,0,3.0517577442878974e-07,5.999997615814209,3.141494234732649,0.0,7.999999990142186,5.999999992606639,3.1415910854304254,0.0
1759830132.9649637,0,3.0517577442878974e-07,5.999997615814209,3.1414984605590277,0.0,7.999999992086677,5.999999994065008,3.1415911768554414,0.0
1759830132.9751868,0,3.0517577442878974e-07,5.999997615814209,3.1415025136428625,0.0,7.99999999363143,5.999999995223573,3.141591249485792,0.0
1759830132.985603,0,3.0517577442878974e-07,5.999997615814209,3.141505752084244,0.0,7.999999994861366,5.999999996146025,3.1415913073142354,0.0
1759830132.9972188,0,3.0517577442878974e-07,5.999997615814209,3.1415065728228218,0.0,7.999999995841831,5.999999996881374,3.141591353413222,0.0
1759830133.007449,0,3.0517577442878974e-07,5.999997615814209,3.1415102977466454,0.0,7.9999999966267135,5.999999997470035,3.1415913903163855,0.0
1759830133.0188186,0,3.0517577442878974e-07,5.999997615814209,3.141511859537715,0.0,7.9999999972937,5.999999997970275,3.1415914216763894,0.0
1759830133.0303795,0,3.0517577442878974e-07,5.999997615814209,3.1415133260913493,0.0,7.999999997822548,5.999999998366912,3.1415914465414936,0.0
1759830133.0418825,0,3.0517577442878974e-07,5.999997615814209,3.1415152496649537,0.0,7.999999998243043,5.9999999986822825,3.1415914663120805,0.0
1759830133.053108,0,3.0517577442878974e-07,5.999997615814209,3.1415178234467724,0.0,7.9999999985783905,5.999999998933793,3.1415914820792428,0.0
1759830133.0646176,0,3.0517577442878974e-07,5.999997615814209,3.141519982685651,0.0,7.999999998860914,5.999999999145685,3.1415914953627513,0.0
1759830133.0755086,0,3.0517577442878974e-07,5.999997615814209,3.141523065647764,0.0,7.9999999990848085,5.999999999313606,3.1415915058897093,0.0
1759830133.0856206,0,3.0517577442878974e-07,5.999997615814209,3.1415269703438202,0.0,7.999999999262844,5.999999999447133,3.141591514260502,0.0
1759830133.096984,0,3.0517577442878974e-07,5.999997615814209,3.141528667500758,0.0,7.9999999994045705,5.999999999553427,3.1415915209241225,0.0
1759830133.1082118,0,3.0517577442878974e-07,5.999997615814209,3.1415305304141405,0.0,7.999999999517711,5.999999999638284,3.14159152624372,0.0
1759830133.1184678,0,3.0517577442878974e-07,5.999997615814209,3.1415336221578727,0.0,7.999999999614072,5.999999999710555,3.1415915307743467,0.0
1759830133.1300063,0,3.0517577442878974e-07,5.999997615814209,3.1415348528862292,0.0,7.9999999996902895,5.999999999767718,3.141591534357886,0.0
1759830133.1408556,0,3.0517577442878974e-07,5.999997615814209,3.1415369671357816,0.0,7.9999999997507825,5.999999999813088,3.1415915372021117,0.0
1759830133.1521382,0,3.0517577442878974e-07,5.999997615814209,3.1415385350981957,0.0,7.999999999798897,5.999999999849174,3.1415915394643585,0.0
1759830133.1634998,0,3.0517577442878974e-07,5.999997615814209,3.1415400439737446,0.0,7.999999999837265,5.999999999877951,3.1415915412683604,0.0
1759830133.1747937,0,3.0517577442878974e-07,5.999997615814209,3.141541680779733,0.0,7.999999999869675,5.999999999902259,3.1415915427921948,0.0
1759830133.1861281,0,3.0517577442878974e-07,5.999997615814209,3.141543288473466,0.0,7.999999999895334,5.999999999921504,3.1415915439986524,0.0
1759830133.1963031,0,3.0517577442878974e-07,5.999997615814209,3.1415459848478164,0.0,7.999999999915729,5.999999999936799,3.1415915449575524,0.0
1759830133.20761,0,3.0517577442878974e-07,5.999997615814209,3.1415472881603943,0.0,7.999999999931959,5.9999999999489715,3.141591545720644,0.0
1759830133.2186265,0,3.0517577442878974e-07,5.999997615814209,3.141548814105393,0.0,7.999999999944914,5.999999999958686,3.141591546329718,0.0
1759830133.228946,0,3.0517577442878974e-07,5.999997615814209,3.14155089455825,0.0,7.9999999999558975,5.999999999966924,3.14159154684613,0.0
1759830133.240347,0,3.0517577442878974e-07,5.999997615814209,3.1415518445471555,0.0,7.999999999964591,5.9999999999734435,3.141591547254847,0.0
1759830133.251329,0,3.0517577442878974e-07,5.999997615814209,3.1415531741357867,0.0,7.999999999971493,5.99999999997862,3.141591547579345,0.0
1759830133.2627254,0,3.0517577442878974e-07,5.999997615814209,3.141554172619781,0.0,7.999999999976985,5.999999999982738,3.141591547837539,0.0
1759830133.2741337,0,3.0517577442878974e-07,5.999997615814209,3.1415552178785884,0.0,7.999999999981365,5.9999999999860245,3.1415915480435266,0.0
1759830133.285597,0,3.0517577442878974e-07,5.999997615814209,3.1415562771820014,0.0,7.999999999985069,5.999999999988803,3.141591548217672,0.0
1759830133.2956562,0,3.0517577442878974e-07,5.999997615814209,3.1415583377777594,0.0,7.999999999988006,5.999999999991006,3.141591548355792,0.0
1759830133.306374,0,3.0517577442878974e-07,5.999997615814209,3.1415596756554294,0.0,7.99999999999034,5.999999999992757,3.141591548465528,0.0
1759830133.3168411,0,3.0517577442878974e-07,5.999997615814209,3.1415610229697517,0.0,7.9999999999922,5.999999999994151,3.1415915485529577,0.0
1759830133.3282619,0,3.0517577442878974e-07,5.999997615814209,3.1415616421051418,0.0,7.999999999993683,5.999999999995264,3.1415915486227184,0.0
1759830133.3395455,0,3.0517577442878974e-07,5.999997615814209,3.1415624147447456,0.0,7.999999999994941,5.999999999996207,3.1415915486818378,0.0
1759830133.3497229,0,3.0517577442878974e-07,5.999997615814209,3.141563890813849,0.0,7.999999999995938,5.9999999999969535,3.1415915487287034,0.0
1759830133.3612056,0,3.0517577442878974e-07,5.999997615814209,3.1415644667121114,0.0,7.999999999996729,5.999999999997547,3.141591548765896,0.0
1759830133.3727372,0,3.0517577442878974e-07,5.999997615814209,3.141565065224169,0.0,7.999999999997358,5.9999999999980185,3.1415915487954904,0.0
1759830133.3841908,0,3.0517577442878974e-07,5.999997615814209,3.1415657949204796,0.0,7.99999999999786,5.999999999998395,3.1415915488191053,0.0
1759830133.3955472,0,3.0517577442878974e-07,5.999997615814209,3.141566620659356,0.0,7.999999999998286,5.999999999998714,3.1415915488390938,0.0
1759830133.405912,0,3.0517577442878974e-07,5.999997615814209,3.1415679298711616,0.0,7.999999999998623,5.999999999998967,3.1415915488549424,0.0
1759830133.4160547,0,3.0517577442878974e-07,5.999997615814209,3.14156918268009,0.0,7.9999999999988916,5.999999999999168,3.1415915488675425,0.0
1759830133.4274118,0,3.0517577442878974e-07,5.999997615814209,3.141569693729144,0.0,7.999999999999105,5.9999999999993285,3.141591548877572,0.0
1759830133.438279,0,3.0517577442878974e-07,5.999997615814209,3.141570438820974,0.0,7.999999999999275,5.999999999999456,3.14159154888558,0.0
1759830133.4483786,0,3.0517577442878974e-07,5.999997615814209,3.1415714940585424,0.0,7.999999999999412,5.999999999999559,3.1415915488919968,0.0
1759830133.4587212,0,3.0517577442878974e-07,5.999997615814209,3.141572318537113,0.0,7.999999999999528,5.9999999999996465,3.141591548897466,0.0
1759830133.4695778,0,3.0517577442878974e-07,5.999997615814209,3.1415728440544743,0.0,7.999999999999621,5.999999999999716,3.1415915489018067,0.0
1759830133.4798374,0,3.0517577442878974e-07,5.999997615814209,3.1415735968669125,0.0,7.9999999999996945,5.999999999999771,3.141591548905262,0.0
1759830133.4911766,0,3.0517577442878974e-07,5.999997615814209,3.14157388827949,0.0,7.999999999999752,5.999999999999815,3.141591548908017,0.0
1759830133.5012684,0,3.0517577442878974e-07,5.999997615814209,3.141574687477087,0.0,7.999999999999799,5.999999999999851,3.1415915489102217,0.0
1759830133.5116007,0,3.0517577442878974e-07,5.999997615814209,3.1415753331267418,0.0,7.999999999999839,5.99999999999988,3.141591548912094,0.0
1759830133.523048,0,3.0517577442878974e-07,5.999997615814209,3.1415755405023376,0.0,7.99999999999987,5.999999999999904,3.1415915489135786,0.0
1759830133.5344172,0,3.0517577442878974e-07,5.999997615814209,3.14157584587222,0.0,7.999999999999896,5.999999999999923,3.1415915489147586,0.0
1759830133.545855,0,3.0517577442878974e-07,5.999997615814209,3.1415761997105403,0.0,7.9999999999999165,5.999999999999938,3.141591548915699,0.0
1759830133.5573955,0,3.0517577442878974e-07,5.999997615814209,3.1415765734209327,0.0,7.9999999999999325,5.99999999999995,3.1415915489164936,0.0
1759830133.5677385,0,3.0517577442878974e-07,5.999997615814209,3.141577335427158,0.0,7.999999999999946,5.99999999999996,3.141591548917123,0.0
1759830133.5780144,0,3.0517577442878974e-07,5.999997615814209,3.141578032557854,0.0,7.9999999999999565,5.999999999999968,3.1415915489176225,0.0
1759830133.5880668,0,3.0517577442878974e-07,5.999997615814209,3.1415786936163954,0.0,7.999999999999965,5.999999999999974,3.1415915489180204,0.0
1759830133.598916,0,3.0517577442878974e-07,5.999997615814209,3.141579050286232,0.0,7.9999999999999725,5.99999999999998,3.1415915489183375,0.0
1759830133.6095746,0,3.0517577442878974e-07,5.999997615814209,3.1415794461934627,0.0,7.999999999999978,5.999999999999983,3.141591548918591,0.0
1759830133.6197748,0,3.0517577442878974e-07,5.999997615814209,3.1415799475045905,0.0,7.999999999999982,5.999999999999987,3.141591548918807,0.0
1759830133.6299157,0,3.0517577442878974e-07,5.999997615814209,3.1415804168265318,0.0,7.999999999999986,5.999999999999989,3.141591548918978,0.0
1759830133.6409297,0,3.0517577442878974e-07,5.999997615814209,3.141580634033767,0.0,7.999999999999989,5.999999999999991,3.1415915489191137,0.0
1759830133.650933,0,3.0517577442878974e-07,5.999997615814209,3.1415811008121324,0.0,7.999999999999991,5.999999999999993,3.141591548919222,0.0
1759830133.6621969,0,3.0517577442878974e-07,5.999997615814209,3.1415812537243184,0.0,7.999999999999993,5.999999999999995,3.1415915489193087,0.0
1759830133.6728354,0,3.0517577442878974e-07,5.999997615814209,3.141581573758952,0.0,7.999999999999995,5.9999999999999964,3.1415915489193815,0.0
1759830133.6831055,0,3.0517577442878974e-07,5.999997615814209,3.141581971447172,0.0,7.9999999999999964,5.9999999999999964,3.1415915489194397,0.0
1759830133.6932292,0,3.0517577442878974e-07,5.999997615814209,3.1415823648530807,0.0,7.9999999999999964,5.9999999999999964,3.141591548919486,0.0
1759830133.703234,0,3.0517577442878974e-07,5.999997615814209,3.1415827395742077,0.0,7.9999999999999964,5.9999999999999964,3.1415915489195227,0.0
1759830133.714546,0,3.0517577442878974e-07,5.999997615814209,3.1415828317465326,0.0,7.9999999999999964,5.9999999999999964,3.141591548919552,0.0
1759830133.724755,0,3.0517577442878974e-07,5.999997615814209,3.1415831614003213,0.0,7.9999999999999964,5.9999999999999964,3.1415915489195756,0.0
1759830133.7350142,0,3.0517577442878974e-07,5.999997615814209,3.1415834679659707,0.0,7.9999999999999964,5.9999999999999964,3.1415915489195956,0.0
1759830133.7463567,0,3.0517577442878974e-07,5.999997615814209,3.1415835690428935,0.0,7.9999999999999964,5.9999999999999964,3.141591548919612,0.0
1759830133.7577116,0,3.0517577442878974e-07,5.999997615814209,3.141583704441807,0.0,7.9999999999999964,5.9999999999999964,3.141591548919625,0.0
1759830133.7678921,0,3.0517577442878974e-07,5.999997615814209,3.1415840605439964,0.0,7.9999999999999964,5.9999999999999964,3.141591548919635,0.0
1759830133.7782202,0,3.0517577442878974e-07,5.999997615814209,3.1415843632011935,0.0,7.9999999999999964,5.9999999999999964,3.141591548919644,0.0
1759830133.789651,0,3.0517577442878974e-07,5.999997615814209,3.1415844733677183,0.0,7.9999999999999964,5.9999999999999964,3.1415915489196506,0.0
1759830133.8007104,0,3.0517577442878974e-07,5.999997615814209,3.1415846615577294,0.0,7.9999999999999964,5.9999999999999964,3.141591548919656,0.0
1759830133.812061,0,3.0517577442878974e-07,5.999997615814209,3.1415848235471593,0.0,7.9999999999999964,5.9999999999999964,3.1415915489196604,0.0
1759830133.8224995,0,3.0517577442878974e-07,5.999997615814209,3.1415851199933353,0.0,7.9999999999999964,5.9999999999999964,3.141591548919664,0.0
1759830133.833485,0,3.0517577442878974e-07,5.999997615814209,3.141585321909158,0.0,7.9999999999999964,5.9999999999999964,3.1415915489196666,0.0
1759830133.8448055,0,3.0517577442878974e-07,5.999997615814209,3.1415854751278793,0.0,7.9999999999999964,5.9999999999999964,3.141591548919669,0.0
1759830133.8561354,0,3.0517577442878974e-07,5.999997615814209,3.1415856375234785,0.0,7.9999999999999964,5.9999999999999964,3.1415915489196706,0.0
1759830133.8674846,0,3.0517577442878974e-07,5.999997615814209,3.1415858069537155,0.0,7.9999999999999964,5.9999999999999964,3.141591548919672,0.0
1759830133.8776884,0,3.0517577442878974e-07,5.999997615814209,3.1415861060322072,0.0,7.9999999999999964,5.9999999999999964,3.141591548919673,0.0
1759830133.8890877,0,3.0517577442878974e-07,5.999997615814209,3.141586242115933,0.0,7.9999999999999964,5.9999999999999964,3.1415915489196737,0.0
1759830133.90049,0,3.0517577442878974e-07,5.999997615814209,3.141586379369734,0.0,7.9999999999999964,5.9999999999999964,3.1415915489196746,0.0
1759830133.933408,0,3.0517577442878974e-07,5.999997615814209,3.1415845730058045,0.0,7.999366499437011,5.999872100277857,2.5142724058026027,0.004071202771408417
1759830133.9446673,0,3.0517577442878974e-07,5.999997615814209,3.1415853622663477,0.0,7.998598902627273,5.9997455123959815,2.005212964425856,0.007374733299425872
1759830133.955397,0,3.0517577442878974e-07,5.999997615814209,3.141586130695975,0.0,7.997088250605664,5.999617257698246,1.6184581893745877,0.01361799393958978
1759830133.9657264,0,3.0517577442878974e-07,5.999997615814209,3.141586730940505,0.0,7.995834267589548,5.999620829465563,1.3131070831613485,0.018600486927878183
1759830133.976456,0,3.0517577442878974e-07,5.999997615814209,3.1415871447125987,0.0,7.994864277545574,5.999717740013041,1.0733370794828028,0.02262039498059045
1759830133.9876328,0,3.0517577442878974e-07,5.999997615814209,3.1415874263920784,0.0,7.994155743637458,5.9998521762908466,0.8864422760104901,0.025869604515185243
1759830133.998237,0,3.0517577442878974e-07,5.999997615814209,3.1415876916868193,0.0,7.993663117281084,5.9999837302287995,0.7415220059057667,0.028504273685219635
1759830134.008319,0,3.0517577442878974e-07,5.999997615814209,3.1415879430800437,0.0,7.993315887707872,6.000070132795383,0.5879029681160225,0.030779811190794086
1759830134.0186293,0,3.0517577442878974e-07,5.999997615814209,3.14158813060558,0.0,7.993114781253879,6.000113644049886,0.4710077166337824,0.032609385458981135
1759830134.0291772,0,3.0517577442878974e-07,5.999997615814209,3.141588269685945,0.0,7.993007787046068,6.000117215929204,0.38314642453973463,0.034085115918566916
1759830134.0406265,0,3.0517577442878974e-07,5.999997615814209,3.141588334568457,0.0,7.992960959623018,6.000090919411656,0.31836565871691247,0.03529186107526541
1759830134.050654,0,3.0517577442878974e-07,5.999997615814209,3.141588489605745,0.0,7.992953295513398,6.000044628573357,0.2729485387169113,0.036255923261351006
1759830134.0615144,0,3.0517577442878974e-07,5.999997615814209,3.1415885776417802,0.0,7.9929550115958286,5.9999616256868205,0.20525865947374491,0.03707717356931012
1759830134.0721262,0,3.0517577442878974e-07,5.999997615814209,3.1415886740045167,0.0,7.9929813006940185,5.99985891949318,0.15635426595245291,0.03775706211494575
1759830134.0821705,0,3.0517577442878974e-07,5.999997615814209,3.141588796036677,0.0,7.993018634783396,5.999749697231822,0.12320292739125437,0.03830384341741677
1759830134.093113,0,3.0517577442878974e-07,5.999997615814209,3.1415888557557636,0.0,7.99306159654598,5.999645366971461,0.103641097856737,0.03873871122664616
1759830134.1038854,0,3.0517577442878974e-07,5.999997615814209,3.14158892508293,0.0,7.993105324437306,5.99955306596908,0.09482266858816682,0.03908546343990975
1759830134.1153393,0,3.0517577442878974e-07,5.999997615814209,3.141588961732264,0.0,7.993128396915785,5.999453827523817,0.05976028110333834,0.039385469536770266
1759830134.126269,0,3.0517577442878974e-07,5.999997615814209,3.1415890336425694,0.0,7.982012651339255,5.99683610904367,0.038026359820727135,0.12107444857406666
1759830134.1363683,0,3.0517577442878974e-07,5.999997615814209,3.1415891455422305,0.0,7.969460415361038,5.994714090602301,0.02611535356254732,0.18764492703256402
1759830134.1467235,0,3.0517577442878974e-07,5.999997615814209,3.141589232651139,0.0,7.9598506337557815,5.992994593857832,0.02306783964298117,0.24153572893175626
1759830134.1573596,0,3.0517577442878974e-07,5.999997615814209,3.1415892978126614,0.0,7.9507127231089845,5.991594749960561,0.027200564445570313,0.2861201188261175
1759830134.1677256,0,3.0517577442878974e-07,5.999997615814209,3.1415893715226186,0.0,7.942968643557313,5.990505144536112,0.037093976232652176,0.322704674171758
1759830134.1782212,0,3.0517577442878974e-07,5.999997615814209,3.141589435024544,0.0,7.918032533368649,5.98688559488625,0.007834496701299334,0.4396332852984093
1759830134.1885095,0,3.0517577442878974e-07,5.999997615814209,3.141589503607534,0.0,7.899067189718447,5.983815940983984,-0.009050118801279025,0.5326994220821413
1759830134.1987002,0,3.0517577442878974e-07,5.999997615814209,3.141589571161262,0.0,7.8845401111089135,5.98119474627269,-0.01653587199947447,0.6078295531056848
1759830134.2092783,0,3.0517577442878974e-07,5.999997615814209,3.1415896186658685,0.0,7.873410966225782,5.979008615230318,-0.01613211272552116,0.6685849755034248
1759830134.2195625,0,3.0517577442878974e-07,5.999997615814209,3.1415896764791498,0.0,7.86491496547504,5.977262419563662,-0.009458905283298333,0.7178513489029316
1759830134.230307,0,3.0517577442878974e-07,5.999997615814209,3.1415897154763126,0.0,7.857792904360943,5.975667757227324,-0.03135453079855548,0.7597427284006646
1759830134.2407498,0,3.0517577442878974e-07,5.999997615814209,3.1415897665139934,0.0,7.852385685281204,5.9740864296946725,-0.04233834770653276,0.7940198310446537
1759830134.251883,0,3.0517577442878974e-07,5.999997615814209,3.1415897939353634,0.0,7.848281623818072,5.97266351217628,-0.04459709285149575,0.821979777413393
1759830134.2627296,0,3.0517577442878974e-07,5.999997615814209,3.141589835519447,0.0,7.845324719325506,5.971520779592435,-0.03970532044556142,0.8442348820583966
1759830134.2730677,0,3.0517577442878974e-07,5.999997615814209,3.1415898947935155,0.0,7.843236117706631,5.9707122591177955,-0.02934734686882971,0.8620012858103796
1759830134.2837768,0,3.0517577442878974e-07,5.999997615814209,3.1415899387198145,0.0,7.841743676890821,5.970241413999233,-0.01427434346274141,0.8767114679695478
1759830134.2939086,0,3.0517577442878974e-07,5.999997615814209,3.1415899977727815,0.0,7.840107299422544,5.969823833156883,-0.031886553384274194,0.8894934520880794
1759830134.3051922,0,3.0517577442878974e-07,5.999997615814209,3.1415900192244717,0.0,7.839021924999292,5.969260210148899,-0.039007238139937714,0.8996223911906868
1759830134.316721,0,3.0517577442878974e-07,5.999997615814209,3.1415900384008637,0.0,7.838315699708264,5.968736750789066,-0.03761569102264021,0.9079410530218908
1759830134.3279052,0,3.0517577442878974e-07,5.999997615814209,3.1415900736637923,0.0,7.837949355191336,5.968390712927803,-0.029557013719682404,0.9145691953569078
1759830134.3385174,0,3.0517577442878974e-07,5.999997615814209,3.1415901256554477,0.0,7.837817331616109,5.968296445517199,-0.01643814706750556,0.9198664455808725
1759830134.3485527,0,3.0517577442878974e-07,5.999997615814209,3.141590187708795,0.0,7.826433455263945,5.97167446163032,-0.030806079886429295,0.8148540460886444
1759830134.35889,0,3.0517577442878974e-07,5.999997615814209,3.141590234172069,0.0,7.815231846443294,5.974254164661603,-0.035621117062137934,0.7315107773175399
1759830134.3697495,0,3.0517577442878974e-07,5.999997615814209,3.141590263486357,0.0,7.804887525687494,5.9763751353149,-0.03277257464059856,0.6642047222711799
1759830134.3804822,0,3.0517577442878974e-07,5.999997615814209,3.141590295651664,0.0,7.795881678487554,5.978228963140199,-0.02382581517337333,0.6090046479546497
1759830134.3907533,0,3.0517577442878974e-07,5.999997615814209,3.1415903374816985,0.0,7.787457570395512,5.979779578413713,-0.04232956144598617,0.5620414257328182
1759830134.401024,0,3.0517577442878974e-07,5.999997615814209,3.141590375822389,0.0,7.780253171694316,5.9809237725613,-0.050884307948984124,0.5238392926553979
1759830134.4112606,0,3.0517577442878974e-07,5.999997615814209,3.1415904113099753,0.0,7.774281865375653,5.9818155620150595,-0.051434518186728805,0.4935149558133685
1759830134.4221787,0,3.0517577442878974e-07,5.999997615814209,3.1415904307251186,0.0,7.7692700949618825,5.982587514950836,-0.045227012734830145,0.4690261446749246
1759830134.4328244,0,3.0517577442878974e-07,5.999997615814209,3.1415904568052504,0.0,7.765034786028862,5.983318764450244,-0.033580697908844014,0.44895416575224056
1759830134.444227,0,3.0517577442878974e-07,5.999997615814209,3.141590469757654,0.0,7.761551899307453,5.98403737849216,-0.017083089530499328,0.4329225363426541
1759830134.4549294,0,3.0517577442878974e-07,5.999997615814209,3.1415904986981342,0.0,7.758209336558685,5.984687110399161,-0.03054610499948353,0.41906850001046897
1759830134.4659119,0,3.0517577442878974e-07,5.999997615814209,3.1415905227444387,0.0,7.755410062619619,5.985148789742183,-0.03450061764754916,0.4077834009864021
1759830134.4763136,0,3.0517577442878974e-07,5.999997615814209,3.1415905562417166,0.0,7.75313508034254,5.98551771601719,-0.031231001508017962,0.39880380578809554
1759830134.4871416,0,3.0517577442878974e-07,5.999997615814209,3.141590580319427,0.0,7.7512984902845075,5.9858642781192275,-0.021868648935089906,0.3916459261622156
1759830134.4980035,0,3.0517577442878974e-07,5.999997615814209,3.141590603023136,0.0,7.749772301044614,5.986242743084994,-0.0075350332437811515,0.385724640122501
1759830134.5091677,0,3.0517577442878974e-07,5.999997615814209,3.1415906211638642,0.0,7.748227047795355,5.986568096652929,-0.024112365972254655,0.3805995005187433
1759830134.5204334,0,3.0517577442878974e-07,5.999997615814209,3.1415906389969237,0.0,7.746978792500147,5.986743535109738,-0.030256079186943417,0.3764793953681884
1759830134.5319347,0,3.0517577442878974e-07,5.999997615814209,3.1415906550266257,0.0,7.745981689285015,5.986870940133158,-0.02822007269629808,0.3731558221025065
1759830134.5424702,0,3.0517577442878974e-07,5.999997615814209,3.141590685452247,0.0,7.738815213334262,5.9864704906376875,-0.020090243885321234,0.3875532426029817
1759830134.5525198,0,3.0517577442878974e-07,5.999997615814209,3.141590719351811,0.0,7.730860288402885,5.986217650546737,-0.00743692525583558,0.3992251547335225
1759830134.5637915,0,3.0517577442878974e-07,5.999997615814209,3.1415907334056374,0.0,7.713445645317758,5.985415955844482,-0.0293862393105597,0.4270305641283609
1759830134.574777,0,3.0517577442878974e-07,5.999997615814209,3.1415907512340873,0.0,7.698536138494051,5.984617290330494,-0.039936831368898223,0.4493068833525863
1759830134.586247,0,3.0517577442878974e-07,5.999997615814209,3.141590763825725,0.0,7.686643771976442,5.983901661839876,-0.0415266012199062,0.4672582447306911
1759830134.5978296,0,3.0517577442878974e-07,5.999997615814209,3.141590776734935,0.0,7.677168172088659,5.98332569123719,-0.03573970050269151,0.4817596293446626
1759830134.609317,0,3.0517577442878974e-07,5.999997615814209,3.141590792352286,0.0,7.669646602786877,5.982929095826863,-0.023951113772510278,0.4935061381817056
1759830134.6193452,0,3.0517577442878974e-07,5.999997615814209,3.1415908235168395,0.0,7.663097074337401,5.982564459701214,-0.043087358239260715,0.5035278348613863
1759830134.6306953,0,3.0517577442878974e-07,5.999997615814209,3.141590837349309,0.0,7.657957623383414,5.9821199380877506,-0.051335952451114324,0.5116015620646697
1759830134.6410875,0,3.0517577442878974e-07,5.999997615814209,3.1415908598560858,0.0,7.653833561838059,5.981702850012079,-0.05162130494383213,0.5182308220619098
1759830134.6512945,0,3.0517577442878974e-07,5.999997615814209,3.1415908817918208,0.0,7.650587369789677,5.981383758014138,-0.045632790427731273,0.5235911747978554
1759830134.6614285,0,3.0517577442878974e-07,5.999997615814209,3.141590901469769,0.0,7.648028499935338,5.981200524966383,-0.034471372709823284,0.5279907297181721
1759830134.6716666,0,3.0517577442878974e-07,5.999997615814209,3.1415909177176857,0.0,7.645648286059077,5.981022819462542,-0.053318811674461036,0.531732418781509
1759830134.6820636,0,3.0517577442878974e-07,5.999997615814209,3.141590930971031,0.0,7.643806217918732,5.980725356915508,-0.06188289151236309,0.5347384303453429
1759830134.6930916,0,3.0517577442878974e-07,5.999997615814209,3.1415909383314915,0.0,7.64240906960822,5.980430790874199,-0.06216094074595394,0.5371596671508323
1759830134.7035096,0,3.0517577442878974e-07,5.999997615814209,3.1415909514808735,0.0,7.641374994587063,5.980214682925295,-0.05606122799069918,0.5391161285330366
1759830134.717315,0,3.0517577442878974e-07,5.999997615814209,3.1415909388202596,0.0,7.640608635573474,5.980131019310607,-0.04257040160474593,0.5407143340433975
1759830134.725017,0,3.0517577442878974e-07,5.999997615814209,3.141590977509754,0.0,7.640059436776583,5.980215368191673,-0.0268771527792831,0.5419973407875464
1759830134.73595,0,3.0517577442878974e-07,5.999997615814209,3.1415909867040916,0.0,7.639381229872903,5.980315457272931,-0.040622367668930265,0.5430892310967856
1759830134.746663,0,3.0517577442878974e-07,5.999997615814209,3.1415909960328765,0.0,7.635056035242603,5.9808817097285,-0.044728524683627424,0.5254132146308959
1759830134.7572823,0,3.0517577442878974e-07,5.999997615814209,3.141591006095746,0.0,7.630065413474009,5.9813441601369925,-0.0414300126181578,0.5111367929834558
1759830134.7687616,0,3.0517577442878974e-07,5.999997615814209,3.141591010499079,0.0,7.625381489852026,5.98179843110566,-0.0318365859776193,0.499364086619985
1759830134.7787962,0,3.0517577442878974e-07,5.999997615814209,3.141591025192973,0.0,7.621283188531885,5.982293736714817,-0.017804707401558626,0.48959515729522113
1759830134.7899487,0,3.0517577442878974e-07,5.999997615814209,3.1415910318376827,0.0,7.610955683741661,5.9833214271298925,-0.03619000464095193,0.4619547486677445
1759830134.8003092,0,3.0517577442878974e-07,5.999997615814209,3.141591043311495,0.0,7.602401028665389,5.984038663826266,-0.04426680418895437,0.4398285785888666
1759830134.8106568,0,3.0517577442878974e-07,5.999997615814209,3.141591054057608,0.0,7.595332292191803,5.9845971456649485,-0.044540551253288485,0.42197038552659355
1759830134.821699,0,3.0517577442878974e-07,5.999997615814209,3.141591060072477,0.0,7.589533710511577,5.9850857542361595,-0.0380105922210657,0.40753517210658474
1759830134.833227,0,3.0517577442878974e-07,5.999997615814209,3.141591063927269,0.0,7.584769911065748,5.985564124868853,-0.025589629322959828,0.395843754974378
1759830134.8441155,0,3.0517577442878974e-07,5.999997615814209,3.141591072244104,0.0,7.580431765245688,5.985970086302369,-0.04321622963865904,0.38588694844048455
1759830134.8549044,0,3.0517577442878974e-07,5.999997615814209,3.141591081068114,0.0,7.576851903573691,5.986209694461337,-0.05047662462129986,0.37774092856779445
1759830134.8655438,0,3.0517577442878974e-07,5.999997615814209,3.141591090124452,0.0,7.573911744670955,5.986382911731665,-0.049918081150648524,0.371171690528621
1759830134.8760412,0,3.0517577442878974e-07,5.999997615814209,3.1415910991447404,0.0,7.571518314747131,5.986554502721061,-0.043052038843346796,0.3657932402357386
1759830134.887576,0,3.0517577442878974e-07,5.999997615814209,3.1415911028490235,0.0,7.569586923672979,5.986764372965535,-0.030296862836588806,0.3614500876948331
1759830134.897892,0,3.0517577442878974e-07,5.999997615814209,3.1415911123991034,0.0,7.567720761374131,5.986936053899161,-0.0500018680380169,0.3577398823376919
1759830134.908489,0,3.0517577442878974e-07,5.999997615814209,3.1415911200176136,0.0,7.566243737352895,5.986968739937071,-0.05923155400597945,0.354803945012884
1759830134.9252715,0,3.0517577442878974e-07,5.999997615814209,3.1415911030730523,0.0,7.56508545442354,5.986972094560754,-0.056375685457490034,0.3524111228560632
1759830134.9353216,0,3.0517577442878974e-07,5.999997615814209,-3.139583555785854,0.0,7.564157252809073,5.9870129277803485,-0.04797239890153232,0.35047483019109643
1759830134.9461951,0,3.0517577442878974e-07,5.999997615814209,-3.1395521192531524,0.0,7.559057231474486,5.987009334320183,-0.03443443391226622,0.35236398094447197
1759830134.957573,0,3.0517577442878974e-07,5.999997615814209,-3.139518297514445,0.0,7.554985354122376,5.987111102903358,-0.016404361173239984,0.3539189169176831
1759830134.968778,0,3.0517577442878974e-07,5.999997615814209,-3.13949257401913,0.0,7.542385081616594,5.987102403901117,-0.03355503026915198,0.3588046784630932
1759830134.9798715,0,3.0517577442878974e-07,5.999997615814209,-3.1395069301676117,0.0,7.531877969595756,5.98700410137682,-0.040429742514057135,0.36267861190442485
1759830134.9905722,0,3.0517577442878974e-07,5.999997615814209,-3.1394771034310085,0.0,7.523003627056158,5.9868988256431965,-0.03939133618381381,0.3658621972242045
1759830135.0012531,0,3.0517577442878974e-07,5.999997615814209,-3.139466786627154,0.0,7.515994255493194,5.986840105873828,-0.031932502768441465,0.36840074263856054
1759830135.0113957,0,3.0517577442878974e-07,5.999997615814209,-3.139435998473399,0.0,7.510319468244328,5.986860377556735,-0.019585180696134477,0.37046273173611954
1759830135.0214875,0,3.0517577442878974e-07,5.999997615814209,-3.1394754540165484,0.0,7.505221556040726,5.986864394092258,-0.03776768523005693,0.3722476136436298
1759830135.0329316,0,3.0517577442878974e-07,5.999997615814209,-3.139499035417553,0.0,7.501237106897239,5.9867681949338,-0.04525266397072627,0.37366122362100535
1759830135.0439732,0,3.0517577442878974e-07,5.999997615814209,-3.139507596450324,0.0,7.498035840801494,5.986662100172111,-0.044317822326875964,0.3748046732131972
1759830135.0541048,0,3.0517577442878974e-07,5.999997615814209,-3.139550615668756,0.0,7.495474944099128,5.986601625446209,-0.03755010167841922,0.37574820398395625
1759830135.0646994,0,3.0517577442878974e-07,5.999997615814209,-3.139577389355634,0.0,7.493447394579761,5.986618490263351,-0.0254974414712872,0.37651337052712713
1759830135.0750196,0,3.0517577442878974e-07,5.999997615814209,-3.1396060760855127,0.0,7.491545628563747,5.986619353943542,-0.044369599983071065,0.37716635844194396
1759830135.0851643,0,3.0517577442878974e-07,5.999997615814209,-3.1396126237914173,0.0,7.490022161866858,5.986511777323572,-0.053028246917660185,0.37770090348169505
1759830135.095212,0,3.0517577442878974e-07,5.999997615814209,-3.139631653466256,0.0,7.488846026194055,5.986386282467296,-0.05397311417059259,0.37813217917327396
1759830135.105566,0,3.0517577442878974e-07,5.999997615814209,-3.139696870220343,0.0,7.487919884722685,5.986297907473515,-0.0484326835609863,0.37848090933891204
1759830135.122572,0,-0.04628399593335563,5.989791350114084,-3.1396976712377374,0.3246320271231707,7.487255207193084,5.986296502261634,-0.03345690371567624,0.37876145013699597
1759830135.129448,0,-0.0614669410733784,5.989788422670648,-3.1397060974344875,0.3246320271231707,7.4867560547644985,5.986411486780475,-0.017041501982471133,0.3789871646778246
1759830135.1400394,0,-0.06772702801149508,5.989787305144676,-3.1397197314034124,0.3246320271231707,7.486138579969408,5.986518519178113,-0.03406883305778609,0.37918102944634063
1759830135.1501112,0,-0.07005371994388479,5.989786878173214,-3.139748161474738,0.3246320271231707,7.48563772848137,5.98650773271952,-0.041425872130923316,0.37933833108331316
1759830135.161297,0,-0.0651152750418813,5.990757263209534,2.7876298021340293,0.2985829552069961,7.482185866874205,5.986770132829452,-0.04026644647892004,0.37008135690995836
1759830135.1726563,0,-0.06748128981000534,5.99033279234931,2.7522776398371445,0.307403969326744,7.4777115302528845,5.987024805401167,-0.032297252333154405,0.3625026774353474
1759830135.1827648,0,-0.06748393325201037,5.990332770745628,2.752249085781989,0.307403969326744,7.47405969820235,5.987308371306439,-0.019568609974476972,0.35633492628550634
1759830135.1939275,0,-0.067602599860465,5.99033276265455,2.752240638792986,0.307403969326744,7.465472547878404,5.98785123465753,-0.037366623215177835,0.3413248077052516
1759830135.20399,0,-0.06822031521623602,5.990039517180738,2.7665513367539227,0.3104884215311069,7.458353515389184,5.988204703625669,-0.045319315482784665,0.3293438420988334
1759830135.214964,0,-0.0692360588721187,5.989613363195599,2.7839430341324456,0.31519936764988254,7.452435653479421,5.988475649082019,-0.04497533216389097,0.3196175915635791
1759830135.2263339,0,-0.06959277041878643,5.989467087208754,2.791197668117854,0.3168818211360307,7.447625090828136,5.988723719414535,-0.0377436335378421,0.31175674785260354
1759830135.2371647,0,-0.06956001601614599,5.989467086969066,2.7911942423799267,0.3168818211360307,7.443759214341655,5.988985807117599,-0.02518134390717383,0.3054798590949562
1759830135.2476673,0,-0.06971903841450443,5.989357415976316,2.798055799733603,0.3182817996559335,7.440103990116828,5.989204815996813,-0.04595968224714495,0.2999201030955036
1759830135.258621,0,-0.0699136394442215,5.989296466450706,2.801068153884302,0.31947200212383087,7.437215723510999,5.989288519139532,-0.05582072593124326,0.29552177897850335
1759830135.2697296,0,-0.07012986081648905,5.989226073572443,2.8072897732435274,0.32118497004769364,7.434815517431517,5.989329230097022,-0.057069745374135034,0.2918722962878955
1759830135.280913,0,-0.07019740535450156,5.989214414204279,2.8105330948758613,0.32181621158567164,7.432899538956922,5.989375303308196,-0.05119618643438289,0.28893386125452997
1759830135.2911522,0,-0.07012485631913398,5.989218048694505,2.8136996618507437,0.3223199109721063,7.431385962857063,5.989460082848264,-0.04013310281978502,0.28658870156881866
1759830135.3014176,0,-0.07009038198228129,5.989218048625159,2.813717065089293,0.3223199109721063,7.4299533024366555,5.989527152966292,-0.05805650715644977,0.2845970949646686
1759830135.3128521,0,-0.07021691426143334,5.989234847127402,2.817012604421644,0.32272851264605823,7.428802539873788,5.989507761585825,-0.06530378207905536,0.2829933077556096
1759830135.3234699,0,-0.16384364115352862,5.976484811774747,2.816983593131691,0.73164413663803,7.427909002228084,5.9894718319706435,-0.06459732319704511,0.28172089252340554
1759830135.3342557,0,-0.19808778556323892,5.976524492671815,2.81892314995444,0.7321523132356578,7.4271733550717585,5.989463953716108,-0.05753943707158615,0.2806499307447843
1759830135.34558,0,-0.21131074133226244,5.9765236031800715,2.8189584778191272,0.7321523132356578,7.4266152300063215,5.9895096847922575,-0.04486503726032923,0.2797964551649404
1759830135.356875,0,-0.21762252622737,5.976406426178789,2.821088650541498,0.7364261688509757,7.422218585660101,5.9894379564939335,-0.027540242809330207,0.2850207153455859
1759830135.3671463,0,-0.21927475128743062,5.976406295983393,2.8210720862837517,0.7364261688509757,7.411769779095797,5.989193633755676,-0.044982385195892205,0.29563087478276256
1759830135.3772347,0,-0.2246451406735351,5.975995830367276,2.8198983815796645,0.7506518685537249,7.401586259002441,5.98891422262965,-0.05237123547952932,0.3040905296521091
1759830135.3874733,0,-0.2266045251807283,5.9758260324661086,2.8204656821035297,0.7556589547985035,7.39327455669119,5.9886570405025905,-0.05216506798434218,0.3109209829050699
1759830135.3986518,0,-0.22831533541150217,5.975681903790585,2.8215443711286925,0.759788574764256,7.3865778677154665,5.9884615748661,-0.04517108017731692,0.31644229314880146
1759830135.4092278,0,-0.22935290803577466,5.975568522913541,2.8230601411455094,0.7631362072395658,7.381203088313666,5.988355260016212,-0.032971580892298076,0.3209198462165897
1759830135.4194255,0,-0.2292413726638693,5.975568521652475,2.823067530355036,0.7631362072395658,7.376524470687427,5.988258797133745,-0.04840572587313307,0.3247291123562225
1759830135.4309142,0,-0.2311578616966205,5.975409563403177,2.821297947847475,0.7682999497662708,7.372717080235368,5.988105494918665,-0.053488499718051516,0.32784389482840076
1759830135.4410033,0,-0.23089898822548918,5.975409562859927,2.821298247694449,0.7682999497662708,7.369746089978539,5.987967172229153,-0.05135155482842334,0.3303201349612852
1759830135.4517937,0,-0.23194643397826212,5.975272192080285,2.8229363471948714,0.7716550052904706,7.367333615702495,5.987882652461969,-0.04317399863715364,0.3323606557066947
1759830135.4619956,0,-0.23182285742456646,5.97527219186098,2.8229240109760356,0.7716550052904706,7.365461208720736,5.987879835465062,-0.03025156298905761,0.3339906605409835
1759830135.472682,0,-0.23227673745016653,5.975239966151452,2.8212582902074006,0.7729376551057944,7.364000816464969,5.987972419461787,-0.013119446801749075,0.3353195833559386
1759830135.4834201,0,-0.2323220855431213,5.975239966192166,2.8212710403156316,0.7729376551057944,7.362569826572755,5.988054435195935,-0.03221252889791225,0.3364662369083621
1759830135.4943306,0,-0.23288572614172734,5.975137131206969,2.821076053218331,0.7748241367356026,7.361421862386665,5.988023967681784,-0.040361670839067644,0.33742418757330284
1759830135.5051038,0,-0.2330260779215564,5.975097065581797,2.8221191146857807,0.7754916808533956,7.360519079054516,5.987969842145395,-0.04043043980896339,0.33819661600990225
1759830135.5160692,0,-0.23318452864213138,5.97507567167377,2.8236767793601643,0.776042934046227,7.359851628761599,5.987944980703183,-0.03377499308422743,0.3388212057896963
1759830135.5287368,0,-0.34690397346111834,5.96944825275937,2.8225436907620374,0.9562050651509358,7.35934741520134,5.987987909469014,-0.02053253438624124,0.3393265377229448
1759830135.5390165,0,-0.38880539951273135,5.969447239243758,2.822533849553431,0.9562050651509358,7.358749676375587,5.988012414087959,-0.040481217840602025,0.3397593957951247
1759830135.5494533,0,-0.40495017682020684,5.969435326479795,2.822255956301661,0.9565859983291747,7.358326183531343,5.987928867331612,-0.04992801134333704,0.34010834486306013
1759830135.559498,0,-0.4125572544453599,5.969359355368966,2.8233390134982157,0.958686914823373,7.35340085982408,5.987670703616703,-0.05137826630667299,0.3451738373294115
1759830135.5708766,0,-0.41673428014841946,5.969308385475355,2.824832068088289,0.9603906863258034,7.347893088571615,5.987468474804382,-0.04572357056827116,0.3492633177388694
1759830135.5821986,0,-0.42088429623418533,5.969234810616101,2.823372927613649,0.9637070764812236,7.342875659001485,5.987358338291874,-0.03395841751053878,0.3525820864308814
1759830135.593113,0,-0.42113983438353975,5.969234802241343,2.8233921477005555,0.9637070764812236,7.330850592239948,5.9870947870733495,-0.05116053447256346,0.3604462657898226
1759830135.6045785,0,-0.42600869800410146,5.969068349392667,2.823542898570831,0.9685117653249091,7.32081900512472,5.9867806673162525,-0.057870476117090335,0.36686748943114206
1759830135.6156871,0,-0.42599675943831133,5.969068348089031,2.823538114232522,0.9685117653249091,7.312949591128777,5.986500441645561,-0.05641793132969568,0.3719614521210184
1759830135.6261294,0,-0.4273577146436702,5.96900742191223,2.824748033052634,0.9702173445161673,7.306703851346808,5.986300689450767,-0.04881533233555096,0.37601535631488814
1759830135.637732,0,-0.4290793097193467,5.968978665047737,2.8232202870453564,0.9717114858342931,7.301650901351474,5.986207905361566,-0.03557955405636414,0.3793086180931132
1759830135.6483314,0,-0.42885761216756374,5.968978664655399,2.8232519992529097,0.9717114858342931,7.297220405248136,5.986131587296815,-0.051706009162901016,0.38210868695808664
1759830135.6592677,0,-0.43087356620019557,5.968874365063473,2.8231448878757033,0.9738641972669269,7.293606292991484,5.985973719061583,-0.057651621253701484,0.3844480567591945
1759830135.669535,0,-0.43136145790921004,5.968834880752952,2.8241691527586115,0.9746574926415126,7.290740637158671,5.9858218769014995,-0.05632468344248903,0.3863570363229137
1759830135.6810539,0,-0.4317006337082494,5.96883488119967,2.824151630259917,0.9746574926415126,7.288523987185741,5.985730061380542,-0.04815970450946782,0.38787469883768827
1759830135.6917768,0,-0.43218967806159464,5.968824514690732,2.8224552773227445,0.9753291440742511,7.286797890265981,5.985733236226103,-0.03494304328632602,0.38908537496814677
1759830135.7030718,0,-0.43282028091887215,5.968784435428797,2.8218066322078705,0.9758682642282325,7.2854483452906615,5.985848430350258,-0.017140688053106305,0.3900869745308099
1759830135.7135334,0,-0.432593320774222,5.968784435104239,2.8218013494192715,0.9758682642282325,7.284085373068452,5.985958203655937,-0.03542240511143407,0.3909493636101307
1759830135.7270017,0,-0.551421785838444,5.967191828502405,2.8229995727501582,1.0248489160518428,7.28303125974101,5.985946312006158,-0.041409155305820004,0.39165228482820424
1759830135.7339873,0,-0.5942854188937379,5.9671765681178845,2.8244676700196534,1.0251281730976773,7.282215334160333,5.985909658482288,-0.04208125684482826,0.3922217491917821
1759830135.7453692,0,-0.6144380199259933,5.967179805093493,2.8227417095379868,1.025896317201935,7.281617059489056,5.9858986498620395,-0.03557809072894507,0.392674624529791
1759830135.7558117,0,-0.6209229418374107,5.967179745948762,2.822768768378772,1.025896317201935,7.281188401659861,5.985957367745785,-0.02384841907300949,0.3930360466989895
1759830135.7660208,0,-0.6233171699233327,5.967179723237254,2.822788607603924,1.025896317201935,7.271053662715747,5.98574209192761,-0.03842251510828363,0.4014820752118211
1759830135.7767367,0,-0.6307029476659756,5.967088970825775,2.8230110961435173,1.0278548265491771,7.255637817113837,5.985250706587151,-0.04327945324507204,0.4155353373021551
1759830135.7871542,0,-0.6333402639750763,5.967059064638002,2.8242084823786464,1.0285478064424542,7.242659509431584,5.984832796049788,-0.04088703383382495,0.4267831088960582
1759830135.7981908,0,-0.633679100806585,5.967059063644274,2.824197315494211,1.0285478064424542,7.232476640733208,5.984534182872669,-0.03213083857020417,0.4357327857331784
1759830135.8094792,0,-0.6375142106349634,5.967083096657567,2.8243801082094584,1.0296180668244752,7.2237814109416245,5.984376295545284,-0.01807777295341282,0.4431215521727012
1759830135.8209493,0,-0.6376621976024835,5.967083096641393,2.824349058847491,1.0296180668244752,7.216208404431635,5.984233432414021,-0.03759269301606819,0.4494289903930097
1759830135.8318415,0,-0.6399740934209243,5.967064638237524,2.8241429648406156,1.0303442677132457,7.210111301453026,5.983980613468096,-0.04623928557315438,0.4545816393519232
1759830135.8421881,0,-0.6397238938885803,5.967064637856482,2.8241657907039146,1.0303442677132457,7.205355536523476,5.98372924882139,-0.04678715907373413,0.4586712648198935
1759830135.8526955,0,-0.6405565022391781,5.967056176195261,2.8250904419131344,1.030607732200611,7.201498664265877,5.983541804501474,-0.041017860127329116,0.4620384072922887
1759830135.864248,0,-0.6423013986461013,5.967046683678531,2.8223099936266687,1.0310082201670407,7.19847557794911,5.983462993387681,-0.029216592902514972,0.46476129306928304
1759830135.875106,0,-0.6421910378220854,5.967046683519639,2.822321827560548,1.0310082201670407,7.196138672670975,5.983524691422931,-0.012919142413979436,0.46693769995130074
1759830135.8852255,0,-0.6418868933677557,5.967046683096985,2.822311855666084,1.0310082201670407,7.193925243015273,5.983587046197065,-0.029509448328952564,0.46880264247117504
1759830135.895919,0,-0.642845262211899,5.966978084903728,2.8231212360818048,1.0312715521014613,7.192123898681312,5.983521871370262,-0.0358309964987352,0.4703626850425762
1759830135.9061856,0,-0.6430074676960772,5.966964708744991,2.824543463461552,1.0313643053720571,7.190691607852022,5.983442266847156,-0.03471419485776337,0.4716214718338787
1759830135.9163618,0,-0.6432128097243874,5.966986098901233,2.823080239084215,1.0314432348183227,7.189636243947301,5.983413266052419,-0.02750207341385339,0.4726246534200021
1759830135.9291935,0,-0.7694690571333459,5.965048514218997,2.822724332233956,1.0928904920409446,7.188815751860155,5.983482943762211,-0.01374819819652232,0.4734515807003578
1759830135.9406936,0,-0.8168717195091735,5.965048210234464,2.822721016965533,1.0928904920409446,7.187894286724538,5.983532128692251,-0.03206091361339212,0.47415823191246753
1759830135.9516468,0,-0.8349391402049599,5.965029562237029,2.823061414826989,1.0929436801283323,7.187242690852569,5.9834434757475075,-0.03986276020371618,0.47472762079481523
1759830135.9630446,0,-0.8433276968935667,5.964998923653172,2.824018984548198,1.093600515593487,7.186775984313909,5.983335678380671,-0.038935902619756164,0.47518752835342615
1759830135.9737117,0,-0.8495596601656582,5.964976134642611,2.8224877613332233,1.0948019797331,7.1797523644617,5.9831066502255,-0.03176488273131987,0.4811708929395208
1759830135.9842334,0,-0.8536187877109546,5.964926289362195,2.821912972958672,1.0957546642211764,7.171755678883146,5.983007122472172,-0.019442732763461847,0.48601859796989244
1759830135.9943562,0,-0.8564593813489837,5.964871599016417,2.8221374997100397,1.0965288154604238,7.164325672918144,5.983056033185871,-0.0030713390751789024,0.4900272695290488
1759830136.0055907,0,-0.8590905586870944,5.964828730386972,2.8229572471423374,1.097154854285399,7.146371915155299,5.982918071519467,-0.01942551210650546,0.4993000120378789
1759830136.0164042,0,-0.8608343050246864,5.964806515389403,2.8243117827687243,1.0976615521260478,7.132033103501091,5.982690177878104,-0.02564329039822656,0.5066919089953456
1759830136.026798,0,-0.8621861023359103,5.9648207930765995,2.8227778967843444,1.0980919129205753,7.120688864093696,5.98247812865185,-0.02418075478769778,0.5125695537208776
1759830136.0373147,0,-0.8633896085531341,5.9647996906345355,2.8224130218642376,1.0984431704861604,7.11137792244145,5.982346364698184,-0.01668334087794888,0.517419537876234
1759830136.0477877,0,-0.8643314141500186,5.964773007548721,2.8227667594684664,1.098726316841167,7.103930305263205,5.9823383289442384,-0.004074196907097383,0.5213534518070361
1759830136.0591202,0,-0.8646486436720519,5.96477300796395,2.822804883953485,1.098726316841167,7.097290589511555,5.982288704578069,-0.02630448407772774,0.5247320315116886
1759830136.070511,0,-0.8655587526638401,5.964755858506623,2.8239297778047727,1.0989574750911146,7.091915960554722,5.982071199602615,-0.03681203953470914,0.527489884896222
1759830136.081482,0,-0.8660499833581301,5.964762432904094,2.825568017016713,1.0991420923075228,7.087754233441552,5.981828498094599,-0.03844690343043668,0.5296767040258324
1759830136.0931334,0,-0.8668193411640915,5.9648056120119755,2.824391342269259,1.099298836564928,7.0844350051926135,5.98165073546728,-0.032768429729262596,0.5314472383710885
1759830136.1034374,0,-0.8668323933306078,5.964815454765389,2.8241726048186004,1.0994273163798067,7.081795596106755,5.981586988308062,-0.021913025552234632,0.5329088667245115
1759830136.114016,0,-0.8671176069079299,5.964817963879165,2.824684933309091,1.0995311124344145,7.079743057971742,5.981669484973077,-0.006485221335432124,0.5340950831359081
1759830136.1266277,0,-0.9998295291819155,5.960834204864475,2.825747834209455,1.2269026254539903,7.077750020660495,5.981750394448186,-0.021327261500372518,0.5351206576885186
1759830136.1359754,0,-1.0488125068066376,5.9608714641545335,2.823919917630531,1.2269741529853584,7.076209492216281,5.981700434801536,-0.02741672850766653,0.5359352761478179
