timestamp,vehicle_id,x,y,theta,velocity,gps_available,dt,gps_x,gps_y,gps_theta,gps_velocity,control_steering,control_acceleration
1759830131.9166756,1,8.0,6.0,-0.05483113549895435,0.0,False,0.01,nan,nan,nan,nan,0.0,0.0
1759830131.9271808,1,8.0,6.0,-0.05483113549895435,0.0,False,0.010505199432373047,nan,nan,nan,nan,0.0,0.0
1759830131.938028,1,8.0,6.0,-0.05483113549895435,0.0,False,0.010847330093383789,nan,nan,nan,nan,0.0,0.0
1759830131.949344,1,8.0,6.0,-0.05483113549895435,0.0,False,0.01131582260131836,nan,nan,nan,nan,0.0,0.0
1759830131.9602077,1,8.0,6.0,-0.05483113549895435,0.0,False,0.010863780975341797,nan,nan,nan,nan,0.0,0.0
1759830131.970258,1,8.0,6.0,-0.05483113549895435,0.0,False,0.010050296783447266,nan,nan,nan,nan,0.0,0.0
1759830131.9803019,1,8.0,6.0,-0.05483113549895435,0.0,False,0.010043859481811523,nan,nan,nan,nan,0.0,0.0
1759830131.9917696,1,8.0,6.0,-0.05483113549895435,0.0,False,0.011467695236206055,nan,nan,nan,nan,0.0,0.0
1759830132.0020072,1,8.0,6.0,-0.05483113549895435,0.0,False,0.010237693786621094,nan,nan,nan,nan,0.0,0.0
1759830132.0125318,1,8.0,6.0,-0.05483113549895435,0.0,False,0.010524511337280273,nan,nan,nan,nan,0.0,0.0
1759830132.023051,1,8.0,6.0,-0.05483113549895435,0.0,False,0.010519266128540039,nan,nan,nan,nan,0.0,0.0
1759830132.0335033,1,8.0,6.0,-0.05483113549895435,0.0,False,0.0104522705078125,nan,nan,nan,nan,0.0,0.0
1759830132.043685,1,8.0,6.0,-0.05483113549895435,0.0,False,0.010181665420532227,nan,nan,nan,nan,0.0,0.0
1759830132.0539346,1,8.0,6.0,-0.05483113549895435,0.0,False,0.010249614715576172,nan,nan,nan,nan,0.0,0.0
1759830132.0640404,1,8.0,6.0,-0.05483113549895435,0.0,False,0.01010584831237793,nan,nan,nan,nan,0.0,0.0
1759830132.074054,1,8.0,6.0,-0.05483113549895435,0.0,False,0.010013580322265625,nan,nan,nan,nan,0.0,0.0
1759830132.085787,1,8.0,6.0,-0.05483113549895435,0.0,False,0.011733055114746094,nan,nan,nan,nan,0.0,0.0
1759830132.0962331,1,8.0,6.0,-0.05483113549895435,0.0,False,0.01044607162475586,nan,nan,nan,nan,0.0,0.0
1759830132.1108851,1,8.0,6.0,-2.8798456282656097,0.0,True,0.014652013778686523,8.0,6.0,3.1415915489196777,0.0,0.0,0.0
1759830132.11767,1,8.0,6.0,-3.1201298646096607,0.0,True,0.006784915924072266,8.0,6.0,3.1415915489196777,0.0,0.0,0.0
1759830132.127724,1,8.0,6.0,3.140008444533688,0.0,True,0.010053873062133789,8.0,6.0,3.1415915489196777,0.0,0.0,0.0
1759830132.1390476,1,8.0,6.0,3.1364083328853063,0.0,True,0.011323690414428711,8.0,6.0,3.1415915489196777,0.0,0.0,0.0
1759830132.1501777,1,8.0,6.0,3.135853774635569,0.0,True,0.011130094528198242,8.0,6.0,3.1415915489196777,0.0,0.0,0.0
1759830132.1616015,1,8.0,6.0,3.1361637696002678,0.0,True,0.011423826217651367,8.0,6.0,3.1415915489196777,0.0,0.0,0.0
1759830132.171927,1,8.0,6.0,3.136861745499232,0.0,True,0.010325431823730469,8.0,6.0,3.1415915489196777,0.0,0.0,0.0
1759830132.1826196,1,8.0,6.0,3.1374730481666973,0.0,True,0.010692596435546875,8.0,6.0,3.1415915489196777,0.0,0.0,0.0
1759830132.1940746,1,8.0,6.0,3.1379599634200996,0.0,True,0.011455059051513672,8.0,6.0,3.1415915489196777,0.0,0.0,0.0
1759830132.2054045,1,8.0,6.0,3.1384086972827845,0.0,True,0.011329889297485352,8.0,6.0,3.1415915489196777,0.0,0.0,0.0
1759830132.2157125,1,8.0,6.0,3.1388426320162512,0.0,True,0.010308027267456055,8.0,6.0,3.1415915489196777,0.0,0.0,0.0
1759830132.2268534,1,8.0,6.0,3.139146716802312,0.0,True,0.011140823364257812,8.0,6.0,3.1415915489196777,0.0,0.0,0.0
1759830132.2377675,1,8.0,6.0,3.139411358113268,0.0,True,0.010914087295532227,8.0,6.0,3.1415915489196777,0.0,0.0,0.0
1759830132.248088,1,8.0,6.0,3.1396543958722134,0.0,True,0.010320425033569336,8.0,6.0,3.1415915489196777,0.0,0.0,0.0
1759830132.259275,1,8.0,6.0,3.1398225071631156,0.0,True,0.011187076568603516,8.0,6.0,3.1415915489196777,0.0,0.0,0.0
1759830132.2695653,1,8.0,6.0,3.13999686108143,0.0,True,0.010290384292602539,8.0,6.0,3.1415915489196777,0.0,0.0,0.0
1759830132.2797978,1,8.0,6.0,3.140143075914718,0.0,True,0.01023244857788086,8.0,6.0,3.1415915489196777,0.0,0.0,0.0
1759830132.291156,1,8.0,6.0,3.140234597459127,0.0,True,0.011358261108398438,8.0,6.0,3.1415915489196777,0.0,0.0,0.0
1759830132.302633,1,8.0,6.0,3.1403180598752645,0.0,True,0.011476993560791016,8.0,6.0,3.1415915489196777,0.0,0.0,0.0
1759830132.312833,1,8.0,6.0,3.140427670606183,0.0,True,0.010200023651123047,8.0,6.0,3.1415915489196777,0.0,0.0,0.0
1759830132.3243346,1,8.0,6.0,3.140492532228528,0.0,True,0.011501550674438477,8.0,6.0,3.1415915489196777,0.0,0.0,0.0
1759830132.3357773,1,8.0,6.0,3.1405552575841504,0.0,True,0.01144266128540039,8.0,6.0,3.1415915489196777,0.0,0.0,0.0
1759830132.3469722,1,8.0,6.0,3.1406201472023305,0.0,True,0.011194944381713867,8.0,6.0,3.1415915489196777,0.0,0.0,0.0
1759830132.357818,1,8.0,6.0,3.140685897308444,0.0,True,0.010845661163330078,8.0,6.0,3.1415915489196777,0.0,0.0,0.0
1759830132.3689537,1,8.0,6.0,3.1407390071542594,0.0,True,0.01113581657409668,8.0,6.0,3.1415915489196777,0.0,0.0,0.0
1759830132.379051,1,8.0,6.0,3.1408035866087296,0.0,True,0.010097265243530273,8.0,6.0,3.1415915489196777,0.0,0.0,0.0
1759830132.3901186,1,8.0,6.0,3.1408433076888507,0.0,True,0.011067628860473633,8.0,6.0,3.1415915489196777,0.0,0.0,0.0
1759830132.4016669,1,8.0,6.0,3.1408728007659796,0.0,True,0.011548280715942383,8.0,6.0,3.1415915489196777,0.0,0.0,0.0
1759830132.4129384,1,8.0,6.0,3.140906787092714,0.0,True,0.011271476745605469,8.0,6.0,3.1415915489196777,0.0,0.0,0.0
1759830132.4243624,1,8.0,6.0,3.140937810199439,0.0,True,0.011424064636230469,8.0,6.0,3.1415915489196777,0.0,0.0,0.0
1759830132.4358687,1,8.0,6.0,3.1409669355789216,0.0,True,0.011506319046020508,8.0,6.0,3.1415915489196777,0.0,0.0,0.0
1759830132.447429,1,8.0,6.0,3.1409947215331933,0.0,True,0.011560201644897461,8.0,6.0,3.1415915489196777,0.0,0.0,0.0
1759830132.4586346,1,8.0,6.0,3.1410256782584867,0.0,True,0.011205673217773438,8.0,6.0,3.1415915489196777,0.0,0.0,0.0
1759830132.470044,1,8.0,6.0,3.1410520832424,0.0,True,0.011409282684326172,8.0,6.0,3.1415915489196777,0.0,0.0,0.0
1759830132.4801257,1,8.0,6.0,3.1410902577362396,0.0,True,0.010081768035888672,8.0,6.0,3.1415915489196777,0.0,0.0,0.0
1759830132.4905984,1,8.0,6.0,3.141118590294006,0.0,True,0.010472774505615234,8.0,6.0,3.1415915489196777,0.0,0.0,0.0
1759830132.5012991,1,8.0,6.0,3.141140586546504,0.0,True,0.010700702667236328,8.0,6.0,3.1415915489196777,0.0,0.0,0.0
1759830132.5116873,1,8.0,6.0,3.1411632306961277,0.0,True,0.01038813591003418,8.0,6.0,3.1415915489196777,0.0,0.0,0.0
1759830132.5232387,1,8.0,6.0,3.141173350776615,0.0,True,0.011551380157470703,8.0,6.0,3.1415915489196777,0.0,0.0,0.0
1759830132.5345454,1,8.0,6.0,3.1411867516361127,0.0,True,0.0113067626953125,8.0,6.0,3.1415915489196777,0.0,0.0,0.0
1759830132.545519,1,8.0,6.0,3.141203559411485,0.0,True,0.010973691940307617,8.0,6.0,3.1415915489196777,0.0,0.0,0.0
1759830132.5558672,1,8.0,6.0,3.1412244333869914,0.0,True,0.010348081588745117,8.0,6.0,3.1415915489196777,0.0,0.0,0.0
1759830132.5658798,1,8.0,6.0,3.1412452831516333,0.0,True,0.010012626647949219,8.0,6.0,3.1415915489196777,0.0,0.0,0.0
1759830132.57719,1,8.0,6.0,3.1412538024449894,0.0,True,0.011310100555419922,8.0,6.0,3.1415915489196777,0.0,0.0,0.0
1759830132.5873816,1,8.0,6.0,3.141270441443478,0.0,True,0.010191679000854492,8.0,6.0,3.1415915489196777,0.0,0.0,0.0
1759830132.5976508,1,8.0,6.0,3.141285022163908,0.0,True,0.0102691650390625,8.0,6.0,3.1415915489196777,0.0,0.0,0.0
1759830132.6082869,1,8.0,6.0,3.1412956460011383,0.0,True,0.010636091232299805,8.0,6.0,3.1415915489196777,0.0,0.0,0.0
1759830132.619866,1,8.0,6.0,3.1412999928291505,0.0,True,0.011579036712646484,8.0,6.0,3.1415915489196777,0.0,0.0,0.0
1759830132.6301222,1,8.0,6.0,3.1413137564678006,0.0,True,0.010256290435791016,8.0,6.0,3.1415915489196777,0.0,0.0,0.0
1759830132.6403618,1,8.0,6.0,3.1413265872069562,0.0,True,0.010239601135253906,8.0,6.0,3.1415915489196777,0.0,0.0,0.0
1759830132.6513,1,8.0,6.0,3.141334101300597,0.0,True,0.010938167572021484,8.0,6.0,3.1415915489196777,0.0,0.0,0.0
1759830132.6627471,1,8.0,6.0,3.141338974302796,0.0,True,0.01144719123840332,8.0,6.0,3.1415915489196777,0.0,0.0,0.0
1759830132.6741276,1,8.0,6.0,3.1413453205707373,0.0,True,0.011380434036254883,8.0,6.0,3.1415915489196777,0.0,0.0,0.0
1759830132.6856072,1,8.0,6.0,3.1413520028340187,0.0,True,0.011479616165161133,8.0,6.0,3.1415915489196777,0.0,0.0,0.0
1759830132.6961236,1,8.0,6.0,3.141363816693392,0.0,True,0.01051640510559082,8.0,6.0,3.1415915489196777,0.0,0.0,0.0
1759830132.7061837,1,8.0,6.0,3.1413765886670966,0.0,True,0.01006007194519043,8.0,6.0,3.1415915489196777,0.0,0.0,0.0
1759830132.7179625,1,8.0,6.0,3.141379909573093,0.0,True,0.011778831481933594,8.0,6.0,3.1415915489196777,0.0,0.0,0.0
1759830132.7293613,1,8.0,6.0,3.141385657633391,0.0,True,0.011398792266845703,8.0,6.0,3.1415915489196777,0.0,0.0,0.0
1759830132.7393715,1,8.0,6.0,3.141397631706173,0.0,True,0.010010242462158203,8.0,6.0,3.1415915489196777,0.0,0.0,0.0
1759830132.7500114,1,8.0,6.0,3.1414055570159416,0.0,True,0.01063990592956543,8.0,6.0,3.1415915489196777,0.0,0.0,0.0
1759830132.7603898,1,8.0,6.0,3.14141362494272,0.0,True,0.010378360748291016,8.0,6.0,3.1415915489196777,0.0,0.0,0.0
1759830132.77064,1,8.0,6.0,3.141421369684375,0.0,True,0.010250091552734375,8.0,6.0,3.1415915489196777,0.0,0.0,0.0
1759830132.7813828,1,8.0,6.0,3.141426531402729,0.0,True,0.010742902755737305,8.0,6.0,3.1415915489196777,0.0,0.0,0.0
1759830132.7920794,1,8.0,6.0,3.1414317265859797,0.0,True,0.010696649551391602,8.0,6.0,3.1415915489196777,0.0,0.0,0.0
1759830132.8021107,1,8.0,6.0,3.14143909143786,0.0,True,0.01003122329711914,8.0,6.0,3.1415915489196777,0.0,0.0,0.0
1759830132.813239,1,8.0,6.0,3.141442148845252,0.0,True,0.011128425598144531,8.0,6.0,3.1415915489196777,0.0,0.0,0.0
1759830132.8239021,1,8.0,6.0,3.1414469811727344,0.0,True,0.010663032531738281,8.0,6.0,3.1415915489196777,0.0,0.0,0.0
1759830132.83546,1,8.0,6.0,3.1414491428453566,0.0,True,0.011557817459106445,8.0,6.0,3.1415915489196777,0.0,0.0,0.0
1759830132.846112,1,8.0,6.0,3.141454623005558,0.0,True,0.01065206527709961,8.0,6.0,3.1415915489196777,0.0,0.0,0.0
1759830132.8572006,1,8.0,6.0,3.1414587134899215,0.0,True,0.01108860969543457,8.0,6.0,3.1415915489196777,0.0,0.0,0.0
1759830132.868838,1,8.0,6.0,3.1414613471270165,0.0,True,0.011637449264526367,8.0,6.0,3.1415915489196777,0.0,0.0,0.0
1759830132.87912,1,8.0,6.0,3.1414679964197543,0.0,True,0.010282039642333984,8.0,6.0,3.1415915489196777,0.0,0.0,0.0
1759830132.8904881,1,8.0,6.0,3.1414712582899558,0.0,True,0.011368036270141602,8.0,6.0,3.1415915489196777,0.0,0.0,0.0
1759830132.9018338,1,8.0,6.0,3.1414746379344294,0.0,True,0.011345624923706055,8.0,6.0,3.1415915489196777,0.0,0.0,0.0
1759830132.9167786,1,8.0,6.0,3.141469976431729,0.0,True,0.014944791793823242,8.0,6.0,3.1415915489196777,0.0,0.0,0.0
1759830132.9274929,1,8.0,6.0,3.1414774181052536,0.0,True,0.010714292526245117,8.0,6.0,3.1415915489196777,0.0,0.0,0.0
1759830132.9389756,1,8.0,6.0,3.141482728930848,0.0,True,0.011482715606689453,8.0,6.0,3.1415915489196777,0.0,0.0,0.0
1759830132.9502099,1,8.0,6.0,3.141487942413068,0.0,True,0.011234283447265625,8.0,6.0,3.1415915489196777,0.0,0.0,0.0
1759830132.9602413,1,8.0,6.0,3.1414949673823624,0.0,True,0.010031461715698242,8.0,6.0,3.1415915489196777,0.0,0.0,0.0
1759830132.9711173,1,8.0,6.0,3.141499187602033,0.0,True,0.010875940322875977,8.0,6.0,3.1415915489196777,0.0,0.0,0.0
1759830132.9825704,1,8.0,6.0,3.141501793349459,0.0,True,0.01145315170288086,8.0,6.0,3.1415915489196777,0.0,0.0,0.0
1759830132.9939594,1,8.0,6.0,3.1415045511840436,0.0,True,0.011389017105102539,8.0,6.0,3.1415915489196777,0.0,0.0,0.0
1759830133.005412,1,8.0,6.0,3.141507258547392,0.0,True,0.011452674865722656,8.0,6.0,3.1415915489196777,0.0,0.0,0.0
1759830133.0167344,1,8.0,6.0,3.141510220134098,0.0,True,0.011322259902954102,8.0,6.0,3.1415915489196777,0.0,0.0,0.0
1759830133.0270853,1,8.0,6.0,3.1415146551189554,0.0,True,0.010350942611694336,8.0,6.0,3.1415915489196777,0.0,0.0,0.0
1759830133.0372756,1,8.0,6.0,3.141518762691799,0.0,True,0.010190248489379883,8.0,6.0,3.1415915489196777,0.0,0.0,0.0
1759830133.0473433,1,8.0,6.0,3.1415224266151114,0.0,True,0.01006770133972168,8.0,6.0,3.1415915489196777,0.0,0.0,0.0
1759830133.0577853,1,8.0,6.0,3.1415250078754653,0.0,True,0.010442018508911133,8.0,6.0,3.1415915489196777,0.0,0.0,0.0
1759830133.069222,1,8.0,6.0,3.141525951099794,0.0,True,0.011436700820922852,8.0,6.0,3.1415915489196777,0.0,0.0,0.0
1759830133.080487,1,8.0,6.0,3.14152740886637,0.0,True,0.011265039443969727,8.0,6.0,3.1415915489196777,0.0,0.0,0.0
1759830133.0919104,1,8.0,6.0,3.1415288875253253,0.0,True,0.011423349380493164,8.0,6.0,3.1415915489196777,0.0,0.0,0.0
1759830133.1021564,1,8.0,6.0,3.1415320304145133,0.0,True,0.010246038436889648,8.0,6.0,3.1415915489196777,0.0,0.0,0.0
1759830133.1149304,1,8.0,6.0,3.141531785527782,0.0,True,0.012773990631103516,8.0,6.0,3.1415915489196777,0.0,0.0,0.0
1759830133.125216,1,8.0,6.0,3.141535021681399,0.0,True,0.010285615921020508,8.0,6.0,3.1415915489196777,0.0,0.0,0.0
1759830133.1362565,1,8.0,6.0,3.141537125330334,0.0,True,0.011040449142456055,8.0,6.0,3.1415915489196777,0.0,0.0,0.0
1759830133.1464071,1,8.0,6.0,3.1415400225749153,0.0,True,0.010150671005249023,8.0,6.0,3.1415915489196777,0.0,0.0,0.0
1759830133.1573107,1,8.0,6.0,3.141541741976905,0.0,True,0.010903596878051758,8.0,6.0,3.1415915489196777,0.0,0.0,0.0
1759830133.1689725,1,8.0,6.0,3.141542578125346,0.0,True,0.011661767959594727,8.0,6.0,3.1415915489196777,0.0,0.0,0.0
1759830133.1798527,1,8.0,6.0,3.1415443862190155,0.0,True,0.010880231857299805,8.0,6.0,3.1415915489196777,0.0,0.0,0.0
1759830133.1912534,1,8.0,6.0,3.1415456591057147,0.0,True,0.011400699615478516,8.0,6.0,3.1415915489196777,0.0,0.0,0.0
1759830133.202431,1,8.0,6.0,3.141547184739901,0.0,True,0.011177539825439453,8.0,6.0,3.1415915489196777,0.0,0.0,0.0
1759830133.2138941,1,8.0,6.0,3.141548450397096,0.0,True,0.011463165283203125,8.0,6.0,3.1415915489196777,0.0,0.0,0.0
1759830133.2243714,1,8.0,6.0,3.141550592665679,0.0,True,0.010477304458618164,8.0,6.0,3.1415915489196777,0.0,0.0,0.0
1759830133.2356627,1,8.0,6.0,3.141551839532344,0.0,True,0.011291265487670898,8.0,6.0,3.1415915489196777,0.0,0.0,0.0
1759830133.2470965,1,8.0,6.0,3.141552942533817,0.0,True,0.011433839797973633,8.0,6.0,3.1415915489196777,0.0,0.0,0.0
1759830133.257445,1,8.0,6.0,3.1415549218406724,0.0,True,0.01034855842590332,8.0,6.0,3.1415915489196777,0.0,0.0,0.0
1759830133.2674534,1,8.0,6.0,3.1415569289588525,0.0,True,0.01000833511352539,8.0,6.0,3.1415915489196777,0.0,0.0,0.0
1759830133.2778327,1,8.0,6.0,3.141558359214825,0.0,True,0.010379314422607422,8.0,6.0,3.1415915489196777,0.0,0.0,0.0
1759830133.2892077,1,8.0,6.0,3.1415589282537866,0.0,True,0.011374950408935547,8.0,6.0,3.1415915489196777,0.0,0.0,0.0
1759830133.3002722,1,8.0,6.0,3.141559810166523,0.0,True,0.011064529418945312,8.0,6.0,3.1415915489196777,0.0,0.0,0.0
1759830133.3104155,1,8.0,6.0,3.1415613455267906,0.0,True,0.010143280029296875,8.0,6.0,3.1415915489196777,0.0,0.0,0.0
1759830133.3213656,1,8.0,6.0,3.141562209728736,0.0,True,0.010950088500976562,8.0,6.0,3.1415915489196777,0.0,0.0,0.0
1759830133.332886,1,8.0,6.0,3.1415627103445587,0.0,True,0.0115203857421875,8.0,6.0,3.1415915489196777,0.0,0.0,0.0
1759830133.3431792,1,8.0,6.0,3.1415640490473145,0.0,True,0.010293245315551758,8.0,6.0,3.1415915489196777,0.0,0.0,0.0
1759830133.3544123,1,8.0,6.0,3.141564743207132,0.0,True,0.011233091354370117,8.0,6.0,3.1415915489196777,0.0,0.0,0.0
1759830133.3658924,1,8.0,6.0,3.1415653227701554,0.0,True,0.011480093002319336,8.0,6.0,3.1415915489196777,0.0,0.0,0.0
1759830133.3773568,1,8.0,6.0,3.14156599778582,0.0,True,0.011464357376098633,8.0,6.0,3.1415915489196777,0.0,0.0,0.0
1759830133.3887634,1,8.0,6.0,3.1415667650944936,0.0,True,0.011406660079956055,8.0,6.0,3.1415915489196777,0.0,0.0,0.0
1759830133.400093,1,8.0,6.0,3.1415675951969284,0.0,True,0.01132965087890625,8.0,6.0,3.1415915489196777,0.0,0.0,0.0
1759830133.4110239,1,8.0,6.0,3.141568605529134,0.0,True,0.010930776596069336,8.0,6.0,3.1415915489196777,0.0,0.0,0.0
1759830133.4222097,1,8.0,6.0,3.1415694246611565,0.0,True,0.011185884475708008,8.0,6.0,3.1415915489196777,0.0,0.0,0.0
1759830133.4336886,1,8.0,6.0,3.141570076083495,0.0,True,0.011478900909423828,8.0,6.0,3.1415915489196777,0.0,0.0,0.0
1759830133.445127,1,8.0,6.0,3.1415707578424694,0.0,True,0.011438369750976562,8.0,6.0,3.1415915489196777,0.0,0.0,0.0
1759830133.456105,1,8.0,6.0,3.1415716327756655,0.0,True,0.010977983474731445,8.0,6.0,3.1415915489196777,0.0,0.0,0.0
1759830133.467436,1,8.0,6.0,3.1415723073299766,0.0,True,0.01133108139038086,8.0,6.0,3.1415915489196777,0.0,0.0,0.0
1759830133.4788303,1,8.0,6.0,3.1415729356964857,0.0,True,0.011394262313842773,8.0,6.0,3.1415915489196777,0.0,0.0,0.0
1759830133.4895372,1,8.0,6.0,3.141573808659764,0.0,True,0.010706901550292969,8.0,6.0,3.1415915489196777,0.0,0.0,0.0
1759830133.4997573,1,8.0,6.0,3.1415747669218828,0.0,True,0.010220050811767578,8.0,6.0,3.1415915489196777,0.0,0.0,0.0
1759830133.5110762,1,8.0,6.0,3.141575212186181,0.0,True,0.01131892204284668,8.0,6.0,3.1415915489196777,0.0,0.0,0.0
1759830133.5214167,1,8.0,6.0,3.1415759776168493,0.0,True,0.010340452194213867,8.0,6.0,3.1415915489196777,0.0,0.0,0.0
1759830133.5323617,1,8.0,6.0,3.141576474728055,0.0,True,0.01094508171081543,8.0,6.0,3.1415915489196777,0.0,0.0,0.0
1759830133.5428207,1,8.0,6.0,3.1415770990299254,0.0,True,0.010458946228027344,8.0,6.0,3.1415915489196777,0.0,0.0,0.0
1759830133.5542426,1,8.0,6.0,3.1415773846382233,0.0,True,0.011421918869018555,8.0,6.0,3.1415915489196777,0.0,0.0,0.0
1759830133.5645254,1,8.0,6.0,3.1415780343377335,0.0,True,0.010282754898071289,8.0,6.0,3.1415915489196777,0.0,0.0,0.0
1759830133.575897,1,8.0,6.0,3.141578324164424,0.0,True,0.011371612548828125,8.0,6.0,3.1415915489196777,0.0,0.0,0.0
1759830133.587044,1,8.0,6.0,3.1415786987715837,0.0,True,0.011147022247314453,8.0,6.0,3.1415915489196777,0.0,0.0,0.0
1759830133.5984101,1,8.0,6.0,3.141579034143467,0.0,True,0.011366128921508789,8.0,6.0,3.1415915489196777,0.0,0.0,0.0
1759830133.6095746,1,8.0,6.0,3.141579442148272,0.0,True,0.011164426803588867,8.0,6.0,3.1415915489196777,0.0,0.0,0.0
1759830133.6197748,1,8.0,6.0,3.141580081884303,0.0,True,0.010200262069702148,8.0,6.0,3.1415915489196777,0.0,0.0,0.0
1759830133.6309247,1,8.0,6.0,3.1415804197101664,0.0,True,0.011149883270263672,8.0,6.0,3.1415915489196777,0.0,0.0,0.0
1759830133.6409297,1,8.0,6.0,3.1415810050447135,0.0,True,0.010004997253417969,8.0,6.0,3.1415915489196777,0.0,0.0,0.0
1759830133.651943,1,8.0,6.0,3.141581296663544,0.0,True,0.011013269424438477,8.0,6.0,3.1415915489196777,0.0,0.0,0.0
1759830133.6621969,1,8.0,6.0,3.1415817420889915,0.0,True,0.01025390625,8.0,6.0,3.1415915489196777,0.0,0.0,0.0
1759830133.6733403,1,8.0,6.0,3.1415819655319464,0.0,True,0.01114344596862793,8.0,6.0,3.1415915489196777,0.0,0.0,0.0
1759830133.6846404,1,8.0,6.0,3.1415821715103895,0.0,True,0.011300086975097656,8.0,6.0,3.1415915489196777,0.0,0.0,0.0
1759830133.6960452,1,8.0,6.0,3.1415823880706313,0.0,True,0.011404752731323242,8.0,6.0,3.1415915489196777,0.0,0.0,0.0
1759830133.7072644,1,8.0,6.0,3.141582666677447,0.0,True,0.011219263076782227,8.0,6.0,3.1415915489196777,0.0,0.0,0.0
1759830133.7187061,1,8.0,6.0,3.1415829135892075,0.0,True,0.011441707611083984,8.0,6.0,3.1415915489196777,0.0,0.0,0.0
1759830133.7298152,1,8.0,6.0,3.1415832287340617,0.0,True,0.011109113693237305,8.0,6.0,3.1415915489196777,0.0,0.0,0.0
1759830133.7412019,1,8.0,6.0,3.1415834884488945,0.0,True,0.011386632919311523,8.0,6.0,3.1415915489196777,0.0,0.0,0.0
1759830133.7526448,1,8.0,6.0,3.141583739332333,0.0,True,0.011442899703979492,8.0,6.0,3.1415915489196777,0.0,0.0,0.0
1759830133.7628827,1,8.0,6.0,3.1415841770590287,0.0,True,0.010237932205200195,8.0,6.0,3.1415915489196777,0.0,0.0,0.0
1759830133.7741036,1,8.0,6.0,3.141584412342084,0.0,True,0.011220932006835938,8.0,6.0,3.1415915489196777,0.0,0.0,0.0
1759830133.7855637,1,8.0,6.0,3.1415846016003766,0.0,True,0.011460065841674805,8.0,6.0,3.1415915489196777,0.0,0.0,0.0
1759830133.7959619,1,8.0,6.0,3.1415849474700153,0.0,True,0.010398149490356445,8.0,6.0,3.1415915489196777,0.0,0.0,0.0
1759830133.8073833,1,8.0,6.0,3.1415851206137493,0.0,True,0.011421442031860352,8.0,6.0,3.1415915489196777,0.0,0.0,0.0
1759830133.8189948,1,8.0,6.0,3.141585272500155,0.0,True,0.011611461639404297,8.0,6.0,3.1415915489196777,0.0,0.0,0.0
1759830133.8298728,1,8.0,6.0,3.1415855326852746,0.0,True,0.01087808609008789,8.0,6.0,3.1415915489196777,0.0,0.0,0.0
1759830133.8411498,1,8.0,6.0,3.141585729865227,0.0,True,0.011276960372924805,8.0,6.0,3.1415915489196777,0.0,0.0,0.0
1759830133.8525379,1,8.0,6.0,3.141585909053152,0.0,True,0.011388063430786133,8.0,6.0,3.1415915489196777,0.0,0.0,0.0
1759830133.8629055,1,8.0,6.0,3.141586202854487,0.0,True,0.010367631912231445,8.0,6.0,3.1415915489196777,0.0,0.0,0.0
1759830133.874095,1,8.0,6.0,3.1415863736325633,0.0,True,0.011189460754394531,8.0,6.0,3.1415915489196777,0.0,0.0,0.0
1759830133.8854516,1,8.0,6.0,3.141586519362658,0.0,True,0.011356592178344727,8.0,6.0,3.1415915489196777,0.0,0.0,0.0
1759830133.8968897,1,8.0,6.0,3.1415866619673665,0.0,True,0.011438131332397461,8.0,6.0,3.1415915489196777,0.0,0.0,0.0
1759830133.9234474,1,7.994479244165991,6.000000002517236,3.141585427980294,0.040712027714084165,True,0.02655768394470215,7.991735458374023,6.0,3.1415915489196777,0.040712027714084165,0.0,0.9999996948245808
1759830133.9344194,1,7.992612869628796,6.000000002184807,3.1415860460707723,0.040712027714084165,True,0.010972023010253906,7.991735458374023,6.0,3.1415915489196777,0.040712027714084165,0.0,0.971379139341563
1759830133.9446673,1,7.991911237834461,6.000000001878723,3.1415866795335052,0.040712027714084165,True,0.010247945785522461,7.991735458374023,6.0,3.1415915489196777,0.040712027714084165,0.0,0.971379139341563
1759830133.9559126,1,7.991627729635972,6.000000001756254,3.1415870790842373,0.040712027714084165,True,0.011245250701904297,7.991735458374023,6.0,3.1415915489196777,0.040712027714084165,0.0,0.971379139341563
1759830133.9662495,1,7.991533564923035,6.000000001561639,3.1415874556871266,0.040712027714084165,True,0.010336875915527344,7.991735458374023,6.0,3.1415915489196777,0.040712027714084165,0.0,0.971379139341563
1759830133.9774644,1,7.991483942279864,6.0000000014995285,3.141587686218104,0.040712027714084165,True,0.011214971542358398,7.991735458374023,6.0,3.1415915489196777,0.040712027714084165,0.0,0.971379139341563
1759830133.9876328,1,7.991481264281212,6.0000000013545876,3.1415879508539604,0.040712027714084165,True,0.010168313980102539,7.991735458374023,6.0,3.1415915489196777,0.040712027714084165,0.0,0.971379139341563
1759830133.9992473,1,7.991457751350913,6.000000001364977,3.141588066737807,0.040712027714084165,True,0.011614561080932617,7.991735458374023,6.0,3.1415915489196777,0.040712027714084165,0.0,0.971379139341563
1759830134.009326,1,7.991472654277056,6.000000001237393,3.1415882773925308,0.040712027714084165,True,0.010078668594360352,7.991735458374023,6.0,3.1415915489196777,0.040712027714084165,0.0,0.971379139341563
1759830134.020738,1,7.991457614043326,6.000000001247835,3.1415883697998535,0.040712027714084165,True,0.011411905288696289,7.991735458374023,6.0,3.1415915489196777,0.040712027714084165,0.0,0.971379139341563
1759830134.0322008,1,7.991451075768569,6.000000001238918,3.1415884552880957,0.040712027714084165,True,0.011462926864624023,7.991735458374023,6.0,3.1415915489196777,0.040712027714084165,0.0,0.971379139341563
1759830134.0437655,1,7.9914469952440506,6.00000000122694,3.1415885387594553,0.040712027714084165,True,0.01156473159790039,7.991735458374023,6.0,3.1415915489196777,0.040712027714084165,0.0,0.971379139341563
1759830134.0553002,1,7.991445903774249,6.0000000012053345,3.14158862869607,0.040712027714084165,True,0.011534690856933594,7.991735458374023,6.0,3.1415915489196777,0.040712027714084165,0.0,0.971379139341563
1759830134.0655515,1,7.991465444635969,6.000000001099731,3.1415887936352096,0.040712027714084165,True,0.010251283645629883,7.991735458374023,6.0,3.1415915489196777,0.040712027714084165,0.0,0.971379139341563
1759830134.0765834,1,7.991460770047413,6.00000000108076,3.1415888935871212,0.040712027714084165,True,0.011031866073608398,7.991735458374023,6.0,3.1415915489196777,0.040712027714084165,0.0,0.971379139341563
1759830134.086876,1,7.991470481640095,6.000000001012809,3.1415890238610373,0.040712027714084165,True,0.010292530059814453,7.991735458374023,6.0,3.1415915489196777,0.040712027714084165,0.0,0.971379139341563
1759830134.0990689,1,7.99144463822118,6.000000001074815,3.1415890403466147,0.040712027714084165,True,0.012192964553833008,7.991735458374023,6.0,3.1415915489196777,0.040712027714084165,0.0,0.971379139341563
1759830134.110041,1,7.991453753300338,6.000000001025668,3.1415891327918217,0.040712027714084165,True,0.010972023010253906,7.991735458374023,6.0,3.1415915489196777,0.040712027714084165,0.0,0.971379139341563
1759830134.123237,1,7.867640063529478,6.000001195987293,3.1415891182854487,0.9456101586312017,True,0.013195991516113281,7.798830986022949,6.000001907348633,3.1415915489196777,0.9456101586312017,0.0,0.971379139341563
1759830134.1333232,1,7.821470635439271,6.000001648463236,3.1415892740923343,0.9456101586312017,True,0.010086297988891602,7.798830986022949,6.000001907348633,3.1415915489196777,0.9456101586312017,0.0,0.3260256015327547
1759830134.1446958,1,7.8033708947167035,6.000001822316889,3.141589354354167,0.9456101586312017,True,0.011372566223144531,7.798830986022949,6.000001907348633,3.1415915489196777,0.9456101586312017,0.0,0.3260256015327547
1759830134.1563118,1,7.79636948591018,6.000001888688891,3.1415894172970305,0.9456101586312017,True,0.011615991592407227,7.798830986022949,6.000001907348633,3.1415915489196777,0.9456101586312017,0.0,0.3260256015327547
1759830134.1677256,1,7.793768210922152,6.0000019135370435,3.141589490223616,0.9456101586312017,True,0.011413812637329102,7.798830986022949,6.000001907348633,3.1415915489196777,0.9456101586312017,0.0,0.3260256015327547
1759830134.1792262,1,7.792743266565192,6.00000192282812,3.141589558647908,0.9456101586312017,True,0.01150059700012207,7.798830986022949,6.000001907348633,3.1415915489196777,0.9456101586312017,0.0,0.3260256015327547
1759830134.1895177,1,7.792788459950276,6.0000019247290295,3.1415896725291965,0.9456101586312017,True,0.010291576385498047,7.798830986022949,6.000001907348633,3.1415915489196777,0.9456101586312017,0.0,0.3260256015327547
1759830134.2008288,1,7.792437496125943,6.000001926145038,3.1415897328095603,0.9456101586312017,True,0.011311054229736328,7.798830986022949,6.000001907348633,3.1415915489196777,0.9456101586312017,0.0,0.3260256015327547
1759830134.2123208,1,7.792238078869079,6.000001926633739,3.1415897831067685,0.9456101586312017,True,0.011492013931274414,7.798830986022949,6.000001907348633,3.1415915489196777,0.9456101586312017,0.0,0.3260256015327547
1759830134.222589,1,7.792603934654876,6.000001925330349,3.1415898777341837,0.9456101586312017,True,0.010268211364746094,7.798830986022949,6.000001907348633,3.1415915489196777,0.9456101586312017,0.0,0.3260256015327547
1759830134.2340524,1,7.79231198648579,6.000001925695088,3.141589920539058,0.9456101586312017,True,0.011463403701782227,7.798830986022949,6.000001907348633,3.1415915489196777,0.9456101586312017,0.0,0.3260256015327547
1759830134.245586,1,7.792175154506692,6.000001925726913,3.141589961449389,0.9456101586312017,True,0.011533498764038086,7.798830986022949,6.000001907348633,3.1415915489196777,0.9456101586312017,0.0,0.3260256015327547
1759830134.2569902,1,7.792169563471327,6.000001925440442,3.141590009935321,0.9456101586312017,True,0.011404275894165039,7.798830986022949,6.000001907348633,3.1415915489196777,0.9456101586312017,0.0,0.3260256015327547
1759830134.26831,1,7.7921979124651575,6.0000019250495535,3.1415900620475945,0.9456101586312017,True,0.011319875717163086,7.798830986022949,6.000001907348633,3.1415915489196777,0.9456101586312017,0.0,0.3260256015327547
1759830134.2805998,1,7.791858426499095,6.000001925604611,3.1415900852317638,0.9456101586312017,True,0.012289762496948242,7.798830986022949,6.000001907348633,3.1415915489196777,0.9456101586312017,0.0,0.3260256015327547
1759830134.2918217,1,7.792114461830186,6.00000192471065,3.1415901457375845,0.9456101586312017,True,0.011221885681152344,7.798830986022949,6.000001907348633,3.1415915489196777,0.9456101586312017,0.0,0.3260256015327547
1759830134.303064,1,7.792204852766091,6.000001924143618,3.1415902031802254,0.9456101586312017,True,0.011242389678955078,7.798830986022949,6.000001907348633,3.1415915489196777,0.9456101586312017,0.0,0.3260256015327547
1759830134.313658,1,7.79247361082715,6.000001923116809,3.1415902730555203,0.9456101586312017,True,0.010593891143798828,7.798830986022949,6.000001907348633,3.1415915489196777,0.9456101586312017,0.0,0.3260256015327547
1759830134.329752,1,7.749271914924191,6.000002213328705,3.141590197546236,0.3581141016235662,True,0.016093969345092773,7.726133823394775,6.000002384185791,3.1415915489196777,0.3581141016235662,0.0,0.3260256015327547
1759830134.341144,1,7.733413489750765,6.000002322741509,3.1415902702837855,0.3581141016235662,True,0.01139211654663086,7.726133823394775,6.000002384185791,3.1415915489196777,0.3581141016235662,0.0,0.5470764674086892
1759830134.3527517,1,7.727326628496914,6.0000023644911575,3.141590337009486,0.3581141016235662,True,0.011607646942138672,7.726133823394775,6.000002384185791,3.1415915489196777,0.3581141016235662,0.0,0.5470764674086892
1759830134.363449,1,7.7251261695228886,6.000002380042909,3.141590415425057,0.3581141016235662,True,0.010697364807128906,7.726133823394775,6.000002384185791,3.1415915489196777,0.3581141016235662,0.0,0.5470764674086892
1759830134.3746166,1,7.72422135681794,6.000002386014968,3.1415904710212033,0.3581141016235662,True,0.011167526245117188,7.726133823394775,6.000002384185791,3.1415915489196777,0.3581141016235662,0.0,0.5470764674086892
1759830134.3855603,1,7.72390637240689,6.000002388144871,3.1415905234438757,0.3581141016235662,True,0.01094365119934082,7.726133823394775,6.000002384185791,3.1415915489196777,0.3581141016235662,0.0,0.5470764674086892
1759830134.3963757,1,7.723803604679475,6.000002388843156,3.141590571949976,0.3581141016235662,True,0.01081538200378418,7.726133823394775,6.000002384185791,3.1415915489196777,0.3581141016235662,0.0,0.5470764674086892
1759830134.4076269,1,7.723704734956029,6.000002389163878,3.141590606181275,0.3581141016235662,True,0.011251211166381836,7.726133823394775,6.000002384185791,3.1415915489196777,0.3581141016235662,0.0,0.5470764674086892
1759830134.419131,1,7.723632368048687,6.0000023893053545,3.14159063370308,0.3581141016235662,True,0.011504173278808594,7.726133823394775,6.000002384185791,3.1415915489196777,0.3581141016235662,0.0,0.5470764674086892
1759830134.429247,1,7.723794629875421,6.000002388929892,3.1415906864977305,0.3581141016235662,True,0.010115861892700195,7.726133823394775,6.000002384185791,3.1415915489196777,0.3581141016235662,0.0,0.5470764674086892
1759830134.4400918,1,7.723756878860464,6.00000238891174,3.141590719396712,0.3581141016235662,True,0.010844945907592773,7.726133823394775,6.000002384185791,3.1415915489196777,0.3581141016235662,0.0,0.5470764674086892
1759830134.4503684,1,7.72382020783996,6.000002388705081,3.1415907584226606,0.3581141016235662,True,0.010276556015014648,7.726133823394775,6.000002384185791,3.1415915489196777,0.3581141016235662,0.0,0.5470764674086892
1759830134.462323,1,7.7236148694487206,6.000002389010042,3.141590765515147,0.3581141016235662,True,0.011954545974731445,7.726133823394775,6.000002384185791,3.1415915489196777,0.3581141016235662,0.0,0.5470764674086892
1759830134.4735162,1,7.7236405693894055,6.000002388916223,3.141590788799906,0.3581141016235662,True,0.011193275451660156,7.726133823394775,6.000002384185791,3.1415915489196777,0.3581141016235662,0.0,0.5470764674086892
1759830134.484618,1,7.723662909155107,6.00000238882107,3.141590814694286,0.3581141016235662,True,0.011101722717285156,7.726133823394775,6.000002384185791,3.1415915489196777,0.3581141016235662,0.0,0.5470764674086892
1759830134.4952168,1,7.723740222288598,6.00000238861823,3.1415908472837923,0.3581141016235662,True,0.010598897933959961,7.726133823394775,6.000002384185791,3.1415915489196777,0.3581141016235662,0.0,0.5470764674086892
1759830134.5066144,1,7.723660500863076,6.0000023886925025,3.141590865434482,0.3581141016235662,True,0.011397600173950195,7.726133823394775,6.000002384185791,3.1415915489196777,0.3581141016235662,0.0,0.5470764674086892
1759830134.5177681,1,7.72366341274048,6.000002388632459,3.1415908873866965,0.3581141016235662,True,0.011153697967529297,7.726133823394775,6.000002384185791,3.1415915489196777,0.3581141016235662,0.0,0.5470764674086892
1759830134.534945,1,7.65284426048809,6.000002981655466,3.1415908314047716,0.5479845507605908,True,0.01717686653137207,7.614892959594727,6.000003337860107,3.1415915489196777,0.5479845507605908,0.0,0.5470764674086892
1759830134.5449903,1,7.627286472172703,6.000003205622794,3.1415908890159816,0.5479845507605908,True,0.010045289993286133,7.614892959594727,6.000003337860107,3.1415915489196777,0.5479845507605908,0.0,0.3409003790408063
1759830134.5561202,1,7.617297253582037,6.0000032914529235,3.1415909279816,0.5479845507605908,True,0.01112985610961914,7.614892959594727,6.000003337860107,3.1415915489196777,0.5479845507605908,0.0,0.3409003790408063
1759830134.5674298,1,7.613444084178478,6.000003324212931,3.1415909579790657,0.5479845507605908,True,0.011309623718261719,7.614892959594727,6.000003337860107,3.1415915489196777,0.5479845507605908,0.0,0.3409003790408063
1759830134.5778003,1,7.612168875278351,6.000003336321039,3.1415909946374683,0.5479845507605908,True,0.010370492935180664,7.614892959594727,6.000003337860107,3.1415915489196777,0.5479845507605908,0.0,0.3409003790408063
1759830134.589299,1,7.611445644304644,6.000003341261145,3.1415910132572336,0.5479845507605908,True,0.011498689651489258,7.614892959594727,6.000003337860107,3.1415915489196777,0.5479845507605908,0.0,0.3409003790408063
1759830134.6005533,1,7.611220545992006,6.000003343019189,3.141591033128396,0.5479845507605908,True,0.011254310607910156,7.614892959594727,6.000003337860107,3.1415915489196777,0.5479845507605908,0.0,0.3409003790408063
1759830134.6107874,1,7.611348104207971,6.0000033432964806,3.141591062329164,0.5479845507605908,True,0.01023411750793457,7.614892959594727,6.000003337860107,3.1415915489196777,0.5479845507605908,0.0,0.3409003790408063
1759830134.6209195,1,7.611418185913357,6.000003343306499,3.141591088417467,0.5479845507605908,True,0.010132074356079102,7.614892959594727,6.000003337860107,3.1415915489196777,0.5479845507605908,0.0,0.3409003790408063
1759830134.6322675,1,7.611190445648418,6.000003343656008,3.1415910988486893,0.5479845507605908,True,0.01134800910949707,7.614892959594727,6.000003337860107,3.1415915489196777,0.5479845507605908,0.0,0.3409003790408063
1759830134.6441143,1,7.610999057975367,6.000003343927841,3.1415911051071106,0.5479845507605908,True,0.011846780776977539,7.614892959594727,6.000003337860107,3.1415915489196777,0.5479845507605908,0.0,0.3409003790408063
1759830134.6553617,1,7.611051412401709,6.000003343820361,3.141591119128595,0.5479845507605908,True,0.011247396469116211,7.614892959594727,6.000003337860107,3.1415915489196777,0.5479845507605908,0.0,0.3409003790408063
1759830134.6668687,1,7.611017064835893,6.000003343830004,3.141591131351877,0.5479845507605908,True,0.011507034301757812,7.614892959594727,6.000003337860107,3.1415915489196777,0.5479845507605908,0.0,0.3409003790408063
1759830134.677447,1,7.611198320316067,6.000003343507021,3.141591151568262,0.5479845507605908,True,0.010578393936157227,7.614892959594727,6.000003337860107,3.1415915489196777,0.5479845507605908,0.0,0.3409003790408063
1759830134.6886108,1,7.611145040057322,6.000003343524067,3.141591165074555,0.5479845507605908,True,0.011163711547851562,7.614892959594727,6.000003337860107,3.1415915489196777,0.5479845507605908,0.0,0.3409003790408063
1759830134.6986556,1,7.61135888708001,6.000003343149245,3.1415911863797135,0.5479845507605908,True,0.01004481315612793,7.614892959594727,6.000003337860107,3.1415915489196777,0.5479845507605908,0.0,0.3409003790408063
1759830134.7101092,1,7.611145688150979,6.000003343396192,3.141591194302192,0.5479845507605908,True,0.011453628540039062,7.614892959594727,6.000003337860107,3.1415915489196777,0.5479845507605908,0.0,0.3409003790408063
1759830134.7204437,1,7.611298501580798,6.0000033431282604,3.1415912106098087,0.5479845507605908,True,0.010334491729736328,7.614892959594727,6.000003337860107,3.1415915489196777,0.5479845507605908,0.0,0.3409003790408063
1759830134.735443,1,7.568700074974855,6.000003342699664,3.141591193412413,0.34164090461846625,True,0.0149993896484375,7.545539855957031,6.000003337860107,3.1415915489196777,0.34164090461846625,0.0,0.3409003790408063
1759830134.746663,1,7.55292211896567,6.000003341844493,3.1415912095820318,0.34164090461846625,True,0.011219978332519531,7.545539855957031,6.000003337860107,3.1415915489196777,0.34164090461846625,0.0,0.37471909847419393
1759830134.7577884,1,7.5469078276990755,6.000003341476267,3.141591226652661,0.34164090461846625,True,0.011125326156616211,7.545539855957031,6.000003337860107,3.1415915489196777,0.34164090461846625,0.0,0.37471909847419393
1759830134.7682538,1,7.544696692207557,6.000003341187834,3.141591245747371,0.34164090461846625,True,0.010465383529663086,7.545539855957031,6.000003337860107,3.1415915489196777,0.34164090461846625,0.0,0.37471909847419393
1759830134.7793043,1,7.54377576356924,6.000003341159759,3.1415912584139463,0.34164090461846625,True,0.01105046272277832,7.545539855957031,6.000003337860107,3.1415915489196777,0.34164090461846625,0.0,0.37471909847419393
1759830134.789442,1,7.54354309871711,6.000003340964294,3.141591274878772,0.34164090461846625,True,0.010137796401977539,7.545539855957031,6.000003337860107,3.1415915489196777,0.34164090461846625,0.0,0.37471909847419393
1759830134.801925,1,7.543148206264761,6.00000334129151,3.141591275952832,0.34164090461846625,True,0.012482881546020508,7.545539855957031,6.000003337860107,3.1415915489196777,0.34164090461846625,0.0,0.37471909847419393
1759830134.812705,1,7.54321957612638,6.000003341107307,3.141591287955954,0.34164090461846625,True,0.010780096054077148,7.545539855957031,6.000003337860107,3.1415915489196777,0.34164090461846625,0.0,0.37471909847419393
1759830134.8242116,1,7.543152037250795,6.0000033411499984,3.141591295630864,0.34164090461846625,True,0.01150655746459961,7.545539855957031,6.000003337860107,3.1415915489196777,0.34164090461846625,0.0,0.37471909847419393
1759830134.8343518,1,7.543304545338308,6.000003340911983,3.1415913100733324,0.34164090461846625,True,0.010140180587768555,7.545539855957031,6.000003337860107,3.1415915489196777,0.34164090461846625,0.0,0.37471909847419393
1759830134.8456428,1,7.543212618286757,6.000003341004503,3.1415913170400582,0.34164090461846625,True,0.011291027069091797,7.545539855957031,6.000003337860107,3.1415915489196777,0.34164090461846625,0.0,0.37471909847419393
1759830134.8589349,1,7.54291637820429,6.000003341379848,3.141591314542204,0.34164090461846625,True,0.013292074203491211,7.545539855957031,6.000003337860107,3.1415915489196777,0.34164090461846625,0.0,0.37471909847419393
1759830134.8692563,1,7.543190886104907,6.000003341006455,3.1415913283316037,0.34164090461846625,True,0.010321378707885742,7.545539855957031,6.000003337860107,3.1415915489196777,0.34164090461846625,0.0,0.37471909847419393
1759830134.8806632,1,7.543154083655796,6.000003341033607,3.1415913361392107,0.34164090461846625,True,0.011406898498535156,7.545539855957031,6.000003337860107,3.1415915489196777,0.34164090461846625,0.0,0.37471909847419393
1759830134.8919508,1,7.54315558261281,6.00000334101188,3.141591343868372,0.34164090461846625,True,0.011287689208984375,7.545539855957031,6.000003337860107,3.1415915489196777,0.34164090461846625,0.0,0.37471909847419393
1759830134.9033108,1,7.543146728080968,6.000003341004615,3.141591350988284,0.34164090461846625,True,0.011359930038452148,7.545539855957031,6.000003337860107,3.1415915489196777,0.34164090461846625,0.0,0.37471909847419393
1759830134.9136853,1,7.543271933844693,6.000003340823443,3.1415913616813924,0.34164090461846625,True,0.01037454605102539,7.545539855957031,6.000003337860107,3.1415915489196777,0.34164090461846625,0.0,0.37471909847419393
1759830134.9252715,1,7.543161644550159,6.000003340944666,3.1415913664731416,0.34164090461846625,True,0.011586189270019531,7.545539855957031,6.000003337860107,3.1415915489196777,0.34164090461846625,0.0,0.37471909847419393
1759830134.9418836,1,7.4945362430309626,6.000003342144944,3.141591353599871,0.3800674025070086,True,0.01661205291748047,7.468386173248291,6.000003337860107,3.1415915489196777,0.3800674025070086,0.0,0.37471909847419393
1759830134.9530184,1,7.4767581315411435,6.000003341596471,3.141591365506148,0.3800674025070086,True,0.011134862899780273,7.468386173248291,6.000003337860107,3.1415915489196777,0.3800674025070086,0.0,0.2783521668212039
1759830134.9634035,1,7.4700763516326605,6.000003341227397,3.141591379376381,0.3800674025070086,True,0.01038503646850586,7.468386173248291,6.000003337860107,3.1415915489196777,0.3800674025070086,0.0,0.2783521668212039
1759830134.9748075,1,7.467376207553259,6.0000033412546765,3.141591387419263,0.3800674025070086,True,0.011404037475585938,7.468386173248291,6.000003337860107,3.1415915489196777,0.3800674025070086,0.0,0.2783521668212039
1759830134.9849656,1,7.466525726077758,6.000003341022537,3.141591398090494,0.3800674025070086,True,0.010158061981201172,7.468386173248291,6.000003337860107,3.1415915489196777,0.3800674025070086,0.0,0.2783521668212039
1759830134.996178,1,7.466047817240042,6.000003341110848,3.1415914038539867,0.3800674025070086,True,0.011212348937988281,7.468386173248291,6.000003337860107,3.1415915489196777,0.3800674025070086,0.0,0.2783521668212039
1759830135.0083554,1,7.465725163337204,6.000003341310742,3.141591406260991,0.3800674025070086,True,0.012177467346191406,7.468386173248291,6.000003337860107,3.1415915489196777,0.3800674025070086,0.0,0.2783521668212039
1759830135.0194707,1,7.465756116526492,6.00000334119004,3.1415914122021853,0.3800674025070086,True,0.011115312576293945,7.468386173248291,6.000003337860107,3.1415915489196777,0.3800674025070086,0.0,0.2783521668212039
1759830135.0329316,1,7.465427427722594,6.000003341557974,3.141591411702599,0.3800674025070086,True,0.013460874557495117,7.468386173248291,6.000003337860107,3.1415915489196777,0.3800674025070086,0.0,0.2783521668212039
1759830135.0429645,1,7.465799529666424,6.000003341080147,3.1415914213616674,0.3800674025070086,True,0.010032892227172852,7.468386173248291,6.000003337860107,3.1415915489196777,0.3800674025070086,0.0,0.2783521668212039
1759830135.0541048,1,7.465780887687157,6.000003341082114,3.1415914270224885,0.3800674025070086,True,0.01114034652709961,7.468386173248291,6.000003337860107,3.1415915489196777,0.3800674025070086,0.0,0.2783521668212039
1759830135.0657086,1,7.465706481551501,6.000003341156478,3.1415914308206645,0.3800674025070086,True,0.011603832244873047,7.468386173248291,6.000003337860107,3.1415915489196777,0.3800674025070086,0.0,0.2783521668212039
1759830135.0770607,1,7.465714611102832,6.000003341133729,3.1415914351358154,0.3800674025070086,True,0.011352062225341797,7.468386173248291,6.000003337860107,3.1415915489196777,0.3800674025070086,0.0,0.2783521668212039
1759830135.0872684,1,7.465883853434124,6.000003340915254,3.1415914418131177,0.3800674025070086,True,0.010207653045654297,7.468386173248291,6.000003337860107,3.1415915489196777,0.3800674025070086,0.0,0.2783521668212039
1759830135.099293,1,7.465684720964034,6.000003341142132,3.141591443650956,0.3800674025070086,True,0.012024641036987305,7.468386173248291,6.000003337860107,3.1415915489196777,0.3800674025070086,0.0,0.2783521668212039
1759830135.110181,1,7.4657736540550275,6.0000033410256135,3.141591448108281,0.3800674025070086,True,0.010888099670410156,7.468386173248291,6.000003337860107,3.1415915489196777,0.3800674025070086,0.0,0.2783521668212039
1759830135.1240559,1,7.465374040204379,6.000003341497644,3.141591446425563,0.3800674025070086,True,0.01387476921081543,7.468386173248291,6.000003337860107,3.1415915489196777,0.3800674025070086,0.0,0.2783521668212039
1759830135.13903,1,7.431057009401635,6.00000717227621,3.141591444188082,0.27579274839825413,True,0.014974117279052734,7.412400245666504,6.000009536743164,3.1415915489196777,0.27579274839825413,0.0,0.2783521668212039
1759830135.156655,1,7.417669807035182,6.000008635844158,3.141591439761344,0.27579274839825413,True,0.017625093460083008,7.412400245666504,6.000009536743164,3.1415915489196777,0.27579274839825413,0.0,0.3407284987037045
1759830135.1679742,1,7.413220639521088,6.000009194076912,3.1415914491143333,0.27579274839825413,True,0.011319160461425781,7.412400245666504,6.000009536743164,3.1415915489196777,0.27579274839825413,0.0,0.3407284987037045
1759830135.181755,1,7.411261887734225,6.000009407604404,3.1415914533763036,0.27579274839825413,True,0.013780832290649414,7.412400245666504,6.000009536743164,3.1415915489196777,0.27579274839825413,0.0,0.3407284987037045
1759830135.1928828,1,7.410793200162486,6.000009488822683,3.1415914613072555,0.27579274839825413,True,0.011127710342407227,7.412400245666504,6.000009536743164,3.1415915489196777,0.27579274839825413,0.0,0.3407284987037045
1759830135.2065065,1,7.410351239741522,6.000009520149952,3.1415914641753773,0.27579274839825413,True,0.013623714447021484,7.412400245666504,6.000009536743164,3.1415915489196777,0.27579274839825413,0.0,0.3407284987037045
1759830135.2174835,1,7.410461236790111,6.000009531779858,3.1415914706607317,0.27579274839825413,True,0.010977029800415039,7.412400245666504,6.000009536743164,3.1415915489196777,0.27579274839825413,0.0,0.3407284987037045
1759830135.2310905,1,7.410226199124892,6.000009536542744,3.141591472530754,0.27579274839825413,True,0.013607025146484375,7.412400245666504,6.000009536743164,3.1415915489196777,0.27579274839825413,0.0,0.3407284987037045
1759830135.2415338,1,7.410469709883812,6.000009537965335,3.141591478628527,0.27579274839825413,True,0.01044321060180664,7.412400245666504,6.000009536743164,3.1415915489196777,0.27579274839825413,0.0,0.3407284987037045
1759830135.25245,1,7.410512892896276,6.000009538560696,3.141591483116171,0.27579274839825413,True,0.01091623306274414,7.412400245666504,6.000009536743164,3.1415915489196777,0.27579274839825413,0.0,0.3407284987037045
1759830135.263993,1,7.410463357803548,6.000009538860374,3.1415914859864547,0.27579274839825413,True,0.011543035507202148,7.412400245666504,6.000009536743164,3.1415915489196777,0.27579274839825413,0.0,0.3407284987037045
1759830135.2740667,1,7.410599225985846,6.000009538790526,3.141591490246869,0.27579274839825413,True,0.010073661804199219,7.412400245666504,6.000009536743164,3.1415915489196777,0.27579274839825413,0.0,0.3407284987037045
1759830135.2840705,1,7.410658481953767,6.000009538750828,3.141591493863901,0.27579274839825413,True,0.010003805160522461,7.412400245666504,6.000009536743164,3.1415915489196777,0.27579274839825413,0.0,0.3407284987037045
1759830135.2951882,1,7.410563774528517,6.000009538868096,3.141591495557691,0.27579274839825413,True,0.011117696762084961,7.412400245666504,6.000009536743164,3.1415915489196777,0.27579274839825413,0.0,0.3407284987037045
1759830135.3054442,1,7.410618368146359,6.000009538805728,3.141591498053806,0.27579274839825413,True,0.010256052017211914,7.412400245666504,6.000009536743164,3.1415915489196777,0.27579274839825413,0.0,0.3407284987037045
1759830135.316914,1,7.4105113563261,6.000009538927098,3.1415914989958917,0.27579274839825413,True,0.011469841003417969,7.412400245666504,6.000009536743164,3.1415915489196777,0.27579274839825413,0.0,0.3407284987037045
1759830135.3276403,1,7.4105488177438925,6.000009538881794,3.141591500798233,0.27579274839825413,True,0.010726213455200195,7.412400245666504,6.000009536743164,3.1415915489196777,0.27579274839825413,0.0,0.3407284987037045
1759830135.34558,1,7.366484767076053,6.0000110137691225,3.141591495544377,0.3416761390946275,True,0.01793980598449707,7.3430399894714355,6.000011920928955,3.1415915489196777,0.3416761390946275,0.0,0.3407284987037045
1759830135.355338,1,7.35072159460997,6.000011575899196,3.1415915000392722,0.3416761390946275,True,0.00975799560546875,7.3430399894714355,6.000011920928955,3.1415915489196777,0.3416761390946275,0.0,0.23842654716902878
1759830135.3666418,1,7.344498875466335,6.000011790840798,3.1415915027091827,0.3416761390946275,True,0.01130366325378418,7.3430399894714355,6.000011920928955,3.1415915489196777,0.3416761390946275,0.0,0.39648148761718005
1759830135.3777392,1,7.342148923329609,6.0000118729062635,3.141591505088675,0.3416761390946275,True,0.011097431182861328,7.3430399894714355,6.000011920928955,3.1415915489196777,0.3416761390946275,0.0,0.39648148761718005
1759830135.3879793,1,7.341363213514237,6.000011904120486,3.1415915078554377,0.3416761390946275,True,0.01024007797241211,7.3430399894714355,6.000011920928955,3.1415915489196777,0.3416761390946275,0.0,0.39648148761718005
1759830135.3981447,1,7.341072838281697,6.000011916028446,3.1415915102163776,0.3416761390946275,True,0.01016545295715332,7.3430399894714355,6.000011920928955,3.1415915489196777,0.3416761390946275,0.0,0.39648148761718005
1759830135.4082162,1,7.34097418439506,6.00001192055977,3.1415915122404563,0.3416761390946275,True,0.010071516036987305,7.3430399894714355,6.000011920928955,3.1415915489196777,0.3416761390946275,0.0,0.39648148761718005
1759830135.4211078,1,7.340568465556901,6.000011922708275,3.1415915117980227,0.3416761390946275,True,0.012891530990600586,7.3430399894714355,6.000011920928955,3.1415915489196777,0.3416761390946275,0.0,0.39648148761718005
1759830135.4325485,1,7.340602833737249,6.0000119233132905,3.141591512831731,0.3416761390946275,True,0.011440753936767578,7.3430399894714355,6.000011920928955,3.1415915489196777,0.3416761390946275,0.0,0.39648148761718005
1759830135.446042,1,7.340348055104718,6.000011923848634,3.1415915125599447,0.3416761390946275,True,0.013493537902832031,7.3430399894714355,6.000011920928955,3.1415915489196777,0.3416761390946275,0.0,0.39648148761718005
1759830135.4576604,1,7.3404954632453485,6.000011923774124,3.1415915140094075,0.3416761390946275,True,0.011618375778198242,7.3430399894714355,6.000011920928955,3.1415915489196777,0.3416761390946275,0.0,0.39648148761718005
1759830135.471078,1,7.340316969131992,6.000011924011183,3.141591514317284,0.3416761390946275,True,0.013417482376098633,7.3430399894714355,6.000011920928955,3.1415915489196777,0.3416761390946275,0.0,0.39648148761718005
1759830135.4824095,1,7.34052102163798,6.0000119237908525,3.141591516184386,0.3416761390946275,True,0.011331558227539062,7.3430399894714355,6.000011920928955,3.1415915489196777,0.3416761390946275,0.0,0.39648148761718005
1759830135.4958644,1,7.340321846405614,6.000011924019298,3.1415915166371082,0.3416761390946275,True,0.013454914093017578,7.3430399894714355,6.000011920928955,3.1415915489196777,0.3416761390946275,0.0,0.39648148761718005
1759830135.5071273,1,7.340531845910068,6.000011923780333,3.1415915185195296,0.3416761390946275,True,0.011262893676757812,7.3430399894714355,6.000011920928955,3.1415915489196777,0.3416761390946275,0.0,0.39648148761718005
1759830135.5202918,1,7.34036387982267,6.000011923968135,3.1415915191670454,0.3416761390946275,True,0.013164520263671875,7.3430399894714355,6.000011920928955,3.1415915489196777,0.3416761390946275,0.0,0.39648148761718005
1759830135.5308378,1,7.340641466132972,6.000011923650916,3.1415915212785634,0.3416761390946275,True,0.010545969009399414,7.3430399894714355,6.000011920928955,3.1415915489196777,0.3416761390946275,0.0,0.39648148761718005
1759830135.5519755,1,7.289407433840737,6.0000154620027,3.1415915176957334,0.39477653791881023,True,0.021137714385986328,7.262900352478027,6.0000176429748535,3.1415915489196777,0.39477653791881023,0.0,0.39648148761718005
1759830135.562029,1,7.271509192738903,6.000016811639901,3.1415915210183147,0.39477653791881023,True,0.010053396224975586,7.262900352478027,6.0000176429748535,3.1415915489196777,0.39477653791881023,0.0,0.28979165124365913
1759830135.5729008,1,7.264549251723489,6.0000173272897666,3.1415915234919183,0.39477653791881023,True,0.01087188720703125,7.262900352478027,6.0000176429748535,3.1415915489196777,0.39477653791881023,0.0,0.48837640156349593
1759830135.5867379,1,7.26144366290153,6.000017524751869,3.141591524097958,0.39477653791881023,True,0.013837099075317383,7.262900352478027,6.0000176429748535,3.1415915489196777,0.39477653791881023,0.0,0.48837640156349593
1759830135.5977745,1,7.260679719003433,6.000017599697199,3.141591525896052,0.39477653791881023,True,0.01103663444519043,7.262900352478027,6.0000176429748535,3.1415915489196777,0.39477653791881023,0.0,0.48837640156349593
1759830135.6116471,1,7.259960276160232,6.0000176288031986,3.1415915262874936,0.39477653791881023,True,0.013872623443603516,7.262900352478027,6.0000176429748535,3.1415915489196777,0.39477653791881023,0.0,0.48837640156349593
1759830135.6280487,1,7.259304136647115,6.000017640349924,3.141591525824257,0.39477653791881023,True,0.01640152931213379,7.262900352478027,6.0000176429748535,3.1415915489196777,0.39477653791881023,0.0,0.48837640156349593
1759830135.6388545,1,7.259897293676664,6.000017643809541,3.141591527853702,0.39477653791881023,True,0.010805845260620117,7.262900352478027,6.0000176429748535,3.1415915489196777,0.39477653791881023,0.0,0.48837640156349593
1759830135.6530569,1,7.259611695453726,6.000017645704442,3.14159152840495,0.39477653791881023,True,0.014202356338500977,7.262900352478027,6.0000176429748535,3.1415915489196777,0.39477653791881023,0.0,0.48837640156349593
1759830135.6643171,1,7.25994624726491,6.000017645927742,3.141591529952377,0.39477653791881023,True,0.011260271072387695,7.262900352478027,6.0000176429748535,3.1415915489196777,0.39477653791881023,0.0,0.48837640156349593
1759830135.677712,1,7.259752161548216,6.000017646372197,3.14159153057607,0.39477653791881023,True,0.013394832611083984,7.262900352478027,6.0000176429748535,3.1415915489196777,0.39477653791881023,0.0,0.48837640156349593
1759830135.68917,1,7.259970096804678,6.000017646212634,3.141591531773175,0.39477653791881023,True,0.01145792007446289,7.262900352478027,6.0000176429748535,3.1415915489196777,0.39477653791881023,0.0,0.48837640156349593
1759830135.7025611,1,7.259761810533216,6.0000176464767625,3.1415915322295795,0.39477653791881023,True,0.013391256332397461,7.262900352478027,6.0000176429748535,3.1415915489196777,0.39477653791881023,0.0,0.48837640156349593
1759830135.7140434,1,7.259970115343305,6.000017646253856,3.141591533247535,0.39477653791881023,True,0.01148223876953125,7.262900352478027,6.0000176429748535,3.1415915489196777,0.39477653791881023,0.0,0.48837640156349593
1759830135.7254522,1,7.260060753740655,6.000017646154563,3.141591534158099,0.39477653791881023,True,0.011408805847167969,7.262900352478027,6.0000176429748535,3.1415915489196777,0.39477653791881023,0.0,0.48837640156349593
1759830135.7370443,1,7.260067727879394,6.000017646146046,3.1415915348779286,0.39477653791881023,True,0.01159214973449707,7.262900352478027,6.0000176429748535,3.1415915489196777,0.39477653791881023,0.0,0.48837640156349593
1759830135.7548008,1,7.198404623836205,6.000020005424006,3.1415915338551184,0.4772929587948315,True,0.01775646209716797,7.16553258895874,6.000021457672119,3.1415915489196777,0.4772929587948315,0.0,0.6978323089161762
1759830135.7660208,1,7.176043078257111,6.000020905253667,3.14159153502,0.4772929587948315,True,0.011219978332519531,7.16553258895874,6.000021457672119,3.1415915489196777,0.4772929587948315,0.0,0.5592063349862864
1759830135.7790039,1,7.167180296693451,6.000021249314821,3.1415915356380175,0.4772929587948315,True,0.012983083724975586,7.16553258895874,6.000021457672119,3.1415915489196777,0.4772929587948315,0.0,0.5592063349862864
1759830135.7898045,1,7.164192903287783,6.000021380287933,3.141591536671534,0.4772929587948315,True,0.010800600051879883,7.16553258895874,6.000021457672119,3.1415915489196777,0.4772929587948315,0.0,0.5592063349862864
1759830135.8037684,1,7.162475113435137,6.0000214309574105,3.1415915368398952,0.4772929587948315,True,0.013963937759399414,7.16553258895874,6.000021457672119,3.1415915489196777,0.4772929587948315,0.0,0.5592063349862864
1759830135.8151138,1,7.162296363358267,6.000021449777742,3.1415915375992647,0.4772929587948315,True,0.011345386505126953,7.16553258895874,6.000021457672119,3.1415915489196777,0.4772929587948315,0.0,0.5592063349862864
1759830135.8255923,1,7.16238612934108,6.000021456788512,3.1415915384401814,0.4772929587948315,True,0.010478496551513672,7.16553258895874,6.000021457672119,3.1415915489196777,0.4772929587948315,0.0,0.5592063349862864
1759830135.8374429,1,7.162170269969428,6.000021459743793,3.141591538854483,0.4772929587948315,True,0.011850595474243164,7.16553258895874,6.000021457672119,3.1415915489196777,0.4772929587948315,0.0,0.5592063349862864
1759830135.8479197,1,7.162338270214417,6.0000214605925,3.1415915394760034,0.4772929587948315,True,0.010476827621459961,7.16553258895874,6.000021457672119,3.1415915489196777,0.4772929587948315,0.0,0.5592063349862864
1759830135.8589745,1,7.1622970789734275,6.000021461032905,3.1415915398968632,0.4772929587948315,True,0.011054754257202148,7.16553258895874,6.000021457672119,3.1415915489196777,0.4772929587948315,0.0,0.5592063349862864
1759830135.8714075,1,7.162030068276921,6.000021461480171,3.1415915400197374,0.4772929587948315,True,0.012433052062988281,7.16553258895874,6.000021457672119,3.1415915489196777,0.4772929587948315,0.0,0.5592063349862864
1759830135.8827074,1,7.1621346732435445,6.000021461420636,3.141591540374259,0.4772929587948315,True,0.011299848556518555,7.16553258895874,6.000021457672119,3.1415915489196777,0.4772929587948315,0.0,0.5592063349862864
1759830135.8964527,1,7.161728797852209,6.000021461893548,3.141591540318803,0.4772929587948315,True,0.013745307922363281,7.16553258895874,6.000021457672119,3.1415915489196777,0.4772929587948315,0.0,0.5592063349862864
1759830135.9077191,1,7.162025683423447,6.000021461571128,3.141591540749465,0.4772929587948315,True,0.011266469955444336,7.16553258895874,6.000021457672119,3.1415915489196777,0.4772929587948315,0.0,0.5592063349862864
1759830135.920907,1,7.161788790992382,6.000021461836963,3.141591540866507,0.4772929587948315,True,0.013187885284423828,7.16553258895874,6.000021457672119,3.1415915489196777,0.4772929587948315,0.0,0.5592063349862864
1759830135.9312387,1,7.162219029015343,6.000021461358731,3.1415915414366857,0.4772929587948315,True,0.01033163070678711,7.16553258895874,6.000021457672119,3.1415915489196777,0.4772929587948315,0.0,0.5592063349862864
1759830135.9422889,1,7.162252358742557,6.000021461320714,3.141591541822244,0.4772929587948315,True,0.011050224304199219,7.16553258895874,6.000021457672119,3.1415915489196777,0.4772929587948315,0.0,0.5592063349862864
1759830135.9605186,1,7.08781720454251,6.000023820860785,3.141591541083141,0.5396287378474801,True,0.01822972297668457,7.047893524169922,6.000025272369385,3.1415915489196777,0.5396287378474801,0.0,0.5592063349862864
1759830135.9706478,1,7.061055181319644,6.000024720265864,3.141591541832616,0.5396287378474801,True,0.010129213333129883,7.047893524169922,6.000025272369385,3.1415915489196777,0.5396287378474801,0.0,0.6337001953347565
1759830135.9820783,1,7.05056477666171,6.000025064104183,3.1415915422922165,0.5396287378474801,True,0.011430501937866211,7.047893524169922,6.000025272369385,3.1415915489196777,0.5396287378474801,0.0,0.6337001953347565
1759830135.9923315,1,7.046800465777384,6.000025195167765,3.141591542796588,0.5396287378474801,True,0.010253190994262695,7.047893524169922,6.000025272369385,3.1415915489196777,0.5396287378474801,0.0,0.6337001953347565
1759830136.0040014,1,7.045070620454777,6.000025245552879,3.141591543036407,0.5396287378474801,True,0.01166987419128418,7.047893524169922,6.000025272369385,3.1415915489196777,0.5396287378474801,0.0,0.6337001953347565
