timestamp,vehicle_id,x,y,theta,velocity,gps_available,dt,gps_x,gps_y,gps_theta,gps_velocity,control_steering,control_acceleration
1759830131.906794,0,0.0,6.0,-0.05483113549895435,0.0,False,0.01,nan,nan,nan,nan,0.0,0.0
1759830131.9176817,0,0.0,6.0,-0.05483113549895435,0.0,False,0.010887622833251953,nan,nan,nan,nan,0.0,0.0
1759830131.9287384,0,0.0,6.0,-0.05483113549895435,0.0,False,0.011056661605834961,nan,nan,nan,nan,0.0,0.0
1759830131.939694,0,0.0,6.0,-0.05483113549895435,0.0,False,0.010955572128295898,nan,nan,nan,nan,0.0,0.0
1759830131.9498506,0,0.0,6.0,-0.05483113549895435,0.0,False,0.010156631469726562,nan,nan,nan,nan,0.0,0.0
1759830131.9607124,0,0.0,6.0,-0.05483113549895435,0.0,False,0.010861873626708984,nan,nan,nan,nan,0.0,0.0
1759830131.9712627,0,0.0,6.0,-0.05483113549895435,0.0,False,0.010550260543823242,nan,nan,nan,nan,0.0,0.0
1759830131.9824438,0,0.0,6.0,-0.05483113549895435,0.0,False,0.011181116104125977,nan,nan,nan,nan,0.0,0.0
1759830131.9938352,0,0.0,6.0,-0.05483113549895435,0.0,False,0.011391401290893555,nan,nan,nan,nan,0.0,0.0
1759830132.0040221,0,0.0,6.0,-0.05483113549895435,0.0,False,0.010186910629272461,nan,nan,nan,nan,0.0,0.0
1759830132.0146124,0,0.0,6.0,-0.05483113549895435,0.0,False,0.010590314865112305,nan,nan,nan,nan,0.0,0.0
1759830132.025743,0,0.0,6.0,-0.05483113549895435,0.0,False,0.011130571365356445,nan,nan,nan,nan,0.0,0.0
1759830132.0370493,0,0.0,6.0,-0.05483113549895435,0.0,False,0.011306285858154297,nan,nan,nan,nan,0.0,0.0
1759830132.0482984,0,0.0,6.0,-0.05483113549895435,0.0,False,0.011249065399169922,nan,nan,nan,nan,0.0,0.0
1759830132.0586154,0,0.0,6.0,-0.05483113549895435,0.0,False,0.010317087173461914,nan,nan,nan,nan,0.0,0.0
1759830132.0687428,0,0.0,6.0,-0.05483113549895435,0.0,False,0.01012730598449707,nan,nan,nan,nan,0.0,0.0
1759830132.0788236,0,0.0,6.0,-0.05483113549895435,0.0,False,0.010080814361572266,nan,nan,nan,nan,0.0,0.0
1759830132.0889285,0,0.0,6.0,-0.05483113549895435,0.0,False,0.010104894638061523,nan,nan,nan,nan,0.0,0.0
1759830132.1052637,0,3.026326429752165e-07,5.999997635682424,-2.87985042413543,0.0,True,0.016335248947143555,3.0517577442878974e-07,5.999997615814209,3.1415913105010986,0.0,0.0,0.0
1759830132.1155353,0,3.043257026337235e-07,5.999997622455395,-3.1210502129098145,0.0,True,0.010271549224853516,3.0517577442878974e-07,5.999997615814209,3.1415913105010986,0.0,0.0,0.0
1759830132.1267147,0,3.0485688647222883e-07,5.999997618305521,3.13923663885555,0.0,True,0.011179447174072266,3.0517577442878974e-07,5.999997615814209,3.1415913105010986,0.0,0.0,0.0
1759830132.1380346,0,3.050542872574407e-07,5.999997616763327,3.136176621329719,0.0,True,0.011319875717163086,3.0517577442878974e-07,5.999997615814209,3.1415913105010986,0.0,0.0,0.0
1759830132.14807,0,3.0512938808216737e-07,5.999997616176602,3.1360275591578475,0.0,True,0.010035514831542969,3.0517577442878974e-07,5.999997615814209,3.1415913105010986,0.0,0.0,0.0
1759830132.1595788,0,3.051580574026981e-07,5.999997615952623,3.1362754116377616,0.0,True,0.011508703231811523,3.0517577442878974e-07,5.999997615814209,3.1415913105010986,0.0,0.0,0.0
1759830132.1703355,0,3.0516900718170733e-07,5.999997615867078,3.136879637918522,0.0,True,0.010756731033325195,3.0517577442878974e-07,5.999997615814209,3.1415913105010986,0.0,0.0,0.0
1759830132.1809137,0,3.051731895734631e-07,5.9999976158344035,3.137490701089966,0.0,True,0.010578155517578125,3.0517577442878974e-07,5.999997615814209,3.1415913105010986,0.0,0.0,0.0
1759830132.1920047,0,3.0517478710208084e-07,5.999997615821923,3.137986503730861,0.0,True,0.011090993881225586,3.0517577442878974e-07,5.999997615814209,3.1415913105010986,0.0,0.0,0.0
1759830132.2022529,0,3.051753973035544e-07,5.999997615817155,3.138467435240562,0.0,True,0.010248184204101562,3.0517577442878974e-07,5.999997615814209,3.1415913105010986,0.0,0.0,0.0
1759830132.2136884,0,3.051756303797684e-07,5.999997615815334,3.1387942280707932,0.0,True,0.011435508728027344,3.0517577442878974e-07,5.999997615814209,3.1415913105010986,0.0,0.0,0.0
1759830132.22482,0,3.0517571940695965e-07,5.999997615814639,3.1390982411289983,0.0,True,0.011131525039672852,3.0517577442878974e-07,5.999997615814209,3.1415913105010986,0.0,0.0,0.0
1759830132.236097,0,3.0517575341232075e-07,5.999997615814373,3.1393541433193484,0.0,True,0.011277198791503906,3.0517577442878974e-07,5.999997615814209,3.1415913105010986,0.0,0.0,0.0
1759830132.2464094,0,3.051757664012129e-07,5.999997615814272,3.139609383189825,0.0,True,0.010312318801879883,3.0517577442878974e-07,5.999997615814209,3.1415913105010986,0.0,0.0,0.0
1759830132.256643,0,3.0517577136252824e-07,5.999997615814233,3.1398173664571374,0.0,True,0.010233640670776367,3.0517577442878974e-07,5.999997615814209,3.1415913105010986,0.0,0.0,0.0
1759830132.2679958,0,3.051757732575821e-07,5.999997615814218,3.139950541273766,0.0,True,0.011352777481079102,3.0517577442878974e-07,5.999997615814209,3.1415913105010986,0.0,0.0,0.0
1759830132.2792916,0,3.0517577398142823e-07,5.9999976158142125,3.140073337158915,0.0,True,0.011295795440673828,3.0517577442878974e-07,5.999997615814209,3.1415913105010986,0.0,0.0,0.0
1759830132.2894819,0,3.0517577425791286e-07,5.999997615814211,3.14021509360364,0.0,True,0.010190248489379883,3.0517577442878974e-07,5.999997615814209,3.1415913105010986,0.0,0.0,0.0
1759830132.3052452,0,3.0517577436352055e-07,5.99999761581421,3.1401988836137207,0.0,True,0.015763282775878906,3.0517577442878974e-07,5.999997615814209,3.1415913105010986,0.0,0.0,0.0
1759830132.3159592,0,3.051757744038591e-07,5.999997615814209,3.1403378431417845,0.0,True,0.010714054107666016,3.0517577442878974e-07,5.999997615814209,3.1415913105010986,0.0,0.0,0.0
1759830132.327433,0,3.051757744192671e-07,5.999997615814209,3.1404418608830795,0.0,True,0.011473894119262695,3.0517577442878974e-07,5.999997615814209,3.1415913105010986,0.0,0.0,0.0
1759830132.3378785,0,3.051757744251524e-07,5.999997615814209,3.1405490700635994,0.0,True,0.010445356369018555,3.0517577442878974e-07,5.999997615814209,3.1415913105010986,0.0,0.0,0.0
1759830132.348491,0,3.051757744274004e-07,5.999997615814209,3.1406328105874994,0.0,True,0.01061248779296875,3.0517577442878974e-07,5.999997615814209,3.1415913105010986,0.0,0.0,0.0
1759830132.3588252,0,3.0517577442825907e-07,5.999997615814209,3.1407065609584013,0.0,True,0.010334253311157227,3.0517577442878974e-07,5.999997615814209,3.1415913105010986,0.0,0.0,0.0
1759830132.3699613,0,3.0517577442858703e-07,5.999997615814209,3.1407544655501773,0.0,True,0.011136054992675781,3.0517577442878974e-07,5.999997615814209,3.1415913105010986,0.0,0.0,0.0
1759830132.3800592,0,3.051757744287123e-07,5.999997615814209,3.1408143159365665,0.0,True,0.010097980499267578,3.0517577442878974e-07,5.999997615814209,3.1415913105010986,0.0,0.0,0.0
1759830132.3901186,0,3.0517577442876014e-07,5.999997615814209,3.140865865506182,0.0,True,0.010059356689453125,3.0517577442878974e-07,5.999997615814209,3.1415913105010986,0.0,0.0,0.0
1759830132.4016669,0,3.051757744287784e-07,5.999997615814209,3.1408878445270965,0.0,True,0.011548280715942383,3.0517577442878974e-07,5.999997615814209,3.1415913105010986,0.0,0.0,0.0
1759830132.4119308,0,3.051757744287854e-07,5.999997615814209,3.140929096381516,0.0,True,0.010263919830322266,3.0517577442878974e-07,5.999997615814209,3.1415913105010986,0.0,0.0,0.0
1759830132.4227533,0,3.051757744287881e-07,5.999997615814209,3.1409589267227602,0.0,True,0.010822534561157227,3.0517577442878974e-07,5.999997615814209,3.1415913105010986,0.0,0.0,0.0
1759830132.4342906,0,3.051757744287891e-07,5.999997615814209,3.140977816818765,0.0,True,0.011537313461303711,3.0517577442878974e-07,5.999997615814209,3.1415913105010986,0.0,0.0,0.0
1759830132.4443324,0,3.0517577442878947e-07,5.999997615814209,3.141016407603308,0.0,True,0.01004171371459961,3.0517577442878974e-07,5.999997615814209,3.1415913105010986,0.0,0.0,0.0
1759830132.454905,0,3.0517577442878963e-07,5.999997615814209,3.1410441724202602,0.0,True,0.010572671890258789,3.0517577442878974e-07,5.999997615814209,3.1415913105010986,0.0,0.0,0.0
1759830132.4654188,0,3.051757744287897e-07,5.999997615814209,3.141069653413057,0.0,True,0.010513782501220703,3.0517577442878974e-07,5.999997615814209,3.1415913105010986,0.0,0.0,0.0
1759830132.4767818,0,3.0517577442878974e-07,5.999997615814209,3.1410840267457782,0.0,True,0.011363029479980469,3.0517577442878974e-07,5.999997615814209,3.1415913105010986,0.0,0.0,0.0
1759830132.4873335,0,3.0517577442878974e-07,5.999997615814209,3.141107847476432,0.0,True,0.010551691055297852,3.0517577442878974e-07,5.999997615814209,3.1415913105010986,0.0,0.0,0.0
1759830132.5012991,0,3.0517577442878974e-07,5.999997615814209,3.1410974308625175,0.0,True,0.013965606689453125,3.0517577442878974e-07,5.999997615814209,3.1415913105010986,0.0,0.0,0.0
1759830132.5083826,0,3.0517577442878974e-07,5.999997615814209,3.1411596513820346,0.0,True,0.007083415985107422,3.0517577442878974e-07,5.999997615814209,3.1415913105010986,0.0,0.0,0.0
1759830132.5184865,0,3.0517577442878974e-07,5.999997615814209,3.1411822909369,0.0,True,0.010103940963745117,3.0517577442878974e-07,5.999997615814209,3.1415913105010986,0.0,0.0,0.0
1759830132.5293622,0,3.0517577442878974e-07,5.999997615814209,3.141193160135469,0.0,True,0.010875701904296875,3.0517577442878974e-07,5.999997615814209,3.1415913105010986,0.0,0.0,0.0
1759830132.5408428,0,3.0517577442878974e-07,5.999997615814209,3.1411993903081843,0.0,True,0.011480569839477539,3.0517577442878974e-07,5.999997615814209,3.1415913105010986,0.0,0.0,0.0
1759830132.5522099,0,3.0517577442878974e-07,5.999997615814209,3.1412089901138387,0.0,True,0.011367082595825195,3.0517577442878974e-07,5.999997615814209,3.1415913105010986,0.0,0.0,0.0
1759830132.5623255,0,3.0517577442878974e-07,5.999997615814209,3.141229796803511,0.0,True,0.010115623474121094,3.0517577442878974e-07,5.999997615814209,3.1415913105010986,0.0,0.0,0.0
1759830132.5736454,0,3.0517577442878974e-07,5.999997615814209,3.141239504881712,0.0,True,0.011319875717163086,3.0517577442878974e-07,5.999997615814209,3.1415913105010986,0.0,0.0,0.0
1759830132.5846438,0,3.0517577442878974e-07,5.999997615814209,3.141251862999118,0.0,True,0.01099848747253418,3.0517577442878974e-07,5.999997615814209,3.1415913105010986,0.0,0.0,0.0
1759830132.5948882,0,3.0517577442878974e-07,5.999997615814209,3.14126936275348,0.0,True,0.010244369506835938,3.0517577442878974e-07,5.999997615814209,3.1415913105010986,0.0,0.0,0.0
1759830132.605224,0,3.0517577442878974e-07,5.999997615814209,3.1412843150972307,0.0,True,0.010335683822631836,3.0517577442878974e-07,5.999997615814209,3.1415913105010986,0.0,0.0,0.0
1759830132.6165376,0,3.0517577442878974e-07,5.999997615814209,3.141291356385331,0.0,True,0.011313676834106445,3.0517577442878974e-07,5.999997615814209,3.1415913105010986,0.0,0.0,0.0
1759830132.6271882,0,3.0517577442878974e-07,5.999997615814209,3.141303126332362,0.0,True,0.010650634765625,3.0517577442878974e-07,5.999997615814209,3.1415913105010986,0.0,0.0,0.0
1759830132.6386547,0,3.0517577442878974e-07,5.999997615814209,3.1413096897459667,0.0,True,0.011466503143310547,3.0517577442878974e-07,5.999997615814209,3.1415913105010986,0.0,0.0,0.0
1759830132.6487768,0,3.0517577442878974e-07,5.999997615814209,3.1413246534025614,0.0,True,0.010122060775756836,3.0517577442878974e-07,5.999997615814209,3.1415913105010986,0.0,0.0,0.0
1759830132.6590533,0,3.0517577442878974e-07,5.999997615814209,3.1413371609422818,0.0,True,0.010276556015014648,3.0517577442878974e-07,5.999997615814209,3.1415913105010986,0.0,0.0,0.0
1759830132.6704292,0,3.0517577442878974e-07,5.999997615814209,3.1413423309052266,0.0,True,0.011375904083251953,3.0517577442878974e-07,5.999997615814209,3.1415913105010986,0.0,0.0,0.0
1759830132.680852,0,3.0517577442878974e-07,5.999997615814209,3.1413530225783024,0.0,True,0.010422706604003906,3.0517577442878974e-07,5.999997615814209,3.1415913105010986,0.0,0.0,0.0
1759830132.6914973,0,3.0517577442878974e-07,5.999997615814209,3.1413619535643402,0.0,True,0.010645389556884766,3.0517577442878974e-07,5.999997615814209,3.1415913105010986,0.0,0.0,0.0
1759830132.7029614,0,3.0517577442878974e-07,5.999997615814209,3.1413664525864053,0.0,True,0.011464118957519531,3.0517577442878974e-07,5.999997615814209,3.1415913105010986,0.0,0.0,0.0
1759830132.713373,0,3.0517577442878974e-07,5.999997615814209,3.1413765371760327,0.0,True,0.010411500930786133,3.0517577442878974e-07,5.999997615814209,3.1415913105010986,0.0,0.0,0.0
1759830132.7247365,0,3.0517577442878974e-07,5.999997615814209,3.141381727843399,0.0,True,0.011363506317138672,3.0517577442878974e-07,5.999997615814209,3.1415913105010986,0.0,0.0,0.0
1759830132.7362049,0,3.0517577442878974e-07,5.999997615814209,3.1413868529198243,0.0,True,0.01146841049194336,3.0517577442878974e-07,5.999997615814209,3.1415913105010986,0.0,0.0,0.0
1759830132.7464552,0,3.0517577442878974e-07,5.999997615814209,3.141397549252307,0.0,True,0.010250329971313477,3.0517577442878974e-07,5.999997615814209,3.1415913105010986,0.0,0.0,0.0
1759830132.7577262,0,3.0517577442878974e-07,5.999997615814209,3.141403084191648,0.0,True,0.011270999908447266,3.0517577442878974e-07,5.999997615814209,3.1415913105010986,0.0,0.0,0.0
1759830132.7691271,0,3.0517577442878974e-07,5.999997615814209,3.1414081176454225,0.0,True,0.011400938034057617,3.0517577442878974e-07,5.999997615814209,3.1415913105010986,0.0,0.0,0.0
1759830132.7797494,0,3.0517577442878974e-07,5.999997615814209,3.1414163537036686,0.0,True,0.010622262954711914,3.0517577442878974e-07,5.999997615814209,3.1415913105010986,0.0,0.0,0.0
1759830132.791071,0,3.0517577442878974e-07,5.999997615814209,3.1414214881406224,0.0,True,0.011321544647216797,3.0517577442878974e-07,5.999997615814209,3.1415913105010986,0.0,0.0,0.0
1759830132.8021107,0,3.0517577442878974e-07,5.999997615814209,3.141427604882473,0.0,True,0.01103973388671875,3.0517577442878974e-07,5.999997615814209,3.1415913105010986,0.0,0.0,0.0
1759830132.8122299,0,3.0517577442878974e-07,5.999997615814209,3.1414365587083246,0.0,True,0.010119199752807617,3.0517577442878974e-07,5.999997615814209,3.1415913105010986,0.0,0.0,0.0
1759830132.8233945,0,3.0517577442878974e-07,5.999997615814209,3.141441032113214,0.0,True,0.011164665222167969,3.0517577442878974e-07,5.999997615814209,3.1415913105010986,0.0,0.0,0.0
1759830132.8337915,0,3.0517577442878974e-07,5.999997615814209,3.141447747340445,0.0,True,0.010396957397460938,3.0517577442878974e-07,5.999997615814209,3.1415913105010986,0.0,0.0,0.0
1759830132.844598,0,3.0517577442878974e-07,5.999997615814209,3.141452662271316,0.0,True,0.010806560516357422,3.0517577442878974e-07,5.999997615814209,3.1415913105010986,0.0,0.0,0.0
1759830132.8546844,0,3.0517577442878974e-07,5.999997615814209,3.14145936898392,0.0,True,0.010086297988891602,3.0517577442878974e-07,5.999997615814209,3.1415913105010986,0.0,0.0,0.0
1759830132.8659196,0,3.0517577442878974e-07,5.999997615814209,3.1414621379272045,0.0,True,0.011235237121582031,3.0517577442878974e-07,5.999997615814209,3.1415913105010986,0.0,0.0,0.0
1759830132.8765984,0,3.0517577442878974e-07,5.999997615814209,3.1414666260456805,0.0,True,0.010678768157958984,3.0517577442878974e-07,5.999997615814209,3.1415913105010986,0.0,0.0,0.0
1759830132.8868155,0,3.0517577442878974e-07,5.999997615814209,3.141472214675286,0.0,True,0.01021718978881836,3.0517577442878974e-07,5.999997615814209,3.1415913105010986,0.0,0.0,0.0
1759830132.9059734,0,3.0517577442878974e-07,5.999997615814209,3.1414555054673343,0.0,True,0.019157886505126953,3.0517577442878974e-07,5.999997615814209,3.1415913105010986,0.0,0.0,0.0
1759830132.9111903,0,3.0517577442878974e-07,5.999997615814209,3.14147784434995,0.0,True,0.005216836929321289,3.0517577442878974e-07,5.999997615814209,3.1415913105010986,0.0,0.0,0.0
1759830132.922598,0,3.0517577442878974e-07,5.999997615814209,3.1414818907508355,0.0,True,0.011407613754272461,3.0517577442878974e-07,5.999997615814209,3.1415913105010986,0.0,0.0,0.0
1759830132.932722,0,3.0517577442878974e-07,5.999997615814209,3.1414876184718707,0.0,True,0.01012420654296875,3.0517577442878974e-07,5.999997615814209,3.1415913105010986,0.0,0.0,0.0
1759830132.9441404,0,3.0517577442878974e-07,5.999997615814209,3.1414898574524877,0.0,True,0.011418342590332031,3.0517577442878974e-07,5.999997615814209,3.1415913105010986,0.0,0.0,0.0
1759830132.9545949,0,3.0517577442878974e-07,5.999997615814209,3.141494234732649,0.0,True,0.010454416275024414,3.0517577442878974e-07,5.999997615814209,3.1415913105010986,0.0,0.0,0.0
1759830132.9649637,0,3.0517577442878974e-07,5.999997615814209,3.1414984605590277,0.0,True,0.010368824005126953,3.0517577442878974e-07,5.999997615814209,3.1415913105010986,0.0,0.0,0.0
1759830132.9751868,0,3.0517577442878974e-07,5.999997615814209,3.1415025136428625,0.0,True,0.010223150253295898,3.0517577442878974e-07,5.999997615814209,3.1415913105010986,0.0,0.0,0.0
1759830132.985603,0,3.0517577442878974e-07,5.999997615814209,3.141505752084244,0.0,True,0.010416269302368164,3.0517577442878974e-07,5.999997615814209,3.1415913105010986,0.0,0.0,0.0
1759830132.9972188,0,3.0517577442878974e-07,5.999997615814209,3.1415065728228218,0.0,True,0.011615753173828125,3.0517577442878974e-07,5.999997615814209,3.1415913105010986,0.0,0.0,0.0
1759830133.007449,0,3.0517577442878974e-07,5.999997615814209,3.1415102977466454,0.0,True,0.010230064392089844,3.0517577442878974e-07,5.999997615814209,3.1415913105010986,0.0,0.0,0.0
1759830133.0188186,0,3.0517577442878974e-07,5.999997615814209,3.141511859537715,0.0,True,0.011369705200195312,3.0517577442878974e-07,5.999997615814209,3.1415913105010986,0.0,0.0,0.0
1759830133.0303795,0,3.0517577442878974e-07,5.999997615814209,3.1415133260913493,0.0,True,0.011560916900634766,3.0517577442878974e-07,5.999997615814209,3.1415913105010986,0.0,0.0,0.0
1759830133.0418825,0,3.0517577442878974e-07,5.999997615814209,3.1415152496649537,0.0,True,0.011502981185913086,3.0517577442878974e-07,5.999997615814209,3.1415913105010986,0.0,0.0,0.0
1759830133.053108,0,3.0517577442878974e-07,5.999997615814209,3.1415178234467724,0.0,True,0.011225461959838867,3.0517577442878974e-07,5.999997615814209,3.1415913105010986,0.0,0.0,0.0
1759830133.0646176,0,3.0517577442878974e-07,5.999997615814209,3.141519982685651,0.0,True,0.01150965690612793,3.0517577442878974e-07,5.999997615814209,3.1415913105010986,0.0,0.0,0.0
1759830133.0755086,0,3.0517577442878974e-07,5.999997615814209,3.141523065647764,0.0,True,0.010890960693359375,3.0517577442878974e-07,5.999997615814209,3.1415913105010986,0.0,0.0,0.0
1759830133.0856206,0,3.0517577442878974e-07,5.999997615814209,3.1415269703438202,0.0,True,0.01011204719543457,3.0517577442878974e-07,5.999997615814209,3.1415913105010986,0.0,0.0,0.0
1759830133.096984,0,3.0517577442878974e-07,5.999997615814209,3.141528667500758,0.0,True,0.01136326789855957,3.0517577442878974e-07,5.999997615814209,3.1415913105010986,0.0,0.0,0.0
1759830133.1082118,0,3.0517577442878974e-07,5.999997615814209,3.1415305304141405,0.0,True,0.011227846145629883,3.0517577442878974e-07,5.999997615814209,3.1415913105010986,0.0,0.0,0.0
1759830133.1184678,0,3.0517577442878974e-07,5.999997615814209,3.1415336221578727,0.0,True,0.010256052017211914,3.0517577442878974e-07,5.999997615814209,3.1415913105010986,0.0,0.0,0.0
1759830133.1300063,0,3.0517577442878974e-07,5.999997615814209,3.1415348528862292,0.0,True,0.011538505554199219,3.0517577442878974e-07,5.999997615814209,3.1415913105010986,0.0,0.0,0.0
1759830133.1408556,0,3.0517577442878974e-07,5.999997615814209,3.1415369671357816,0.0,True,0.010849237442016602,3.0517577442878974e-07,5.999997615814209,3.1415913105010986,0.0,0.0,0.0
1759830133.1521382,0,3.0517577442878974e-07,5.999997615814209,3.1415385350981957,0.0,True,0.011282682418823242,3.0517577442878974e-07,5.999997615814209,3.1415913105010986,0.0,0.0,0.0
1759830133.1634998,0,3.0517577442878974e-07,5.999997615814209,3.1415400439737446,0.0,True,0.01136159896850586,3.0517577442878974e-07,5.999997615814209,3.1415913105010986,0.0,0.0,0.0
1759830133.1747937,0,3.0517577442878974e-07,5.999997615814209,3.141541680779733,0.0,True,0.011293888092041016,3.0517577442878974e-07,5.999997615814209,3.1415913105010986,0.0,0.0,0.0
1759830133.1861281,0,3.0517577442878974e-07,5.999997615814209,3.141543288473466,0.0,True,0.011334419250488281,3.0517577442878974e-07,5.999997615814209,3.1415913105010986,0.0,0.0,0.0
1759830133.1963031,0,3.0517577442878974e-07,5.999997615814209,3.1415459848478164,0.0,True,0.010174989700317383,3.0517577442878974e-07,5.999997615814209,3.1415913105010986,0.0,0.0,0.0
1759830133.20761,0,3.0517577442878974e-07,5.999997615814209,3.1415472881603943,0.0,True,0.0113067626953125,3.0517577442878974e-07,5.999997615814209,3.1415913105010986,0.0,0.0,0.0
1759830133.2186265,0,3.0517577442878974e-07,5.999997615814209,3.141548814105393,0.0,True,0.011016607284545898,3.0517577442878974e-07,5.999997615814209,3.1415913105010986,0.0,0.0,0.0
1759830133.228946,0,3.0517577442878974e-07,5.999997615814209,3.14155089455825,0.0,True,0.01031947135925293,3.0517577442878974e-07,5.999997615814209,3.1415913105010986,0.0,0.0,0.0
1759830133.240347,0,3.0517577442878974e-07,5.999997615814209,3.1415518445471555,0.0,True,0.011400938034057617,3.0517577442878974e-07,5.999997615814209,3.1415913105010986,0.0,0.0,0.0
1759830133.251329,0,3.0517577442878974e-07,5.999997615814209,3.1415531741357867,0.0,True,0.010982036590576172,3.0517577442878974e-07,5.999997615814209,3.1415913105010986,0.0,0.0,0.0
1759830133.2627254,0,3.0517577442878974e-07,5.999997615814209,3.141554172619781,0.0,True,0.011396408081054688,3.0517577442878974e-07,5.999997615814209,3.1415913105010986,0.0,0.0,0.0
1759830133.2741337,0,3.0517577442878974e-07,5.999997615814209,3.1415552178785884,0.0,True,0.011408329010009766,3.0517577442878974e-07,5.999997615814209,3.1415913105010986,0.0,0.0,0.0
1759830133.285597,0,3.0517577442878974e-07,5.999997615814209,3.1415562771820014,0.0,True,0.011463403701782227,3.0517577442878974e-07,5.999997615814209,3.1415913105010986,0.0,0.0,0.0
1759830133.2956562,0,3.0517577442878974e-07,5.999997615814209,3.1415583377777594,0.0,True,0.010059118270874023,3.0517577442878974e-07,5.999997615814209,3.1415913105010986,0.0,0.0,0.0
1759830133.306374,0,3.0517577442878974e-07,5.999997615814209,3.1415596756554294,0.0,True,0.01071786880493164,3.0517577442878974e-07,5.999997615814209,3.1415913105010986,0.0,0.0,0.0
1759830133.3168411,0,3.0517577442878974e-07,5.999997615814209,3.1415610229697517,0.0,True,0.010467052459716797,3.0517577442878974e-07,5.999997615814209,3.1415913105010986,0.0,0.0,0.0
1759830133.3282619,0,3.0517577442878974e-07,5.999997615814209,3.1415616421051418,0.0,True,0.011420726776123047,3.0517577442878974e-07,5.999997615814209,3.1415913105010986,0.0,0.0,0.0
1759830133.3395455,0,3.0517577442878974e-07,5.999997615814209,3.1415624147447456,0.0,True,0.011283636093139648,3.0517577442878974e-07,5.999997615814209,3.1415913105010986,0.0,0.0,0.0
1759830133.3497229,0,3.0517577442878974e-07,5.999997615814209,3.141563890813849,0.0,True,0.010177373886108398,3.0517577442878974e-07,5.999997615814209,3.1415913105010986,0.0,0.0,0.0
1759830133.3612056,0,3.0517577442878974e-07,5.999997615814209,3.1415644667121114,0.0,True,0.011482715606689453,3.0517577442878974e-07,5.999997615814209,3.1415913105010986,0.0,0.0,0.0
1759830133.3727372,0,3.0517577442878974e-07,5.999997615814209,3.141565065224169,0.0,True,0.011531591415405273,3.0517577442878974e-07,5.999997615814209,3.1415913105010986,0.0,0.0,0.0
1759830133.3841908,0,3.0517577442878974e-07,5.999997615814209,3.1415657949204796,0.0,True,0.011453628540039062,3.0517577442878974e-07,5.999997615814209,3.1415913105010986,0.0,0.0,0.0
1759830133.3955472,0,3.0517577442878974e-07,5.999997615814209,3.141566620659356,0.0,True,0.011356353759765625,3.0517577442878974e-07,5.999997615814209,3.1415913105010986,0.0,0.0,0.0
1759830133.405912,0,3.0517577442878974e-07,5.999997615814209,3.1415679298711616,0.0,True,0.010364770889282227,3.0517577442878974e-07,5.999997615814209,3.1415913105010986,0.0,0.0,0.0
1759830133.4160547,0,3.0517577442878974e-07,5.999997615814209,3.14156918268009,0.0,True,0.010142803192138672,3.0517577442878974e-07,5.999997615814209,3.1415913105010986,0.0,0.0,0.0
1759830133.4274118,0,3.0517577442878974e-07,5.999997615814209,3.141569693729144,0.0,True,0.01135706901550293,3.0517577442878974e-07,5.999997615814209,3.1415913105010986,0.0,0.0,0.0
1759830133.438279,0,3.0517577442878974e-07,5.999997615814209,3.141570438820974,0.0,True,0.010867118835449219,3.0517577442878974e-07,5.999997615814209,3.1415913105010986,0.0,0.0,0.0
1759830133.4483786,0,3.0517577442878974e-07,5.999997615814209,3.1415714940585424,0.0,True,0.010099649429321289,3.0517577442878974e-07,5.999997615814209,3.1415913105010986,0.0,0.0,0.0
1759830133.4587212,0,3.0517577442878974e-07,5.999997615814209,3.141572318537113,0.0,True,0.010342597961425781,3.0517577442878974e-07,5.999997615814209,3.1415913105010986,0.0,0.0,0.0
1759830133.4695778,0,3.0517577442878974e-07,5.999997615814209,3.1415728440544743,0.0,True,0.01085662841796875,3.0517577442878974e-07,5.999997615814209,3.1415913105010986,0.0,0.0,0.0
1759830133.4798374,0,3.0517577442878974e-07,5.999997615814209,3.1415735968669125,0.0,True,0.010259628295898438,3.0517577442878974e-07,5.999997615814209,3.1415913105010986,0.0,0.0,0.0
1759830133.4911766,0,3.0517577442878974e-07,5.999997615814209,3.14157388827949,0.0,True,0.011339187622070312,3.0517577442878974e-07,5.999997615814209,3.1415913105010986,0.0,0.0,0.0
1759830133.5012684,0,3.0517577442878974e-07,5.999997615814209,3.141574687477087,0.0,True,0.010091781616210938,3.0517577442878974e-07,5.999997615814209,3.1415913105010986,0.0,0.0,0.0
1759830133.5116007,0,3.0517577442878974e-07,5.999997615814209,3.1415753331267418,0.0,True,0.010332345962524414,3.0517577442878974e-07,5.999997615814209,3.1415913105010986,0.0,0.0,0.0
1759830133.523048,0,3.0517577442878974e-07,5.999997615814209,3.1415755405023376,0.0,True,0.01144719123840332,3.0517577442878974e-07,5.999997615814209,3.1415913105010986,0.0,0.0,0.0
1759830133.5344172,0,3.0517577442878974e-07,5.999997615814209,3.14157584587222,0.0,True,0.01136922836303711,3.0517577442878974e-07,5.999997615814209,3.1415913105010986,0.0,0.0,0.0
1759830133.545855,0,3.0517577442878974e-07,5.999997615814209,3.1415761997105403,0.0,True,0.01143789291381836,3.0517577442878974e-07,5.999997615814209,3.1415913105010986,0.0,0.0,0.0
1759830133.5573955,0,3.0517577442878974e-07,5.999997615814209,3.1415765734209327,0.0,True,0.011540412902832031,3.0517577442878974e-07,5.999997615814209,3.1415913105010986,0.0,0.0,0.0
1759830133.5677385,0,3.0517577442878974e-07,5.999997615814209,3.141577335427158,0.0,True,0.010343074798583984,3.0517577442878974e-07,5.999997615814209,3.1415913105010986,0.0,0.0,0.0
1759830133.5780144,0,3.0517577442878974e-07,5.999997615814209,3.141578032557854,0.0,True,0.010275840759277344,3.0517577442878974e-07,5.999997615814209,3.1415913105010986,0.0,0.0,0.0
1759830133.5880668,0,3.0517577442878974e-07,5.999997615814209,3.1415786936163954,0.0,True,0.01005244255065918,3.0517577442878974e-07,5.999997615814209,3.1415913105010986,0.0,0.0,0.0
1759830133.598916,0,3.0517577442878974e-07,5.999997615814209,3.141579050286232,0.0,True,0.010849237442016602,3.0517577442878974e-07,5.999997615814209,3.1415913105010986,0.0,0.0,0.0
1759830133.6095746,0,3.0517577442878974e-07,5.999997615814209,3.1415794461934627,0.0,True,0.010658502578735352,3.0517577442878974e-07,5.999997615814209,3.1415913105010986,0.0,0.0,0.0
1759830133.6197748,0,3.0517577442878974e-07,5.999997615814209,3.1415799475045905,0.0,True,0.010200262069702148,3.0517577442878974e-07,5.999997615814209,3.1415913105010986,0.0,0.0,0.0
1759830133.6299157,0,3.0517577442878974e-07,5.999997615814209,3.1415804168265318,0.0,True,0.01014089584350586,3.0517577442878974e-07,5.999997615814209,3.1415913105010986,0.0,0.0,0.0
1759830133.6409297,0,3.0517577442878974e-07,5.999997615814209,3.141580634033767,0.0,True,0.011013984680175781,3.0517577442878974e-07,5.999997615814209,3.1415913105010986,0.0,0.0,0.0
1759830133.650933,0,3.0517577442878974e-07,5.999997615814209,3.1415811008121324,0.0,True,0.010003328323364258,3.0517577442878974e-07,5.999997615814209,3.1415913105010986,0.0,0.0,0.0
1759830133.6621969,0,3.0517577442878974e-07,5.999997615814209,3.1415812537243184,0.0,True,0.011263847351074219,3.0517577442878974e-07,5.999997615814209,3.1415913105010986,0.0,0.0,0.0
1759830133.6728354,0,3.0517577442878974e-07,5.999997615814209,3.141581573758952,0.0,True,0.01063847541809082,3.0517577442878974e-07,5.999997615814209,3.1415913105010986,0.0,0.0,0.0
1759830133.6831055,0,3.0517577442878974e-07,5.999997615814209,3.141581971447172,0.0,True,0.010270118713378906,3.0517577442878974e-07,5.999997615814209,3.1415913105010986,0.0,0.0,0.0
1759830133.6932292,0,3.0517577442878974e-07,5.999997615814209,3.1415823648530807,0.0,True,0.010123729705810547,3.0517577442878974e-07,5.999997615814209,3.1415913105010986,0.0,0.0,0.0
1759830133.703234,0,3.0517577442878974e-07,5.999997615814209,3.1415827395742077,0.0,True,0.010004758834838867,3.0517577442878974e-07,5.999997615814209,3.1415913105010986,0.0,0.0,0.0
1759830133.714546,0,3.0517577442878974e-07,5.999997615814209,3.1415828317465326,0.0,True,0.011312007904052734,3.0517577442878974e-07,5.999997615814209,3.1415913105010986,0.0,0.0,0.0
1759830133.724755,0,3.0517577442878974e-07,5.999997615814209,3.1415831614003213,0.0,True,0.010209083557128906,3.0517577442878974e-07,5.999997615814209,3.1415913105010986,0.0,0.0,0.0
1759830133.7350142,0,3.0517577442878974e-07,5.999997615814209,3.1415834679659707,0.0,True,0.010259151458740234,3.0517577442878974e-07,5.999997615814209,3.1415913105010986,0.0,0.0,0.0
1759830133.7463567,0,3.0517577442878974e-07,5.999997615814209,3.1415835690428935,0.0,True,0.011342525482177734,3.0517577442878974e-07,5.999997615814209,3.1415913105010986,0.0,0.0,0.0
1759830133.7577116,0,3.0517577442878974e-07,5.999997615814209,3.141583704441807,0.0,True,0.011354923248291016,3.0517577442878974e-07,5.999997615814209,3.1415913105010986,0.0,0.0,0.0
1759830133.7678921,0,3.0517577442878974e-07,5.999997615814209,3.1415840605439964,0.0,True,0.010180473327636719,3.0517577442878974e-07,5.999997615814209,3.1415913105010986,0.0,0.0,0.0
1759830133.7782202,0,3.0517577442878974e-07,5.999997615814209,3.1415843632011935,0.0,True,0.010328054428100586,3.0517577442878974e-07,5.999997615814209,3.1415913105010986,0.0,0.0,0.0
1759830133.789651,0,3.0517577442878974e-07,5.999997615814209,3.1415844733677183,0.0,True,0.011430740356445312,3.0517577442878974e-07,5.999997615814209,3.1415913105010986,0.0,0.0,0.0
1759830133.8007104,0,3.0517577442878974e-07,5.999997615814209,3.1415846615577294,0.0,True,0.01105952262878418,3.0517577442878974e-07,5.999997615814209,3.1415913105010986,0.0,0.0,0.0
1759830133.812061,0,3.0517577442878974e-07,5.999997615814209,3.1415848235471593,0.0,True,0.011350631713867188,3.0517577442878974e-07,5.999997615814209,3.1415913105010986,0.0,0.0,0.0
1759830133.8224995,0,3.0517577442878974e-07,5.999997615814209,3.1415851199933353,0.0,True,0.01043844223022461,3.0517577442878974e-07,5.999997615814209,3.1415913105010986,0.0,0.0,0.0
1759830133.833485,0,3.0517577442878974e-07,5.999997615814209,3.141585321909158,0.0,True,0.010985374450683594,3.0517577442878974e-07,5.999997615814209,3.1415913105010986,0.0,0.0,0.0
1759830133.8448055,0,3.0517577442878974e-07,5.999997615814209,3.1415854751278793,0.0,True,0.01132059097290039,3.0517577442878974e-07,5.999997615814209,3.1415913105010986,0.0,0.0,0.0
1759830133.8561354,0,3.0517577442878974e-07,5.999997615814209,3.1415856375234785,0.0,True,0.011329889297485352,3.0517577442878974e-07,5.999997615814209,3.1415913105010986,0.0,0.0,0.0
1759830133.8674846,0,3.0517577442878974e-07,5.999997615814209,3.1415858069537155,0.0,True,0.011349201202392578,3.0517577442878974e-07,5.999997615814209,3.1415913105010986,0.0,0.0,0.0
1759830133.8776884,0,3.0517577442878974e-07,5.999997615814209,3.1415861060322072,0.0,True,0.010203838348388672,3.0517577442878974e-07,5.999997615814209,3.1415913105010986,0.0,0.0,0.0
1759830133.8890877,0,3.0517577442878974e-07,5.999997615814209,3.141586242115933,0.0,True,0.011399269104003906,3.0517577442878974e-07,5.999997615814209,3.1415913105010986,0.0,0.0,0.0
1759830133.90049,0,3.0517577442878974e-07,5.999997615814209,3.141586379369734,0.0,True,0.011402368545532227,3.0517577442878974e-07,5.999997615814209,3.1415913105010986,0.0,0.0,0.0
1759830133.933408,0,3.0517577442878974e-07,5.999997615814209,3.1415845730058045,0.0,True,0.03291797637939453,3.0517577442878974e-07,5.999997615814209,3.1415913105010986,0.0,0,0
1759830133.9446673,0,3.0517577442878974e-07,5.999997615814209,3.1415853622663477,0.0,True,0.011259317398071289,3.0517577442878974e-07,5.999997615814209,3.1415913105010986,0.0,0,0
1759830133.955397,0,3.0517577442878974e-07,5.999997615814209,3.141586130695975,0.0,True,0.010729551315307617,3.0517577442878974e-07,5.999997615814209,3.1415913105010986,0.0,0,0
1759830133.9657264,0,3.0517577442878974e-07,5.999997615814209,3.141586730940505,0.0,True,0.010329484939575195,3.0517577442878974e-07,5.999997615814209,3.1415913105010986,0.0,0,0
1759830133.976456,0,3.0517577442878974e-07,5.999997615814209,3.1415871447125987,0.0,True,0.010729551315307617,3.0517577442878974e-07,5.999997615814209,3.1415913105010986,0.0,0,0
1759830133.9876328,0,3.0517577442878974e-07,5.999997615814209,3.1415874263920784,0.0,True,0.011176824569702148,3.0517577442878974e-07,5.999997615814209,3.1415913105010986,0.0,0,0
1759830133.998237,0,3.0517577442878974e-07,5.999997615814209,3.1415876916868193,0.0,True,0.010604143142700195,3.0517577442878974e-07,5.999997615814209,3.1415913105010986,0.0,0,0
1759830134.008319,0,3.0517577442878974e-07,5.999997615814209,3.1415879430800437,0.0,True,0.010082006454467773,3.0517577442878974e-07,5.999997615814209,3.1415913105010986,0.0,0,0
1759830134.0186293,0,3.0517577442878974e-07,5.999997615814209,3.14158813060558,0.0,True,0.01031041145324707,3.0517577442878974e-07,5.999997615814209,3.1415913105010986,0.0,0,0
1759830134.0291772,0,3.0517577442878974e-07,5.999997615814209,3.141588269685945,0.0,True,0.010547876358032227,3.0517577442878974e-07,5.999997615814209,3.1415913105010986,0.0,0,0
1759830134.0406265,0,3.0517577442878974e-07,5.999997615814209,3.141588334568457,0.0,True,0.011449337005615234,3.0517577442878974e-07,5.999997615814209,3.1415913105010986,0.0,0,0
1759830134.050654,0,3.0517577442878974e-07,5.999997615814209,3.141588489605745,0.0,True,0.010027408599853516,3.0517577442878974e-07,5.999997615814209,3.1415913105010986,0.0,0,0
1759830134.0615144,0,3.0517577442878974e-07,5.999997615814209,3.1415885776417802,0.0,True,0.010860443115234375,3.0517577442878974e-07,5.999997615814209,3.1415913105010986,0.0,0,0
1759830134.0721262,0,3.0517577442878974e-07,5.999997615814209,3.1415886740045167,0.0,True,0.010611772537231445,3.0517577442878974e-07,5.999997615814209,3.1415913105010986,0.0,0,0
1759830134.0821705,0,3.0517577442878974e-07,5.999997615814209,3.141588796036677,0.0,True,0.010044336318969727,3.0517577442878974e-07,5.999997615814209,3.1415913105010986,0.0,0,0
1759830134.093113,0,3.0517577442878974e-07,5.999997615814209,3.1415888557557636,0.0,True,0.010942459106445312,3.0517577442878974e-07,5.999997615814209,3.1415913105010986,0.0,0,0
1759830134.1038854,0,3.0517577442878974e-07,5.999997615814209,3.14158892508293,0.0,True,0.010772466659545898,3.0517577442878974e-07,5.999997615814209,3.1415913105010986,0.0,0,0
1759830134.1153393,0,3.0517577442878974e-07,5.999997615814209,3.141588961732264,0.0,True,0.011453866958618164,3.0517577442878974e-07,5.999997615814209,3.1415913105010986,0.0,0,0
1759830134.126269,0,3.0517577442878974e-07,5.999997615814209,3.1415890336425694,0.0,True,0.01092982292175293,3.0517577442878974e-07,5.999997615814209,3.1415913105010986,0.0,0,0
1759830134.1363683,0,3.0517577442878974e-07,5.999997615814209,3.1415891455422305,0.0,True,0.010099172592163086,3.0517577442878974e-07,5.999997615814209,3.1415913105010986,0.0,0,0
1759830134.1467235,0,3.0517577442878974e-07,5.999997615814209,3.141589232651139,0.0,True,0.010355234146118164,3.0517577442878974e-07,5.999997615814209,3.1415913105010986,0.0,0,0
1759830134.1573596,0,3.0517577442878974e-07,5.999997615814209,3.1415892978126614,0.0,True,0.010636091232299805,3.0517577442878974e-07,5.999997615814209,3.1415913105010986,0.0,0,0
1759830134.1677256,0,3.0517577442878974e-07,5.999997615814209,3.1415893715226186,0.0,True,0.010365962982177734,3.0517577442878974e-07,5.999997615814209,3.1415913105010986,0.0,0,0
1759830134.1782212,0,3.0517577442878974e-07,5.999997615814209,3.141589435024544,0.0,True,0.010495662689208984,3.0517577442878974e-07,5.999997615814209,3.1415913105010986,0.0,0,0
1759830134.1885095,0,3.0517577442878974e-07,5.999997615814209,3.141589503607534,0.0,True,0.010288238525390625,3.0517577442878974e-07,5.999997615814209,3.1415913105010986,0.0,0,0
1759830134.1987002,0,3.0517577442878974e-07,5.999997615814209,3.141589571161262,0.0,True,0.010190725326538086,3.0517577442878974e-07,5.999997615814209,3.1415913105010986,0.0,0,0
1759830134.2092783,0,3.0517577442878974e-07,5.999997615814209,3.1415896186658685,0.0,True,0.010578155517578125,3.0517577442878974e-07,5.999997615814209,3.1415913105010986,0.0,0,0
1759830134.2195625,0,3.0517577442878974e-07,5.999997615814209,3.1415896764791498,0.0,True,0.010284185409545898,3.0517577442878974e-07,5.999997615814209,3.1415913105010986,0.0,0,0
1759830134.230307,0,3.0517577442878974e-07,5.999997615814209,3.1415897154763126,0.0,True,0.010744571685791016,3.0517577442878974e-07,5.999997615814209,3.1415913105010986,0.0,0,0
1759830134.2407498,0,3.0517577442878974e-07,5.999997615814209,3.1415897665139934,0.0,True,0.010442733764648438,3.0517577442878974e-07,5.999997615814209,3.1415913105010986,0.0,0,0
1759830134.251883,0,3.0517577442878974e-07,5.999997615814209,3.1415897939353634,0.0,True,0.011133193969726562,3.0517577442878974e-07,5.999997615814209,3.1415913105010986,0.0,0,0
1759830134.2627296,0,3.0517577442878974e-07,5.999997615814209,3.141589835519447,0.0,True,0.010846614837646484,3.0517577442878974e-07,5.999997615814209,3.1415913105010986,0.0,0,0
1759830134.2730677,0,3.0517577442878974e-07,5.999997615814209,3.1415898947935155,0.0,True,0.010338068008422852,3.0517577442878974e-07,5.999997615814209,3.1415913105010986,0.0,0,0
1759830134.2837768,0,3.0517577442878974e-07,5.999997615814209,3.1415899387198145,0.0,True,0.010709047317504883,3.0517577442878974e-07,5.999997615814209,3.1415913105010986,0.0,0,0
1759830134.2939086,0,3.0517577442878974e-07,5.999997615814209,3.1415899977727815,0.0,True,0.0101318359375,3.0517577442878974e-07,5.999997615814209,3.1415913105010986,0.0,0,0
1759830134.3051922,0,3.0517577442878974e-07,5.999997615814209,3.1415900192244717,0.0,True,0.011283636093139648,3.0517577442878974e-07,5.999997615814209,3.1415913105010986,0.0,0,0
1759830134.316721,0,3.0517577442878974e-07,5.999997615814209,3.1415900384008637,0.0,True,0.011528730392456055,3.0517577442878974e-07,5.999997615814209,3.1415913105010986,0.0,0,0
1759830134.3279052,0,3.0517577442878974e-07,5.999997615814209,3.1415900736637923,0.0,True,0.011184215545654297,3.0517577442878974e-07,5.999997615814209,3.1415913105010986,0.0,0,0
1759830134.3385174,0,3.0517577442878974e-07,5.999997615814209,3.1415901256554477,0.0,True,0.010612249374389648,3.0517577442878974e-07,5.999997615814209,3.1415913105010986,0.0,0,0
1759830134.3485527,0,3.0517577442878974e-07,5.999997615814209,3.141590187708795,0.0,True,0.010035276412963867,3.0517577442878974e-07,5.999997615814209,3.1415913105010986,0.0,0,0
1759830134.35889,0,3.0517577442878974e-07,5.999997615814209,3.141590234172069,0.0,True,0.010337352752685547,3.0517577442878974e-07,5.999997615814209,3.1415913105010986,0.0,0,0
1759830134.3697495,0,3.0517577442878974e-07,5.999997615814209,3.141590263486357,0.0,True,0.010859489440917969,3.0517577442878974e-07,5.999997615814209,3.1415913105010986,0.0,0,0
1759830134.3804822,0,3.0517577442878974e-07,5.999997615814209,3.141590295651664,0.0,True,0.010732650756835938,3.0517577442878974e-07,5.999997615814209,3.1415913105010986,0.0,0,0
1759830134.3907533,0,3.0517577442878974e-07,5.999997615814209,3.1415903374816985,0.0,True,0.010271072387695312,3.0517577442878974e-07,5.999997615814209,3.1415913105010986,0.0,0,0
1759830134.401024,0,3.0517577442878974e-07,5.999997615814209,3.141590375822389,0.0,True,0.010270833969116211,3.0517577442878974e-07,5.999997615814209,3.1415913105010986,0.0,0,0
1759830134.4112606,0,3.0517577442878974e-07,5.999997615814209,3.1415904113099753,0.0,True,0.010236501693725586,3.0517577442878974e-07,5.999997615814209,3.1415913105010986,0.0,0,0
1759830134.4221787,0,3.0517577442878974e-07,5.999997615814209,3.1415904307251186,0.0,True,0.010918140411376953,3.0517577442878974e-07,5.999997615814209,3.1415913105010986,0.0,0,0
1759830134.4328244,0,3.0517577442878974e-07,5.999997615814209,3.1415904568052504,0.0,True,0.010645627975463867,3.0517577442878974e-07,5.999997615814209,3.1415913105010986,0.0,0,0
1759830134.444227,0,3.0517577442878974e-07,5.999997615814209,3.141590469757654,0.0,True,0.011402606964111328,3.0517577442878974e-07,5.999997615814209,3.1415913105010986,0.0,0,0
1759830134.4549294,0,3.0517577442878974e-07,5.999997615814209,3.1415904986981342,0.0,True,0.010702371597290039,3.0517577442878974e-07,5.999997615814209,3.1415913105010986,0.0,0,0
1759830134.4659119,0,3.0517577442878974e-07,5.999997615814209,3.1415905227444387,0.0,True,0.010982513427734375,3.0517577442878974e-07,5.999997615814209,3.1415913105010986,0.0,0,0
1759830134.4763136,0,3.0517577442878974e-07,5.999997615814209,3.1415905562417166,0.0,True,0.010401725769042969,3.0517577442878974e-07,5.999997615814209,3.1415913105010986,0.0,0,0
1759830134.4871416,0,3.0517577442878974e-07,5.999997615814209,3.141590580319427,0.0,True,0.010828018188476562,3.0517577442878974e-07,5.999997615814209,3.1415913105010986,0.0,0,0
1759830134.4980035,0,3.0517577442878974e-07,5.999997615814209,3.141590603023136,0.0,True,0.010861873626708984,3.0517577442878974e-07,5.999997615814209,3.1415913105010986,0.0,0,0
1759830134.5091677,0,3.0517577442878974e-07,5.999997615814209,3.1415906211638642,0.0,True,0.011164188385009766,3.0517577442878974e-07,5.999997615814209,3.1415913105010986,0.0,0,0
1759830134.5204334,0,3.0517577442878974e-07,5.999997615814209,3.1415906389969237,0.0,True,0.011265754699707031,3.0517577442878974e-07,5.999997615814209,3.1415913105010986,0.0,0,0
1759830134.5319347,0,3.0517577442878974e-07,5.999997615814209,3.1415906550266257,0.0,True,0.011501312255859375,3.0517577442878974e-07,5.999997615814209,3.1415913105010986,0.0,0,0
1759830134.5424702,0,3.0517577442878974e-07,5.999997615814209,3.141590685452247,0.0,True,0.010535478591918945,3.0517577442878974e-07,5.999997615814209,3.1415913105010986,0.0,0,0
1759830134.5525198,0,3.0517577442878974e-07,5.999997615814209,3.141590719351811,0.0,True,0.010049581527709961,3.0517577442878974e-07,5.999997615814209,3.1415913105010986,0.0,0,0
1759830134.5637915,0,3.0517577442878974e-07,5.999997615814209,3.1415907334056374,0.0,True,0.01127171516418457,3.0517577442878974e-07,5.999997615814209,3.1415913105010986,0.0,0,0
1759830134.574777,0,3.0517577442878974e-07,5.999997615814209,3.1415907512340873,0.0,True,0.010985374450683594,3.0517577442878974e-07,5.999997615814209,3.1415913105010986,0.0,0,0
1759830134.586247,0,3.0517577442878974e-07,5.999997615814209,3.141590763825725,0.0,True,0.01147007942199707,3.0517577442878974e-07,5.999997615814209,3.1415913105010986,0.0,0,0
1759830134.5978296,0,3.0517577442878974e-07,5.999997615814209,3.141590776734935,0.0,True,0.011582612991333008,3.0517577442878974e-07,5.999997615814209,3.1415913105010986,0.0,0,0
1759830134.609317,0,3.0517577442878974e-07,5.999997615814209,3.141590792352286,0.0,True,0.011487483978271484,3.0517577442878974e-07,5.999997615814209,3.1415913105010986,0.0,0,0
1759830134.6193452,0,3.0517577442878974e-07,5.999997615814209,3.1415908235168395,0.0,True,0.01002812385559082,3.0517577442878974e-07,5.999997615814209,3.1415913105010986,0.0,0,0
1759830134.6306953,0,3.0517577442878974e-07,5.999997615814209,3.141590837349309,0.0,True,0.011350154876708984,3.0517577442878974e-07,5.999997615814209,3.1415913105010986,0.0,0,0
1759830134.6410875,0,3.0517577442878974e-07,5.999997615814209,3.1415908598560858,0.0,True,0.010392189025878906,3.0517577442878974e-07,5.999997615814209,3.1415913105010986,0.0,0,0
1759830134.6512945,0,3.0517577442878974e-07,5.999997615814209,3.1415908817918208,0.0,True,0.010206937789916992,3.0517577442878974e-07,5.999997615814209,3.1415913105010986,0.0,0,0
1759830134.6614285,0,3.0517577442878974e-07,5.999997615814209,3.141590901469769,0.0,True,0.010133981704711914,3.0517577442878974e-07,5.999997615814209,3.1415913105010986,0.0,0,0
1759830134.6716666,0,3.0517577442878974e-07,5.999997615814209,3.1415909177176857,0.0,True,0.010238170623779297,3.0517577442878974e-07,5.999997615814209,3.1415913105010986,0.0,0,0
1759830134.6820636,0,3.0517577442878974e-07,5.999997615814209,3.141590930971031,0.0,True,0.010396957397460938,3.0517577442878974e-07,5.999997615814209,3.1415913105010986,0.0,0,0
1759830134.6930916,0,3.0517577442878974e-07,5.999997615814209,3.1415909383314915,0.0,True,0.011028051376342773,3.0517577442878974e-07,5.999997615814209,3.1415913105010986,0.0,0,0
1759830134.7035096,0,3.0517577442878974e-07,5.999997615814209,3.1415909514808735,0.0,True,0.010417938232421875,3.0517577442878974e-07,5.999997615814209,3.1415913105010986,0.0,0,0
1759830134.717315,0,3.0517577442878974e-07,5.999997615814209,3.1415909388202596,0.0,True,0.013805389404296875,3.0517577442878974e-07,5.999997615814209,3.1415913105010986,0.0,0,0
1759830134.725017,0,3.0517577442878974e-07,5.999997615814209,3.141590977509754,0.0,True,0.0077021121978759766,3.0517577442878974e-07,5.999997615814209,3.1415913105010986,0.0,0,0
1759830134.73595,0,3.0517577442878974e-07,5.999997615814209,3.1415909867040916,0.0,True,0.01093292236328125,3.0517577442878974e-07,5.999997615814209,3.1415913105010986,0.0,0,0
1759830134.746663,0,3.0517577442878974e-07,5.999997615814209,3.1415909960328765,0.0,True,0.01071310043334961,3.0517577442878974e-07,5.999997615814209,3.1415913105010986,0.0,0,0
1759830134.7572823,0,3.0517577442878974e-07,5.999997615814209,3.141591006095746,0.0,True,0.010619163513183594,3.0517577442878974e-07,5.999997615814209,3.1415913105010986,0.0,0,0
1759830134.7687616,0,3.0517577442878974e-07,5.999997615814209,3.141591010499079,0.0,True,0.011479377746582031,3.0517577442878974e-07,5.999997615814209,3.1415913105010986,0.0,0,0
1759830134.7787962,0,3.0517577442878974e-07,5.999997615814209,3.141591025192973,0.0,True,0.010034561157226562,3.0517577442878974e-07,5.999997615814209,3.1415913105010986,0.0,0,0
1759830134.7899487,0,3.0517577442878974e-07,5.999997615814209,3.1415910318376827,0.0,True,0.011152505874633789,3.0517577442878974e-07,5.999997615814209,3.1415913105010986,0.0,0,0
1759830134.8003092,0,3.0517577442878974e-07,5.999997615814209,3.141591043311495,0.0,True,0.010360479354858398,3.0517577442878974e-07,5.999997615814209,3.1415913105010986,0.0,0,0
1759830134.8106568,0,3.0517577442878974e-07,5.999997615814209,3.141591054057608,0.0,True,0.010347604751586914,3.0517577442878974e-07,5.999997615814209,3.1415913105010986,0.0,0,0
1759830134.821699,0,3.0517577442878974e-07,5.999997615814209,3.141591060072477,0.0,True,0.011042118072509766,3.0517577442878974e-07,5.999997615814209,3.1415913105010986,0.0,0,0
1759830134.833227,0,3.0517577442878974e-07,5.999997615814209,3.141591063927269,0.0,True,0.01152801513671875,3.0517577442878974e-07,5.999997615814209,3.1415913105010986,0.0,0,0
1759830134.8441155,0,3.0517577442878974e-07,5.999997615814209,3.141591072244104,0.0,True,0.01088857650756836,3.0517577442878974e-07,5.999997615814209,3.1415913105010986,0.0,0,0
1759830134.8549044,0,3.0517577442878974e-07,5.999997615814209,3.141591081068114,0.0,True,0.010788917541503906,3.0517577442878974e-07,5.999997615814209,3.1415913105010986,0.0,0,0
1759830134.8655438,0,3.0517577442878974e-07,5.999997615814209,3.141591090124452,0.0,True,0.010639429092407227,3.0517577442878974e-07,5.999997615814209,3.1415913105010986,0.0,0,0
1759830134.8760412,0,3.0517577442878974e-07,5.999997615814209,3.1415910991447404,0.0,True,0.010497331619262695,3.0517577442878974e-07,5.999997615814209,3.1415913105010986,0.0,0,0
1759830134.887576,0,3.0517577442878974e-07,5.999997615814209,3.1415911028490235,0.0,True,0.011534929275512695,3.0517577442878974e-07,5.999997615814209,3.1415913105010986,0.0,0,0
1759830134.897892,0,3.0517577442878974e-07,5.999997615814209,3.1415911123991034,0.0,True,0.010315895080566406,3.0517577442878974e-07,5.999997615814209,3.1415913105010986,0.0,0,0
1759830134.908489,0,3.0517577442878974e-07,5.999997615814209,3.1415911200176136,0.0,True,0.010596990585327148,3.0517577442878974e-07,5.999997615814209,3.1415913105010986,0.0,0,0
1759830134.9252715,0,3.0517577442878974e-07,5.999997615814209,3.1415911030730523,0.0,True,0.016782522201538086,3.0517577442878974e-07,5.999997615814209,3.1415913105010986,0.0,0,0
1759830134.9353216,0,3.0517577442878974e-07,5.999997615814209,3.1415911184141834,0.0,True,0.010050058364868164,3.0517577442878974e-07,5.999997615814209,3.1415913105010986,0.0,0.0,0.20106329795496528
1759830134.9461951,0,3.0517577442878974e-07,5.999997615814209,3.1415911296025687,0.0,True,0.010873556137084961,3.0517577442878974e-07,5.999997615814209,3.1415913105010986,0.0,0.0,0.20420583238654916
1759830134.957573,0,3.0517577442878974e-07,5.999997615814209,3.141591137157226,0.0,True,0.011377811431884766,3.0517577442878974e-07,5.999997615814209,3.1415913105010986,0.0,0.0,0.20758725079157375
1759830134.968778,0,3.0517577442878974e-07,5.999997615814209,3.1415911445490234,0.0,True,0.011204957962036133,3.0517577442878974e-07,5.999997615814209,3.1415913105010986,0.0,0.0,0.2101588611432925
1759830134.9798715,0,3.0517577442878974e-07,5.999997615814209,3.1415911516925057,0.0,True,0.011093616485595703,3.0517577442878974e-07,5.999997615814209,3.1415913105010986,0.0,0.0,0.20872253194691254
1759830134.9905722,0,3.0517577442878974e-07,5.999997615814209,3.141591159419633,0.0,True,0.010700702667236328,3.0517577442878974e-07,5.999997615814209,3.1415913105010986,0.0,0.0,0.21170443289451446
1759830135.0012531,0,3.0517577442878974e-07,5.999997615814209,3.1415911663010743,0.0,True,0.010680913925170898,3.0517577442878974e-07,5.999997615814209,3.1415913105010986,0.0,0.0,0.21273542513581123
1759830135.0113957,0,3.0517577442878974e-07,5.999997615814209,3.1415911739417375,0.0,True,0.01014256477355957,3.0517577442878974e-07,5.999997615814209,3.1415913105010986,0.0,0.0,0.21581347644505644
1759830135.0214875,0,3.0517577442878974e-07,5.999997615814209,3.1415911806382475,0.0,True,0.010091781616210938,3.0517577442878974e-07,5.999997615814209,3.1415913105010986,0.0,0.0,0.21186725247909893
1759830135.0329316,0,3.0517577442878974e-07,5.999997615814209,3.1415911826943095,0.0,True,0.011444091796875,3.0517577442878974e-07,5.999997615814209,3.1415913105010986,0.0,0.0,0.20950890677241926
1759830135.0439732,0,3.0517577442878974e-07,5.999997615814209,3.141591186204522,0.0,True,0.011041641235351562,3.0517577442878974e-07,5.999997615814209,3.1415913105010986,0.0,0.0,0.2086524524740731
1759830135.0541048,0,3.0517577442878974e-07,5.999997615814209,3.14159119223663,0.0,True,0.010131597518920898,3.0517577442878974e-07,5.999997615814209,3.1415913105010986,0.0,0.0,0.20434992742007158
1759830135.0646994,0,3.0517577442878974e-07,5.999997615814209,3.1415911964716887,0.0,True,0.010594606399536133,3.0517577442878974e-07,5.999997615814209,3.1415913105010986,0.0,0.0,0.20167213522641053
1759830135.0750196,0,3.0517577442878974e-07,5.999997615814209,3.1415912010155527,0.0,True,0.010320186614990234,3.0517577442878974e-07,5.999997615814209,3.1415913105010986,0.0,0.0,0.19880300785211916
1759830135.0851643,0,3.0517577442878974e-07,5.999997615814209,3.141591205573077,0.0,True,0.010144710540771484,3.0517577442878974e-07,5.999997615814209,3.1415913105010986,0.0,0.0,0.19814778150925078
1759830135.095212,0,3.0517577442878974e-07,5.999997615814209,3.141591209876241,0.0,True,0.010047674179077148,3.0517577442878974e-07,5.999997615814209,3.1415913105010986,0.0,0.0,0.1962443837089969
1759830135.105566,0,3.0517577442878974e-07,5.999997615814209,3.141591213056289,0.0,True,0.010354042053222656,3.0517577442878974e-07,5.999997615814209,3.1415913105010986,0.0,0.0,0.18972239029544688
1759830135.122572,0,-0.04303766086343315,5.999989956608228,3.1415912025398516,0.3246320271231707,True,0.01700592041015625,-0.06622462719678879,5.999985218048096,3.1415913105010986,0.3246320271231707,0.0,0.1896433401997766
1759830135.129448,0,-0.058220606141303394,5.999987029252549,3.141591216056163,0.3246320271231707,True,0.0068759918212890625,-0.06622462719678879,5.999985218048096,3.1415913105010986,0.3246320271231707,0.0,0.18879936889359403
1759830135.1400394,0,-0.06448069312219651,5.99998591175381,3.141591220250506,0.3246320271231707,True,0.010591506958007812,-0.06622462719678879,5.999985218048096,3.1415913105010986,0.3246320271231707,0.0,0.18743555256682595
1759830135.1501112,0,-0.06680738509739581,5.999985484809601,3.141591224448101,0.3246320271231707,True,0.010071754455566406,-0.06622462719678879,5.999985218048096,3.1415913105010986,0.3246320271231707,0.0,0.1845921256747834
1759830135.161297,0,-0.06783425269104382,5.99998532192394,3.1415912260960184,0.3246320271231707,True,0.011185884475708008,-0.06622462719678879,5.999985218048096,3.1415913105010986,0.3246320271231707,0.0,0.1839128057003747
1759830135.1726563,0,-0.06824797389070275,5.999985259735589,3.141591227627975,0.3246320271231707,True,0.011359214782714844,-0.06622462719678879,5.999985218048096,3.1415913105010986,0.3246320271231707,0.0,0.18129566842832343
1759830135.1827648,0,-0.06825091108826081,5.999985235758206,3.1415912316371255,0.3246320271231707,True,0.010108470916748047,-0.06622462719678879,5.999985218048096,3.1415913105010986,0.3246320271231707,0.0,0.17843990208920857
1759830135.1939275,0,-0.0683827628942314,5.999985226780742,3.1415912335319742,0.3246320271231707,True,0.011162757873535156,-0.06622462719678879,5.999985218048096,3.1415913105010986,0.3246320271231707,0.0,0.17759503265254234
1759830135.20399,0,-0.06829669014646352,5.999985223155114,3.1415912372298234,0.3246320271231707,True,0.010062456130981445,-0.06622462719678879,5.999985218048096,3.1415913105010986,0.3246320271231707,0.0,0.1779355649600081
1759830135.214964,0,-0.06837683462870052,5.999985221925889,3.141591239146022,0.3246320271231707,True,0.010973930358886719,-0.06622462719678879,5.999985218048096,3.1415913105010986,0.3246320271231707,0.0,0.17636949799940335
1759830135.2263339,0,-0.06845655210771673,5.999985221523278,3.1415912404835105,0.3246320271231707,True,0.011369943618774414,-0.06622462719678879,5.999985218048096,3.1415913105010986,0.3246320271231707,0.0,0.17372896463547072
1759830135.2371647,0,-0.06842015835091274,5.999985221273038,3.1415912428596258,0.3246320271231707,True,0.010830879211425781,-0.06622462719678879,5.999985218048096,3.1415913105010986,0.3246320271231707,0.0,0.17338617699236633
1759830135.2476673,0,-0.06836554820235922,5.999985221116794,3.14159124566981,0.3246320271231707,True,0.01050257682800293,-0.06622462719678879,5.999985218048096,3.1415913105010986,0.3246320271231707,0.0,0.17246364829741256
1759830135.258621,0,-0.06840062316624404,5.999985221132291,3.141591247644616,0.3246320271231707,True,0.010953664779663086,-0.06622462719678879,5.999985218048096,3.1415913105010986,0.3246320271231707,0.0,0.17257522358515162
1759830135.2697296,0,-0.06843323689989536,5.99998522116257,3.1415912493809497,0.3246320271231707,True,0.011108636856079102,-0.06622462719678879,5.999985218048096,3.1415913105010986,0.3246320271231707,0.0,0.17122157602489024
1759830135.280913,0,-0.06845497718370377,5.999985221184781,3.1415912510864956,0.3246320271231707,True,0.011183500289916992,-0.06622462719678879,5.999985218048096,3.1415913105010986,0.3246320271231707,0.0,0.17284693468496454
1759830135.2911522,0,-0.06834618012071428,5.99998522102655,3.1415912539939104,0.3246320271231707,True,0.010239124298095703,-0.06622462719678879,5.999985218048096,3.1415913105010986,0.3246320271231707,0.0,0.17002518721930218
1759830135.3014176,0,-0.06830787532799948,5.999985220967008,3.1415912565582964,0.3246320271231707,True,0.010265350341796875,-0.06622462719678879,5.999985218048096,3.1415913105010986,0.3246320271231707,0.0,0.17176528027945193
1759830135.3128521,0,-0.06843822371327708,5.999985221143711,3.141591257492056,0.3246320271231707,True,0.011434555053710938,-0.06622462719678879,5.999985218048096,3.1415913105010986,0.3246320271231707,0.0,0.17327307608715703
1759830135.3234699,0,-0.16791115429922515,5.999978445492239,3.1415912597498714,0.7785957674023463,True,0.010617733001708984,-0.22427956759929657,5.999974250793457,3.1415913105010986,0.7785957674023463,0.0,0.17170647990525845
1759830135.3342557,0,-0.20595642084657897,5.999975857491871,3.141591261343743,0.7785957674023463,True,0.010785818099975586,-0.22427956759929657,5.999974250793457,3.1415913105010986,0.7785957674023463,0.0,0.16870946465847161
1759830135.34558,0,-0.220648593948673,5.999974869184305,3.141591262385969,0.7785957674023463,True,0.011324405670166016,-0.22427956759929657,5.999974250793457,3.1415913105010986,0.7785957674023463,0.0,0.17224215732687362
1759830135.356875,0,-0.22625171248523765,5.999974491669777,3.1415912636136305,0.7785957674023463,True,0.011294841766357422,-0.22427956759929657,5.999974250793457,3.1415913105010986,0.7785957674023463,0.0,0.17302689754117134
1759830135.3671463,0,-0.22808751816380887,5.999974347045072,3.141591265921159,0.7785957674023463,True,0.010271310806274414,-0.22427956759929657,5.999974250793457,3.1415913105010986,0.7785957674023463,0.0,0.17137026408893408
1759830135.3772347,0,-0.2287343494022832,5.99997429172102,3.1415912681575726,0.7785957674023463,True,0.010088443756103516,-0.22427956759929657,5.999974250793457,3.1415913105010986,0.7785957674023463,0.0,0.17050876234823253
1759830135.3874733,0,-0.2290260870995737,5.9999742706444525,3.1415912699484743,0.7785957674023463,True,0.0102386474609375,-0.22427956759929657,5.999974250793457,3.1415913105010986,0.7785957674023463,0.0,0.1695481574873438
1759830135.3986518,0,-0.22941702848899864,5.999974262975473,3.141591270725492,0.7785957674023463,True,0.01117849349975586,-0.22427956759929657,5.999974250793457,3.1415913105010986,0.7785957674023463,0.0,0.16957690100012338
1759830135.4092278,0,-0.2293871778804451,5.999974259795681,3.1415912720987045,0.7785957674023463,True,0.010576009750366211,-0.22427956759929657,5.999974250793457,3.1415913105010986,0.7785957674023463,0.0,0.17118146149720892
1759830135.4194255,0,-0.229263249729632,5.999974258421281,3.141591273745437,0.7785957674023463,True,0.010197639465332031,-0.22427956759929657,5.999974250793457,3.1415913105010986,0.7785957674023463,0.0,0.1719202342439263
1759830135.4309142,0,-0.2295998639561231,5.999974258421394,3.1415912742340453,0.7785957674023463,True,0.011488676071166992,-0.22427956759929657,5.999974250793457,3.1415913105010986,0.7785957674023463,0.0,0.17001437683054565
1759830135.4410033,0,-0.22931222680720048,5.999974257845366,3.1415912759240445,0.7785957674023463,True,0.01008915901184082,-0.22427956759929657,5.999974250793457,3.1415913105010986,0.7785957674023463,0.0,0.17004420942797438
1759830135.4517937,0,-0.2294108907939041,5.999974257907713,3.141591276963858,0.7785957674023463,True,0.010790348052978516,-0.22427956759929657,5.999974250793457,3.1415913105010986,0.7785957674023463,0.0,0.17361357305099226
1759830135.4619956,0,-0.2292735835465776,5.999974257687205,3.1415912783797815,0.7785957674023463,True,0.01020193099975586,-0.22427956759929657,5.999974250793457,3.1415913105010986,0.7785957674023463,0.0,0.17237982373433386
1759830135.472682,0,-0.2293652158023508,5.9999742577969295,3.141591279342842,0.7785957674023463,True,0.010686397552490234,-0.22427956759929657,5.999974250793457,3.1415913105010986,0.7785957674023463,0.0,0.17108513767372893
1759830135.4834201,0,-0.2294156025943074,5.99997425785694,3.1415912802450556,0.7785957674023463,True,0.010738134384155273,-0.22427956759929657,5.999974250793457,3.1415913105010986,0.7785957674023463,0.0,0.1723600672976291
