timestamp,observer_vehicle_id,vehicle_0_x,vehicle_0_y,vehicle_0_theta,vehicle_0_velocity,vehicle_1_x,vehicle_1_y,vehicle_1_theta,vehicle_1_velocity
1759502006.41547,0,-1.205,-0.83,-0.7801621756414646,0.0,0.0,0.0,0.0,0.0
1759502006.4260926,0,-1.205,-0.83,-0.7801621756414646,0.0,0.0,0.0,0.0,0.0
1759502006.437549,0,-1.205,-0.83,-0.7801621756414646,0.0,0.0,0.0,0.0,0.0
1759502006.4475515,0,-1.205,-0.83,-0.7801621756414646,0.0,0.0,0.0,0.0,0.0
1759502006.4575696,0,-1.205,-0.83,-0.7801621756414646,0.0,0.0,0.0,0.0,0.0
1759502006.4686394,0,-1.205,-0.83,-0.7801621756414646,0.0,0.0,0.0,0.0,0.0
1759502006.4796607,0,-1.205,-0.83,-0.7801621756414646,0.0,0.0,0.0,0.0,0.0
1759502006.489717,0,-1.205,-0.83,-0.7801621756414646,0.0,0.0,0.0,0.0,0.0
1759502006.4997268,0,-1.205,-0.83,-0.7801621756414646,0.0,0.0,0.0,0.0,0.0
1759502006.5112417,0,-1.205,-0.83,-0.7801621756414646,0.0,0.0,0.0,0.0,0.0
1759502006.522691,0,-1.205,-0.83,-0.7801621756414646,0.0,0.0,0.0,0.0,0.0
1759502006.5329096,0,-1.205,-0.83,-0.7801621756414646,0.0,0.0,0.0,0.0,0.0
1759502006.5441751,0,-1.205,-0.83,-0.7801621756414646,0.0,0.0,0.0,0.0,0.0
1759502006.5546556,0,-1.205,-0.83,-0.7801621756414646,0.0,0.0,0.0,0.0,0.0
1759502006.564665,0,-1.205,-0.83,-0.7801621756414646,0.0,0.0,0.0,0.0,0.0
1759502006.5756266,0,-1.205,-0.83,-0.7801621756414646,0.0,0.0,0.0,0.0,0.0
1759502006.5868907,0,-1.205,-0.83,-0.7801621756414646,0.0,0.0,0.0,0.0,0.0
1759502006.5983627,0,-1.205,-0.83,-0.7801621756414646,0.0,0.0,0.0,0.0,0.0
1759502006.6114469,0,-1.2049998061259588,-0.8299996288021405,-0.7229997878558763,0.0,0.0,0.0,0.0,0.0
1759502006.621674,0,-1.2049998050413424,-0.829999626725497,-0.7181200469986813,0.0,0.0,0.0,0.0,0.0
1759502006.6331894,0,-1.2049998047010528,-0.8299996260739668,-0.7176555341900066,0.0,0.0,0.0,0.0,0.0
1759502006.6436043,0,-1.2049998045745929,-0.8299996258318424,-0.7175980247158336,0.0,0.0,0.0,0.0,0.0
1759502006.653883,0,-1.2049998045264814,-0.8299996257397265,-0.7175923188672648,0.0,0.0,0.0,0.0,0.0
1759502006.6641228,0,-1.2049998045081152,-0.8299996257045619,-0.7175992708109558,0.0,0.0,0.0,0.0,0.0
1759502006.6746345,0,-1.2049998045011003,-0.8299996256911313,-0.7176094363904824,0.0,0.0,0.0,0.0,0.0
1759502006.6858416,0,-1.204999804498421,-0.8299996256860013,-0.7176193245392604,0.0,0.0,0.0,0.0,0.0
1759502006.6959803,0,-1.2049998044973975,-0.8299996256840418,-0.7176306647147896,0.0,0.0,0.0,0.0,0.0
1759502006.706828,0,-1.2049998044970067,-0.8299996256832933,-0.7176391782618055,0.0,0.0,0.0,0.0,0.0
1759502006.7175589,0,-1.2049998044968575,-0.8299996256830074,-0.7176466321061987,0.0,-0.3456654622554779,-0.06973078489303589,1.7419670692037592,0.0
1759502006.7280488,0,-1.2049998044968004,-0.8299996256828983,-0.717653168373495,0.0,-0.6195489057340603,-0.12498104726623695,-3.14114432760569,0.0
1759502006.7387176,0,-1.2049998044967787,-0.8299996256828566,-0.7176584282414336,0.0,-0.8370608372521706,-0.16885953489236868,-0.7836198891072479,0.0
1759502006.7490263,0,-1.2049998044967702,-0.8299996256828407,-0.7176631416812072,0.0,-1.0103068186106738,-0.2038082919387526,1.1140535603878503,0.0
1759502006.759844,0,-1.2049998044967671,-0.8299996256828346,-0.7176666905809608,0.0,-1.1485592712318153,-0.23169783569517882,2.64955807060996,0.0
1759502006.7713273,0,-1.2049998044967658,-0.8299996256828323,-0.7176693641147089,0.0,-1.2590899394641144,-0.25399508865270315,-2.383323334486598,0.0
1759502006.782618,0,-1.2049998044967654,-0.8299996256828314,-0.7176720073512115,0.0,-1.3477134240689734,-0.2718730250283231,-0.18819759963600166,0.0
1759502006.7937303,0,-1.2049998044967651,-0.829999625682831,-0.7176745253611934,0.0,-1.4189728118396054,-0.2862481176621682,1.5993308615793798,0.0
1759502006.8372555,0,-1.2049998044967651,-0.8299996256828309,-0.717664186884253,0.0,-1.4743696887080864,-0.2974232801428416,3.0781301608098306,0.0
1759502006.8402693,0,-1.2049998044967651,-0.8299996256828308,-0.7176751269782802,0.0,-1.519898864364128,-0.3066078400734552,-1.983188766832028,0.0
1759502006.8502944,0,-1.2049998044967651,-0.8299996256828308,-0.7176804120353104,0.0,-1.5570433277428994,-0.3141009594870402,0.12029563580307402,0.0
1759502006.8606105,0,-1.2049998044967651,-0.8299996256828308,-0.7176836988593855,0.0,-1.5874063822056594,-0.3202260713383175,1.8622715164708705,0.0
1759502006.8707771,0,-1.2049998044967651,-0.8299996256828308,-0.7176860500265843,0.0,-1.612288771080038,-0.3252455734167224,-2.970908750112639,0.0
1759502006.8822007,0,-1.2049998044967651,-0.8299996256828308,-0.7176874153152308,0.0,-1.632695948177821,-0.3293622950214624,-0.7112395131577178,0.0
1759502006.8925598,0,-1.2049998044967651,-0.8299996256828308,-0.7176888038464515,0.0,-1.6494974073447382,-0.33275163836925553,1.1726546011388896,0.0
1759502006.9037125,0,-1.2049998044967651,-0.8299996256828308,-0.7176897100373427,0.0,-1.6633488345305538,-0.3355458744009763,2.751372127604805,0.0
1759502006.9138172,0,-1.2049998044967651,-0.8299996256828308,-0.7176907464257116,0.0,-1.6748115272708504,-0.33785823316703034,-2.2018372628784504,0.0
1759502006.9253776,0,-1.2049998044967651,-0.8299996256828308,-0.7176912467480214,0.0,-1.6843012670928301,-0.33977258990345277,-0.08288255423458654,0.0
1759502006.9359586,0,-1.2049998044967651,-0.8299996256828308,-0.7176919493635836,0.0,-1.6921874986663323,-0.3413634723534388,1.7033261941450226,0.0
1759502006.946322,0,-1.2049998044967651,-0.8299996256828308,-0.7176926229007599,0.0,-1.6987582840209532,-0.34268899101287237,-3.0664786844224716,0.0
1759502006.9567335,0,-1.2049998044967651,-0.8299996256828308,-0.7176931923124243,0.0,-1.704245130978966,-0.34379584774791816,-0.8259280770928095,0.0
1759502006.9683473,0,-1.2049998044967651,-0.8299996256828308,-0.7176934405876239,0.0,-1.7088298553800474,-0.34472072010548505,1.0751609877903558,0.0
1759502006.9796462,0,-1.2049998044967651,-0.8299996256828308,-0.717693781543737,0.0,-1.7126719818496703,-0.3454957888457548,2.69690024290632,0.0
1759502006.9899178,0,-1.2049998044967651,-0.8299996256828308,-0.7176943322249407,0.0,-1.7159041642130413,-0.3461478141063772,-2.1956241210965306,0.0
1759502007.0000315,0,-1.2049998044967651,-0.8299996256828308,-0.7176948470000148,0.0,-1.718629833003724,-0.34669766083648607,-0.09971552697111695,0.0
1759502007.0113175,0,-1.2049998044967651,-0.8299996256828308,-0.717695079039803,0.0,-1.720929499130979,-0.34716157042988044,1.6984257697895278,0.0
1759502007.0217652,0,-1.2049998044967651,-0.8299996256828308,-0.71769546224278,0.0,-1.7228767092698534,-0.34755437939161304,-3.0341708727942804,0.0
1759502007.0322363,0,-1.2049998044967651,-0.8299996256828308,-0.7176958139343448,0.0,-1.7245290570424416,-0.34788770603161645,-0.8334915334037614,0.0
1759502007.0423324,0,-1.2049998044967651,-0.8299996256828308,-0.7176961930196342,0.0,-1.7259350544677101,-0.3481713366361375,1.067011712076302,0.0
1759502007.0526052,0,-1.2049998044967651,-0.8299996256828308,-0.7176965002863868,0.0,-1.7271336356684146,-0.34841312535097696,2.7159895683684394,0.0
1759502007.0637748,0,-1.2049998044967651,-0.8299996256828308,-0.7176966449853843,0.0,-1.7281561656562145,-0.34861939941191644,-2.1285776563887264,0.0
1759502007.074068,0,-1.2049998044967651,-0.8299996256828308,-0.7176969348656357,0.0,-1.7290316903500251,-0.3487960182262298,-0.06313030025532716,0.0
1759502007.0842972,0,-1.2049998044967651,-0.8299996256828308,-0.7176972164964006,0.0,-1.7297829999695404,-0.3489475792445758,1.7394256373996007,0.0
1759502007.09603,0,-1.2049998044967651,-0.8299996256828308,-0.7176972724888344,0.0,-1.7304274903464378,-0.3490775917125378,-2.9623493441620803,0.0
1759502007.1065562,0,-1.2049998044967651,-0.8299996256828308,-0.7176975233244569,0.0,-1.7309827363697954,-0.3491896009967886,-0.804823296328889,0.0
1759502007.1174326,0,-1.2049998044967651,-0.8299996256828308,-0.7176977243965261,0.0,-1.7314618194315445,-0.349286245994836,1.0905219376641606,0.0
1759502007.1281502,0,-1.2049998044967651,-0.8299996256828308,-0.7176979392367393,0.0,-1.7318761847491364,-0.3493698355401715,2.763711729906261,0.0
1759502007.138806,0,-1.2049998044967651,-0.8299996256828308,-0.7176981519717636,0.0,-1.7322353652913252,-0.3494422927100655,-2.034815786328124,0.0
1759502007.1493425,0,-1.2049998044967651,-0.8299996256828308,-0.7176983657356857,0.0,-1.7325474208871487,-0.3495052434066293,-0.001192284846679858,0.0
1759502007.1596878,0,-1.2049998044967651,-0.8299996256828308,-0.717698584559713,0.0,-1.7328191790006993,-0.3495600649280948,1.804370329345771,0.0
1759502007.1702366,0,-1.2049998044967651,-0.8299996256828308,-0.7176987624567985,0.0,-1.7330590693106223,-0.3496084577860044,-2.8712874353796938,0.0
1759502007.1816905,0,-1.2049998044967651,-0.8299996256828308,-0.717698839902777,0.0,-1.7332725716864537,-0.3496515274295439,-0.7494375388057708,0.0
1759502007.1925306,0,-1.2049998044967651,-0.8299996256828308,-0.7176989968491654,0.0,-1.7334625888009438,-0.3496898594122941,1.1390088691450206,0.0
1759502007.203093,0,-1.2049998044967651,-0.8299996256828308,-0.7176991810524012,0.0,-1.7336317040328402,-0.34972397487694173,2.8197261722212246,0.0
1759502007.2134047,0,-1.2049998044967651,-0.8299996256828308,-0.7176993746231375,0.0,-1.7337822165892276,-0.34975433764047814,-1.9676207352205402,0.0
1759502007.2236998,0,-1.2049998044967651,-0.8299996256828308,-0.717699549620372,0.0,-1.7337822165892276,-0.34975433764047814,-1.9676207352205402,0.0
1759502007.2341597,0,-1.2049998044967651,-0.8299996256828308,-0.7176996931567672,0.0,-1.7337822165892276,-0.34975433764047814,-1.9676207352205402,0.0
1759502007.2444105,0,-1.2049998044967651,-0.8299996256828308,-0.717699843951694,0.0,-1.7337822165892276,-0.34975433764047814,-1.9676207352205402,0.0
1759502007.2549639,0,-1.2049998044967651,-0.8299996256828308,-0.7176999592025979,0.0,-1.7337822165892276,-0.34975433764047814,-1.9676207352205402,0.0
1759502007.2653773,0,-1.2049998044967651,-0.8299996256828308,-0.7177000815400056,0.0,-1.7337822165892276,-0.34975433764047814,-1.9676207352205402,0.0
1759502007.276733,0,-1.2049998044967651,-0.8299996256828308,-0.7177001304244824,0.0,-1.7337822165892276,-0.34975433764047814,-1.9676207352205402,0.0
1759502007.2878323,0,-1.2049998044967651,-0.8299996256828308,-0.7177002135582224,0.0,-1.7337822165892276,-0.34975433764047814,-1.9676207352205402,0.0
1759502007.2991881,0,-1.2049998044967651,-0.8299996256828308,-0.7177002895905353,0.0,-1.7337822165892276,-0.34975433764047814,-1.9676207352205402,0.0
1759502007.3092065,0,-1.2049998044967651,-0.8299996256828308,-0.7177004628520347,0.0,-1.7337822165892276,-0.34975433764047814,-1.9676207352205402,0.0
1759502007.3193395,0,-1.2049998044967651,-0.8299996256828308,-0.7177006087518087,0.0,-1.7337822165892276,-0.34975433764047814,-1.9676207352205402,0.0
1759502007.3297076,0,-1.2049998044967651,-0.8299996256828308,-0.7177007204277839,0.0,-1.7337822165892276,-0.34975433764047814,-1.9676207352205402,0.0
1759502007.3406084,0,-1.2049998044967651,-0.8299996256828308,-0.7177007904241641,0.0,-1.7337822165892276,-0.34975433764047814,-1.9676207352205402,0.0
1759502007.35096,0,-1.2049998044967651,-0.8299996256828308,-0.717700894768452,0.0,-1.7337822165892276,-0.34975433764047814,-1.9676207352205402,0.0
1759502007.3625364,0,-1.2049998044967651,-0.8299996256828308,-0.717700925906783,0.0,-1.7337822165892276,-0.34975433764047814,-1.9676207352205402,0.0
1759502007.3735342,0,-1.2049998044967651,-0.8299996256828308,-0.7177010016727686,0.0,-1.7337822165892276,-0.34975433764047814,-1.9676207352205402,0.0
1759502007.383939,0,-1.2049998044967651,-0.8299996256828308,-0.71770111228453,0.0,-1.7337822165892276,-0.34975433764047814,-1.9676207352205402,0.0
1759502007.3946548,0,-1.2049998044967651,-0.8299996256828308,-0.7177011980631836,0.0,-1.7337822165892276,-0.34975433764047814,-1.9676207352205402,0.0
1759502007.409467,0,-1.2049998044967651,-0.8299996256828308,-0.7177010849629575,0.0,-1.7337822165892276,-0.34975433764047814,-1.9676207352205402,0.0
1759502007.4160595,0,-1.2049998044967651,-0.8299996256828308,-0.7177014054319315,0.0,-1.7337822165892276,-0.34975433764047814,-1.9676207352205402,0.0
1759502007.426275,0,-1.2049998044967651,-0.8299996256828308,-0.7177015027715914,0.0,-1.7337822165892276,-0.34975433764047814,-1.9676207352205402,0.0
1759502007.4375005,0,-1.2049998044967651,-0.8299996256828308,-0.7177015322322582,0.0,-1.7337822165892276,-0.34975433764047814,-1.9676207352205402,0.0
1759502007.4487314,0,-1.2049998044967651,-0.8299996256828308,-0.7177015685990327,0.0,-1.7337822165892276,-0.34975433764047814,-1.9676207352205402,0.0
1759502007.4590492,0,-1.2049998044967651,-0.8299996256828308,-0.7177016506667364,0.0,-1.7340241154314922,-0.34980311864693164,-1.719268885199683,0.0
1759502007.470471,0,-1.2049998044967651,-0.8299996256828308,-0.7177016844679258,0.0,-1.7342157218018797,-0.34984175773880544,-1.5225511327869157,0.0
1759502007.481937,0,-1.2049998044967651,-0.8299996256828308,-0.7177017226535867,0.0,-1.7343678969797451,-0.34987244518759203,-1.366316458009791,0.0
1759502007.4921021,0,-1.2049998044967651,-0.8299996256828308,-0.7177018150891801,0.0,-1.734489247956243,-0.3498969166679525,-1.2417282655531718,0.0
1759502007.5023305,0,-1.2049998044967651,-0.8299996256828308,-0.7177018954833159,0.0,-1.7345862452103398,-0.349916477008274,-1.1421434668979138,0.0
1759502007.5127351,0,-1.2049998044967651,-0.8299996256828308,-0.7177019593493554,0.0,-1.7346639489868578,-0.3499321466509573,-1.062366827740755,0.0
1759502007.5239508,0,-1.2049998044967651,-0.8299996256828308,-0.7177019905723476,0.0,-1.7347262947190818,-0.3499447192103689,-0.998357931320427,0.0
1759502007.5354757,0,-1.2049998044967651,-0.8299996256828308,-0.7177020161169096,0.0,-1.7347764318600765,-0.34995482980112463,-0.9468833082746979,0.0
1759502007.54586,0,-1.2049998044967651,-0.8299996256828308,-0.7177020839275272,0.0,-1.7348169097726351,-0.3499629925244153,-0.9053255878044567,0.0
1759502007.5559552,0,-1.2049998044967651,-0.8299996256828308,-0.7177021551498388,0.0,-1.7348496787540377,-0.34996960067465827,-0.8716824455783112,0.0
1759502007.566874,0,-1.2049998044967651,-0.8299996256828308,-0.7177021934584218,0.0,-1.7348762442982524,-0.3499749578478123,-0.84440822636032,0.0
1759502007.577191,0,-1.2049998044967651,-0.8299996256828308,-0.7177022476649881,0.0,-1.7349007847394642,-0.34997990664132417,-0.8192131327490448,0.0
1759502007.5886612,0,-1.2049998044967651,-0.8299996256828308,-0.7177022670977529,0.0,-1.7349202185220884,-0.3499838256326957,-0.799260925361526,0.0
1759502007.5992625,0,-1.2049998044967651,-0.8299996256828308,-0.7177023138873578,0.0,-1.7349356640665623,-0.34998694036114003,-0.7834033482490037,0.0
1759502007.6105292,0,-1.2049998044967651,-0.8299996256828308,-0.7177023428110516,0.0,-1.734947962261951,-0.34998942039925435,-0.7707770803920712,0.0
1759502007.6207693,0,-1.2049998044967651,-0.8299996256828308,-0.7177023983952395,0.0,-1.7349577911008343,-0.34999140247014193,-0.7606860427610362,0.0
1759502007.630853,0,-1.2049998044967651,-0.8299996256828308,-0.7177024522761554,0.0,-1.7349656667166364,-0.34999299065659906,-0.7526003333122416,0.0
1759502007.64114,0,-1.2049998044967651,-0.8299996256828308,-0.7177024944863337,0.0,-1.7349719908659986,-0.34999426597634825,-0.7461074779550263,0.0
1759502007.6525002,0,-1.2049998044967651,-0.8299996256828308,-0.7177025090780464,0.0,-1.7349770754907006,-0.34999529133516377,-0.74088721340341,0.0
1759502007.6626666,0,-1.2049998044967651,-0.8299996256828308,-0.7177025529644787,0.0,-1.7349811797120611,-0.3499961189871145,-0.7366735058955783,0.0
1759502007.6732445,0,-1.2049998044967651,-0.8299996256828308,-0.7177025853790333,0.0,-1.734984498885142,-0.34999678832724845,-0.7332657889860258,0.0
1759502007.6845422,0,-1.2049998044967651,-0.8299996256828308,-0.7177026018612267,0.0,-1.734987187557524,-0.34999733052143017,-0.730505392309528,0.0
1759502007.6960185,0,-1.2049998044967651,-0.8299996256828308,-0.7177026183886692,0.0,-1.734989370696358,-0.3499977707703729,-0.7282640150328696,0.0
1759502007.7064774,0,-1.2049998044967651,-0.8299996256828308,-0.7177026577917172,0.0,-1.734991408453588,-0.3499981817018501,-0.7261718976287417,0.0
1759502007.7176714,0,-1.2049998044967651,-0.8299996256828308,-0.7177026815172578,0.0,-1.734993024044317,-0.34999850749977884,-0.7245132086384726,0.0
1759502007.7280767,0,-1.2049998044967651,-0.8299996256828308,-0.7177027189694255,0.0,-1.734994309384194,-0.34999876669974955,-0.7231935804279218,0.0
1759502007.738501,0,-1.2049998044967651,-0.8299996256828308,-0.7177027528230369,0.0,-1.7349953344892417,-0.3499989734211025,-0.7221411291937765,0.0
1759502007.7487264,0,-1.2049998044967651,-0.8299996256828308,-0.7177027863734029,0.0,-1.7349961542369678,-0.3499991387303646,-0.7212995134901876,0.0
1759502007.7589662,0,-1.2049998044967651,-0.8299996256828308,-0.7177028160272627,0.0,-1.734996811338161,-0.34999927124053803,-0.7206248831551758,0.0
1759502007.7703874,0,-1.2049998044967651,-0.8299996256828308,-0.7177028250828208,0.0,-1.7349973386595892,-0.34999937757949257,-0.7200834946515545,0.0
1759502007.7807486,0,-1.2049998044967651,-0.8299996256828308,-0.7177028525891238,0.0,-1.7349977634500264,-0.34999946324218056,-0.7196473723041127,0.0
1759502007.791003,0,-1.2049998044967651,-0.8299996256828308,-0.717702880327181,0.0,-1.7349981065123297,-0.3499995324236792,-0.7192951583088912,0.0
1759502007.8021908,0,-1.2049998044967651,-0.8299996256828308,-0.7177028927788918,0.0,-1.734998383941432,-0.34999958836967177,-0.7190103283768127,0.0
1759502007.8133407,0,-1.2049998044967651,-0.8299996256828308,-0.7177029073455827,0.0,-1.734998608881577,-0.34999963373080933,-0.718779387622283,0.0
1759502007.8241224,0,-1.2049998044967651,-0.8299996256828308,-0.7177029283411507,0.0,-1.734998791806946,-0.34999967061930176,-0.7185915824497959,0.0
1759502007.8345957,0,-1.2049998044967651,-0.8299996256828308,-0.7177029527227176,0.0,-1.7349989637705792,-0.34999970529726476,-0.7184150314335206,0.0
1759502007.8460405,0,-1.2049998044967651,-0.8299996256828308,-0.7177029637367908,0.0,-1.734999099956354,-0.34999973276031127,-0.7182752127026576,0.0
1759502007.8563626,0,-1.2049998044967651,-0.8299996256828308,-0.7177029890799069,0.0,-1.7349992082264984,-0.349999754593928,-0.7181640542927205,0.0
1759502007.8670547,0,-1.2049998044967651,-0.8299996256828308,-0.717703008289547,0.0,-1.7349992944814692,-0.3499997719879934,-0.7180754983436721,0.0
1759502007.8776395,0,-1.2049998044967651,-0.8299996256828308,-0.7177030272828819,0.0,-1.7349993633794114,-0.34999978588186303,-0.7180047624473429,0.0
1759502007.887666,0,-1.2049998044967651,-0.8299996256828308,-0.7177030508032907,0.0,-1.7349994185832376,-0.349999797014195,-0.7179480859777386,0.0
1759502007.8980134,0,-1.2049998044967651,-0.8299996256828308,-0.717703068335954,0.0,-1.7349994629040009,-0.34999980595186253,-0.7179025828929444,0.0
1759502007.9085069,0,-1.2049998044967651,-0.8299996256828308,-0.7177030828716617,0.0,-1.7349994985678627,-0.34999981314379064,-0.7178659676451171,0.0
1759502007.9193096,0,-1.2049998044967651,-0.8299996256828308,-0.7177030939557518,0.0,-1.7349995273262069,-0.34999981894316096,-0.7178364421298621,0.0
1759502007.9296994,0,-1.2049998044967651,-0.8299996256828308,-0.7177031092448658,0.0,-1.7349995505849405,-0.349999823633487,-0.7178125629351996,0.0
1759502007.941224,0,-1.2049998044967651,-0.8299996256828308,-0.71770311401351,0.0,-1.7349995694169633,-0.34999982743112823,-0.7177932285405625,0.0
1759502007.951481,0,-1.2049998044967651,-0.8299996256828308,-0.7177031315727085,0.0,-1.7349995847271829,-0.3499998305185672,-0.7177775098984102,0.0
1759502007.9617035,0,-1.2049998044967651,-0.8299996256828308,-0.7177031482948841,0.0,-1.7349995989700946,-0.3499998333907743,-0.7177628870360262,0.0
1759502007.9720397,0,-1.2049998044967651,-0.8299996256828308,-0.7177031623188057,0.0,-1.7349996102742493,-0.3499998356703555,-0.7177512813262907,0.0
1759502007.982385,0,-1.2049998044967651,-0.8299996256828308,-0.7177031750942682,0.0,-1.7349996192680428,-0.3499998374840322,-0.7177420476101355,0.0
1759502007.992622,0,-1.2049998044967651,-0.8299996256828308,-0.717703187835065,0.0,-1.7349996264420744,-0.34999983893073816,-0.7177346822004301,0.0
1759502008.002895,0,-1.2049998044967651,-0.8299996256828308,-0.7177031994095948,0.0,-1.7349996321782064,-0.3499998400874791,-0.7177287930486164,0.0
1759502008.0130827,0,-1.2049998044967651,-0.8299996256828308,-0.7177032108666701,0.0,-1.7349996367761782,-0.3499998410147001,-0.7177240724192105,0.0
1759502008.023574,0,-1.2049998044967651,-0.8299996256828308,-0.7177032195420168,0.0,-1.734999640469446,-0.34999984175947974,-0.7177202806278358,0.0
1759502008.0349524,0,-1.2049998044967651,-0.8299996256828308,-0.7177032224496926,0.0,-1.734999643440429,-0.34999984235860426,-0.7177172303897285,0.0
1759502008.0450776,0,-1.2049998044967651,-0.8299996256828308,-0.7177032350182433,0.0,-1.7349996458400085,-0.34999984284250035,-0.717714766797817,0.0
1759502008.0563846,0,-1.2049998044967651,-0.8299996256828308,-0.7177032397061414,0.0,-1.7349996477800833,-0.34999984323373334,-0.7177127749686928,0.0
1759502008.0673132,0,-1.2049998044967651,-0.8299996256828308,-0.7177032475932847,0.0,-1.7349996493534006,-0.34999984355100644,-0.7177111596809728,0.0
1759502008.0776632,0,-1.2049998044967651,-0.8299996256828308,-0.7177032591890686,0.0,-1.7349996508037882,-0.3499998438434897,-0.7177096706021867,0.0
1759502008.0883873,0,-1.2049998044967651,-0.8299996256828308,-0.7177032678215981,0.0,-1.7349996519543487,-0.3499998440755102,-0.7177084893486373,0.0
1759502008.0997345,0,-1.2049998044967651,-0.8299996256828308,-0.7177032728051636,0.0,-1.7349996528688059,-0.3499998442599184,-0.7177075504969959,0.0
1759502008.1098897,0,-1.2049998044967651,-0.8299996256828308,-0.7177032846502005,0.0,-1.7349996535984689,-0.34999984440706133,-0.7177068013691879,0.0
1759502008.1213622,0,-1.2049998044967651,-0.8299996256828308,-0.7177032889348265,0.0,-1.7349996541812707,-0.3499998445245884,-0.7177062030202249,0.0
1759502008.1328192,0,-1.2049998044967651,-0.8299996256828308,-0.717703293986867,0.0,-1.7349996546480309,-0.34999984461871464,-0.7177057238084764,0.0
1759502008.1430976,0,-1.2049998044967651,-0.8299996256828308,-0.717703305266193,0.0,-1.734999655023333,-0.3499998446943976,-0.7177053384945095,0.0
1759502008.1536906,0,-1.2049998044967651,-0.8299996256828308,-0.7177033140338906,0.0,-1.7349996553257194,-0.34999984475537643,-0.7177050280415798,0.0
1759502008.1650302,0,-1.2049998044967651,-0.8299996256828308,-0.7177033187619948,0.0,-1.734999655569755,-0.34999984480458834,-0.7177047774959654,0.0
1759502008.1764226,0,-1.2049998044967651,-0.8299996256828308,-0.7177033236834411,0.0,-1.7349996557672036,-0.34999984484440555,-0.7177045747803014,0.0
1759502008.1874192,0,-1.2049998044967651,-0.8299996256828308,-0.7177033307173311,0.0,-1.7349996559274485,-0.34999984487672037,-0.7177044102605523,0.0
1759502008.1981337,0,-1.2049998044967651,-0.8299996256828308,-0.7177033386781595,0.0,-1.734999656075572,-0.34999984490659075,-0.7177042581857553,0.0
1759502008.2283618,0,-1.2049998044967651,-0.8299996256828308,-0.7177032784718769,0.0,-1.7349996561907959,-0.34999984492982666,-0.7177041398880442,0.0
1759502008.2388968,0,-1.2049998044967651,-0.8299996256828308,-0.7177033066769365,0.0,-1.7349996562829288,-0.3499998449484061,-0.7177040452972915,0.0
1759502008.2503886,0,-1.2049998044967651,-0.8299996256828308,-0.7177033295450244,0.0,-1.7349996563567058,-0.34999984496328385,-0.7177039695523458,0.0
1759502008.2605855,0,-1.2049998044967651,-0.8299996256828308,-0.7177033506445429,0.0,-1.7349996564160253,-0.34999984497524617,-0.7177039086504364,0.0
1759502008.2719498,0,-1.2049998044967651,-0.8299996256828308,-0.7177033632311058,0.0,-1.7349996564637733,-0.34999984498487496,-0.7177038596286351,0.0
1759502008.2822678,0,-1.2049998044967651,-0.8299996256828308,-0.717703375925403,0.0,-1.734999656502353,-0.3499998449926549,-0.7177038200197043,0.0
1759502008.2926416,0,-1.2049998044967651,-0.8299996256828308,-0.7177033858693278,0.0,-1.7349996565335977,-0.34999984499895564,-0.7177037879416135,0.0
1759502008.303141,0,-1.2049998044967651,-0.8299996256828308,-0.7177033934934336,0.0,-1.734999656558959,-0.34999984500406994,-0.7177037619039538,0.0
1759502008.313401,0,-1.2049998044967651,-0.8299996256828308,-0.7177034004081708,0.0,-1.7349996565795998,-0.34999984500823234,-0.7177037407124321,0.0
1759502008.3244047,0,-1.2049998044967651,-0.8299996256828308,-0.7177034044018419,0.0,-1.7349996565989427,-0.349999845012133,-0.7177037208535021,0.0
1759502008.3357391,0,-1.2049998044967651,-0.8299996256828308,-0.7177034073234161,0.0,-1.7349996566142765,-0.3499998450152252,-0.7177037051106913,0.0
1759502008.3473089,0,-1.2049998044967651,-0.8299996256828308,-0.7177034098655533,0.0,-1.7349996566264618,-0.34999984501768244,-0.7177036926003012,0.0
1759502008.3580456,0,-1.2049998044967651,-0.8299996256828308,-0.7177034145624077,0.0,-1.73499965663618,-0.3499998450196422,-0.717703682622762,0.0
1759502008.3693783,0,-1.2049998044967651,-0.8299996256828308,-0.7177034176589068,0.0,-1.7349996566439456,-0.3499998450212082,-0.7177036746501163,0.0
1759502008.380872,0,-1.2049998044967651,-0.8299996256828308,-0.7177034204071084,0.0,-1.734999656650166,-0.34999984502246256,-0.7177036682636616,0.0
1759502008.3916035,0,-1.2049998044967651,-0.8299996256828308,-0.7177034248194047,0.0,-1.7349996566551664,-0.349999845023471,-0.7177036631298547,0.0
1759502008.4020975,0,-1.2049998044967651,-0.8299996256828308,-0.7177034293256384,0.0,-1.7349996566591972,-0.34999984502428383,-0.7177036589915899,0.0
1759502008.4144976,0,-1.2049998044967651,-0.8299996256828308,-0.7177034297497151,0.0,-1.7349996566624475,-0.34999984502493925,-0.7177036556547328,0.0
1759502008.4249437,0,-1.2049998044967651,-0.8299996256828308,-0.7177034343163697,0.0,-1.7349996566650814,-0.3499998450254704,-0.7177036529504952,0.0
1759502008.4362369,0,-1.2049998044967651,-0.8299996256828308,-0.717703437036965,0.0,-1.7349996566675105,-0.3499998450259602,-0.71770365045649,0.0
1759502008.4474435,0,-1.2049998044967651,-0.8299996256828308,-0.7177034397971145,0.0,-1.734999656669433,-0.3499998450263479,-0.7177036484829102,0.0
1759502008.4587858,0,-1.2049998044967651,-0.8299996256828308,-0.7177034422947095,0.0,-1.734999656670958,-0.3499998450266555,-0.7177036469172041,0.0
1759502008.4702163,0,-1.2049998044967651,-0.8299996256828308,-0.7177034446632184,0.0,-1.734999656672171,-0.34999984502690007,-0.7177036456718489,0.0
1759502008.4806948,0,-1.2049998044967651,-0.8299996256828308,-0.7177034484995062,0.0,-1.7349996566731394,-0.34999984502709536,-0.7177036446776329,0.0
1759502008.4921708,0,-1.2049998044967651,-0.8299996256828308,-0.7177034504560263,0.0,-1.7349996566739136,-0.34999984502725145,-0.7177036438827877,0.0
1759502008.5024745,0,-1.2049998044967651,-0.8299996256828308,-0.7177034540664131,0.0,-1.734999656674535,-0.3499998450273768,-0.717703643244823,0.0
1759502008.5137396,0,-1.2049998044967651,-0.8299996256828308,-0.717703455957027,0.0,-1.7349996566750343,-0.3499998450274775,-0.7177036427320727,0.0
1759502008.5240316,0,-1.2049998044967651,-0.8299996256828308,-0.7177034590922879,0.0,-1.734999656675437,-0.34999984502755876,-0.7177036423184392,0.0
1759502008.535314,0,-1.2049998044967651,-0.8299996256828308,-0.717703460630986,0.0,-1.7349996566757626,-0.3499998450276244,-0.7177036419843317,0.0
1759502008.5465612,0,-1.2049998044967651,-0.8299996256828308,-0.7177034622504266,0.0,-1.734999656676056,-0.34999984502768355,-0.7177036416830856,0.0
1759502008.557939,0,-1.2049998044967651,-0.8299996256828308,-0.7177034638074495,0.0,-1.7349996566762886,-0.34999984502773046,-0.7177036414441922,0.0
1759502008.5693905,0,-1.2049998044967651,-0.8299996256828308,-0.7177034653787473,0.0,-1.7349996566764736,-0.34999984502776776,-0.7177036412542482,0.0
1759502008.5807314,0,-1.2049998044967651,-0.8299996256828308,-0.7177034671601081,0.0,-1.734999656676621,-0.3499998450277975,-0.7177036411027978,0.0
1759502008.591954,0,-1.2049998044967651,-0.8299996256828308,-0.7177034690779003,0.0,-1.7349996566767392,-0.3499998450278213,-0.7177036409817025,0.0
1759502008.6033864,0,-1.2049998044967651,-0.8299996256828308,-0.7177034707207071,0.0,-1.7349996566768335,-0.3499998450278403,-0.7177036408846451,0.0
1759502008.6180897,0,-1.2049998044967651,-0.8299996256828308,-0.7177034691727205,0.0,-1.7349996566769093,-0.3499998450278556,-0.7177036408069237,0.0
1759502008.6295428,0,-1.2049998044967651,-0.8299996256828308,-0.7177034717087238,0.0,-1.7349996566769759,-0.34999984502786907,-0.7177036407385251,0.0
1759502008.640975,0,-1.2049998044967651,-0.8299996256828308,-0.7177034742224588,0.0,-1.7349996566770287,-0.34999984502787973,-0.7177036406842842,0.0
1759502008.6524286,0,-1.2049998044967651,-0.8299996256828308,-0.7177034764257577,0.0,-1.7349996566770707,-0.3499998450278882,-0.7177036406411547,0.0
1759502008.6627936,0,-1.2049998044967651,-0.8299996256828308,-0.7177034793036051,0.0,-1.7349996566771042,-0.349999845027895,-0.7177036406067283,0.0
1759502008.6741385,0,-1.2049998044967651,-0.8299996256828308,-0.7177034809216281,0.0,-1.734999656677131,-0.34999984502790044,-0.7177036405792102,0.0
1759502008.6854272,0,-1.2049998044967651,-0.8299996256828308,-0.7177034824208448,0.0,-1.7349996566771526,-0.34999984502790477,-0.7177036405571542,0.0
1759502008.6968052,0,-1.2049998044967651,-0.8299996256828308,-0.7177034837731036,0.0,-1.7349996566771697,-0.34999984502790826,-0.7177036405394313,0.0
1759502008.721515,0,-1.2049998044967651,-0.8299996256828308,-0.7177034757760676,0.0,-1.7350443958619093,-0.3499618568129681,-0.7182150890985584,0.0015570982391797756
1759502008.7317202,0,-1.2049998044967651,-0.8299996256828308,-0.7177034806234985,0.0,-1.7350642040210065,-0.3499613317857478,-0.7186855221810877,0.0029230997488047406
1759502008.7417715,0,-1.2049998044967651,-0.8299996256828308,-0.7177034850942441,0.0,-1.7350779723324397,-0.34997584557676087,-0.7190644188490511,0.004020544751724459
1759502008.7531493,0,-1.2049998044967651,-0.8299996256828308,-0.7177034876513453,0.0,-1.7350872345722024,-0.3499996984476353,-0.7193716564203114,0.0049073201953433315
1759502008.7642288,0,-1.2049998044967651,-0.8299996256828308,-0.7177034898242436,0.0,-1.735093177293719,-0.35002893447197475,-0.7196225576962896,0.005628483774597393
1759502008.7756507,0,-1.2049998044967651,-0.8299996256828308,-0.717703491414035,0.0,-1.7350966557647196,-0.35006090615772,-0.7198292275702477,0.006219448439481021
1759502008.7859282,0,-1.2049998044967651,-0.8299996256828308,-0.7177034934128946,0.0,-1.7350983502872366,-0.35009379222685016,-0.7200006405496691,0.006706888605899551
1759502008.7965946,0,-1.2049998044967651,-0.8299996256828308,-0.7177034948580463,0.0,-1.7350987163986493,-0.3501264793557114,-0.7201443080079798,0.007112679992424916
1759502008.8072193,0,-1.2049998044967651,-0.8299996256828308,-0.7177034960914277,0.0,-1.7350981031143522,-0.350158272601411,-0.7202660028987741,0.007453751150719906
1759502008.8223674,0,-1.2049998044967651,-0.8299996256828308,-0.7177034949041001,0.0,-1.7350966073848773,-0.35018913327587003,-0.7203723355057484,0.007748117868995148
1759502008.8335981,0,-1.2049998044967651,-0.8299996256828308,-0.7177034961921258,0.0,-1.7351011361154738,-0.3502098367869387,-0.7204372474208839,0.00795519037375432
1759502008.8442569,0,-1.2049998044967651,-0.8299996256828308,-0.7177034977327992,0.0,-1.7351041365311597,-0.35022960669958353,-0.7204944865384715,0.00813325710568246
1759502008.8555205,0,-1.2049998044967651,-0.8299996256828308,-0.7177034987611748,0.0,-1.7351059334777497,-0.3502484623599675,-0.7205461154037077,0.008289516955734932
1759502008.8664029,0,-1.2049998044967651,-0.8299996256828308,-0.7177034998294971,0.0,-1.7351068063627058,-0.3502664015875667,-0.7205932714761716,0.008428488719956556
1759502008.877203,0,-1.2049998044967651,-0.8299996256828308,-0.7177035008075627,0.0,-1.7351069583821077,-0.3502834898205557,-0.7206369829355608,0.008554022051022415
1759502008.8882563,0,-1.2049998044967651,-0.8299996256828308,-0.7177035015677936,0.0,-1.7351065327098092,-0.3502998490457946,-0.7206782305199788,0.008669544611432985
1759502008.898575,0,-1.2049998044967651,-0.8299996256828308,-0.7177035025572032,0.0,-1.735105672045598,-0.35031550616615564,-0.7207172708603902,0.008776531006488736
1759502008.90923,0,-1.2049998044967651,-0.8299996256828308,-0.7177035032932597,0.0,-1.7351044503029216,-0.3503306051179286,-0.7207548596047075,0.00887745110250777
1759502008.9199624,0,-1.2049998044967651,-0.8299996256828308,-0.7177035039238859,0.0,-1.7351029312676876,-0.3503452596227975,-0.7207914678176344,0.008973957750348592
1759502008.9305882,0,-1.2049998044967651,-0.8299996256828308,-0.7177035045516789,0.0,-1.7351011696314533,-0.3503595564106032,-0.7208273725835422,0.009067130383466362
1759502008.9408762,0,-1.2049998044967651,-0.8299996256828308,-0.7177035052548444,0.0,-1.7358769456164138,-0.34973564137915153,-0.720136646057388,0.013871395920248287
1759502008.9514701,0,-1.2049998044967651,-0.8299996256828308,-0.7177035057843034,0.0,-1.7367687761813189,-0.34909705343661157,-0.7193488488162549,0.022062869858559077
1759502008.962692,0,-1.2049998044967651,-0.8299996256828308,-0.7177035060775463,0.0,-1.73745939266208,-0.3486846861865139,-0.7187343976354269,0.02857270020489258
1759502008.9729915,0,-1.2049998044967651,-0.8299996256828308,-0.7177035067028843,0.0,-1.7379945343514338,-0.3484332550899563,-0.7182549768124652,0.033766051105924455
1759502008.9832635,0,-1.2049998044967651,-0.8299996256828308,-0.7177035072921214,0.0,-1.7384083178513956,-0.3482963515552829,-0.7178822384032412,0.03792116774757963
1759502008.99403,0,-1.2049998044967651,-0.8299996256828308,-0.717703507675628,0.0,-1.7387266591095762,-0.3482408031817564,-0.7175947095223723,0.04125414579008711
1759502009.0050874,0,-1.2049998044967651,-0.8299996256828308,-0.7177035079725176,0.0,-1.7389699254046724,-0.34824241836300185,-0.7173752468213522,0.04393571270966304
1759502009.0284376,0,-1.2049998044967651,-0.8299996256828308,-0.7177035050395091,0.0,-1.7391434943468487,-0.34829578949459156,-0.7172248241095391,0.04608252674121719
1759502009.0388134,0,-1.2049998044967651,-0.8299996256828308,-0.7177035065266519,0.0,-1.7392735364447762,-0.3483730331498468,-0.7171139341530872,0.04782799898155832
1759502009.0493102,0,-1.2049998044967651,-0.8299996256828308,-0.7177035078945853,0.0,-1.7396159999922887,-0.34823228229508124,-0.7166964982851654,0.0497796715752801
1759502009.0600443,0,-1.2049998044967651,-0.8299996256828308,-0.7177035088988468,0.0,-1.7398794898841683,-0.34815086802729844,-0.7163733437778801,0.05134065495230502
1759502009.07054,0,-1.2049998044967651,-0.8299996256828308,-0.7177035097430995,0.0,-1.7400815067641027,-0.3481123418531291,-0.7161241380796792,0.05259516875839146
1759502009.080568,0,-1.2049998044967651,-0.8299996256828308,-0.7177035105264373,0.0,-1.740235703184138,-0.34810445532651835,-0.715932876250801,0.05360851475100447
1759502009.090668,0,-1.2049998044967651,-0.8299996256828308,-0.717703511143835,0.0,-1.740352284010096,-0.3481187708479992,-0.7157876064094612,0.05443161445454182
1759502009.1010127,0,-1.2049998044967651,-0.8299996256828308,-0.7177035115997263,0.0,-1.7404390772577483,-0.3481493276680431,-0.7156791210472117,0.055104498393490235
1759502009.1122873,0,-1.2049998044967651,-0.8299996256828308,-0.7177035118059525,0.0,-1.7405017760495394,-0.3481925145131316,-0.7156007808033188,0.05565920186316792
1759502009.122298,0,-1.2049998044967651,-0.8299996256828308,-0.7177035122707291,0.0,-1.7405461085963518,-0.3482436449159074,-0.7155454907921053,0.056119374117276286
1759502009.1327913,0,-1.2049998044967651,-0.8299996256828308,-0.7177035125938964,0.0,-1.7405755321124452,-0.3483009451478978,-0.7155091507606571,0.056504878630527625
1759502009.1434164,0,-1.2049998044967651,-0.8299996256828308,-0.7177035128634445,0.0,-1.7405929505666364,-0.3483628740344994,-0.7154882344785428,0.05683119273860158
1759502009.1547146,0,-1.2049998044967651,-0.8299996256828308,-0.7177035130049951,0.0,-1.741943404561334,-0.3472279818032356,-0.7143952801353336,0.05664926351815716
1759502009.1661665,0,-1.2049998044967651,-0.8299996256828308,-0.7177035131505871,0.0,-1.7430042098796263,-0.3463401454513846,-0.7135405188249432,0.05652091419878671
1759502009.1777024,0,-1.2049998044967651,-0.8299996256828308,-0.7177035133195577,0.0,-1.743837583190549,-0.3456472464648643,-0.7128730325886836,0.056435077750241244
1759502009.1880443,0,-1.2049998044967651,-0.8299996256828308,-0.7177035137074377,0.0,-1.7444937845544652,-0.3451062728130941,-0.7123511860235084,0.056381259824447555
1759502009.1989095,0,-1.2049998044967651,-0.8299996256828308,-0.7177035139765398,0.0,-1.7450091628895563,-0.34468693955035207,-0.7119454464839987,0.056353821997797336
1759502009.2092,0,-1.2049998044967651,-0.8299996256828308,-0.7177035143105481,0.0,-1.7454136960920494,-0.34436353830040056,-0.7116310269513145,0.05634675127378998
1759502009.2263021,0,-1.2049998044967651,-0.8299996256828308,-0.7177035136463168,0.0,-1.745721989159578,-0.34412775880464336,-0.7113985965017667,0.05636620508465504
1759502009.2364948,0,-1.2049998044967651,-0.8299996256828308,-0.7177035141922765,0.0,-1.7459619581843993,-0.34395119368067734,-0.7112221861098916,0.05639714630987178
1759502009.247295,0,-1.2049998044967651,-0.8299996256828308,-0.7177035146216362,0.0,-1.7462505535027248,-0.34367660259486826,-0.7109684033467357,0.05637267613676632
1759502009.2573347,0,-1.2049998044967651,-0.8299996256828308,-0.7177035150715785,0.0,-1.746717417811577,-0.34326121640770546,-0.7104891582750728,0.056373765905178265
1759502009.2687933,0,-1.2049998044967651,-0.8299996256828308,-0.7177035152656082,0.0,-1.747081359812389,-0.3429431400678504,-0.710117121997145,0.056391426704156596
1759502009.2790854,0,-1.2049998044967651,-0.8299996256828308,-0.7177035155837359,0.0,-1.7473653701854879,-0.3427004630175337,-0.7098282671629657,0.05642076596691912
1759502009.2902138,0,-1.2049998044967651,-0.8299996256828308,-0.7177035157665959,0.0,-1.7475855574912444,-0.3425187492291896,-0.7096060605256248,0.05646086644140184
1759502009.3005345,0,-1.2049998044967651,-0.8299996256828308,-0.7177035160282976,0.0,-1.7477558350545923,-0.3423846141169157,-0.7094359216393563,0.05650863873709278
1759502009.3108044,0,-1.2049998044967651,-0.8299996256828308,-0.7177035162664396,0.0,-1.7478864705801478,-0.3422885028929944,-0.7093071991870348,0.05656274525909174
1759502009.3209565,0,-1.2049998044967651,-0.8299996256828308,-0.717703516486754,0.0,-1.7479855675725537,-0.3422228177229761,-0.7092114682794702,0.056622039703620904
1759502009.3310359,0,-1.2049998044967651,-0.8299996256828308,-0.7177035166875179,0.0,-1.7480594670703193,-0.34218161884240034,-0.709142138231369,0.05668568743216291
1759502009.3418677,0,-1.2049998044967651,-0.8299996256828308,-0.7177035167915466,0.0,-1.748112625965862,-0.34216117096474813,-0.7090947160919704,0.05675429308558031
1759502009.3520038,0,-1.2049998044967651,-0.8299996256828308,-0.7177035169655355,0.0,-1.748307050455436,-0.34196269092775944,-0.7088068785766125,0.05668090826070187
1759502009.3633003,0,-1.2049998044967651,-0.8299996256828308,-0.7177035170212404,0.0,-1.7484561275760973,-0.3418150508733473,-0.7085846901581164,0.056639226096976296
1759502009.3743374,0,-1.2049998044967651,-0.8299996256828308,-0.717703517117819,0.0,-1.7485696342637889,-0.3417076502198738,-0.7084140169169527,0.056622417353467534
1759502009.3850727,0,-1.2049998044967651,-0.8299996256828308,-0.7177035172528824,0.0,-1.7486551806723962,-0.3416321429977277,-0.7082838555957035,0.05662510544680893
1759502009.3954744,0,-1.2049998044967651,-0.8299996256828308,-0.7177035174138915,0.0,-1.7487187073973283,-0.34158193873575454,-0.7081856164179293,0.056643041705386664
1759502009.4057462,0,-1.2049998044967651,-0.8299996256828308,-0.7177035175722857,0.0,-1.7487647468804255,-0.3415520529350955,-0.7081127248134653,0.056673199551623595
1759502009.4229445,0,-1.2049998044967651,-0.8299996256828308,-0.7177035171873847,0.0,-1.7487932092909275,-0.3415458675076906,-0.7080646204341629,0.05672396214680441
1759502009.4342835,0,-1.2049998044967651,-0.8299996256828308,-0.7177035173881716,0.0,-1.748810546751174,-0.34155308508572674,-0.7080325925261509,0.05678284629513406
1759502009.4451835,0,-1.2049998044967651,-0.8299996256828308,-0.7177035176300421,0.0,-1.7488190953511265,-0.3415709284728839,-0.7080132769976009,0.05684795502923798
1759502009.4557295,0,-1.2049998044967651,-0.8299996256828308,-0.7177035178588795,0.0,-1.7500281947832275,-0.3405129652589037,-0.7069263699166106,0.05708962403302684
1759502009.4659553,0,-1.2049998044967651,-0.8299996256828308,-0.7177035180692286,0.0,-1.7516337453972066,-0.33913855815449706,-0.7056200431048879,0.05761162149941922
1759502009.4760127,0,-1.2049998044967651,-0.8299996256828308,-0.7177035182532414,0.0,-1.7528979831327318,-0.33806508306288063,-0.70459315033371,0.058040849505563805
1759502009.4867282,0,-1.2049998044967651,-0.8299996256828308,-0.7177035183652798,0.0,-1.7538923335958752,-0.337229573370493,-0.7037877798252657,0.058398040010175886
1759502009.4970937,0,-1.2049998044967651,-0.8299996256828308,-0.7177035184866583,0.0,-1.7546746569016578,-0.3365806338776885,-0.7031566246055604,0.0586983714246005
1759502009.5078275,0,-1.2049998044967651,-0.8299996256828308,-0.7177035185750569,0.0,-1.755288745302272,-0.33607980063013926,-0.7026640730260421,0.05895451142224737
1759502009.5184436,0,-1.2049998044967651,-0.8299996256828308,-0.7177035186660419,0.0,-1.7557697260320615,-0.3356960382234394,-0.7022813653048849,0.05917584515313711
1759502009.528884,0,-1.2049998044967651,-0.8299996256828308,-0.7177035187626313,0.0,-1.7561451735070635,-0.33540499556269604,-0.7019858783399676,0.05936965000814807
1759502009.5393548,0,-1.2049998044967651,-0.8299996256828308,-0.7177035188509179,0.0,-1.7564364332097966,-0.3351879663299309,-0.7017601455814195,0.05954191416965497
1759502009.5502234,0,-1.2049998044967651,-0.8299996256828308,-0.7177035189134315,0.0,-1.7566598402608564,-0.33503087849646374,-0.7015909102711192,0.05969788788886857
1759502009.5610793,0,-1.2049998044967651,-0.8299996256828308,-0.7177035189781478,0.0,-1.756828839130466,-0.3349219536354559,-0.7014671121548901,0.059841203210805154
1759502009.572237,0,-1.2049998044967651,-0.8299996256828308,-0.7177035190306018,0.0,-1.757419433125748,-0.33438910674333544,-0.700842909560033,0.059979738229638854
1759502009.5835094,0,-1.2049998044967651,-0.8299996256828308,-0.7177035190830452,0.0,-1.757879681268454,-0.3339804567042458,-0.700356163350561,0.060107260498443504
1759502009.5941167,0,-1.2049998044967651,-0.8299996256828308,-0.7177035191703585,0.0,-1.7582383034669378,-0.33366854021306575,-0.6999767014451351,0.06022554000507462
1759502009.6045697,0,-1.2049998044967651,-0.8299996256828308,-0.717703519258901,0.0,-1.7585169855032539,-0.33343283637520643,-0.6996817429313059,0.060336656139349014
1759502009.617728,0,-1.2049998044967651,-0.8299996256828308,-0.7177035192282464,0.0,-1.758730058908609,-0.3332612616639515,-0.6994563740058559,0.06044659673003613
1759502009.628831,0,-1.2049998044967651,-0.8299996256828308,-0.717703519305811,0.0,-1.7588930274922348,-0.3331379193624864,-0.6992841250676889,0.060552978350024614
1759502009.639563,0,-1.2049998044967651,-0.8299996256828308,-0.7177035193990875,0.0,-1.7590164419215923,-0.33305265684712726,-0.6991538537995815,0.06065636322598046
1759502009.650483,0,-1.2049998044967651,-0.8299996256828308,-0.7177035194754744,0.0,-1.7591081144136071,-0.3329982322708003,-0.6990573279509003,0.060758053677074264
1759502009.6613662,0,-1.2049998044967651,-0.8299996256828308,-0.7177035195460402,0.0,-1.7591743670788869,-0.3329686716578569,-0.6989878644610421,0.06085874784911421
1759502009.6716626,0,-1.2049998044967651,-0.8299996256828308,-0.7177035196311615,0.0,-1.7592205977270197,-0.33295857075773366,-0.698939722327136,0.06095810721769841
1759502009.6828206,0,-1.2049998044967651,-0.8299996256828308,-0.7177035196771797,0.0,-1.760774764223716,-0.33162947751344823,-0.6975429744196542,0.060835829433962416
1759502009.6940389,0,-1.2049998044967651,-0.8299996256828308,-0.7177035197205655,0.0,-1.7619958006474676,-0.3305886761667405,-0.6964467765557211,0.06075664998992367
1759502009.7048595,0,-1.2049998044967651,-0.8299996256828308,-0.7177035197780341,0.0,-1.762956137503855,-0.32977415494026735,-0.6955859450971387,0.060711018044653446
1759502009.715191,0,-1.2049998044967651,-0.8299996256828308,-0.7177035198473529,0.0,-1.7637119850719738,-0.32913757348735684,-0.6949098301024041,0.06069135834387509
1759502009.7260003,0,-1.2049998044967651,-0.8299996256828308,-0.7174112645122979,0.005235987755982988,-1.7643054398773756,-0.32864315443275516,-0.6943806559352759,0.06069335357453211
1759502009.7371645,0,-1.2049998044967651,-0.8299996256828308,-0.7173862224055182,0.005235987755982988,-1.764769760151209,-0.32826249420907366,-0.6939685318182935,0.06071345284258198
1759502009.7480497,0,-1.2049998044967651,-0.8299996256828308,-0.7174093169054079,0.005235987755982988,-1.7651319337669766,-0.3279721210474674,-0.6936490575698598,0.06074785529275682
1759502009.7593582,0,-1.2049998044967651,-0.8299996256828308,-0.7173856889107697,0.005235987755982988,-1.7654121704161305,-0.3277547982210407,-0.6934040844730576,0.06079473977009203
1759502009.77086,0,-1.2049998044967651,-0.8299996256828308,-0.7173656810593032,0.005235987755982988,-1.7656267020503553,-0.3275965277023717,-0.6932189816284111,0.06085233414311792
1759502009.7817051,0,-1.2049998044967651,-0.8299996256828308,-0.7173782074897174,0.005235987755982988,-1.7659160324376901,-0.3273123277613875,-0.6929450015793854,0.0608391279261262
1759502009.7923398,0,-1.2039710833458304,-0.8292995660299322,-0.7167563859169402,0.005859957935529714,-1.7664184582224909,-0.32686396187371314,-0.692354977227809,0.06085540027980682
1759502009.8037195,0,-1.2039710833458304,-0.8292995660299323,-0.7167169433258618,0.005859957935529714,-1.7668093534906515,-0.3265206974387736,-0.6918939812820513,0.06088745923557739
1759502009.8254488,0,-1.2031488293493846,-0.8301005062071259,-0.7163090283140231,0.0138324717824731,-1.7671027430801838,-0.3262750056614158,-0.6915449310380469,0.060949679639882
1759502009.8293266,0,-1.2028826728884299,-0.8303323701528742,-0.7160807002183348,0.0138324717824731,-1.767336229621494,-0.32608189101168367,-0.6912661186834307,0.061006578744360704
1759502009.8401291,0,-1.2027650919739508,-0.8304347776844182,-0.7158787675171169,0.0138324717824731,-1.7675158070440689,-0.3259401307868609,-0.6910498577546306,0.06107102979006706
1759502009.850796,0,-1.2027204750317744,-0.8304736106445092,-0.7157437227901602,0.0138324717824731,-1.7676526497269953,-0.3258392974154204,-0.690883216175416,0.06114164426776759
1759502009.861229,0,-1.2027039579869565,-0.8304879672283867,-0.7156428010041178,0.0138324717824731,-1.7677555875503217,-0.32577107167674646,-0.6907559741637598,0.0612171620342404
1759502009.872264,0,-1.2026962575124451,-0.8304946486634498,-0.7155533997895452,0.0138324717824731,-1.767830913197168,-0.3257299456920741,-0.6906607577211502,0.061298036397181586
1759502009.8824534,0,-1.202695252004198,-0.8304955058212035,-0.7154962148649158,0.0138324717824731,-1.7678846820337546,-0.32570978488243857,-0.6905906191446346,0.061382154618970945
1759502009.893167,0,-1.2026936596393742,-0.8304968779011861,-0.715480193427615,0.0138324717824731,-1.7679206524582103,-0.3257074064124918,-0.6905411179427718,0.06147020125204944
1759502009.9042532,0,-1.2028444518069303,-0.8306623992847209,-0.7155107666183873,0.014503730482030599,-1.7694641020146378,-0.3243958672346615,-0.6890895319714656,0.06067511998971162
1759502009.915057,0,-1.2028445379729504,-0.8306623165907687,-0.7154600627774064,0.014503730482030599,-1.7706784248019425,-0.3233609936438154,-0.687948686896824,0.06006370991291703
1759502009.9257088,0,-1.2028449182602083,-0.8306619802721941,-0.7154663011745651,0.014503730482030599,-1.7716344349406175,-0.3225452095702855,-0.6870517570695525,0.059596566677302114
1759502009.9371617,0,-1.2028432219237362,-0.8306634524635476,-0.7154712603029351,0.014503730482030599,-1.7723855043161263,-0.3219053168546774,-0.6863484644381963,0.059245167171000666
1759502009.9475749,0,-1.202844962182583,-0.8306619357655997,-0.7154603286514852,0.014503730482030599,-1.7729764337850644,-0.3214036159876649,-0.6857963888536164,0.05898324231799602
1759502009.9588728,0,-1.202843593694484,-0.8306631248613098,-0.7154570542619448,0.014503730482030599,-1.7734391037623733,-0.3210141158973508,-0.685365542403054,0.058794383781241834
1759502009.9695861,0,-1.2028444139572636,-0.8306624102392585,-0.7154725673886707,0.014503730482030599,-1.773800692491108,-0.32071361288989775,-0.6850301870715594,0.05866269593749085
1759502009.9804618,0,-1.202844354192145,-0.8306624618154592,-0.7154607143249722,0.014503730482030599,-1.7740814668300848,-0.3204850601896779,-0.6847712098690165,0.05857723027963046
1759502009.9910853,0,-1.202844910996235,-0.8306619773024212,-0.7154420636503606,0.014503730482030599,-1.7742979063490287,-0.32031425928737245,-0.6845730214639819,0.05852855284564447
1759502010.0013785,0,-1.2028458825149735,-0.8306611322434883,-0.7154601407824533,0.014503730482030599,-1.7744630781550719,-0.32018981619980763,-0.6844232510536521,0.05850906977978686
1759502010.0125482,0,-1.2028442401563066,-0.8306625615942728,-0.7154760274910936,0.014503730482030599,-1.7745859304757883,-0.32010451235190895,-0.6843135672431716,0.058515152400356756
1759502010.022804,0,-1.1962602081649265,-0.8371485052496559,-0.7088933673949189,0.07882183407099524,-1.775083890392768,-0.319643423245442,-0.6837121330068133,0.05840662792569222
1759502010.033765,0,-1.1937348495707338,-0.8392747894751287,-0.7035991087742367,0.07882183407099524,-1.7754721864383756,-0.319287472776829,-0.6832408193382747,0.05834073455991417
1759502010.044085,0,-1.1927797736040209,-0.8400727421720202,-0.6997569271153262,0.07882183407099524,-1.7757747957688852,-0.3190140042636387,-0.682871283201669,0.058307541883614526
1759502010.0548434,0,-1.1924029671828416,-0.8403832088259536,-0.6969174434004906,0.07882183407099524,-1.7760093339133225,-0.3188067656727285,-0.6825825339793117,0.05830137512249197
1759502010.0654984,0,-1.192259192193812,-0.8404984673394135,-0.6948732789363583,0.07882183407099524,-1.7761900569086007,-0.318652278082533,-0.6823576535556899,0.05831679403741542
1759502010.075884,0,-1.192208511800851,-0.8405366987748039,-0.6934240600070699,0.07882183407099524,-1.776328234864887,-0.3185397453018927,-0.6821832860518552,0.05834922873314428
1759502010.087174,0,-1.192168968950832,-0.840566293502762,-0.6923177483248546,0.07882183407099524,-1.7764317947860468,-0.31846207961628686,-0.6820498470438007,0.058397343463929774
1759502010.0979996,0,-1.1921629299341112,-0.840568920181447,-0.69157827485568,0.07882183407099524,-1.7765080145230199,-0.3184120574027804,-0.6819487632945703,0.05845753121805727
1759502010.1087072,0,-1.1921625950464676,-0.8405674667907158,-0.6910179642875186,0.07882183407099524,-1.7765623546303615,-0.31838437149981724,-0.6818735498028833,0.058527597054675404
1759502010.1202703,0,-1.192143941152128,-0.8405815014367676,-0.6905866122024212,0.07882183407099524,-1.7765984247812994,-0.31837595897663556,-0.6818197534559927,0.05860771855504369
1759502010.131158,0,-1.1921508762403838,-0.8405749139420196,-0.6903570971743133,0.07882183407099524,-1.776620156253912,-0.3183826369998513,-0.6817828165778675,0.058695121028429366
1759502010.1424532,0,-1.1921447103711404,-0.8405793419632586,-0.6901856118719356,0.07882183407099524,-1.776629903795915,-0.3184023192354867,-0.6817598515501581,0.058789703043747824
1759502010.1533833,0,-1.1920126843778132,-0.8409138020877847,-0.6895963707710688,0.08058539365908841,-1.7783080901052875,-0.3170166348254831,-0.6799991090343058,0.06086272995562018
1759502010.1643372,0,-1.1920141361129126,-0.8409123572923869,-0.6895210659697926,0.08058539365908841,-1.7796224149301811,-0.315952848845202,-0.6786141182656416,0.06253533637123704
1759502010.17601,0,-1.191999394524001,-0.8409242608379249,-0.6894606713114383,0.08058539365908841,-1.780650305233076,-0.3151401803603992,-0.677525878740451,0.06389515805160002
1759502010.186522,0,-1.1920183956758705,-0.8409086370605714,-0.6894823486952724,0.08058539365908841,-1.7814556915780033,-0.3145201502772761,-0.6766688772314878,0.0650080443386488
1759502010.1975458,0,-1.19201480814623,-0.8409115681514093,-0.6894618209040102,0.08058539365908841,-1.78208486704091,-0.31405143605337527,-0.6759956248434322,0.06592742344494762
1759502010.2082698,0,-1.1920198236452588,-0.8409074962296516,-0.6895200831866498,0.08058539365908841,-1.78257538054349,-0.313700546742648,-0.6754674547343387,0.06669383483336705
1759502010.237166,0,-1.18247021193388,-0.8484851687815999,-0.6758807199899064,0.09356406863055397,-1.7829292502697727,-0.3134747657523948,-0.6750824729191492,0.06737818369399402
1759502010.2475693,0,-1.1792891432408388,-0.8509305953906128,-0.6665686525168728,0.09356406863055397,-1.7832023802291628,-0.31331500322095984,-0.6747824990721013,0.06796188808512242
1759502010.2584286,0,-1.1780547851609457,-0.8518674276807188,-0.6597773353334297,0.09356406863055397,-1.7834102306788242,-0.31320841832695806,-0.6745514941986906,0.06846672659971245
1759502010.2693248,0,-1.1775769468769284,-0.8522214070456419,-0.6549200106410773,0.09356406863055397,-1.7837237137099824,-0.3129389501226914,-0.6742121244793545,0.07013892478460318
1759502010.2803414,0,-1.1769749357279198,-0.8528804049637932,-0.6503293617229763,0.09525875639099751,-1.7842549134027064,-0.31251996025067297,-0.6734664569778258,0.07174272939194991
1759502010.2914658,0,-1.1768969744121236,-0.852931356395157,-0.6478175817264114,0.09525875639099751,-1.7846644705861219,-0.3122168982989083,-0.672880394180011,0.07306213714448152
1759502010.302113,0,-1.1768776794421982,-0.852939908498414,-0.6461427910303401,0.09525875639099751,-1.784979398769003,-0.31200205314326984,-0.6724193780318112,0.07415759833435845
1759502010.3126383,0,-1.1768721722131508,-0.8529396735022435,-0.6449349386196925,0.09525875639099751,-1.7852201711119717,-0.3118549400819406,-0.672056957827717,0.07507702321418885
1759502010.3228755,0,-1.176876692133096,-0.8529332627815323,-0.6441111971103792,0.09525875639099751,-1.785402823990824,-0.3117597451565133,-0.6717723540257592,0.07585720636065083
1759502010.3341398,0,-1.1768509394324536,-0.8529499759811003,-0.6434519535399704,0.09525875639099751,-1.785538603084845,-0.3117062683622751,-0.6715503775051698,0.07653167499075086
1759502010.3447342,0,-1.176858160077609,-0.8529430949814667,-0.6430700334698202,0.09525875639099751,-1.7856378392059646,-0.3116844299494025,-0.6713777120409616,0.07712085399329142
1759502010.3551068,0,-1.1768664703671865,-0.8529359940131407,-0.6428433226177095,0.09525875639099751,-1.785708183183685,-0.3116870994133161,-0.6712442764106662,0.07764226507128327
1759502010.3663757,0,-1.1768460463424144,-0.8529503125795984,-0.6426278010406838,0.09525875639099751,-1.7857546571010523,-0.3117103691732705,-0.6711429046374074,0.07811417789831164
1759502010.376789,0,-1.1768605283472988,-0.8529392976039574,-0.6425730357177585,0.09525875639099751,-1.7857826825214602,-0.3117489115770584,-0.6710667267181679,0.07854420321185823
1759502010.3871703,0,-1.1768669145851574,-0.8529344775893459,-0.6425955635943251,0.09525875639099751,-1.7857958341311464,-0.31179968921171713,-0.6710108709086208,0.07894153378520634
1759502010.397585,0,-1.1765253422566908,-0.8533775536698436,-0.6415267953351668,0.096626871973389,-1.7875132933702862,-0.3104245206817531,-0.6679763853956475,0.07797317734005062
1759502010.4086835,0,-1.176508119540206,-0.8533902489808534,-0.6415029609572241,0.096626871973389,-1.7888614041503537,-0.30933942880596493,-0.6655884421855173,0.07725316566191297
1759502010.4257555,0,-1.165158579627732,-0.8615123461016904,-0.625866192678934,0.12602609400777098,-1.789906840430615,-0.3084996501850246,-0.6637294509298093,0.07675849316708973
1759502010.4362788,0,-1.1610788207419724,-0.8642981164380119,-0.6142427554504163,0.12602609400777098,-1.7907291062990183,-0.3078391471297686,-0.6622621487010533,0.07640996343732627
1759502010.4471815,0,-1.1594946793767493,-0.865359855570508,-0.6056615192672424,0.12602609400777098,-1.791374165664117,-0.30732318120081925,-0.6611059829589753,0.07617975574740625
1759502010.4581451,0,-1.1588786625139869,-0.8657582644622641,-0.5994914114636061,0.12602609400777098,-1.7918786264471718,-0.306923511938452,-0.660196777719381,0.07604460417673062
1759502010.4689338,0,-1.158643550505965,-0.8659000098453947,-0.5950700323883258,0.12602609400777098,-1.7922715487433636,-0.30661728278832434,-0.6594835853762292,0.07598518733001408
1759502010.4803004,0,-1.158528162375033,-0.8659634810000788,-0.5918109768802867,0.12602609400777098,-1.7925746029691483,-0.3063877824063469,-0.6589281779826749,0.07598984854045414
1759502010.491197,0,-1.1584981534418952,-0.8659732971807791,-0.5895654337136039,0.12602609400777098,-1.7928064108445223,-0.30621974820598225,-0.6584979459464646,0.07604461807968754
1759502010.5012784,0,-1.158514580972853,-0.8659556183890353,-0.5881533613946801,0.12602609400777098,-1.7929820804776584,-0.3061004022035814,-0.658166518377292,0.07613680433392193
1759502010.5121496,0,-1.1578334387485263,-0.8666002197309178,-0.5850880896595285,0.12773776645404072,-1.7935745442829114,-0.3055715153431743,-0.6568695514635253,0.07751452389992687
1759502010.5227673,0,-1.1578325174935837,-0.8665971792845544,-0.5843311706249351,0.12773776645404072,-1.794031734847922,-0.3051783285256573,-0.6558490698466871,0.0786686365701679
1759502010.5337079,0,-1.1578196209983083,-0.8666029248606884,-0.5838172995903822,0.12773776645404072,-1.7943828414523701,-0.30489072752733887,-0.6550464156908882,0.07964998233079701
1759502010.5446513,0,-1.1578141617116298,-0.8666047248280533,-0.5834450163101995,0.12773776645404072,-1.7946508324462622,-0.3046851695335533,-0.6544153358367442,0.08049677275905238
1759502010.5548162,0,-1.1578405761961674,-0.8665869109690238,-0.5833933235388051,0.12773776645404072,-1.7948542851908296,-0.3045424446957447,-0.6539187475118994,0.08123471825650791
1759502010.5652783,0,-1.1578397045344146,-0.8665870579058319,-0.5833289723266526,0.12773776645404072,-1.7950065188693212,-0.3044493734892708,-0.6535291912657295,0.0818893125293023
1759502010.575685,0,-1.1578414431291222,-0.8665858314423657,-0.5833429958855594,0.12773776645404072,-1.7951182558194048,-0.30439531310175333,-0.6532246566184313,0.08247880968451879
1759502010.5872016,0,-1.1578012620237268,-0.8666114693025937,-0.5832344434438916,0.12773776645404072,-1.7951967880421464,-0.3043737480098942,-0.6529891152621927,0.0830241781835545
1759502010.5981739,0,-1.1578060069978837,-0.866608487699392,-0.5832769779462039,0.12773776645404072,-1.795249309591569,-0.30437737836370926,-0.6528081105397107,0.08353297659759468
1759502010.6091635,0,-1.1578073266979916,-0.8666078929905123,-0.5833548370320615,0.12773776645404072,-1.7952809468919209,-0.304401311064004,-0.652670866390798,0.08401424531026758
1759502010.6289837,0,-1.1433442968403709,-0.8753253022718034,-0.5631701050014564,0.14290235208611668,-1.7952878750157923,-0.3044546001047189,-0.6525774257788617,0.08452787677168663
1759502010.640177,0,-1.1376482433725181,-0.8788622588434483,-0.5470123242892894,0.14428776097304988,-1.7969634030815624,-0.3031718047207139,-0.6481885247755116,0.08475268226401188
1759502010.6513438,0,-1.1356627300493516,-0.8799929571049969,-0.5364021957811281,0.14428776097304988,-1.7982737186635585,-0.3021704905378738,-0.644731399236383,0.08499651403851236
1759502010.6623108,0,-1.1349020203657316,-0.8804067172789667,-0.5288170142459581,0.14428776097304988,-1.799298501467526,-0.30139096347923233,-0.6420053342426436,0.08525555297056467
1759502010.6733043,0,-1.1346026917235636,-0.8805560150158193,-0.5234592412888118,0.1439795843834922,-1.800098927319654,-0.3007872409789872,-0.6398555468036043,0.08552811510299803
1759502010.684226,0,-1.134486014949682,-0.880604563712589,-0.5195707072166916,0.14428776097304988,-1.8007227264066212,-0.3003231351724331,-0.6381608785382616,0.08581236538311153
1759502010.6951425,0,-1.134437904871303,-0.8806182458107186,-0.5168408761129274,0.14428776097304988,-1.8012069410743834,-0.2999704202409914,-0.6368269169086892,0.08610728065584676
