timestamp,observer_vehicle_id,vehicle_0_x,vehicle_0_y,vehicle_0_theta,vehicle_0_velocity,vehicle_1_x,vehicle_1_y,vehicle_1_theta,vehicle_1_velocity
1759502006.7131777,1,0.0,0.0,0.0,0.0,-1.735,-0.35,-0.7801621756414646,0.0
1759502006.7234788,1,0.0,0.0,0.0,0.0,-1.735,-0.35,-0.7801621756414646,0.0
1759502007.4525225,1,-0.24021139539161143,-0.16545676398931164,-0.14307103094455442,0.0,-1.7349996599784263,-0.3499998465180397,-0.7230012467508402,0.0
1759502007.569909,1,-0.43077540685807797,-0.2967165846096481,-0.25657184774381175,0.0,-1.7349996577811777,-0.3499998455262261,-0.7180963853323643,0.0
1759502007.6970282,1,-0.5802995684378135,-0.3997083010220409,-0.3456291379421267,0.0,-1.7349996570913868,-0.34999984521486216,-0.7176963332280497,0.0
1759502007.8287542,1,-0.7046609236193686,-0.4853679649198349,-0.4196993429233694,0.0,-1.734999656835023,-0.3499998450991424,-0.7176727499251392,0.0
1759502007.950434,1,-0.802653839629573,-0.552865140690752,-0.47806438216718494,0.0,-1.7349996567374888,-0.34999984505511644,-0.7176774581214858,0.0
1759502008.0678449,1,-0.8804762024419625,-0.6064689103868076,-0.5244157455567443,0.0,-1.7349996567002555,-0.3499998450383098,-0.7176825814574652,0.0
1759502008.1858895,1,-0.942669033741571,-0.6493071137675859,-0.5614580868532075,0.0,-1.7349996566860348,-0.34999984503189074,-0.7176865820497973,0.0
1759502008.3148606,1,-0.9945203126219346,-0.6850220922275623,-0.5923409511449417,0.0,-1.7349996566806032,-0.3499998450294389,-0.7176897596433491,0.0
1759502008.4331589,1,-1.03583064846693,-0.7134765062118843,-0.6169455804481178,0.0,-1.7349996566785284,-0.3499998450285024,-0.7176923706595967,0.0
1759502008.535314,1,-1.0693006027836993,-0.7365304929850536,-0.636880441831195,0.0,-1.734999656677736,-0.3499998450281447,-0.7176945623745485,0.0
1759502008.617569,1,-1.0954548219694609,-0.7545454271395654,-0.6524580171429589,0.0,-1.7349996566774333,-0.349999845028008,-0.7176965758805878,0.0
1759502008.7190132,1,-1.11695435783066,-0.7693542317970916,-0.6652632412892843,0.0,-1.7351116522152548,-0.3499128217470412,-0.7181176850221621,0.0023399681517574647
1759502008.8229043,1,-1.1342872471628669,-0.781293064985319,-0.6755867912689341,0.0,-1.73514480568065,-0.3499083130148469,-0.718331647002959,0.0029745473439978885
1759502008.9378438,1,-1.1481768708179838,-0.7908601888899051,-0.6838595161016996,0.0,-1.7384006906980918,-0.3475801886325748,-0.7157976845144202,0.04721956034158951
1759502009.0413363,1,-1.159394869345782,-0.7985871068066026,-0.6905410085092103,0.0,-1.740055362369324,-0.34628455161653315,-0.7136033168489945,0.050991921120800636
1759502009.1444218,1,-1.1684189338849202,-0.804802850711018,-0.6959157835685695,0.0,-1.7451378107303177,-0.3420225814869535,-0.7099735002851302,0.049859758870487145
1759502009.2411294,1,-1.1753467282548402,-0.8095746910983636,-0.7000420103075652,0.0,-1.7475999885950508,-0.33992669519372537,-0.7070916767539859,0.04991967109183041
1759502009.3367627,1,-1.18106550551645,-0.8135137647552942,-0.7034481408003628,0.0,-1.7485543004024264,-0.3391005795252172,-0.705331616574931,0.04994852520405953
1759502009.4510107,1,-1.1856380975327927,-0.8166633500480069,-0.7061715979985546,0.0,-1.7552311268451983,-0.3335063590367965,-0.7007229721404272,0.053140857678264874
1759502009.561608,1,-1.1893432912778585,-0.8192154744633063,-0.7083784287281778,0.0,-1.7585302376491525,-0.33071792782876896,-0.6968480261116672,0.053540527580334805
1759502009.6716626,1,-1.1923404750335829,-0.8212799240889997,-0.7101635653956647,0.0,-1.7645289829050899,-0.3257299020157854,-0.691836178320137,0.05340731545230085
1759502009.7791944,1,-1.1947595977847494,-0.8229579933538961,-0.7112287629784462,0.00623970179546726,-1.7673622702860081,-0.32335914369962987,-0.687999086971926,0.053498556876045135
1759502009.8941724,1,-1.1963327942706565,-0.8245564301319078,-0.7117756795313102,0.012952288791042262,-1.7732819725274982,-0.3184776559200094,-0.682887777630782,0.050061090946456145
1759502010.0084808,1,-1.1976006852998837,-0.825929359092394,-0.7122298960014369,0.01844629454598943,-1.776106402642922,-0.31614024234256327,-0.6789827784260706,0.04987343393397356
1759502010.1424532,1,-1.1963662146319578,-0.8292122672400632,-0.7075357830092197,0.03608189042692112,-1.782419737052436,-0.31112589065302343,-0.6728610760021342,0.05658025049845281
1759502010.2660863,1,-1.1923827744367566,-0.8343662472891646,-0.6961803925691648,0.053028768031356574,-1.7854180093731031,-0.30873101723258506,-0.66798037658213,0.05895038114135488
1759502010.3891742,1,-1.1890669087468209,-0.8387354372533806,-0.6854769582283673,0.0667099238552714,-1.7920235198544423,-0.3035695053923125,-0.6584703272759788,0.05559765922567543
1759502010.5027978,1,-1.1826542654649583,-0.8450042141019788,-0.6659969936426043,0.08382664831796874,-1.7951447151500168,-0.3011017610255384,-0.650376761966782,0.05686288475307753
1759502010.62687,1,-1.1774256094961992,-0.8502174874370103,-0.6498882578986598,0.09768073718730064,-1.8015588930085586,-0.296328129622991,-0.6359153204694066,0.0596430382305471
1759502010.74655,1,-1.1680150866237482,-0.8576601894797332,-0.6215330857362998,0.11119233992315547,-1.8045768095216985,-0.2940385168597635,-0.6242053131878275,0.060476464947951565
1759502010.8649411,1,-1.1560894054149027,-0.8658167006643476,-0.5879455685446766,0.11736653100245859,-1.8112395792798015,-0.2893182570978403,-0.6055681127958024,0.05793302542028428
1759502010.9836996,1,-1.146283364856184,-0.8724555376432255,-0.5587356546352324,0.12082784103572229,-1.8144114245393028,-0.28701680706100074,-0.5907027596036194,0.057729218585319736
1759502011.1083915,1,-1.1331839989571832,-0.8799464015252982,-0.5238628190306458,0.12951210502737887,-1.821092230711576,-0.2826475225159887,-0.5693450161274572,0.06145243606321817
1759502011.2146137,1,-1.122334568454919,-0.886105406305846,-0.4950150014266019,0.13604712494996868,-1.8242510924266744,-0.2805126806737035,-0.5528187013040853,0.06174744137432152
1759502011.3308344,1,-1.106968657641272,-0.8933795390204284,-0.46271635774496794,0.14500332545341293,-1.8302714130805517,-0.2767481285225601,-0.5330602253014806,0.054685203160093974
1759502011.445213,1,-1.092240549602094,-0.8999869353060933,-0.43585546727242225,0.15170252822248928,-1.8331017161780798,-0.27493207407934217,-0.5183645031850975,0.05402449371295554
1759502011.559672,1,-1.0756171115270678,-0.9068026408190747,-0.4111714912954139,0.15744277944516638,-1.8348219062959232,-0.2736222200278282,-0.5123255631814205,0.019661484867260492
1759502011.6788578,1,-1.0548625377730712,-0.9145990735738839,-0.3906228757516313,0.16017592486143278,-1.8354699860076422,-0.27314515131408523,-0.5091357428342673,0.01679349710056724
1759502011.795325,1,-1.037640240033006,-0.921001793879808,-0.3745345797415802,0.16265528062525422,-1.8247680807060485,-0.2800024964246644,-0.525180987637703,0.07989840557496664
1759502011.910212,1,-1.017059536834964,-0.9283479966140116,-0.3638530261304626,0.17007136761727434,-1.819592265200332,-0.2833776309916086,-0.5430152857498786,0.08533735222255713
1759502012.0235596,1,-1.0003331193288254,-0.9343187890103469,-0.3553353602046694,0.1768047585046407,-1.8067365888788167,-0.2926251710867984,-0.5783052295415309,0.10420884987284283
1759502012.1393716,1,-0.9787265957330459,-0.9419591238986089,-0.35165459852745423,0.18584979344027283,-1.8007265778027428,-0.2971698159762857,-0.6091438598743473,0.10425673069556456
1759502012.2624226,1,-0.9582713710336663,-0.9492229668020093,-0.34920963920376374,0.1895781381068813,-1.7876971745945731,-0.3079105344671207,-0.6497998992163406,0.11155036458497528
1759502012.362782,1,-0.938127684591909,-0.9563714300432383,-0.3480023102613876,0.1892219189601585,-1.7816904576195567,-0.3131231150406136,-0.682336835662002,0.11034092664802288
1759502012.4792078,1,-0.9132979713376334,-0.965226241135031,-0.34664977775161665,0.19530565781681644,-1.7684795633502342,-0.32529929108962213,-0.7159384527143946,0.12125669238605502
1759502012.579356,1,-0.8926061081279573,-0.9726154750567382,-0.3454093037002059,0.20094630816987516,-1.7623360973071869,-0.33118556842300184,-0.7410978208412499,0.1210646007090853
1759502012.696064,1,-0.8675589484456746,-0.9815313643653307,-0.3422349370379938,0.21153196738576638,-1.745791070402358,-0.3476212943420407,-0.7638600038489145,0.1509203555776939
1759502012.811016,1,-0.8471633492777112,-0.9888206010660132,-0.33954174938923376,0.22005973801548026,-1.7379230407707094,-0.35561226769085197,-0.7798574750132046,0.15300337200147593
1759502012.9341688,1,-0.8225965678672215,-0.997370852639324,-0.3337642382244206,0.22242565537111722,-1.718926180236769,-0.3748867801869175,-0.7911242536793023,0.16829383373948945
1759502013.0385165,1,-0.8024374220232752,-1.004367468995954,-0.32897549394088793,0.22451248580780928,-1.7099249848427533,-0.3840480867577227,-0.7979026032694971,0.16929433687656242
1759502013.142763,1,-0.7771217678098779,-1.012739548029323,-0.3197283682417565,0.22997060912308748,-1.6922428924607924,-0.40186812574097086,-0.798927930128239,0.1750286794192655
1759502013.242753,1,-0.756283840469582,-1.019602026433834,-0.31210233319154995,0.23435406033680667,-1.683966340903659,-0.4101520003666014,-0.797859141770544,0.17545720183448668
1759502013.3475215,1,-0.7307426588282033,-1.0274313573771283,-0.29931687465474854,0.2367056768914902,-1.666886677495001,-0.42676994481661057,-0.7921029486055309,0.16347508474145725
1759502013.4539194,1,-0.7019581508471963,-1.0355531851750452,-0.283139438601299,0.24145066269291218,-1.6587715727500942,-0.43459079119762445,-0.7864463441862167,0.16251972106217513
1759502013.5713694,1,-0.677141498442703,-1.0423851300330278,-0.26719964258348267,0.24549304822503623,-1.6383717133208162,-0.45436636633380356,-0.7772556236033927,0.18518361160042807
1759502013.6842506,1,-0.6486391146368448,-1.049296428582007,-0.24701899398123967,0.24382883425169902,-1.628705999879292,-0.46354451028895555,-0.7693512542611911,0.18711210868585604
1759502013.8024094,1,-0.6250973834575556,-1.0548596788714926,-0.22869755503984515,0.24206485270777617,-1.6030283671273458,-0.4877910582257231,-0.7584650214179974,0.215125451824147
1759502013.9247165,1,-0.5974818329458816,-1.0603098452388113,-0.2052055118001197,0.2487023898920971,-1.590569137008824,-0.4993399870477927,-0.7497006336466577,0.217901029140109
1759502014.0540557,1,-0.5659333065315872,-1.0653981741372902,-0.1795224646346515,0.2520151417808187,-1.5646629654812583,-0.5226195965570107,-0.7396356267305692,0.20902439247588264
1759502014.1831825,1,-0.5390751189439198,-1.0694546328578594,-0.15623468715035935,0.25418948442016215,-1.552053770766244,-0.5338088250912495,-0.7319223899389292,0.20811473654538848
1759502014.3106902,1,-0.5075030004998644,-1.072984789801958,-0.1325125558983427,0.25798651551279894,-1.5249711193692375,-0.5576471523071574,-0.7224161297562124,0.21208802010576142
1759502014.4189932,1,-0.4815369516546991,-1.0757786110954537,-0.11286177819160628,0.2610077046030917,-1.5119491240105878,-0.5689478911347234,-0.7155313830017841,0.21241511763968038
1759502014.5462403,1,-0.4496753018412617,-1.0782172565313526,-0.09357987093723492,0.26023480871232363,-1.4833746208682488,-0.5932678656613753,-0.7026362943833667,0.22867954973494023
1759502014.6620915,1,-0.4145598586459602,-1.0802075674761955,-0.07753223870318997,0.2650727504048847,-1.4695737829547484,-0.6047484305094386,-0.6921212101714743,0.2296184784540883
1759502014.78154,1,-0.3855646894788191,-1.0817494414186999,-0.0645097476498962,0.2689025804956337,-1.4380534627750825,-0.6296864443476774,-0.669987412868918,0.2461579541304376
1759502014.8965313,1,-0.3522184093352645,-1.0830471617881432,-0.05376664420619113,0.26227559406752887,-1.4229832315826125,-0.6411840728202752,-0.6518889502083614,0.24769501096593147
1759502015.0317404,1,-0.3255637796106667,-1.0840296583525015,-0.04531956455309013,0.257056010148111,-1.3900420393531299,-0.664412154325467,-0.6238256830517231,0.23765848367221587
1759502015.142312,1,-0.29182180477305963,-1.0849150218955192,-0.03734152988876485,0.26512845467330853,-1.374607760718415,-0.6748630128955615,-0.6021585026662212,0.23710320963861328
1759502015.2647002,1,-0.2555163722539487,-1.0856099866184987,-0.029948565962908215,0.26947477957783295,-1.3424389112003379,-0.6953617260906158,-0.5746290224586647,0.23248334671575369
1759502015.38567,1,-0.2256470626146872,-1.0861340226290248,-0.02369115059036927,0.2729683878720729,-1.3270351055588367,-0.7047844200717496,-0.5539871087677234,0.2325243849835745
1759502015.506603,1,-0.19131561439762831,-1.0864667601768374,-0.017368843737479846,0.2743656328850921,-1.2904770530513492,-0.7258993662236645,-0.5256102853614,0.24601535430117225
1759502015.6088073,1,-0.1630197465149353,-1.0867077573599182,-0.012086352423307552,0.2753005040221355,-1.2728723216734972,-0.73561360439853,-0.5036473789365623,0.2478980062976515
1759502015.717282,1,-0.129950278673136,-1.086763198907288,-0.006965590656058768,0.2743899841100998,-1.2385414832911925,-0.7535508337488507,-0.47901387984110344,0.2641698547209908
1759502015.8224874,1,-0.10288146180075751,-1.0867824050281307,-0.002737825517818612,0.27355759930011336,-1.2222652908234601,-0.7616562845226013,-0.46100745908705865,0.2660735592153722
1759502015.9321404,1,-0.07094384490879352,-1.0866476643024385,0.0007476114378811491,0.2758386749676346,-1.1903631407474313,-0.7767696122807294,-0.4413933049043779,0.2422280645939846
1759502016.0376563,1,-0.044751545674894436,-1.0865197147609373,0.0035981169790771385,0.277724925868526,-1.1751068555383855,-0.7837463439309332,-0.42751643670893774,0.24037752790990993
1759502016.1473086,1,-0.011997967215170338,-1.086278472901567,0.005345201984118893,0.2772971577452736,-1.1425029988746391,-0.7982766641907152,-0.41135968074394247,0.24072710448679574
1759502016.2480974,1,0.014883709516397052,-1.0860718607772626,0.006727379484766337,0.27704277713209235,-1.1268566576728254,-0.8050307238593223,-0.3998913745223424,0.24094596476556357
1759502016.3688014,1,0.0465351001513036,-1.085832621023391,0.007025158728047054,0.28001389573225494,-1.0910838354134578,-0.8198828111479078,-0.38342962299657035,0.2553007983625567
1759502016.4775698,1,0.07658342651149214,-1.0856248208803227,0.007076354018069233,0.27838675533921653,-1.0738640443857026,-0.8267772172871772,-0.37105192102088796,0.25695381491586
1759502016.5999727,1,0.10712241001142617,-1.0854377581536032,0.006588584754878365,0.27269639816422236,-1.037587514969598,-0.8403789934743363,-0.3535485524504229,0.24746896689863507
1759502016.71574,1,0.14350976297135154,-1.0852891589326583,0.0058559466853281,0.2786371020380628,-1.0201373551322526,-0.8466727689900322,-0.34004075952787066,0.24656012536766617
1759502016.839996,1,0.17269005079062238,-1.0851731939597937,0.0052566990014085236,0.28349219188183294,-0.9769267703990347,-0.8613210602342,-0.31925128783728496,0.2783853444512538
1759502016.9565485,1,0.20769593012851034,-1.0850933889857801,0.004660700765745329,0.2835397918664418,-0.956365002299279,-0.8679467739775624,-0.3032842734666445,0.28146918058940634
1759502017.07774,1,0.24034469293450797,-1.0850355468151982,0.004206966133646834,0.2852203972945521,-0.9140281582494444,-0.8804513231009368,-0.2834291454557744,0.27613342947140446
1759502017.1974468,1,0.2726969579481407,-1.0849950993808566,0.003958189918943643,0.2884055905115914,-0.8938231698846583,-0.8861203176031437,-0.26876531740605375,0.2759572345346434
1759502017.3270288,1,0.3107528236657521,-1.0849619482204367,0.0038772413550678124,0.2915112779887931,-0.8529708335336086,-0.8968960042181072,-0.2526888472235974,0.2551269591153649
1759502017.448727,1,0.34135484724439014,-1.084935098658151,0.0038655659378719074,0.2939496946951341,-0.8333643261607603,-0.9018660150154598,-0.24169398831125194,0.25345245805308697
1759502017.568028,1,0.37670485809496923,-1.0848994872036313,0.004042275037172839,0.2933815642299398,-0.7850231693865418,-0.913560922207715,-0.22713765558927143,0.2873534285962382
1759502017.677042,1,0.4083595161633494,-1.0848645616893446,0.004214918130141792,0.28932125719529345,-0.7620007886479774,-0.9188929623530094,-0.21678700058566394,0.2906727515955726
1759502017.808173,1,0.4415469897545227,-1.0848234359753262,0.004383726584070873,0.2821437503185806,-0.7180112756890406,-0.9284441523300825,-0.20521679267544637,0.2789309349956968
1759502017.9412947,1,0.4796713015684696,-1.0847696959262532,0.004454781856605324,0.28722811985211794,-0.6970078515216445,-0.9328240525518823,-0.1969710204909956,0.27774941010234433
1759502018.065346,1,0.5103904668097482,-1.084725341064321,0.004509917944987342,0.2914078333885502,-0.6485700989009053,-0.9425079816712154,-0.18651177309118566,0.2921892311701289
1759502018.1874416,1,0.5480167101214505,-1.084683776444101,0.0042363289223683554,0.29263081904347255,-0.6252689580642234,-0.947004774591137,-0.1791298695644488,0.2935642883110637
1759502018.30856,1,0.5881867043462885,-1.084663371886129,0.003818530625278011,0.28677334224923196,-0.580038980234783,-0.955186013284756,-0.1694349689105683,0.27489338520712203
1759502018.415463,1,0.621271296012138,-1.0846500564989494,0.0034136197824802313,0.2820357810609606,-0.5584326071332062,-0.9589605676377747,-0.16289625415413764,0.27344800788031387
1759502018.5380874,1,0.6593164971229913,-1.0846674341338207,0.0029350852290643027,0.29039869151564995,-0.5120164418233767,-0.9665554745306975,-0.1532398558316329,0.28911469818362767
1759502018.653685,1,0.6902653958260953,-1.0846835576530662,0.0025488507241156885,0.2972165065435,-0.48981928845475536,-0.9700302665955952,-0.14640519213616995,0.2907717339019511
1759502018.7839603,1,0.7282685793266762,-1.0847263178656446,0.0023119538993442374,0.29544928381762015,-0.44233761469149924,-0.9769555319808191,-0.13736309036753377,0.29993726584444175
1759502018.8977716,1,0.7682250879266276,-1.0847740088800253,0.002248611372591297,0.2939716615356929,-0.41976758393448793,-0.9800979765940733,-0.13074984704485876,0.3008313104827672
1759502019.0274997,1,0.8007095394266016,-1.0848123562888228,0.002272626496995681,0.2927537815224761,-0.369744775554179,-0.9866267052610248,-0.12249541666812422,0.2995331936635329
1759502019.1403253,1,0.8389624100867135,-1.0848384878658155,0.002702280232499724,0.2968742857892988,-0.34604918618589975,-0.98959193398432,-0.11663387963347616,0.2995462444208607
1759502019.2609088,1,0.8700033635593694,-1.0848567231955077,0.0030634933597671614,0.3001778492579177,-0.3003206333861419,-0.9950334804650424,-0.11073581806179517,0.2883197293484526
1759502019.3777568,1,0.908098173462814,-1.084845684519188,0.0035434182320399224,0.30439560887603484,-0.27847279401278446,-0.9975525392072827,-0.1068470246981559,0.28729713214305524
1759502019.5011163,1,0.9474086556598629,-1.0848167584667172,0.003887160589818241,0.29376833215689224,-0.23209034180654567,-1.0027641903874576,-0.10224737842738893,0.2929214939909488
1759502019.6169453,1,0.9793356750710649,-1.0847918086363801,0.004115025293290856,0.285217371233865,-0.2098605930035152,-1.0051961852717732,-0.09986700377938734,0.29348769349660336
1759502019.7382677,1,1.0177291833730278,-1.084754619423954,0.0041480816987304785,0.2947370983806329,-0.16280585207586648,-1.010083520683305,-0.09517663254003589,0.28429927926427223
1759502019.8578467,1,1.0506467743299799,-1.0847230913328798,0.004144096705909829,0.30366361882954124,-0.14022327140239402,-1.0123542281814715,-0.09209959679524857,0.28355681489495566
1759502019.9790664,1,1.0879518141893347,-1.0846843176891412,0.004382274320880891,0.2987081079968852,-0.09147374903412661,-1.0169426254525913,-0.08676283603478796,0.3025034065006542
1759502020.088061,1,1.1268334961105966,-1.0845769241671102,0.006110888944493748,0.29470220026672816,-0.06803936829571045,-1.019054804120305,-0.08268955561081615,0.30440642633117115
1759502020.2179413,1,1.1583764675155317,-1.084471483050566,0.008021020436437874,0.291744116002219,-0.018151672071210077,-1.0232744521762376,-0.07834877145013813,0.31212202467941574
1759502020.3424058,1,1.1957005292357306,-1.083952257032761,0.015806122596356192,0.29969683771735267,0.005744322709633938,-1.025224354905477,-0.07494962854507732,0.31323629243591844
1759502020.4653294,1,1.2276677545662413,-1.0834600971636517,0.02278179695675543,0.3064916108996674,0.053006566561602325,-1.029082968825453,-0.07477756731265381,0.28942840966162015
1759502020.575695,1,1.26525119853518,-1.0820322964525924,0.038350186642782946,0.3096355776313732,0.0755560649923075,-1.030940210072064,-0.07511595375676548,0.2876373763222434
1759502020.7011392,1,1.3059994125847354,-1.0792749964987018,0.06045898856542669,0.30881545453497233,0.12124292602168624,-1.035165019895143,-0.080378623996438,0.2877294413854873
1759502020.813301,1,1.3394066130125353,-1.0768454828454275,0.08047048728209454,0.30791467591030375,0.14289517645565367,-1.0372734316549317,-0.08696744165677636,0.2876213539354571
1759502020.9455934,1,1.3764523923288816,-1.0725956986003349,0.10752182564290369,0.31138621445500503,0.19301896260183865,-1.0432797478414744,-0.10095795449259158,0.29983110074741276
1759502021.0645976,1,1.4080374047600588,-1.068814948140342,0.13110506312255926,0.31392851000649163,0.2169023915963018,-1.0463862524204417,-0.11462972169075458,0.30048024597166595
1759502021.1809878,1,1.4441405572076202,-1.0626793480614825,0.16189185192973982,0.3084944954350361,0.2631525663979065,-1.0533191843342613,-0.1300068421170698,0.29367524292439806
1759502021.3010428,1,1.4829744141141208,-1.0541970039917388,0.1952490051980007,0.31196337100685767,0.2852628090757863,-1.05687198116128,-0.14249235838091728,0.2926456930179767
1759502021.4253476,1,1.5147557150023176,-1.0469286944192193,0.22467490743895877,0.3149595313729112,0.33450232128390034,-1.0650787689934555,-0.15278445254321374,0.2967095272115193
1759502021.5471869,1,1.550383739146258,-1.0368145358661045,0.2582731600504744,0.3130063483017596,0.35795617833977045,-1.0691166471953188,-0.16020404583086903,0.2967511889207037
1759502021.6717553,1,1.580554670297135,-1.0280714608035768,0.28740438003269797,0.3114827712408708,0.40649144296658124,-1.0772268163520837,-0.1623092501697823,0.30495501755932564
1759502021.789768,1,1.6148036028316195,-1.0161021114361475,0.32117783533152694,0.31003812584128443,0.42957372098690527,-1.081073985776597,-0.16275576453455232,0.305557730274032
1759502021.9091082,1,1.6502014570095542,-1.0020352664648906,0.35599348321160856,0.3042406196642003,0.47272697243710415,-1.0877197075736462,-0.15779322369626578,0.27927713947689436
1759502022.0233402,1,1.6788232534863403,-0.9904435140544312,0.385249928581174,0.29985617686062016,0.4932464377116956,-1.090785168829999,-0.15311209903999715,0.2769643602295283
1759502022.1469321,1,1.7123906374385969,-0.9743251322477557,0.4205884874790944,0.3090099693028388,0.5371883018733388,-1.0967393835230823,-0.14308173407705127,0.26692874021565766
1759502022.2584753,1,1.73970590658272,-0.9609266689009797,0.4501462891587781,0.316770919832362,0.5583059089348554,-1.099446000019703,-0.13457856573369725,0.2661648048739979
1759502022.3769555,1,1.7700535867933413,-0.9440190606326968,0.4856321812363241,0.3100494282732564,0.6038328357816729,-1.1047431682333912,-0.12212417691808511,0.29579268909112416
1759502022.4907918,1,1.8007350731690597,-0.9254583138198011,0.5237539228219833,0.31089312005608977,0.6254419122190572,-1.1070461478397888,-0.11225604556650716,0.2986198622083233
1759502022.60555,1,1.8296353947156978,-0.9066597427573225,0.5612140248298798,0.3175720794613911,0.6663402890915137,-1.1108575029282586,-0.09996478560291965,0.2661916017532475
1759502022.7173154,1,1.8597446678807075,-0.8848048837907718,0.6016807483727922,0.3080521749867964,0.6855746099833429,-1.112493425702789,-0.09052547188626457,0.26327824365197494
1759502022.8329332,1,1.884297465538719,-0.8666098628330118,0.6373639855389245,0.30036817320530224,0.7299424867016616,-1.1158501691128666,-0.07685883684390082,0.2757500132003695
1759502022.9248087,1,1.906762908949102,-0.8483869624648054,0.6692167034386605,0.30005743789649686,0.7491355575785305,-1.1171227685874214,-0.06733582745044801,0.27700191864331103
1759502023.017798,1,1.9297055617825376,-0.8281619314114128,0.7062163618651862,0.30537129744686725,0.7576343268790617,-1.1175711289835044,-0.06134607702292064,0.2771326879904749
1759502023.1312637,1,1.9548523111914646,-0.8032024679872477,0.7477318063369947,0.3040016965514271,0.8037919769680293,-1.1199224163974766,-0.04867716803844144,0.26105087270664745
1759502023.241049,1,1.9752326292116367,-0.7825765727723666,0.7834458831764372,0.3028432132283239,0.8264771415519135,-1.1209070758436948,-0.038764257981402823,0.2597753980049782
1759502023.342473,1,1.998157123143762,-0.7558556751548227,0.825088920235051,0.3106003396068838,0.8709689586916799,-1.1218707186649655,-0.02161157602870408,0.2977141728648575
1759502023.4569325,1,2.0164326743658303,-0.7340241348257587,0.8598500229733258,0.3169356475763154,0.8922139960749323,-1.1220309924201128,-0.007282958756409514,0.30148592775665
1759502023.5714943,1,2.0361638531309345,-0.7074504965790323,0.8996232548374462,0.3149840139526747,0.9322899495397612,-1.1212537977913055,0.013458228221451304,0.26314470656559585
1759502023.682649,1,2.05193558854111,-0.6858271438510262,0.9319871621831216,0.313308830383235,0.951366265548279,-1.1205955150775557,0.030062441689092695,0.2601287204158531
1759502023.7952373,1,2.069809152845576,-0.6573221748365279,0.9717459395664417,0.3167966874235668,0.9896386982735978,-1.118507820094494,0.05050383587320129,0.2560128955090383
1759502023.8962274,1,2.085502105991053,-0.6308622942398149,1.0061342236728843,0.3167939164494051,1.0077269344636843,-1.1172586428879916,0.06613184216176114,0.2558940069753396
1759502024.0111587,1,2.10077376824015,-0.6024907962733826,1.0441438102631877,0.31424035124150584,1.044885632621941,-1.1139856182619847,0.0862508492198487,0.24966250574728804
1759502024.1257148,1,2.1162127126331463,-0.5701683870484875,1.0838149548151956,0.3064885462656077,1.0623751177894676,-1.1121903072741548,0.10135254022507416,0.24870054622377136
1759502024.2273374,1,2.128864318611081,-0.5431423908972616,1.1189327602774906,0.3003233280709434,1.1020448646590473,-1.1071229775377063,0.12647919979996525,0.2639977574464767
1759502024.3232758,1,2.139601795973979,-0.5174915925632131,1.149256572180038,0.3007920035816967,1.1200130035071447,-1.104497174946595,0.14571053580747556,0.26609385282088
1759502024.4459572,1,2.1502896474371243,-0.4894563149597463,1.184410682503807,0.3062280645636802,1.1538584304645418,-1.098698505575,0.16820504865585736,0.2317390649963142
1759502024.5568132,1,2.1610012426973606,-0.4553383514017254,1.2255945664955314,0.30716339858222413,1.1694951908976357,-1.0957631515594854,0.18439589313476243,0.228221093511036
1759502024.6475825,1,2.1689596573383465,-0.42865246725887907,1.258386862261167,0.30763386418767347,1.2036776322514642,-1.0885878588950961,0.207488947529113,0.24908233408947883
1759502024.742961,1,2.1767422944735504,-0.3959869649589767,1.295384472175206,0.3095231931342508,1.2201166428954282,-1.0848578911110862,0.22518463637615713,0.25072941100022983
1759502024.8295867,1,2.1830047181427354,-0.3689079307726794,1.3270534445553925,0.31075010346440324,1.225708229787699,-1.0833960124945399,0.23471970395401678,0.25115347892377915
1759502024.9297483,1,2.18890942877425,-0.33664605698928657,1.3588569057701805,0.3036504041095221,1.2663727343390836,-1.0725416360670506,0.2621766767365541,0.24630863918824625
1759502025.0094786,1,2.193398797779432,-0.3105459183215204,1.3855740173505127,0.29821119065445356,1.2839300430419036,-1.0675148548388576,0.2827635590816879,0.24621554882967414
1759502025.1117973,1,2.1971832186853257,-0.2842532551060574,1.4084828696330431,0.29952094517561995,1.2928014064937314,-1.064739414019784,0.2965454467260262,0.24620432828257086
1759502025.214491,1,2.200462067232242,-0.25569600021053845,1.4305968053710174,0.3071095513224631,1.3309320470438315,-1.052044377465256,0.32302635336347896,0.23555037979189866
1759502025.3152869,1,2.203503602338246,-0.22332560084638176,1.4497815975081891,0.2973749399240152,1.349455035631278,-1.0455282515500723,0.34431103676811203,0.2342085774284508
1759502025.415839,1,2.206055367483452,-0.19672342727269423,1.465692505718067,0.2896522642904298,1.3850078091113647,-1.0311776364134586,0.379863343197994,0.25814972264522074
1759502025.519903,1,2.2079461584937703,-0.17143823414114326,1.478124177809779,0.2874926907126781,1.4014566539218951,-1.0240210345138052,0.40840915685169643,0.2614044863649923
1759502025.6345654,1,2.209986415767177,-0.14313931392755383,1.4894137563970222,0.2899125763787429,1.4304169380448988,-1.0102209101345754,0.44081328763226735,0.22192630964174423
1759502025.7456539,1,2.211921060575532,-0.1087111784691506,1.4988376168024204,0.2920744423186687,1.443492031988916,-1.0035838870661364,0.4639755749678734,0.21836986412643622
1759502025.8511796,1,2.213456331231574,-0.07992111967151008,1.5065014196169726,0.2940098749677542,1.4770474399109499,-0.9850806852468412,0.5010890226532251,0.24731420916114413
1759502025.9568925,1,2.2149965114106895,-0.04571766221262957,1.5134046506916263,0.2962617211820101,1.492603107976846,-0.9759795476129286,0.5294517949721693,0.24996868788431073
1759502026.057149,1,2.2159032900514406,-0.019145762425800336,1.518803737448565,0.2980888671859908,1.5238086886069093,-0.9558420673531064,0.5682566849217067,0.2582458059346732
1759502026.1734958,1,2.2171642999584846,0.013918771450149829,1.5244524056367514,0.2974192912160977,1.5383167821660466,-0.945858981521453,0.597730128566678,0.25938061320695377
1759502026.2971117,1,2.218077700459665,0.040338824488074396,1.5289956657792956,0.29681922930244997,1.5693505340323732,-0.9229094482054738,0.6359052757445126,0.24784581881189796
1759502026.4141161,1,2.218927991297583,0.0736363069315818,1.5340171478031839,0.3011569749625115,1.5838933419241181,-0.9115591006703524,0.6642785499315876,0.24695672515947503
1759502026.5315425,1,2.219825351235787,0.11055845528300919,1.5389386229312483,0.2953573410421772,1.6153320964147186,-0.8852143753995788,0.6997195567483006,0.2549758835516072
1759502026.6448522,1,2.2206032283189447,0.14063100243788765,1.5430703802722285,0.29066330321920986,1.6300436368745905,-0.8723191300239236,0.726536096640731,0.2563845078904097
1759502026.7720683,1,2.221160749106028,0.17641585837274645,1.5474095171087554,0.2954569923065239,1.6608998281833667,-0.8428372626567828,0.7640958916468205,0.2522615879411908
1759502026.886892,1,2.2217772059471215,0.20714821909537168,1.551180080440804,0.29941895594433166,1.6752302373382912,-0.8284983320050061,0.7934178030024184,0.25277673527394756
1759502027.008102,1,2.222124310434345,0.24307603554688284,1.555639108289905,0.3035172564917337,1.7052675353282627,-0.7954970469406478,0.8302214436862732,0.27150185993003473
1759502027.1284196,1,2.222453676313344,0.28112728840931717,1.560194309461037,0.292313048974333,1.7192513947321373,-0.7793785825750491,0.8583329218094806,0.2733771408757038
1759502027.249158,1,2.222791468339477,0.3118621765887233,1.5640788402847596,0.2830199213507918,1.7483923188264887,-0.74321163302767,0.8940407781512442,0.2878189487923886
1759502027.3693469,1,2.222688394989382,0.3488197517905436,1.5680801265899946,0.29462900014169585,1.7619196436854092,-0.7255910152296479,0.9206694951854327,0.2894737533085501
1759502027.49587,1,2.222574444771474,0.380300228921363,1.571497900387358,0.30433921547464754,1.7877957537860851,-0.6903800384328401,0.9507189871734862,0.2645057261459216
1759502027.6138563,1,2.222229112898798,0.41756136962265167,1.5742736124767873,0.3061739185154955,1.7998041628518944,-0.6733973999026617,0.9718129306657093,0.2622470950365045
1759502027.739538,1,2.2219481350288905,0.4564387119261702,1.5760393495540552,0.29593840260649346,1.8243337667056956,-0.6367422440168773,0.9969167527092286,0.26033514196847807
1759502027.850385,1,2.221861309965088,0.48830047503478374,1.5773497366295532,0.2876729122801507,1.8357500189771137,-0.6191343424250908,1.0148789711670623,0.26059120480214987
1759502027.9886947,1,2.2217863964591094,0.5274465113674068,1.5770135224256225,0.2936692054225373,1.8603225629528353,-0.5776573431499136,1.0419758655876001,0.2782446116106572
1759502028.1125247,1,2.2216178165920093,0.5634741702872403,1.5764063736896152,0.29655378188450415,1.8717344843334103,-0.5576615123025306,1.0630936920534706,0.2805107984232528
1759502028.235698,1,2.221412627623263,0.5987720301218682,1.5749924433129432,0.29688191709952155,1.8935941213217633,-0.5159165534334027,1.0912616714652768,0.2907307738361881
1759502028.3512847,1,2.2214882428996514,0.638844394512781,1.5732877014955475,0.29269659849873825,1.9035018936898165,-0.49615444276244136,1.1128220580771782,0.2917060678261296
1759502028.4859934,1,2.221493781118387,0.6709026802402522,1.571885293899109,0.28939174657532624,1.9242131485223137,-0.4513424937971696,1.1427273001471756,0.2910302290017555
1759502028.615646,1,2.2216684381543694,0.7095528096904591,1.5708643271269376,0.2957479924496421,1.933625147918978,-0.42994202546807764,1.1651122219358858,0.2914420462410185
1759502028.7399175,1,2.221809298505503,0.7499123461872655,1.5704309855867522,0.2938044730330408,1.9517627506767803,-0.3864602309866803,1.190167854741772,0.26838022280234497
1759502028.862158,1,2.2218931780163174,0.7827124671638667,1.570205753635492,0.2921049659738984,1.9601030431306259,-0.36555359858727676,1.2079812061470374,0.26677544990590896
1759502028.9919658,1,2.2221226236684863,0.8229704791117259,1.5705365750714861,0.29452376509044775,1.9775302838587312,-0.3172515755177956,1.2286516753864933,0.2947910784599094
1759502029.1122906,1,2.2221999395816883,0.8552854138446488,1.5708286722929918,0.296524756115961,1.98559969585718,-0.29416935617090023,1.2432718036073263,0.2977879426269261
1759502029.2339644,1,2.2221383388675364,0.8927974729012661,1.5712214118474466,0.30226379758461597,2.0007008655079033,-0.248944937184131,1.2591925411195986,0.29610631436363016
1759502029.3517723,1,2.2222465061981347,0.9335446209072076,1.5715887340438435,0.29428278473873576,2.0076514899265634,-0.22758643678962973,1.2702341809325308,0.29589147219986767
1759502029.473293,1,2.2223873981626445,0.9665412139713522,1.571918968340557,0.28780689437263063,2.02196877825849,-0.1817303216031134,1.2847661247538167,0.28724957611231206
1759502029.5841138,1,2.2224494705939977,1.00405899292605,1.572138675234508,0.29129094493630125,2.028569863869547,-0.1599075020225251,1.2949723743175294,0.28660899642385906
1759502029.712308,1,2.22262079254421,1.0358688998487018,1.5723238140546854,0.29426235099255954,2.0412567455338366,-0.1151865648999283,1.3075071357576058,0.2879455815684196
1759502029.8242579,1,2.2226510623610993,1.0744204274729925,1.5723216921164627,0.30120388069970533,2.0470937818345374,-0.09405339269612667,1.3161145573222355,0.2880656439317121
1759502029.9512076,1,2.2226895347007396,1.1145548841634125,1.572261103917662,0.29457861385617523,2.0587743954130655,-0.04949723520903535,1.3274710121068154,0.2886076135254583
1759502030.0737376,1,2.2227464965469155,1.1470319899723085,1.572237828839018,0.28935355333451207,2.064206125788718,-0.028137363039849088,1.335199813367073,0.2888671899301065
1759502030.1927183,1,2.222933215748772,1.1874266988969682,1.5721815837986997,0.29622924535549794,2.075330486332791,0.018793808507992636,1.3478338078016372,0.2885180175374493
1759502030.3079584,1,2.2229497197161665,1.2200976088604993,1.5721280708637348,0.3018335141375667,2.0804784480846807,0.041383993304197675,1.3573760082348978,0.2888294699297545
1759502030.4365873,1,2.2228773480216195,1.257371598495158,1.5722049247595395,0.30173078757794236,2.0903944802105783,0.08989296032684355,1.3702106287356772,0.30407985767736506
1759502030.5533378,1,2.2229419035172335,1.2978097546798073,1.5722942888510179,0.29653109266866035,2.094920342500836,0.11279769333225022,1.3797940169968501,0.30551241056957473
1759502030.6761644,1,2.22299701258095,1.3304994245778876,1.5723641608001901,0.2923191536733975,2.1041462876032035,0.1611787256744501,1.3920563567153506,0.2948090496163284
1759502030.7942119,1,2.222959338606191,1.3689590567544834,1.5724322033955906,0.2970135515617806,2.1083550107156976,0.18423550365564656,1.4010817948774412,0.2940033532502522
1759502030.9134989,1,2.222801227356644,1.400182068870686,1.5724828581525367,0.3008816562852216,2.116372215930848,0.23149556946459407,1.4102639575609355,0.2988129514281676
1759502031.0309005,1,2.2228961089821233,1.4381743086953247,1.5721935513437555,0.3034840983913485,2.1200636462467983,0.2541548300023128,1.4163975668795834,0.2992564005740105
1759502031.150912,1,2.2230740158766706,1.4780748753846789,1.5716947002485273,0.29586169378628585,2.127409355214349,0.2998834941861449,1.4234506398264106,0.2930207480344872
1759502031.269317,1,2.2233028733506375,1.510529585258693,1.5712271558728643,0.2897110329546306,2.1308232619274254,0.321751127086608,1.4277146181844589,0.2925475235664049
1759502031.3864515,1,2.223361751121087,1.5487006998408845,1.5708885231153313,0.29899262650288655,2.1376667915513643,0.3694503294951828,1.4349570964871825,0.30119383814162964
1759502031.505726,1,2.223206075818267,1.5796322015100996,1.5706074610626057,0.3064667031762583,2.1408406247029435,0.39238250617889325,1.4400341810788415,0.3021750201296324
1759502031.622745,1,2.223188795185348,1.615952816712434,1.5706583981613782,0.29989722440090627,2.146971531680009,0.4383541156114685,1.447279471879974,0.29509567352580873
1759502031.7375095,1,2.2233232015655418,1.657799857069527,1.5708296673246667,0.30831871726643395,2.1497970540069162,0.4604533201590825,1.4522994705156467,0.2946567134836621
1759502031.844005,1,2.223293201656813,1.6925573161073684,1.5710265619879975,0.31509038102052694,2.1550790396186645,0.5037621139467727,1.4582207719248053,0.2916995854089469
1759502031.9474638,1,2.2234556102937586,1.7302530084790384,1.5712310253615542,0.3060085750419769,2.157496354974251,0.524274770666748,1.4619334307473169,0.29154434425176307
1759502032.0473268,1,2.223475501276096,1.7600345243379627,1.5714449286601746,0.2990383172505138,2.162028762010709,0.5635874932470311,1.4661979759660995,0.2845717933778354
1759502032.1512563,1,2.2235622776945005,1.7897752275427485,1.571587490867515,0.29663815089154755,2.1641124250980934,0.5823186561487323,1.4686451253858048,0.2839937708424178
1759502032.2515905,1,2.2236824394944836,1.8203737970124898,1.5717036057490303,0.2980322547086608,2.168277665190203,0.620193580530229,1.4720528682180518,0.27847132398028634
1759502032.3560417,1,2.223866387641444,1.8566477351927302,1.5718296658429374,0.2981829904926325,2.1701957515348465,0.6381940725290742,1.4744783190690287,0.2778931014223489
1759502032.455746,1,2.2240360136405677,1.8866074048443797,1.572011959365622,0.2982989222739663,2.1740496720204106,0.682238535197584,1.4786957831301137,0.31230842919542257
1759502032.5581114,1,2.224207408534441,1.9220752741049927,1.5723407101619948,0.29805659692222436,2.175875293882463,0.7029836381605786,1.4817948486452757,0.3152271857724124
1759502032.672363,1,2.224312149106123,1.9510039323076294,1.5726541875406088,0.29781837522563825,2.1798872097489497,0.7470461277830405,1.4865161852014661,0.3018514366721747
1759502032.7941134,1,2.2242474760737316,1.9853038853436158,1.573106952874777,0.301754768444006,2.1817514685304675,0.7681341357003929,1.4901479325143652,0.3007023728439315
1759502032.9093015,1,2.224101618900469,2.0132288112765373,1.5734645402267586,0.3049472493774486,2.1856121902592136,0.814449680213342,1.494517493411938,0.299167803199149
1759502033.0274556,1,2.2240463132198416,2.0479730246217316,1.5737598652197367,0.30283951615333565,2.1873396122372113,0.8366125334056299,1.4976791808879213,0.2990371791793778
1759502033.14922,1,2.22391689514162,2.0810085296724106,1.573954705823563,0.3032702327509647,2.1911281963945943,0.8845472554491516,1.5014129627899109,0.2891177549994227
1759502033.2640276,1,2.223737501697698,2.113589123573279,1.5740586584262264,0.30562581238501774,2.192885408413299,0.9073750897442185,1.5039354489229233,0.28822426750527586
1759502033.3875391,1,2.2239458782805555,2.152442668828058,1.5742334227544186,0.29719257637504465,2.196130549782584,0.9541755984870016,1.507031715887646,0.2922576691982786
1759502033.5024095,1,2.224204259080123,2.183954386399134,1.574385168654871,0.29033716997777226,2.197636129392357,0.9767066047321711,1.5091756861560082,0.2926176690009931
1759502033.6201532,1,2.2242779812692914,2.220248329428784,1.574605431512415,0.297401511836298,2.200687682135524,1.0206490006907232,1.5124609835434615,0.2804315234268318
1759502033.7292302,1,2.2242128842968327,2.2497958203926984,1.5747927292928643,0.30324074001678625,2.2020829677256404,1.041493208547305,1.5141532883308937,0.2794248067508212
1759502033.8610706,1,2.223994120389081,2.2847839449801595,1.5747822125743978,0.30482371369703426,2.2045655577408145,1.0911597493075713,1.517669363303753,0.3068713852782301
1759502033.976647,1,2.2241542523705733,2.324789743291752,1.5746726249843208,0.297443628973664,2.2057942189229878,1.114378747901126,1.519575589778994,0.30923220947718666
1759502034.09887,1,2.224328277588059,2.3574246703481534,1.5745475659724935,0.2915592266283987,2.208560449475714,1.1608713162466655,1.5231386345347688,0.2808993345193197
1759502034.2136567,1,2.2243177341532516,2.394586251609865,1.5744386004601474,0.29920816013653156,2.2098541884536607,1.1829568879131482,1.5259462316209838,0.27829602704848383
1759502034.3324244,1,2.224125996051377,2.424579776205108,1.5743489913849467,0.3053173211197486,2.21181806043948,1.2326453132716324,1.5292174908298273,0.30572368532720684
1759502034.4507654,1,2.223916646192649,2.460689885299732,1.5743257734255065,0.30461489022894805,2.2127036330313854,1.2566544607227048,1.531533988383649,0.308287162037068
1759502034.5676737,1,2.22377804198067,2.4943946461246735,1.5743073808615498,0.3001577867995929,2.214758145523345,1.3040242446376515,1.5340579205938403,0.30078813733673215
1759502034.674309,1,2.2238193448980335,2.5270355166427803,1.5743163762173078,0.29266549487774446,2.2157083761262117,1.3266049499546468,1.5357196383724163,0.3001809832272118
1759502034.8015559,1,2.2239143036896314,2.5665323582629602,1.574263347698122,0.30024432499326364,2.2177007009336576,1.3714906088736882,1.5381315687801225,0.2849784612793409
1759502034.919653,1,2.2238252668935816,2.598465452591319,1.57422666091343,0.30638554760262854,2.2186321284944897,1.3926819329441356,1.5390347767896047,0.28363931048772206
1759502035.0366607,1,2.223767406016728,2.6357151925667917,1.5741777877510106,0.3028404148620866,2.2201232129728834,1.4409177894740695,1.5411612178910143,0.30114188067037445
1759502035.1538997,1,2.2236751181507817,2.670574032961822,1.5741192575106313,0.30306121670928937,2.2208293570206745,1.4640726340806134,1.5419986773638548,0.30274353951099214
1759502035.2724683,1,2.223505427115625,2.705177009035571,1.5740719731428734,0.30633001266471477,2.22223681170292,1.513649831596553,1.5440738211855531,0.3106909405305482
1759502035.387394,1,2.2236995593674815,2.7453380981674758,1.5739885215446272,0.30070466551439085,2.222931185076616,1.5367039118808,1.5449023554328747,0.31140409900040167
1759502035.5063474,1,2.223879906627734,2.778192154029777,1.5739215438944516,0.2962434596452655,2.2246093080937253,1.58210899321976,1.5467805573854607,0.28734174083029956
1759502035.6234148,1,2.223988611046976,2.8151988835661306,1.5738630240436386,0.2969110054503108,2.2253543719857873,1.6035719651086837,1.5482004777814746,0.2851349399095525
1759502035.751245,1,2.223928199272616,2.8486737450390653,1.573820584472348,0.29987997229244495,2.2262197525711827,1.6553190801607842,1.5497369707804138,0.31982842125737115
1759502035.8664374,1,2.223758917468128,2.884069711820781,1.573762430367613,0.30475485792617607,2.2266789270697904,1.6800903128059377,1.5505865171374884,0.3229639578858487
1759502035.9866734,1,2.2239376686703265,2.9246200612440463,1.573748461849203,0.29971940163988514,2.2280970931422512,1.7267570711069,1.5517496081587168,0.2995146084609814
1759502036.1054246,1,2.2241049983730785,2.957419149230803,1.5737737090356783,0.29570612087710557,2.2287431625113197,1.749167847517041,1.5525883255786022,0.2974344031978503
1759502036.2211545,1,2.2241916573605525,2.996451208344564,1.5739902955562206,0.30008721064625465,2.2300501101649823,1.7935473606059202,1.554231269211908,0.28343862268848097
1759502036.3441463,1,2.224117329639912,3.0277901687996196,1.5741895199725446,0.3036208230335016,2.2306392461693885,1.8149229645565306,1.5546437625747795,0.2821187927333687
1759502036.4667706,1,2.223929477506246,3.063718243298368,1.5745136598754608,0.3054352042145283,2.231330740648256,1.8670618614066412,1.555871825372388,0.30693978790595605
1759502036.583026,1,2.223786176900469,3.0975855228108897,1.5748156333296472,0.3017086155886865,2.2317167061306313,1.8919033696686678,1.555895431208667,0.30916821450427845
1759502036.7030225,1,2.2237611560277912,3.1303029464965495,1.5751735577205919,0.29348834933952167,2.232700689468055,1.9402119319745954,1.5567446799973645,0.302366139305047
1759502036.813439,1,2.223829724378136,3.1708244101577026,1.5754189344220644,0.3025925918593646,2.2331524796558053,1.9630441553345654,1.5574208979355353,0.30179422816809326
1759502036.9361465,1,2.2236556092741746,3.2032866060127008,1.575616208410105,0.309835859438754,2.2339492989719747,2.0124809473797294,1.5581923749788915,0.30821271421398305
1759502037.0513203,1,2.2234828284061217,3.2406851923181046,1.5755191458327231,0.30800646361318873,2.234335810883632,2.036026689074696,1.5585561922418525,0.308769949261112
1759502037.1851578,1,2.2233192097820678,3.274916867391497,1.5753278186597692,0.30244025083345416,2.2352684030995826,2.0859399758814843,1.559443189447441,0.29947286328163863
1759502037.329485,1,2.2234391731296292,3.308183411524661,1.5749138827065612,0.2936601905301571,2.2356815582713994,2.1100882062393818,1.5599727507233065,0.2985724514302741
1759502037.4538682,1,2.223456989420768,3.3479847998648884,1.574273893086675,0.30109704379818486,2.236695316676396,2.159718821213701,1.5617531885340858,0.2848251585648192
1759502037.568789,1,2.223343262080517,3.3851820001174486,1.5737022911440506,0.30686783519191796,2.23715132424394,2.1835909158272213,1.5623414338353008,0.28359246166875407
1759502037.6885395,1,2.2231531435245313,3.421897551286303,1.5732241049072233,0.3112231035384584,2.237293497565094,2.2351756705257952,1.5642182590027622,0.31240574536263066
1759502037.8092787,1,2.2233058480869965,3.463271251090898,1.5729075238868693,0.301458581346858,2.2374094331570014,2.2591034011815863,1.5655278256041911,0.31476841299545216
1759502037.9254563,1,2.223537314557534,3.4969081292119797,1.5726799845773656,0.2944573430993763,2.237839930198735,2.311213323078157,1.5668305837373186,0.30795217486988063
1759502038.0484385,1,2.2235645735161307,3.5348081780779803,1.5734218065688859,0.3029778531701476,2.23805953458373,2.335902809369507,1.5676642298375154,0.3074659829314591
1759502038.168092,1,2.2235938098880657,3.576857799204595,1.5770890255968428,0.3063544600278878,2.2384538051967025,2.385531841085324,1.5677698355763066,0.30981601078105414
1759502038.2885997,1,2.2234177544990663,3.612569596270898,1.581694629449214,0.3092720962855005,2.238622054846484,2.4093799448512674,1.5678736799020336,0.3102676248131081
1759502038.4073076,1,2.2227168073056163,3.6518954175019984,1.5924442038725601,0.30477570338928917,2.2393653020861897,2.4562347209310293,1.5661936881060423,0.30041384125111614
1759502038.5217698,1,2.222108830302658,3.6839360840739523,1.6025632459103414,0.3011153333497959,2.239719209497914,2.478805231608885,1.563193344338077,0.2996394463158692
1759502038.6448238,1,2.2202495616268627,3.719900111470329,1.6212108696810823,0.3087764056264425,2.2412551706448722,2.527752962199399,1.5537655051166286,0.2943938691323782
1759502038.7682521,1,2.217851449635902,3.752140379626035,1.638237398282141,0.31320090080907537,2.242167682458612,2.5513005610928063,1.5438364128091822,0.29368884969252795
1759502038.8939416,1,2.2143810962270787,3.787254752847298,1.665929484624062,0.3153334060262726,2.244898647893637,2.601863663589501,1.5278446164573622,0.31301417793979724
1759502039.0062351,1,2.2087661378162604,3.8256137175007554,1.7022248814908223,0.30705436507074035,2.2465297283033276,2.6258064952358313,1.5139361686136255,0.3147665755032505
1759502039.1266487,1,2.204095766617774,3.856344023836557,1.733249118075802,0.3000413934499574,2.2512947857826173,2.6744847339394338,1.4918348474181113,0.3085338070536452
1759502039.2465696,1,2.196449508438116,3.8907191297649564,1.7731242244629084,0.3079259747882078,2.253958173425034,2.697806027885795,1.4736060391836845,0.30751415930449527
1759502039.3630345,1,2.189857426192942,3.918377119928315,1.8055845450278463,0.31401017493447675,2.260506697351629,2.7425131744102313,1.4539244629171904,0.2776607716389774
1759502039.47963,1,2.179499870197534,3.9520856612185953,1.8500124154264408,0.3149989812465825,2.263863123947174,2.764168500774011,1.4391111894754003,0.2744396281465152
1759502039.600193,1,2.1663099284653144,3.9873024609847687,1.8974683555848593,0.30863677302084647,2.2706344815219315,2.8092231635641856,1.4277570606820393,0.28426284288460996
1759502039.7145965,1,2.1554192046570653,4.015645755469652,1.9380614953308624,0.30363029433073685,2.274034758603576,2.8309060630776095,1.4194115039381958,0.2848457623939037
1759502039.8326743,1,2.1399717217952463,4.047537123973243,1.9854685959600313,0.3076294902876238,2.281028061921696,2.877099803748739,1.4160778858850245,0.29175422946296825
1759502039.9455383,1,2.12712654183426,4.073160005574932,2.024650826932458,0.31110789835232416,2.284433810816564,2.8992097356539146,1.4146028938134378,0.2922851504112105
1759502040.0682085,1,2.1095699496524776,4.102419252406592,2.071632351938861,0.31252027288279705,2.2909481123676825,2.9441236118846863,1.4191756663394277,0.28665964258949633
1759502040.1864972,1,2.0923850087578244,4.128788235565435,2.1137692794743232,0.3105411605822445,2.2940190246334815,2.9657111588940945,1.4240475183644994,0.2862070802793309
1759502040.2992115,1,2.0746304887239937,4.154776103412973,2.1590039271174772,0.3055062612661753,2.2993793654446106,3.007579392941685,1.4339405113606738,0.282531380952363
1759502040.4118943,1,2.0507969828529364,4.183627543726846,2.2120190810657943,0.31269680932790034,2.30175890561554,3.0275105733982963,1.4426514515664963,0.2818981586874781
1759502040.5369792,1,2.031418184592756,4.206122348953816,2.2558524061550442,0.3187526799216383,2.3064207640294896,3.0705856142804127,1.4583027613104693,0.2639209154222589
1759502040.6498847,1,2.007111877706133,4.230479649701432,2.3070784623448786,0.3158850342166609,2.308400893598208,3.091045316449612,1.4710579729186952,0.26231364694620357
1759502040.7684789,1,1.9846878011546212,4.251352460683535,2.350707337863088,0.3150421215995272,2.3113036642354867,3.1346160551727924,1.489135472622216,0.28299610847606727
1759502040.883565,1,1.9599899521731667,4.271869158000362,2.4001474541804417,0.3152402578574134,2.312420701458093,3.155443739764015,1.5031908239352134,0.2848319514175311
1759502040.9962204,1,1.9314158808254978,4.292765829551578,2.4530161721287835,0.30985135251685986,2.3145339159056633,3.193984893495698,1.5216912470284802,0.2521829421815277
1759502041.109695,1,1.9082063616599574,4.3093729911728,2.498288365018798,0.3052975216813859,2.3152625383521546,3.2123454947767445,1.536113723208004,0.24954663466861124
1759502041.231532,1,1.878606432546141,4.326503596306619,2.5516103628144786,0.31166889177312795,2.315351264522741,3.2548227722713925,1.5587796328369719,0.2637218089676356
1759502041.3442745,1,1.854473030762201,4.33984129246302,2.595686455308826,0.31688541618711286,2.315116536095719,3.2750050908434707,1.577230192970618,0.26541985013845176
1759502041.4693015,1,1.8240001072975869,4.354140771712442,2.6500399371687453,0.314644481583085,2.313573415477204,3.3156706551171498,1.6027781617939183,0.2564979433489818
1759502041.5888395,1,1.789642643929045,4.367202763919371,2.706587502285052,0.3131011421828432,2.3125033165165236,3.3350961495913003,1.6229012003838617,0.25546524373409935
1759502041.707679,1,1.761492790307944,4.377301239729518,2.7562384120555943,0.3111435933216569,2.309090065342567,3.3760764938460546,1.6532599680388524,0.24593648707614665
1759502041.8216348,1,1.7280751846532896,4.386261647333337,2.808311311702557,0.31383174835222366,2.307046550015478,3.395597324763942,1.676724538122247,0.24514827693805483
1759502041.9483883,1,1.7002556891536427,4.393597347358367,2.8530555170928875,0.315012991399168,2.301427148393798,3.4352657999561624,1.707260529289887,0.24852606238938252
1759502042.0677814,1,1.6671114727676712,4.400062144049524,2.8968096068460047,0.3079232605263673,2.298400422370317,3.453883310348448,1.7298399871729335,0.24872992592808718
1759502042.1811223,1,1.629914239033522,4.405348112221203,2.934727294062317,0.31050134010210173,2.2921647384603343,3.4889058308310443,1.758349913092837,0.22463850915199718
1759502042.3018608,1,1.5994143798193956,4.409179613478677,2.9659728389837596,0.3131374010168347,2.2888935902050838,3.5054597784546373,1.7801243360209444,0.22268067660849417
1759502042.41739,1,1.564637918434846,4.41271487885127,2.99137318246385,0.3043061022200915,2.2792669396997938,3.5426778971338106,1.81497707843163,0.23782426854031102
1759502042.5250678,1,1.5363320740899273,4.415684315080736,3.011855403019819,0.29767794976909157,2.2742488667965257,3.5604498902277113,1.8438894666299368,0.23997600287038273
1759502042.649476,1,1.5021130253955475,4.4181863486503055,3.027556739951777,0.3040414863789284,2.2631116913819938,3.5946193338241605,1.8822911978905843,0.22626032432273455
1759502042.7692685,1,1.4744342226673586,4.419822715132942,3.040165222340571,0.30970809076811645,2.2574435259006043,3.610660547651965,1.9126686736323268,0.2257457104217728
1759502042.8827348,1,1.4396195559830274,4.422110261008406,3.0507043200512767,0.3113325656550966,2.2443079083312436,3.6433714963177395,1.9507197230334763,0.2208611930408969
1759502043.0003417,1,1.4018829450586938,4.424469304343052,3.0598882531439737,0.3040054898495503,2.2376055961326204,3.6588002854519095,1.9799216548482073,0.2201050295334072
1759502043.1217306,1,1.3716133764060436,4.426400658508404,3.067325100103404,0.2979754899089051,2.2193218544185913,3.69493325982107,2.023643975882963,0.2472661836016586
1759502043.2303374,1,1.3349166675652793,4.428243888331268,3.0753759834850807,0.30266907759391204,2.2101830482956073,3.7118724385367865,2.057677462446801,0.25014830916538433
1759502043.3593874,1,1.3055852882518686,4.429310747064056,3.0819196286858834,0.306446373982342,2.190649742826827,3.745066142729904,2.100595467365312,0.2419809288870465
1759502043.47546,1,1.2700433063028462,4.430417715333981,3.0896993267122386,0.3052818939416055,2.181129251072732,3.760338753461132,2.1322119429255846,0.24154538526292132
1759502043.594325,1,1.22950001641816,4.431816827974105,3.098057880782155,0.30703152513926624,2.160126355587526,3.79159532936902,2.1701960938254903,0.23595526205631354
1759502043.7076526,1,1.1960251250472913,4.432794974812458,3.105351497488288,0.3082782213944108,2.1497799781767717,3.80616302147798,2.197603828006825,0.23560211672937936
1759502043.835239,1,1.158556539800123,4.433527704983993,3.112509753997949,0.3024344655326199,2.126529160827029,3.836851072355859,2.2315304680332226,0.22923140484774973
1759502043.9632993,1,1.1285963040899547,4.437329276282566,2.5528726961968418,0.29779105388249966,2.11513349804062,3.8513311536414014,2.2569931806941166,0.22920857419448445
1759502044.0905595,1,1.0898302611147583,4.448559895536006,1.4939897143424623,0.3078586692316013,2.0843205397741755,3.8851672483653354,2.296268005942679,0.26241950394204283
1759502044.2300236,1,1.0517480137118915,4.462011547224731,0.6488129776541981,0.29742276685905433,2.0692854111898753,3.9009488690411067,2.3275553475346107,0.2656221129073383
1759502044.374643,1,1.0240960299660853,4.471677548095293,-0.05571459455190437,0.2886770370552074,2.0291740644055296,3.9382330523328846,2.3779285924957483,0.28727275187784307
1759502044.4906924,1,0.9903568652954763,4.476517805240916,-0.6230850195654435,0.3037685723062662,2.009666435500868,3.9555119316933554,2.4179776088744913,0.29027919794986545
1759502044.6138406,1,0.9514708474700724,4.4772450262441446,-1.0810318530203216,0.2952592899180598,1.97789445666994,3.9826849326936857,2.4576180287718894,0.249375111635932
1759502044.7254708,1,0.9169309604169306,4.4776417060216875,-1.4522859666704464,0.288549183382723,1.962646881101465,3.995119180099314,2.4858303574701686,0.24629172168438032
1759502044.85409,1,0.8731463235854893,4.47933322241888,-1.7659220888239326,0.29419779192522577,1.9267657120082238,4.021055697032867,2.5154090968759864,0.270716925869217
1759502044.975249,1,0.8363239267662081,4.482395339688705,-2.0170613754028657,0.29841220670567165,1.909540288029716,4.033110355272175,2.536287155453279,0.27338116965550624
1759502045.093853,1,0.7938754939327165,4.486530056944985,-2.2205821771200216,0.3007040530111757,1.8732608753690283,4.057517555295937,2.561031794346188,0.2733494334876229
1759502045.2138884,1,0.7499939711632407,4.491264725368989,-2.3864314050376216,0.2918266771199272,1.8559246469170212,4.068859216045905,2.5788715982666788,0.27314740880900723
1759502045.329525,1,0.7145392721480878,4.496502717243421,-2.5208415555808106,0.2845801806365312,1.8169317840578723,4.09240822955007,2.606073036957358,0.2841093164742651
1759502045.45151,1,0.6744170561401933,4.502025677283922,-2.63102617320791,0.29028443543167143,1.7981063461561477,4.103289329155039,2.626582348010439,0.28531132501726747
1759502045.5827723,1,0.637600989738137,4.507611119006848,-2.7247736585896254,0.2949935565941573,1.7577534680376634,4.125741586294908,2.6547719697037615,0.26559483411148777
1759502045.6954393,1,0.6018058801815016,4.506202360214163,-1.63524658657705,0.299035571952246,1.7384330620225028,4.136103941445373,2.6756229876456445,0.26405756514687106
1759502045.8240924,1,0.5650323117817397,4.499527093127763,-0.761373473237442,0.29181986106076935,1.6973749922415262,4.155595217188645,2.701083741705813,0.2777662009806931
1759502045.9436595,1,0.5396885594671857,4.494762139655272,-0.05793423489202574,0.286189648298163,1.677733023840576,4.164608847757621,2.719742159022437,0.2795235266108581
1759502046.0726762,1,0.5068340034639626,4.493886305175552,0.5381006210413503,0.29803132105504093,1.6338513555590333,4.183077687331934,2.7460057976597696,0.2827043547859126
1759502046.1822486,1,0.4781937742960465,4.495983464755823,1.021879497010849,0.3077469810310933,1.6129768763164745,4.1915920328392895,2.7661570991167843,0.2836660152712954
1759502046.3075662,1,0.441357401178071,4.498851317261188,1.4084046571798194,0.3052715188970641,1.5705533132695069,4.207443108542782,2.7894988968648504,0.2818683881755736
1759502046.424556,1,0.3984261874336613,4.500372259673635,1.7273410974152104,0.2968001845840968,1.5505570511639897,4.214668181639254,2.8065377838696874,0.28188153215823614
1759502046.538975,1,0.3618071255869888,4.499786068165793,1.985858009526189,0.289736176745317,1.5056931836388627,4.22943999184285,2.8256723573911007,0.29467007632098485
1759502046.6523914,1,0.31964893465681504,4.4971156811187285,2.1973244987912888,0.2975871216275801,1.4842535366096679,4.236256737964645,2.839056923167908,0.2960530603690717
1759502046.7709398,1,0.28499456433288173,4.49312280439442,2.368421514903561,0.3037863726406381,1.4412900401026483,4.249873974613206,2.852614333930009,0.28666399866108855
1759502046.8870857,1,0.24813864244381265,4.494098319143752,1.3789458262154433,0.2998062370646592,1.4209934050308577,4.2561348632020914,2.8614130741465567,0.2858671184385764
1759502047.013234,1,0.2097541899146454,4.499645630056241,0.533528380098666,0.3098390038547823,1.376211693608014,4.269131982160157,2.87205550092866,0.2907083996708803
1759502047.123307,1,0.1822353580836023,4.502044569467309,-0.15281943469790407,0.31800731749991057,1.3550067518964892,4.275246109099624,2.878754542099923,0.2912837457651299
1759502047.24401,1,0.15011794567194525,4.500254553176195,0.45284347750383597,0.30615131195989614,1.308564167035542,4.287395121077234,2.8907712117690085,0.30129868838541196
1759502047.3535018,1,0.12182917129385253,4.501727771857762,0.9466790163373,0.2965982502462219,1.2862873308440361,4.293071915942565,2.8998561080128558,0.30255137778543595
