timestamp,vehicle_id,x,y,theta,velocity,gps_available,dt,gps_x,gps_y,gps_theta,gps_velocity,control_steering,control_acceleration
1759502006.7131777,1,-1.735,-0.35,-0.7801621756414647,0.0,False,0.01,nan,nan,nan,nan,0.0,0.0
1759502006.7234788,1,-1.735,-0.35,-0.7801621756414647,0.0,False,0.01030111312866211,nan,nan,nan,nan,0.0,0.0
1759502007.4525225,1,-1.7349996599784263,-0.3499998465180397,-0.7230012467508402,0.0,True,0.1,-1.734999656677246,-0.3499998450279236,-0.717703640460968,0.0,0.0,0.0
1759502007.569909,1,-1.7349996577811777,-0.3499998455262261,-0.7180963853323643,0.0,True,0.1,-1.734999656677246,-0.3499998450279236,-0.717703640460968,0.0,0.0,0.0
1759502007.6970282,1,-1.7349996570913868,-0.34999984521486216,-0.7176963332280497,0.0,True,0.1,-1.734999656677246,-0.3499998450279236,-0.717703640460968,0.0,0.0,0.0
1759502007.8287542,1,-1.734999656835023,-0.3499998450991424,-0.7176727499251392,0.0,True,0.1,-1.734999656677246,-0.3499998450279236,-0.717703640460968,0.0,0.0,0.0
1759502007.950434,1,-1.7349996567374888,-0.34999984505511644,-0.7176774581214858,0.0,True,0.1,-1.734999656677246,-0.3499998450279236,-0.717703640460968,0.0,0.0,0.0
1759502008.0678449,1,-1.7349996567002555,-0.3499998450383098,-0.7176825814574652,0.0,True,0.1,-1.734999656677246,-0.3499998450279236,-0.717703640460968,0.0,0.0,0.0
1759502008.1858895,1,-1.7349996566860348,-0.34999984503189074,-0.7176865820497973,0.0,True,0.1,-1.734999656677246,-0.3499998450279236,-0.717703640460968,0.0,0.0,0.0
1759502008.3148606,1,-1.7349996566806032,-0.3499998450294389,-0.7176897596433491,0.0,True,0.1,-1.734999656677246,-0.3499998450279236,-0.717703640460968,0.0,0.0,0.0
1759502008.4331589,1,-1.7349996566785284,-0.3499998450285024,-0.7176923706595968,0.0,True,0.1,-1.734999656677246,-0.3499998450279236,-0.717703640460968,0.0,0.0,0.0
1759502008.535314,1,-1.734999656677736,-0.3499998450281447,-0.7176945623745485,0.0,True,0.1,-1.734999656677246,-0.3499998450279236,-0.717703640460968,0.0,0.0,0.0
1759502008.617569,1,-1.7349996566774333,-0.349999845028008,-0.7176965758805878,0.0,True,0.08225488662719727,-1.734999656677246,-0.3499998450279236,-0.717703640460968,0.0,0.0,0.0
1759502008.7190132,1,-1.7351148288040292,-0.3498992991483132,-0.7176176850221623,0.001128551039833458,True,0.1,-1.7352385520935059,-0.3497912883758545,-0.7175116539001465,0.001128551039833458,0.12114171119240069,-0.05
1759502008.8229043,1,-1.7351588184598092,-0.3498608915401692,-0.7175611630145351,0.001128551039833458,True,0.1,-1.7352385520935059,-0.3497912883758545,-0.7175116539001465,0.001128551039833458,0.12134762930757859,-0.05
1759502008.9378438,1,-1.7388923835716825,-0.346635544599037,-0.7146832747289622,0.05011041223351899,True,0.1,-1.7435331344604492,-0.34260571002960205,-0.7108584046363831,0.05011041223351899,0.12134762930757859,-0.05
1759502009.0413363,1,-1.7403149738438128,-0.3453995448378561,-0.7126453715978229,0.05011041223351899,True,0.1,-1.7435331344604492,-0.34260571002960205,-0.7108584046363831,0.05011041223351899,0.1284297436511821,-0.05
1759502009.1444218,1,-1.745809727141869,-0.34068824350764876,-0.7088028724545161,0.04769441507880284,True,0.1,-1.7514361143112183,-0.3358493447303772,-0.7043545246124268,0.04769441507880284,0.1284297436511821,-0.05
1759502009.2411294,1,-1.7479496233280236,-0.33884447850005645,-0.7060771757144408,0.04769441507880284,True,0.09670758247375488,-1.7514361143112183,-0.3358493447303772,-0.7043545246124268,0.04769441507880284,0.13549828899206773,-0.05
1759502009.3367627,1,-1.7487788564197715,-0.3381239848147497,-0.7043526697242157,0.04769441507880284,True,0.09563326835632324,-1.7514361143112183,-0.3358493447303772,-0.7043545246124268,0.04769441507880284,0.13549828899206773,-0.05
1759502009.4510107,1,-1.7561273570586193,-0.33193491822129223,-0.6993573827118524,0.05122342142824489,True,0.1,-1.763081669807434,-0.3260602056980133,-0.6942142248153687,0.05122342142824489,0.13549828899206773,-0.05
1759502009.561608,1,-1.7589281107243964,-0.3295636611262798,-0.6957654834272837,0.05122342142824489,True,0.1,-1.763081669807434,-0.3260602056980133,-0.6942142248153687,0.05122342142824489,0.1469659506027554,-0.05
1759502009.6716626,1,-1.7653195835101207,-0.32425633926670083,-0.6904859909711476,0.050946423512624316,True,0.1,-1.7716867923736572,-0.3189583420753479,-0.6863299012184143,0.050946423512624316,0.1469659506027554,-0.05
1759502009.7791944,1,-1.767754549374962,-0.32222146538649105,-0.6868635431212056,0.050946423512624316,True,0.1,-1.7716867923736572,-0.3189583420753479,-0.6863299012184143,0.050946423512624316,0.15615423003714568,-0.05
1759502009.8941724,1,-1.7740752278435337,-0.3170580866768805,-0.6814763507959096,0.04701647404198733,True,0.1,-1.7802287340164185,-0.31202465295791626,-0.6779685616493225,0.04701647404198733,0.16080488467704512,-0.05
1759502010.0084808,1,-1.7764835926119917,-0.31507859255399545,-0.677822725911895,0.04701647404198733,True,0.1,-1.7802287340164185,-0.31202465295791626,-0.6779685616493225,0.04701647404198733,0.1707700318206271,-0.05
1759502010.1424532,1,-1.783285494939757,-0.3096333066115156,-0.671314215938164,0.05349853254863915,True,0.1,-1.7900646924972534,-0.3041943907737732,-0.667304515838623,0.05349853254863915,0.25620591018346417,-0.05
1759502010.2660863,1,-1.785875950371284,-0.3075438451214794,-0.6666946968469567,0.05349853254863915,True,0.1,-1.7900646924972534,-0.3041943907737732,-0.667304515838623,0.05349853254863915,0.3955029187608403,-0.05
1759502010.3891742,1,-1.7929543701306192,-0.3020286985318092,-0.6565151717824023,0.04865356635209022,True,0.1,-1.799692153930664,-0.2967606782913208,-0.6473163962364197,0.04865356635209022,0.3955029187608403,-0.05
1759502010.5027978,1,-1.79564717583845,-0.29990809799947254,-0.6489188526357061,0.04865356635209022,True,0.1,-1.799692153930664,-0.2967606782913208,-0.6473163962364197,0.04865356635209022,0.5470213228227578,-0.05
1759502010.62687,1,-1.8025290154507818,-0.29478540361939926,-0.633498037589252,0.05085711163476973,True,0.1,-1.8092864751815796,-0.28971990942955017,-0.6191125512123108,0.05085711163476973,0.5470213228227578,-0.05
1759502010.74655,1,-1.8051403599932672,-0.29280556554033493,-0.6225252713982883,0.05085711163476973,True,0.1,-1.8092864751815796,-0.28971990942955017,-0.6191125512123108,0.05085711163476973,0.6,-0.05
1759502010.8649411,1,-1.8122935538119869,-0.2877986458878536,-0.6027324177749556,0.04762015376892949,True,0.1,-1.8191059827804565,-0.28298884630203247,-0.5849918723106384,0.04762015376892949,0.6,-0.05
1759502010.9836996,1,-1.815005671355061,-0.28585748629898655,-0.5888910216243453,0.04762015376892949,True,0.1,-1.8191059827804565,-0.28298884630203247,-0.5849918723106384,0.04762015376892949,0.6,-0.05
1759502011.1083915,1,-1.822219179334331,-0.28117189366797046,-0.5662357070947834,0.05178465414919478,True,0.1,-1.8293395042419434,-0.27649950981140137,-0.5486413240432739,0.05178465414919478,0.6,-0.05
1759502011.2146137,1,-1.8249507056785037,-0.2793456431103761,-0.5507800782644665,0.05178465414919478,True,0.1,-1.8293395042419434,-0.27649950981140137,-0.5486413240432739,0.05178465414919478,0.6,-0.04076088401912059
1759502011.3308344,1,-1.8313470920652881,-0.27544856040485394,-0.5305827086096766,0.04383909212646749,True,0.1,-1.8376096487045288,-0.2716231048107147,-0.5198400020599365,0.04383909212646749,0.6,-0.0018268011499024796
1759502011.445213,1,-1.8337733963952474,-0.27393184912611024,-0.5171109789199271,0.04383909212646749,True,0.1,-1.8376096487045288,-0.2716231048107147,-0.5198400020599365,0.04383909212646749,0.6,0.011234405811744131
1759502011.559672,1,-1.8352230662200457,-0.27303391728457815,-0.5120206013306401,0.005791270518171048,True,0.1,-1.8364301919937134,-0.27230212092399597,-0.5239241719245911,0.005791270518171048,0.6,0.050565544468994444
1759502011.6788578,1,-1.8357762675999478,-0.2726900115550397,-0.5095210009065347,0.005791270518171048,True,0.1,-1.8364301919937134,-0.27230212092399597,-0.5239241719245911,0.005791270518171048,0.6,0.10163030858363163
1759502011.795325,1,-1.8241787889745062,-0.27972739230767973,-0.5279096231490676,0.07678383757528234,True,0.1,-1.8211451768875122,-0.281746506690979,-0.5778369307518005,0.07678383757528234,0.6,0.10163030858363163
1759502011.910212,1,-1.8197757976902766,-0.282462075603667,-0.5445794785276838,0.07678383757528234,True,0.1,-1.8211451768875122,-0.281746506690979,-0.5778369307518005,0.07678383757528234,0.6,0.0955396620189482
1759502012.0235596,1,-1.8061108090357272,-0.29197696459166006,-0.5823294881167698,0.09629783714960899,True,0.1,-1.8027372360229492,-0.29474323987960815,-0.6454500555992126,0.09629783714960899,0.6,0.0955396620189482
1759502012.1393716,1,-1.8009627894359745,-0.29572321756248715,-0.611714208199615,0.09629783714960899,True,0.1,-1.8027372360229492,-0.29474323987960815,-0.6454500555992126,0.09629783714960899,0.4270364540861422,0.11222614540219047
1759502012.2624226,1,-1.7869348033606012,-0.30706611079940593,-0.6547159024126934,0.10511359183810076,True,0.1,-1.7835618257522583,-0.31031492352485657,-0.7077178955078125,0.10511359183810076,0.4270364540861422,0.11222614540219047
1759502012.362782,1,-1.7816748991007252,-0.3115312289796356,-0.6860008108813478,0.10511359183810076,True,0.1,-1.7835618257522583,-0.31031492352485657,-0.7077178955078125,0.10511359183810076,0.25171911816710946,0.12158842952176688
1759502012.4792078,1,-1.7674489252487393,-0.3243827350421167,-0.7215661209075037,0.11880707423592168,True,0.1,-1.7643195390701294,-0.3276510536670685,-0.7492573857307434,0.11880707423592168,0.1920393242411862,0.1721925848025168
1759502012.579356,1,-1.762115822151131,-0.3294094115043511,-0.7455295698099818,0.11880707423592168,True,0.1,-1.7643195390701294,-0.3276510536670685,-0.7492573857307434,0.11880707423592168,0.11421514570424307,0.1393861613626337
1759502012.696064,1,-1.7442783578749748,-0.3466091650969366,-0.7692594223397773,0.15278371801694882,True,0.1,-1.7401758432388306,-0.3508163094520569,-0.7742039561271667,0.15278371801694882,0.07097086628080262,0.18942744615002385
1759502012.811016,1,-1.7375561342711738,-0.353274814553951,-0.7842099773933171,0.15278371801694882,True,0.1,-1.7401758432388306,-0.3508163094520569,-0.7742039561271667,0.15278371801694882,0.022978252778401043,0.14190886064748212
1759502012.9341688,1,-1.7170481541280365,-0.37372033357975437,-0.7958899893321068,0.169968006011791,True,0.1,-1.7118031978607178,-0.3789302706718445,-0.7837952375411987,0.169968006011791,-0.008499801452888534,0.19007121138419403
1759502013.0385165,1,-1.7092658032081087,-0.3815802847808535,-0.8020117923073151,0.169968006011791,True,0.1,-1.7118031978607178,-0.3789302706718445,-0.7837952375411987,0.169968006011791,-0.02890461227857344,0.14131139194907505
1759502013.142763,1,-1.690448214122926,-0.40039288571304277,-0.8029628513695428,0.17644488594688304,True,0.1,-1.686402678489685,-0.4041842818260193,-0.7802857756614685,0.17644488594688304,-0.054332808052828696,0.1933108604457857
1759502013.242753,1,-1.6832647945321477,-0.40758185561214977,-0.80159320561126,0.17644488594688304,True,0.0999901294708252,-1.686402678489685,-0.4041842818260193,-0.7802857756614685,0.17644488594688304,-0.049871840053597793,0.15268999517285442
1759502013.3475215,1,-1.6651570864412217,-0.4253419256990572,-0.7956309697199195,0.1631912444057788,True,0.1,-1.660988450050354,-0.42907899618148804,-0.770767867565155,0.1631912444057788,-0.06783129834245472,0.20254296136808977
1759502013.4539194,1,-1.6582145845861853,-0.43210032627195055,-0.7899234193353344,0.1631912444057788,True,0.1,-1.660988450050354,-0.42907899618148804,-0.770767867565155,0.1631912444057788,-0.05155840941682044,0.16878223766450995
1759502013.5713694,1,-1.6363975346327966,-0.453009618591825,-0.7805634041950498,0.18871518881665553,True,0.1,-1.6311347484588623,-0.45765891671180725,-0.758263885974884,0.18871518881665553,-0.06567363027849993,0.22162404484067502
1759502013.6842506,1,-1.628017706469875,-0.4609496705609158,-0.7730129845336862,0.18871518881665553,True,0.1,-1.6311347484588623,-0.45765891671180725,-0.758263885974884,0.18871518881665553,-0.055819968244851026,0.21948416621583997
1759502013.8024094,1,-1.6006324478190055,-0.4864413657912947,-0.7616030218910144,0.21921391186443664,True,0.1,-1.5934196710586548,-0.4927501678466797,-0.7426415681838989,0.21921391186443664,-0.055819968244851026,0.21948416621583997
1759502013.9247165,1,-1.5901081175813807,-0.49611169087432117,-0.753040665862482,0.21921391186443664,True,0.1,-1.5934196710586548,-0.4927501678466797,-0.7426415681838989,0.21921391186443664,-0.04249862240078528,0.20206789397578115
1759502014.0540557,1,-1.5624013767446676,-0.5211171933660881,-0.742371141580815,0.20878859037407385,True,0.1,-1.5547040700912476,-0.5277593731880188,-0.7297884225845337,0.20878859037407385,-0.04249862240078528,0.20206789397578115
1759502014.1831825,1,-1.55176167996618,-0.5306071893941482,-0.7350348443769441,0.20878859037407385,True,0.1,-1.5547040700912476,-0.5277593731880188,-0.7297884225845337,0.20878859037407385,-0.051932640342204905,0.2037948961456909
1759502014.3106902,1,-1.522723120186516,-0.5561959919238018,-0.725636300035724,0.21396837244451983,True,0.1,-1.514601707458496,-0.5631600022315979,-0.716320812702179,0.21396837244451983,-0.10344582283610215,0.25973760640903804
1759502014.4189932,1,-1.5115824940478122,-0.5659152776500861,-0.7187848620280484,0.21396837244451983,True,0.1,-1.514601707458496,-0.5631600022315979,-0.716320812702179,0.21396837244451983,-0.08246099005018692,0.2015742035310304
1759502014.5462403,1,-1.4810597566403,-0.5917561918237061,-0.7052698851140313,0.23256980803331112,True,0.1,-1.4730381965637207,-0.5982905626296997,-0.6900637745857239,0.23256980803331112,-0.14384675264339108,0.25471672741636464
1759502014.6620915,1,-1.4693232625020223,-0.6015358761272748,-0.6956604008765375,0.23256980803331112,True,0.1,-1.4730381965637207,-0.5982905626296997,-0.6900637745857239,0.23256980803331112,-0.1699799996823863,0.24617015773513085
1759502014.78154,1,-1.4357126571151686,-0.6280543698061165,-0.6718694830603038,0.2508523044798227,True,0.1,-1.426880121231079,-0.6345542669296265,-0.6438271999359131,0.2508523044798227,-0.1699799996823863,0.24617015773513085
1759502014.8965313,1,-1.4227354074528322,-0.6380115198002871,-0.6547128300853693,0.2508523044798227,True,0.1,-1.426880121231079,-0.6345542669296265,-0.6438271999359131,0.2508523044798227,-0.1581091639104919,0.23404511458017918
1759502015.0317404,1,-1.387872629148779,-0.6627878405916825,-0.6250914007934831,0.23922884514135506,True,0.1,-1.3780922889709473,-0.6691468954086304,-0.5949313640594482,0.23922884514135506,-0.1581091639104919,0.23404511458017918
1759502015.142312,1,-1.374400964377135,-0.6720412900644693,-0.6043315954238722,0.23922884514135506,True,0.1,-1.3780922889709473,-0.6691468954086304,-0.5949313640594482,0.23922884514135506,-0.1354948596209482,0.23240183318057536
1759502015.2647002,1,-1.3406024047565321,-0.6937859757103085,-0.5764175217906846,0.23484750147006125,True,0.1,-1.3316935300827026,-0.6990299820899963,-0.5539173483848572,0.23484750147006125,-0.18981855903376044,0.2883573128702842
1759502015.38567,1,-1.3275611975750565,-0.7018941080001466,-0.5566616925139289,0.23484750147006125,True,0.1,-1.3316935300827026,-0.6990299820899963,-0.5539173483848572,0.23484750147006125,-0.11751349661192911,0.23111019968589375
1759502015.506603,1,-1.2885328343746318,-0.7244949763272751,-0.5270752449087279,0.25012636383998355,True,0.1,-1.2775731086730957,-0.7303537726402283,-0.5048167109489441,0.25012636383998355,-0.1724722343912326,0.29068360696443274
1759502015.6088073,1,-1.273488829001642,-0.7328990176998325,-0.5058804720171484,0.25012636383998355,True,0.1,-1.2775731086730957,-0.7303537726402283,-0.5048167109489441,0.25012636383998355,-0.08308670659456574,0.21874652750782228
1759502015.717282,1,-1.2372438668227705,-0.7518449081361728,-0.4805405107210916,0.26803393072034215,True,0.1,-1.229364275932312,-0.755581796169281,-0.4683319628238678,0.26803393072034215,-0.13689191511221033,0.276697803788226
1759502015.8224874,1,-1.2232844792242432,-0.7588658767599422,-0.4630682179293082,0.26803393072034215,True,0.1,-1.229364275932312,-0.755581796169281,-0.4683319628238678,0.26803393072034215,-0.07011297620524104,0.21230785706901978
1759502015.9321404,1,-1.18937050261414,-0.7751711155432618,-0.4430727161715886,0.24141525139856537,True,0.1,-1.1817798614501953,-0.7786242365837097,-0.43957656621932983,0.24141525139856537,-0.124379784078549,0.26955179987208977
1759502016.0376563,1,-1.1763408442684709,-0.7812426696061916,-0.42985658014268324,0.24141525139856537,True,0.1,-1.1817798614501953,-0.7786242365837097,-0.43957656621932983,0.24141525139856537,-0.0727896750124426,0.22137333818992186
1759502016.1473086,1,-1.141465189276868,-0.796902314596671,-0.41343051103761397,0.24264185983747014,True,0.1,-1.1335604190826416,-0.8003696799278259,-0.4126684367656708,0.24264185983747014,-0.13342163275724772,0.2860050249565168
1759502016.2480974,1,-1.1280856092741438,-0.8027529899799964,-0.40250143491090284,0.24264185983747014,True,0.1,-1.1335604190826416,-0.8003696799278259,-0.4126684367656708,0.24264185983747014,-0.08629752197538743,0.2285200448827546
1759502016.3688014,1,-1.0899958362541124,-0.8185820283010262,-0.3855420271763421,0.25893883446469806,True,0.1,-1.0811984539031982,-0.8221406936645508,-0.38088300824165344,0.25893883446469806,-0.13857259465727978,0.28743103532532077
1759502016.4775698,1,-1.075386941983673,-0.8244830348722362,-0.37375384964608926,0.25893883446469806,True,0.1,-1.0811984539031982,-0.8221406936645508,-0.38088300824165344,0.25893883446469806,-0.08221060799262858,0.22071560353333125
1759502016.5999727,1,-1.0365439184299396,-0.8391717099532555,-0.3555116000635046,0.24833353124834903,True,0.1,-1.026842474937439,-0.8426883220672607,-0.3480440378189087,0.24833353124834903,-0.1264142969879476,0.27499901969923635
1759502016.71574,1,-1.0216481409314409,-0.8446262787764286,-0.3433307051126704,0.24833353124834903,True,0.1,-1.026842474937439,-0.8426883220672607,-0.3480440378189087,0.24833353124834903,-0.11489300927380697,0.2822884825707929
1759502016.839996,1,-0.9755802237358543,-0.860240501524692,-0.3214040752782594,0.28384985648751654,True,0.1,-0.9636473059654236,-0.8640398979187012,-0.30796024203300476,0.28384985648751654,-0.11489300927380697,0.2822884825707929
1759502016.9565485,1,-0.9579103397762524,-0.8659896090577789,-0.30630708044888877,0.28384985648751654,True,0.1,-0.9636473059654236,-0.8640398979187012,-0.30796024203300476,0.28384985648751654,-0.08356060649570018,0.2652404286981333
1759502017.07774,1,-0.9129628324001272,-0.8793760265582358,-0.28549987939722854,0.27700785496354324,True,0.1,-0.9015214443206787,-0.8825328350067139,-0.27597925066947937,0.27700785496354324,-0.08356060649570018,0.2652404286981333
1759502017.1974468,1,-0.8957335359158723,-0.8842877077536941,-0.27171890191440795,0.27700785496354324,True,0.1,-0.9015214443206787,-0.8825328350067139,-0.27597925066947937,0.27700785496354324,-0.058505580564169435,0.2585259043550393
1759502017.3270288,1,-0.8520338130638356,-0.895985127552454,-0.2556792683039806,0.25414171561087096,True,0.1,-0.8401665091514587,-0.8990350365638733,-0.2532009780406952,0.25414171561087096,-0.08898237935217956,0.32053101158453445
1759502017.448727,1,-0.8353040771350226,-0.900311507059657,-0.24513600756438692,0.25414171561087096,True,0.1,-0.8401665091514587,-0.8990350365638733,-0.2532009780406952,0.25414171561087096,-0.04827133975221898,0.25867138856504907
1759502017.568028,1,-0.7835843530598119,-0.9128239814047893,-0.23016406577833237,0.29225115355567866,True,0.1,-0.7691519260406494,-0.9162135124206543,-0.22698473930358887,0.29225115355567866,-0.07765451704100812,0.3229703403580963
1759502017.677042,1,-0.7637927719467758,-0.9174517700623017,-0.21986050704220972,0.29225115355567866,True,0.1,-0.7691519260406494,-0.9162135124206543,-0.22698473930358887,0.29225115355567866,-0.02939482231457724,0.230459979278844
1759502017.808173,1,-0.71721664611869,-0.9276303281463781,-0.20806998447385538,0.27843458244552804,True,0.1,-0.7052313089370728,-0.9301962852478027,-0.20911741256713867,0.27843458244552804,-0.054423951843842744,0.2860414640116959
1759502017.9412947,1,-0.699400676106539,-0.931400088686566,-0.20076215671727837,0.27843458244552804,True,0.1,-0.7052313089370728,-0.9301962852478027,-0.20911741256713867,0.27843458244552804,-0.05124221563506026,0.28782554134225624
1759502018.065346,1,-0.64734096231665,-0.941857380313722,-0.18972771100788322,0.2946423146068496,True,0.1,-0.6330162882804871,-0.9447177052497864,-0.18970899283885956,0.2946423146068496,-0.05124221563506026,0.28782554134225624
1759502018.1874416,1,-0.6274329785140473,-0.9457348168465453,-0.18277773954634746,0.2946423146068496,True,0.1,-0.6330162882804871,-0.9447177052497864,-0.18970899283885956,0.2946423146068496,-0.04359126901121435,0.26822554045472435
1759502018.30856,1,-0.5789729919206515,-0.9545889190884413,-0.17314447803771849,0.27383633881615266,True,0.1,-0.5656701922416687,-0.9570119976997375,-0.17310920357704163,0.27383633881615266,-0.06628708189638743,0.33047623540126336
1759502018.415463,1,-0.5604463904459901,-0.9578782101636011,-0.1667538307230494,0.27383633881615266,True,0.1,-0.5656701922416687,-0.9570119976997375,-0.17310920357704163,0.27383633881615266,-0.03707391066666332,0.26228808333247733
1759502018.5380874,1,-0.5110505472309602,-0.9659857678506945,-0.15699104980686052,0.29170977346510707,True,0.1,-0.4983055889606476,-0.9680324196815491,-0.1549663245677948,0.29170977346510707,-0.059275445201896204,0.32980171505295186
1759502018.653685,1,-0.4921668350015224,-0.9689826553081058,-0.15023250122211884,0.29170977346510707,True,0.1,-0.4983055889606476,-0.9680324196815491,-0.1549663245677948,0.29170977346510707,-0.026112280237493124,0.24900829758198448
1759502018.7839603,1,-0.44139963686502665,-0.9764146526621887,-0.14106690448794978,0.30165420538404086,True,0.1,-0.4284609258174896,-0.9782431721687317,-0.1393003910779953,0.30165420538404086,-0.04545058669707913,0.3180360454162019
1759502018.8977716,1,-0.4219938396073888,-0.979154045453063,-0.13497849419314534,0.30165420538404086,True,0.1,-0.4284609258174896,-0.9782431721687317,-0.1393003910779953,0.30165420538404086,-0.031395668377767194,0.2960878419420175
1759502019.0274997,1,-0.36869080288831335,-0.9861657901579444,-0.12633441152243918,0.29993208395866794,True,0.1,-0.35411882400512695,-0.9880260825157166,-0.12499133497476578,0.29993208395866794,-0.031395668377767194,0.2960878419420175
1759502019.1403253,1,-0.3483186660336335,-0.9887505576617484,-0.12075463832750977,0.29993208395866794,True,0.1,-0.35411882400512695,-0.9880260825157166,-0.12499133497476578,0.29993208395866794,-0.019949776986013745,0.28457354126761275
1759502019.2609088,1,-0.299560650989929,-0.9946095584361754,-0.11461098375134782,0.2874119054039795,True,0.1,-0.2870618999004364,-0.9961046576499939,-0.11647292226552963,0.2874119054039795,-0.019949776986013745,0.28457354126761275
1759502019.3777568,1,-0.28092916857700934,-0.9967830152095253,-0.11099819474414829,0.2874119054039795,True,0.1,-0.2870618999004364,-0.9961046576499939,-0.11647292226552963,0.2874119054039795,-0.019242366346606588,0.2810860726174085
1759502019.5011163,1,-0.2313098109887343,-1.00238365695477,-0.10678680243281846,0.29399856061496843,True,0.1,-0.21870321035385132,-1.003846287727356,-0.1094651073217392,0.29399856061496843,-0.032027678844665175,0.3362056953729539
1759502019.6169453,1,-0.2123521477882684,-1.0044791409308165,-0.10417483858208598,0.29399856061496843,True,0.1,-0.21870321035385132,-1.003846287727356,-0.1094651073217392,0.29399856061496843,-0.02006574021346097,0.2584523990384882
1759502019.7382677,1,-0.16187991995847728,-1.009749910776973,-0.09957954833133797,0.28380805407490345,True,0.1,-0.14813312888145447,-1.0111982822418213,-0.09976581484079361,0.28380805407490345,-0.036532777553068385,0.3337610719337101
1759502019.8578467,1,-0.14259658453406338,-1.0117172507062244,-0.09642492329739838,0.28380805407490345,True,0.1,-0.14813312888145447,-1.0111982822418213,-0.09976581484079361,0.28380805407490345,-0.01931040596175926,0.25916242944358747
1759502019.9790664,1,-0.0904960697877554,-1.0166263589312434,-0.09110763214587436,0.3050493302186674,True,0.1,-0.07706324756145477,-1.0178613662719727,-0.08942131698131561,0.3050493302186674,-0.03015024405942235,0.32434681872796395
1759502020.088061,1,-0.07059013073314009,-1.0184445395964346,-0.08732566500338734,0.3050493302186674,True,0.1,-0.07706324756145477,-1.0178613662719727,-0.08942131698131561,0.3050493302186674,-0.009100009856732427,0.29396803674355565
1759502020.2179413,1,-0.017355423596142564,-1.0229657668544658,-0.08271077393956894,0.3131532411780878,True,0.1,-0.003735637292265892,-1.0240821838378906,-0.08241578936576843,0.3131532411780878,-0.009100009856732427,0.29396803674355565
1759502020.3424058,1,0.0029824679748727666,-1.0246451347984986,-0.07935812322906877,0.3131532411780878,True,0.1,-0.003735637292265892,-1.0240821838378906,-0.08241578936576843,0.3131532411780878,0.028672842009292765,0.2821973731686581
1759502020.4653294,1,0.05382223316901179,-1.0288249145578476,-0.07933384027128731,0.2863333705687372,True,0.1,0.06760275363922119,-1.029999017715454,-0.08616071939468384,0.2863333705687372,0.028672842009292765,0.2821973731686581
1759502020.575695,1,0.07324096763794409,-1.0304255790282197,-0.07953926438911196,0.2863333705687372,True,0.1,0.06760275363922119,-1.029999017715454,-0.08616071939468384,0.2863333705687372,0.059576092321457,0.2804052699250868
1759502020.7011392,1,0.12189220565452495,-1.0349052796711695,-0.0860867786137618,0.28636235962958834,True,0.1,0.13432052731513977,-1.036237359046936,-0.10217201709747314,0.28636235962958834,0.09233542153482688,0.34478251082853906
1759502020.813301,1,0.14046964147014948,-1.0366835606172524,-0.09194803657375772,0.28636235962958834,True,0.1,0.13432052731513977,-1.036237359046936,-0.10217201709747314,0.28636235962958834,0.06650169392136718,0.27122633181942424
1759502020.9455934,1,0.1940589418463372,-1.0430159524850326,-0.10734527571240449,0.2997934451920306,True,0.1,0.2087332308292389,-1.0451819896697998,-0.13256286084651947,0.2997934451920306,0.09045604877509561,0.33406883884290095
1759502021.0645976,1,0.21451146769292206,-1.045598858557722,-0.1197303942971466,0.2997934451920306,True,0.1,0.2087332308292389,-1.0451819896697998,-0.13256286084651947,0.2997934451920306,0.034646468240730144,0.2476628464814153
1759502021.1809878,1,0.2639968484114817,-1.0529197826512724,-0.1361449082367585,0.292190682889908,True,0.1,0.27665573358535767,-1.0552512407302856,-0.1551336944103241,0.292190682889908,0.046439500073041984,0.3109616327977538
1759502021.3010428,1,0.28287628596839554,-1.0558872129569037,-0.1482227908781546,0.292190682889908,True,0.1,0.27665573358535767,-1.0552512407302856,-0.1551336944103241,0.292190682889908,0.0010137731497827929,0.30070207801169446
1759502021.4253476,1,0.3355631382842442,-1.0645740312377516,-0.15871604408928874,0.297120446283793,True,0.1,0.3499661982059479,-1.0672141313552856,-0.16344477236270905,0.297120446283793,0.0010137731497827929,0.30070207801169446
1759502021.5471869,1,0.355670661284097,-1.0680019438760995,-0.16572275164944905,0.297120446283793,True,0.1,0.3499661982059479,-1.0672141313552856,-0.16344477236270905,0.297120446283793,-0.029674822756636132,0.2805163475690687
1759502021.6717553,1,0.40741274023518786,-1.0765864534310914,-0.16742092244024853,0.3063574472860697,True,0.1,0.4207158088684082,-1.0787731409072876,-0.15814518928527832,0.3063574472860697,-0.029674822756636132,0.2805163475690687
1759502021.789768,1,0.42717374845898237,-1.0798815957225645,-0.16774429333560903,0.3063574472860697,True,0.1,0.4207158088684082,-1.0787731409072876,-0.15814518928527832,0.3063574472860697,-0.043153418914936736,0.26112143924442566
1759502021.9091082,1,0.4732704308643947,-1.0870354986872006,-0.16266361459217293,0.2773187447856786,True,0.1,0.48485758900642395,-1.088615894317627,-0.14604118466377258,0.2773187447856786,-0.06417325936770624,0.3113277463216788
1759502022.0233402,1,0.4908861137269248,-1.0897178189799892,-0.1578663194657146,0.2773187447856786,True,0.1,0.48485758900642395,-1.088615894317627,-0.14604118466377258,0.2773187447856786,-0.04385227380753953,0.25173331342494865
1759502022.1469321,1,0.5380881447422379,-1.0961838371639399,-0.14751458188495548,0.2668775329122402,True,0.1,0.5509671568870544,-1.0976159572601318,-0.12755805253982544,0.2668775329122402,-0.07549139262771654,0.31980067150503977
1759502022.2584753,1,0.5561327571219521,-1.0985548638994704,-0.13906875376428474,0.2668775329122402,True,0.1,0.5509671568870544,-1.0976159572601318,-0.12755805253982544,0.2668775329122402,-0.042605629313513305,0.2524345812063503
1759502022.3769555,1,0.6046466975913647,-1.104219475580772,-0.12612293874766323,0.30011780765116053,True,0.1,0.6162554621696472,-1.1051868200302124,-0.10741953551769257,0.30011780765116053,-0.0713682218719498,0.30886826609387896
1759502022.4907918,1,0.6231956442717591,-1.1062442971406856,-0.11609954627767749,0.30011780765116053,True,0.1,0.6162554621696472,-1.1051868200302124,-0.10741953551769257,0.30011780765116053,-0.03460467536880607,0.22838964335091225
1759502022.60555,1,0.666854655961616,-1.1104201583300792,-0.1034713316681426,0.26360890065954795,True,0.1,0.677651584148407,-1.1111443042755127,-0.09007030725479126,0.26360890065954795,-0.06848310903189514,0.288132466313341
1759502022.7173154,1,0.6835443036956873,-1.1118917005527047,-0.09466101137558525,0.26360890065954795,True,0.1,0.677651584148407,-1.1111443042755127,-0.09007030725479126,0.26360890065954795,-0.07275073850801306,0.28732317253958034
1759502022.8329332,1,0.730785255209381,-1.1155488379627736,-0.08032070864783947,0.27830193741874576,True,0.1,0.7428553104400635,-1.1162196397781372,-0.06694485247135162,0.27830193741874576,-0.07275073850801306,0.28732317253958034
1759502022.9248087,1,0.7479809671026307,-1.116735295120657,-0.0702998144289424,0.27830193741874576,True,0.09187555313110352,0.7428553104400635,-1.1162196397781372,-0.06694485247135162,0.27830193741874576,-0.030032033351023557,0.21402522379217484
1759502023.017798,1,0.7546745980975905,-1.117097520103474,-0.06495984420279122,0.27830193741874576,True,0.09298920631408691,0.7428553104400635,-1.1162196397781372,-0.06694485247135162,0.27830193741874576,-0.07990081028681217,0.27300287937654005
1759502023.1312637,1,0.8051880075286539,-1.1197671908313216,-0.05221065485657306,0.26113568079380206,True,0.1,0.8202992677688599,-1.1204110383987427,-0.041171763092279434,0.26113568079380206,-0.12954406373906302,0.32444952517366665
1759502023.241049,1,0.8244891359137416,-1.1206675673620745,-0.04259848202134364,0.26113568079380206,True,0.1,0.8202992677688599,-1.1204110383987427,-0.041171763092279434,0.26113568079380206,-0.08651981661363983,0.25021401938086063
1759502023.342473,1,0.8716405142377112,-1.1217546277062966,-0.024492381782076578,0.3040365706575313,True,0.1,0.8820053935050964,-1.121692180633545,-0.005973870866000652,0.3040365706575313,-0.1473190049153601,0.30485023154271673
1759502023.4569325,1,0.8896567165554653,-1.1219735658863654,-0.0105695545985931,0.3040365706575313,True,0.1,0.8820053935050964,-1.121692180633545,-0.005973870866000652,0.3040365706575313,-0.08385322627059466,0.22743298851892116
1759502023.5714943,1,0.9326392873314062,-1.1212567566250833,0.01126050857704275,0.26100750443432486,True,0.1,0.9430730938911438,-1.1207002401351929,0.031000791117548943,0.26100750443432486,-0.14221428385558,0.27456068311856163
1759502023.682649,1,0.9490564679474378,-1.1207783548935355,0.027179114184787245,0.26100750443432486,True,0.1,0.9430730938911438,-1.1207002401351929,0.031000791117548943,0.26100750443432486,-0.07459662275079637,0.22629827087759974
1759502023.7952373,1,0.9900150360667074,-1.1186624133349203,0.04827022827362448,0.25760190436880587,True,0.1,0.9994155168533325,-1.1178431510925293,0.0639590322971344,0.25760190436880587,-0.14886389713603876,0.2813767716786434
1759502023.8962274,1,1.0056518261775118,-1.1176585676639077,0.06340604670371164,0.25760190436880587,True,0.1,0.9994155168533325,-1.1178431510925293,0.0639590322971344,0.25760190436880587,-0.08943902343771448,0.22512955709863022
1759502024.0111587,1,1.0452638224919395,-1.1142804410472458,0.08421941931798749,0.2512722233990575,True,0.1,1.0542505979537964,-1.1132320165634155,0.09775404632091522,0.2512722233990575,-0.16053219726066104,0.27391103022972885
1759502024.1257148,1,1.0603791968463758,-1.1127954348175193,0.09825186181869938,0.2512722233990575,True,0.1,1.0542505979537964,-1.1132320165634155,0.09775404632091522,0.2512722233990575,-0.17151012380768904,0.2666522456751113
1759502024.2273374,1,1.1026995473568122,-1.1075498974387945,0.1249616670029079,0.2685418115513038,True,0.1,1.1123452186584473,-1.10600745677948,0.14627428352832794,0.2685418115513038,-0.17151012380768904,0.2666522456751113
1759502024.3232758,1,1.11842182361765,-1.1053450944006125,0.14388405331055676,0.2685418115513038,True,0.09593844413757324,1.1123452186584473,-1.10600745677948,0.14627428352832794,0.2685418115513038,-0.08185003473176344,0.20189509843394238
1759502024.4459572,1,1.1540933869004877,-1.0993048740110831,0.16673119281172255,0.23021142024712504,True,0.1,1.162066102027893,-1.0976625680923462,0.17875587940216064,0.23021142024712504,-0.15905829755548062,0.25015755515821647
1759502024.5568132,1,1.1676876109834986,-1.0968034508461335,0.1817068763125027,0.23021142024712504,True,0.1,1.162066102027893,-1.0976625680923462,0.17875587940216064,0.23021142024712504,-0.18084792984924292,0.26062257035768266
1759502024.6475825,1,1.2041403350202908,-1.0893164629191303,0.2060310141865438,0.2543213893230555,True,0.09076929092407227,1.2126473188400269,-1.08732271194458,0.22245310246944427,0.2543213893230555,-0.18084792984924292,0.26062257035768266
1759502024.742961,1,1.2184608373042272,-1.0861580229708678,0.22272773311701854,0.2543213893230555,True,0.09537839889526367,1.2126473188400269,-1.08732271194458,0.22245310246944427,0.2543213893230555,-0.18344991691736467,0.24697352783463528
1759502024.8295867,1,1.2230702591630676,-1.0849978805832574,0.2319301440984738,0.2543213893230555,True,0.08662581443786621,1.2126473188400269,-1.08732271194458,0.22245310246944427,0.2543213893230555,-0.18344991691736467,0.24697352783463528
1759502024.9297483,1,1.267822655156043,-1.0732154123039817,0.2617486965839477,0.2488431308397455,True,0.1,1.2805297374725342,-1.0695369243621826,0.2865222692489624,0.2488431308397455,-0.18344991691736467,0.24697352783463528
1759502025.0094786,1,1.2829902759595202,-1.0689584544845994,0.2811061790840439,0.2488431308397455,True,0.07973027229309082,1.2805297374725342,-1.0695369243621826,0.2865222692489624,0.2488431308397455,-0.15767390224195132,0.2251957283902196
1759502025.1117973,1,1.2905939851920294,-1.0666531649144066,0.29430421716657484,0.2488431308397455,True,0.1,1.2805297374725342,-1.0695369243621826,0.2865222692489624,0.2488431308397455,-0.15767390224195132,0.2251957283902196
1759502025.214491,1,1.3323689851275995,-1.052870758065023,0.322180870552927,0.23815598826978412,True,0.1,1.3441234827041626,-1.04869544506073,0.3429352641105652,0.23815598826978412,-0.26176500096140565,0.2756262821632632
1759502025.3152869,1,1.3482497899530606,-1.0473721454807103,0.34177783587908905,0.23815598826978412,True,0.1,1.3441234827041626,-1.04869544506073,0.3429352641105652,0.23815598826978412,-0.25367585488626254,0.2553750715490722
1759502025.415839,1,1.3860822208172787,-1.0323800239266787,0.3797265297654473,0.2650114298536374,True,0.1,1.3940669298171997,-1.028700351715088,0.41227027773857117,0.2650114298536374,-0.25367585488626254,0.2553750715490722
1759502025.519903,1,1.400404155907318,-1.0263176813011226,0.40730298481583826,0.2650114298536374,True,0.1,1.3940669298171997,-1.028700351715088,0.41227027773857117,0.2650114298536374,-0.12528098771328544,0.19294465903399616
1759502025.6345654,1,1.4312612077825877,-1.0116250891683056,0.4405923644080225,0.22097873664468615,True,0.1,1.4378199577331543,-1.0080198049545288,0.4599478244781494,0.22097873664468615,-0.23276301052032977,0.24458163947559705
1759502025.7456539,1,1.442933271961571,-1.005763113506892,0.46239536066416154,0.22097873664468615,True,0.1,1.4378199577331543,-1.0080198049545288,0.4599478244781494,0.22097873664468615,-0.2619330145345806,0.2685288890924642
1759502025.8511796,1,1.4786377963881474,-0.9864203178164587,0.5011532126050708,0.25475269690543695,True,0.1,1.4866573810577393,-0.9815781116485596,0.52881920337677,0.25475269690543695,-0.2619330145345806,0.2685288890924642
1759502025.9568925,1,1.4921053445286054,-0.9787107135664282,0.5277579284522229,0.25475269690543695,True,0.1,1.4866573810577393,-0.9815781116485596,0.52881920337677,0.25475269690543695,-0.2319737523691927,0.25319298614438984
1759502026.057149,1,1.5253928363301994,-0.9575800198056158,0.5685907946183146,0.2631257871824114,True,0.1,1.5319671630859375,-0.9527976512908936,0.595217764377594,0.2631257871824114,-0.2319737523691927,0.25319298614438984
1759502026.1734958,1,1.537899868855456,-0.9491730034822093,0.5961624525813827,0.2631257871824114,True,0.1,1.5319671630859375,-0.9527976512908936,0.595217764377594,0.2631257871824114,-0.19841809500696783,0.24694107006209814
1759502026.2971117,1,1.5712931188767705,-0.92469526569568,0.6362084943730979,0.24992095230407418,True,0.1,1.5791988372802734,-0.9183120727539062,0.6580917239189148,0.24992095230407418,-0.19841809500696783,0.24694107006209814
1759502026.4141161,1,1.583833262438795,-0.9150453729626375,0.6625943588198755,0.24992095230407418,True,0.1,1.5791988372802734,-0.9183120727539062,0.6580917239189148,0.24992095230407418,-0.18338293368009495,0.25266648435227695
1759502026.5315425,1,1.6177349716723504,-0.886991049447584,0.6992234316852857,0.2598250430962997,True,0.1,1.6260883808135986,-0.8796094059944153,0.7171350121498108,0.2598250430962997,-0.2626868914722511,0.3047820416124699
1759502026.6448522,1,1.6304676720136009,-0.87601085384351,0.7247521689662006,0.2598250430962997,True,0.1,1.6260883808135986,-0.8796094059944153,0.7171350121498108,0.2598250430962997,-0.158210192284157,0.23909920923131378
1759502026.7720683,1,1.6636830960059492,-0.8445629285534717,0.764008133973447,0.25551365716930785,True,0.1,1.672453761100769,-0.8356696367263794,0.7860422134399414,0.25551365716930785,-0.24818265377859738,0.3012934163449123
1759502026.886892,1,1.676125435738886,-0.8322879436301149,0.7918046561802345,0.25551365716930785,True,0.1,1.672453761100769,-0.8356696367263794,0.7860422134399414,0.25551365716930785,-0.12246761865641176,0.23641740793680308
1759502027.008102,1,1.7085029018398197,-0.7973210722369355,0.830092369510977,0.2765756455816005,True,0.1,1.7165743112564087,-0.7879437208175659,0.8490415811538696,0.2765756455816005,-0.20271232389769978,0.2960888315783234
1759502027.1284196,1,1.7205879804290998,-0.7836997177412467,0.8561849115227922,0.2765756455816005,True,0.1,1.7165743112564087,-0.7879437208175659,0.8490415811538696,0.2765756455816005,-0.1545717692655728,0.27372419521797775
1759502027.249158,1,1.7521469640024898,-0.7451906712589118,0.8939119713471095,0.29205490487720814,True,0.1,1.7598942518234253,-0.7350867986679077,0.9099816679954529,0.29205490487720814,-0.1545717692655728,0.27372419521797775
1759502027.3693469,1,1.7638899739817993,-0.7302239085678962,0.9187942625917005,0.29205490487720814,True,0.1,1.7598942518234253,-0.7350867986679077,0.9099816679954529,0.29205490487720814,-0.12465418921353866,0.2625389945941087
1759502027.49587,1,1.7916764744486413,-0.6923667615482922,0.9501672715358263,0.2638497100554153,True,0.1,1.799008846282959,-0.681972861289978,0.9557561874389648,0.2638497100554153,-0.12465418921353866,0.2625389945941087
1759502027.6138563,1,1.802043571276771,-0.677726007123134,0.9697529514818548,0.2638497100554153,True,0.1,1.799008846282959,-0.681972861289978,0.9557561874389648,0.2638497100554153,-0.12285182327646282,0.2675023565198532
1759502027.739538,1,1.8284999431943445,-0.6383630554795487,0.9954673684596065,0.26284874627594085,True,0.1,1.835722804069519,-0.6274735331535339,0.997649610042572,0.26284874627594085,-0.18541641858497293,0.3203658099612533
1759502027.850385,1,1.8384034053032023,-0.6231941585343687,1.012603811166735,0.26284874627594085,True,0.1,1.835722804069519,-0.6274735331535339,0.997649610042572,0.26284874627594085,-0.11251802584749804,0.2508938048421883
1759502027.9886947,1,1.8649524813268077,-0.5791643767733576,1.0407437746199673,0.2830005220769717,True,0.1,1.8721681833267212,-0.5668326616287231,1.051537275314331,0.2830005220769717,-0.19157396122627546,0.3187679570492543
1759502028.1125247,1,1.8748501632533008,-0.5622007406405758,1.0607309968249012,0.2830005220769717,True,0.1,1.8721681833267212,-0.5668326616287231,1.051537275314331,0.2830005220769717,-0.09460596455202364,0.23650637109493325
1759502028.235698,1,1.8985702549385906,-0.5176291393190975,1.0902436917323381,0.29427048804434686,True,0.1,1.9044244289398193,-0.5059956908226013,1.1035155057907104,0.29427048804434686,-0.16302275891512963,0.30041031625119163
1759502028.3512847,1,1.9073506318863378,-0.5004546085344266,1.110369793698215,0.29427048804434686,True,0.1,1.9044244289398193,-0.5059956908226013,1.1035155057907104,0.29427048804434686,-0.12747918291288585,0.2863126971826552
1759502028.4859934,1,1.929647634512736,-0.4527963359202354,1.1416215506819984,0.29312285319636383,True,0.1,1.9354488849639893,-0.43960633873939514,1.1561535596847534,0.29312285319636383,-0.12747918291288585,0.2863126971826552
1759502028.615646,1,1.9378629402701537,-0.4344502302903863,1.1626005963625161,0.29312285319636383,True,0.1,1.9354488849639893,-0.43960633873939514,1.1561535596847534,0.29312285319636383,-0.08151927752887111,0.2723329637965547
1759502028.7399175,1,1.9572263428534482,-0.38758557567262225,1.1881839497777875,0.2676441507942127,True,0.1,1.9626827239990234,-0.37382784485816956,1.1938393115997314,0.2676441507942127,-0.1210866497648464,0.3293112696024445
1759502028.862158,1,1.964395556357508,-0.36959096859179935,1.205222012542598,0.2676441507942127,True,0.1,1.9626827239990234,-0.37382784485816956,1.1938393115997314,0.2676441507942127,-0.05226213834546911,0.2604872256200619
1759502028.9919658,1,1.9834921078500378,-0.3181652001897728,1.2263295206415084,0.2993197116587233,True,0.1,1.9887351989746094,-0.30367952585220337,1.2278355360031128,0.2993197116587233,-0.0998297590878483,0.3323416459344624
1759502029.1122906,1,1.9905749633358982,-0.2984445676861736,1.240535080905918,0.2993197116587233,True,0.1,1.9887351989746094,-0.30367952585220337,1.2278355360031128,0.2993197116587233,-0.03702061786015598,0.24047975358684978
1759502029.2339644,1,2.006876938132712,-0.25024676508039895,1.2568155667942182,0.2970692724342509,True,0.1,2.011040687561035,-0.2378411591053009,1.253471851348877,0.2970692724342509,-0.08022977157384226,0.30664180573411803
1759502029.3517723,1,2.0129354322912802,-0.23178108689318136,1.2669190795906466,0.2970692724342509,True,0.1,2.011040687561035,-0.2378411591053009,1.253471851348877,0.2970692724342509,-0.07109705460651128,0.29296555882336567
1759502029.473293,1,2.0282478369175907,-0.18263621286501522,1.2821806612865565,0.2874818393458408,True,0.1,2.0324325561523438,-0.16922810673713684,1.2805663347244263,0.2874818393458408,-0.07109705460651128,0.29296555882336567
1759502029.5841138,1,2.033943263453123,-0.163818051518953,1.2916605225651772,0.2874818393458408,True,0.1,2.0324325561523438,-0.16922810673713684,1.2805663347244263,0.2874818393458408,-0.058239833891533976,0.28035649532745077
1759502029.712308,1,2.047568099833784,-0.11617375772986659,1.3047589835369564,0.28907082594771294,True,0.1,2.051098346710205,-0.10391121357679367,1.3026777505874634,0.28907082594771294,-0.058239833891533976,0.28035649532745077
1759502029.8242579,1,2.052637735197717,-0.09793787963937248,1.3126925074804623,0.28907082594771294,True,0.1,2.051098346710205,-0.10391121357679367,1.3026777505874634,0.28907082594771294,-0.05824727405485497,0.27872881542149297
1759502029.9512076,1,2.0652160247245557,-0.05037479718148936,1.3239353099781503,0.28996524113792804,True,0.1,2.068451404571533,-0.03831588476896286,1.3228096961975098,0.28996524113792804,-0.08673693023855478,0.3373186011410829
1759502030.0737376,1,2.0699081057466775,-0.032178536349796,1.3313923311837899,0.28996524113792804,True,0.1,2.068451404571533,-0.03831588476896286,1.3228096961975098,0.28996524113792804,-0.05198669112213139,0.2628881804287439
1759502030.1927183,1,2.0819254852792968,0.018346233595766714,1.3444711851657898,0.28973190146212213,True,0.1,2.0851447582244873,0.0321672186255455,1.348740577697754,0.28973190146212213,-0.0841346460835215,0.3349675024658985
1759502030.3079584,1,2.0863848252080146,0.037675763983312155,1.3537087224921844,0.28973190146212213,True,0.1,2.0851447582244873,0.0321672186255455,1.348740577697754,0.28973190146212213,-0.036945455668899285,0.25578296654003296
1759502030.4365873,1,2.09730628975423,0.08930440455418577,1.366841049223547,0.30670753253497923,True,0.1,2.1000101566314697,0.10269387066364288,1.3715137243270874,0.30670753253497923,-0.06403241793608849,0.3225543388385
1759502030.5533378,1,2.1013344985739644,0.10905517328212985,1.3757301703184686,0.30670753253497923,True,0.1,2.1000101566314697,0.10269387066364288,1.3715137243270874,0.30670753253497923,-0.04505344097104036,0.2986872808810651
1759502030.6761644,1,2.1111810032983027,0.16084525508820474,1.3886552647437318,0.29440392141808597,True,0.1,2.113770008087158,0.17499719560146332,1.3927104473114014,0.29440392141808597,-0.04505344097104036,0.2986872808810651
1759502030.7942119,1,2.114805522396404,0.18065315240274588,1.3970997093421094,0.29440392141808597,True,0.1,2.113770008087158,0.17499719560146332,1.3927104473114014,0.29440392141808597,-0.031093593720457946,0.2929083950015554
1759502030.9134989,1,2.1234762293869878,0.231180062093428,1.4066585479868898,0.2998577676273576,True,0.1,2.125654697418213,0.2441500872373581,1.4058856964111328,0.2998577676273576,-0.031093593720457946,0.2929083950015554
1759502031.0309005,1,2.1266840482064446,0.2504972583738355,1.4124521369969427,0.2998577676273576,True,0.1,2.125654697418213,0.2441500872373581,1.4058856964111328,0.2998577676273576,-0.029977535887969253,0.278908950867571
1759502031.150912,1,2.1345161631392333,0.2994757960330693,1.419248605071668,0.29305231591306,True,0.1,2.1365225315093994,0.311857670545578,1.4167160987854004,0.29305231591306,-0.049270220403347054,0.3371938883288481
1759502031.269317,1,2.1374375887489108,0.31819481697579394,1.4235630210563377,0.29305231591306,True,0.1,2.1365225315093994,0.311857670545578,1.4167160987854004,0.29305231591306,-0.030725353526126042,0.26418721335915407
1759502031.3864515,1,2.1449272982932155,0.36924986455712866,1.4308817175873871,0.3028799604137105,True,0.1,2.146833896636963,0.38228359818458557,1.4314988851547241,0.3028799604137105,-0.04969793353355989,0.334312539392429
1759502031.505726,1,2.147710549609139,0.38876228387397255,1.4359546905240066,0.3028799604137105,True,0.1,2.146833896636963,0.38228359818458557,1.4314988851547241,0.3028799604137105,-0.022925192179704013,0.2529271745885393
1759502031.622745,1,2.1542442513404123,0.4382059419534154,1.443292624423668,0.2949077977901722,True,0.1,2.1558525562286377,0.45070016384124756,1.4446607828140259,0.2949077977901722,-0.03881201306212034,0.3221735616843092
1759502031.7375095,1,2.1566636802789243,0.4571017212399741,1.448329489872335,0.2949077977901722,True,0.1,2.1558525562286377,0.45070016384124756,1.4446607828140259,0.2949077977901722,-0.01437579065330219,0.24900827976169454
1759502031.844005,1,2.1622526643415148,0.5034138837765725,1.4541843083315422,0.2917734865948756,True,0.1,2.1635196208953857,0.5141369104385376,1.4537943601608276,0.2917734865948756,-0.028967939107726437,0.3140168720107142
1759502031.9474638,1,2.164326972670403,0.5211107764390721,1.4580347830406186,0.2917734865948756,True,0.1,2.1635196208953857,0.5141369104385376,1.4537943601608276,0.2917734865948756,-0.012058551503583814,0.2448491449862954
1759502032.0473268,1,2.1690619251654724,0.5629936864477388,1.4621208342745096,0.28415092992868296,True,0.09986305236816406,2.1700265407562256,0.5714513659477234,1.4600828886032104,0.28415092992868296,-0.02533244520245148,0.30440045414849864
1759502032.1512563,1,2.170831039317535,0.5790108545388951,1.464677211872763,0.28415092992868296,True,0.1,2.1700265407562256,0.5714513659477234,1.4600828886032104,0.28415092992868296,-0.01399866403172112,0.24353559103091316
1759502032.2515905,1,2.175189261711222,0.6196159347657398,1.467822208556477,0.2782439532895677,True,0.1,2.176071882247925,0.627610445022583,1.4658889770507812,0.2782439532895677,-0.02844593785801308,0.3112898340053829
1759502032.3560417,1,2.1768216100972944,0.6351290699006275,1.4696693337735711,0.2782439532895677,True,0.1,2.176071882247925,0.627610445022583,1.4658889770507812,0.2782439532895677,-0.030748865330506803,0.31773763722862225
1759502032.455746,1,2.1815247254189876,0.6820067725824632,1.4740805248076194,0.3166283879935831,True,0.09970426559448242,2.1824772357940674,0.6915660500526428,1.4754220247268677,0.3166283879935831,-0.030748865330506803,0.31773763722862225
1759502032.5581114,1,2.1832741944785803,0.6999530277979114,1.477069979747542,0.3166283879935831,True,0.1,2.1824772357940674,0.6915660500526428,1.4754220247268677,0.3166283879935831,-0.024010913614439744,0.3006263570984285
1759502032.672363,1,2.1875186749663658,0.7467615896287602,1.4820896784135158,0.3008272479525391,True,0.1,2.188415765762329,0.7571790218353271,1.4843467473983765,0.3008272479525391,-0.024010913614439744,0.3006263570984285
1759502032.7941134,1,2.1890851074472693,0.7646458464981741,1.4854425601155583,0.3008272479525391,True,0.1,2.188415765762329,0.7571790218353271,1.4843467473983765,0.3008272479525391,-0.017600950511514668,0.2994080708107222
1759502032.9093015,1,2.1931933286891865,0.814556667908555,1.4900661290832948,0.29927695140279903,True,0.1,2.194167137145996,0.8269732594490051,1.4916129112243652,0.29927695140279903,-0.017600950511514668,0.2994080708107222
1759502033.0274556,1,2.1947117646088374,0.8336251016528012,1.493049995692294,0.29927695140279903,True,0.1,2.194167137145996,0.8269732594490051,1.4916129112243652,0.29927695140279903,-0.015674432651628933,0.29356594326906194
1759502033.14922,1,2.1986001544739566,0.884905768086481,1.496971390854993,0.28827796213802426,True,0.1,2.199629068374634,0.8988354802131653,1.4975939989089966,0.28827796213802426,-0.015674432651628933,0.29356594326906194
1759502033.2640276,1,2.2000438119836883,0.904496376183355,1.499430039047219,0.28827796213802426,True,0.1,2.199629068374634,0.8988354802131653,1.4975939989089966,0.28827796213802426,-0.01509303127781969,0.28296905349409635
1759502033.3875391,1,2.203568853027892,0.954599018190125,1.5027458994605087,0.29293539098168764,True,0.1,2.20446515083313,0.9675052165985107,1.5028809309005737,0.29293539098168764,-0.01509303127781969,0.28296905349409635
1759502033.5024095,1,2.2048796222215974,0.9737389999170251,1.5048089598255778,0.29293539098168764,True,0.1,2.20446515083313,0.9675052165985107,1.5028809309005737,0.29293539098168764,-0.014214476485001626,0.27282094553740205
1759502033.6201532,1,2.2079578746151283,1.0208569151612839,1.5076678735495506,0.27940332312690846,True,0.1,2.208730459213257,1.0327463150024414,1.5077931880950928,0.27940332312690846,-0.021476135515801076,0.33501723091716284
1759502033.7292302,1,2.209105202740856,1.0388561843810349,1.509577022891941,0.27940332312690846,True,0.1,2.208730459213257,1.0327463150024414,1.5077931880950928,0.27940332312690846,-0.01293255025053952,0.2675965139244043
1759502033.8610706,1,2.2122462197499755,1.0916952291928408,1.5128574222623978,0.3102318902230565,True,0.1,2.2130255699157715,1.1052134037017822,1.514262080192566,0.3102318902230565,-0.022270438308311213,0.33722721647677284
1759502033.976647,1,2.2134099474304856,1.111880079722235,1.5152234111778151,0.3102318902230565,True,0.1,2.2130255699157715,1.1052134037017822,1.514262080192566,0.3102318902230565,-0.010633748357216533,0.24722892264904545
1759502034.09887,1,2.216025233972523,1.1612650529156903,1.5186930899678828,0.27804778712431233,True,0.1,2.21669602394104,1.1746283769607544,1.5202548503875732,0.27804778712431233,-0.01810933891628075,0.3112357829533443
1759502034.2136567,1,2.216989051869394,1.1801303110588062,1.5210446287718344,0.27804778712431233,True,0.1,2.21669602394104,1.1746283769607544,1.5202548503875732,0.27804778712431233,-0.013307794519171523,0.3083487514665561
1759502034.3324244,1,2.219509608027765,1.2333381691073946,1.5244798633619308,0.30895312695880406,True,0.1,2.2201268672943115,1.247151255607605,1.5258922576904297,0.30895312695880406,-0.013307794519171523,0.3083487514665561
1759502034.4507654,1,2.2204337044325775,1.2536636052288268,1.526768530656625,0.30895312695880406,True,0.1,2.2201268672943115,1.247151255607605,1.5258922576904297,0.30895312695880406,-0.009091299557280053,0.29089257748395486
1759502034.5676737,1,2.2225931034737196,1.3044611826413228,1.5295140403975083,0.30015190832857336,True,0.1,2.2231178283691406,1.317323088645935,1.5297995805740356,0.30015190832857336,-0.009091299557280053,0.29089257748395486
1759502034.674309,1,2.223387851144526,1.323865404630349,1.5312435545243268,0.30015190832857336,True,0.1,2.2231178283691406,1.317323088645935,1.5297995805740356,0.30015190832857336,-0.006646074347582243,0.27428116298914323
1759502034.8015559,1,2.225271028016718,1.3717772658859868,1.5330893820826343,0.2834561626409872,True,0.1,2.225747585296631,1.3838833570480347,1.5324654579162598,0.2834561626409872,-0.012109273895179129,0.34286572477620386
1759502034.919653,1,2.2259716282513082,1.3900786864168155,1.5342512390048721,0.2834561626409872,True,0.1,2.225747585296631,1.3838833570480347,1.5324654579162598,0.2834561626409872,-0.007502670307038883,0.2751130030611168
1759502035.0366607,1,2.2278401892265265,1.441650522680392,1.536072506382494,0.30323896323007216,True,0.1,2.228316307067871,1.4547947645187378,1.53604257106781,0.30323896323007216,-0.01252947061244214,0.3442477506602946
1759502035.1538997,1,2.2285343845323364,1.4613499021686112,1.5373189151760274,0.30323896323007216,True,0.1,2.228316307067871,1.4547947645187378,1.53604257106781,0.30323896323007216,-0.006085926505523531,0.2596756200678909
1759502035.2724683,1,2.2302618092305004,1.5142616440188663,1.5392350081037005,0.31175224742305074,True,0.1,2.2306904792785645,1.5277061462402344,1.5396430492401123,0.31175224742305074,-0.010636203617956141,0.32609912057901347
1759502035.387394,1,2.2309004866155067,1.5344728132106515,1.5405715473171657,0.31175224742305074,True,0.1,2.2306904792785645,1.5277061462402344,1.5396430492401123,0.31175224742305074,-0.003993206413809958,0.24305247219092013
1759502035.5063474,1,2.2323168827752706,1.5825086272287288,1.5421985198623371,0.2847921525759965,True,0.1,2.2326645851135254,1.594603180885315,1.542245864868164,0.2847921525759965,-0.007987161973968426,0.30938025955380855
1759502035.6234148,1,2.2328409450314934,1.6008571705736683,1.54323722974679,0.2847921525759965,True,0.1,2.2326645851135254,1.594603180885315,1.542245864868164,0.2847921525759965,-0.006685813911518679,0.3066918664361993
1759502035.751245,1,2.2343343071593913,1.656160306100797,1.5448081316204494,0.32376721588798385,True,0.1,2.234710454940796,1.6703370809555054,1.5449992418289185,0.32376721588798385,-0.006685813911518679,0.3066918664361993
1759502035.8664374,1,2.2348860828558736,1.6772847194883782,1.5458153834104529,0.32376721588798385,True,0.1,2.234710454940796,1.6703370809555054,1.5449992418289185,0.32376721588798385,-0.005602940098652809,0.28341334012021757
1759502035.9866734,1,2.236115185030872,1.727284185214359,1.5471575637739239,0.29707275737322303,True,0.1,2.236419677734375,1.7398310899734497,1.5471287965774536,0.29707275737322303,-0.005602940098652809,0.28341334012021757
1759502036.1054246,1,2.2365701915538008,1.7463826311138009,1.548000026817494,0.29707275737322303,True,0.1,2.236419677734375,1.7398310899734497,1.5471287965774536,0.29707275737322303,-0.0038326608512235794,0.2777848885570683
1759502036.2211545,1,2.2376524861482165,1.794036171753577,1.5489992241302923,0.28193141286037704,True,0.1,2.237926959991455,1.8060678243637085,1.5487079620361328,0.28193141286037704,-0.005827515100103042,0.34901231663808724
1759502036.3441463,1,2.238055845833179,1.8122384271292507,1.549633971459425,0.28193141286037704,True,0.1,2.237926959991455,1.8060678243637085,1.5487079620361328,0.28193141286037704,-0.002984323320781357,0.28113326589460175
1759502036.4667706,1,2.239230062796967,1.8681035318503145,1.550572711384996,0.3097578530114464,True,0.1,2.239553451538086,1.8834902048110962,1.550480604171753,0.3097578530114464,-0.004811292833045044,0.34597665850219894
1759502036.583026,1,2.239668302636556,1.8894423144067878,1.551204963580493,0.3097578530114464,True,0.1,2.239553451538086,1.8834902048110962,1.550480604171753,0.3097578530114464,-0.001515216832777,0.25161416748533505
1759502036.7030225,1,2.2406740854893905,1.9409102294894742,1.5519331248523534,0.3017069891563956,True,0.1,2.2409324645996094,1.9540761709213257,1.5516759157180786,0.3017069891563956,-0.0036076903867101606,0.3132649193188674
1759502036.813439,1,2.2410500356019964,1.9605693810123355,1.5523622862979032,0.3017069891563956,True,0.1,2.2409324645996094,1.9540761709213257,1.5516759157180786,0.3017069891563956,-0.0045024059687364115,0.3087211941592005
1759502036.9361465,1,2.2420172644946548,2.013226510855221,1.5531342938704515,0.30899131344768604,True,0.1,2.242265462875366,2.026676893234253,1.5531587600708008,0.30899131344768604,-0.0045024059687364115,0.3087211941592005
1759502037.0513203,1,2.242377672001142,2.033339906778825,1.553597650058066,0.30899131344768604,True,0.1,2.242265462875366,2.026676893234253,1.5531587600708008,0.30899131344768604,-0.006058256487394331,0.2935437521432578
1759502037.1851578,1,2.2432690564332565,2.086745444970091,1.55461306171315,0.2985470049936817,True,0.1,2.2435057163238525,2.1013033390045166,1.5551550388336182,0.2985470049936817,-0.006058256487394331,0.2935437521432578
1759502037.329485,1,2.243598239037418,2.1071447321650805,1.555281508142233,0.2985470049936817,True,0.1,2.2435057163238525,2.1013033390045166,1.5551550388336182,0.2985470049936817,-0.0064921561140032225,0.27164775352324627
1759502037.4538682,1,2.2443748758034565,2.160775129943484,1.556544745330612,0.283433497974874,True,0.1,2.2445871829986572,2.176405429840088,1.5575463771820068,0.283433497974874,-0.010022103351952083,0.34634257263594376
1759502037.568789,1,2.2446587158882148,2.181260307080611,1.557472124743283,0.283433497974874,True,0.1,2.2445871829986572,2.176405429840088,1.5575463771820068,0.283433497974874,-0.005922075277174699,0.268711048761178
1759502037.6885395,1,2.2452960605996997,2.236167405159908,1.5591346364974932,0.31570709236246874,True,0.1,2.2454347610473633,2.25059175491333,1.5605783462524414,0.31570709236246874,-0.00738113549187247,0.33714392906685503
1759502037.8092787,1,2.2455208158971534,2.2571402801210363,1.5603619706701588,0.31570709236246874,True,0.1,2.2454347610473633,2.25059175491333,1.5605783462524414,0.31570709236246874,-0.001863214755674747,0.31118091938190207
1759502037.9254563,1,2.2460154252293294,2.312305427744343,1.5617388452994927,0.3072824790985498,True,0.1,2.2461256980895996,2.327409267425537,1.5623412132263184,0.3072824790985498,-0.001863214755674747,0.31118091938190207
1759502038.0484385,1,2.2461899044949956,2.333376778696008,1.5627309048842495,0.3072824790985498,True,0.1,2.2461256980895996,2.327409267425537,1.5623412132263184,0.3072824790985498,0.006582765082534081,0.292557423540847
1759502038.168092,1,2.246629259230111,2.386352919109499,1.5628967744125521,0.3099625793604441,True,0.1,2.2467448711395264,2.399937868118286,1.561474084854126,0.3099625793604441,0.006582765082534081,0.292557423540847
1759502038.2885997,1,2.246798757413756,2.4065879911945594,1.5631713844738604,0.3099625793604441,True,0.1,2.2467448711395264,2.399937868118286,1.561474084854126,0.3099625793604441,0.030177781746367316,0.2805856980585762
