timestamp,vehicle_id,x,y,theta,velocity,gps_available,dt,gps_x,gps_y,gps_theta,gps_velocity,control_steering,control_acceleration
1759502006.41547,0,-1.205,-0.83,-0.7801621756414647,0.0,False,0.01,nan,nan,nan,nan,0.0,0.0
1759502006.4260926,0,-1.205,-0.83,-0.7801621756414647,0.0,False,0.010622739791870117,nan,nan,nan,nan,0.0,0.0
1759502006.437549,0,-1.205,-0.83,-0.7801621756414647,0.0,False,0.011456489562988281,nan,nan,nan,nan,0.0,0.0
1759502006.4475515,0,-1.205,-0.83,-0.7801621756414647,0.0,False,0.010002374649047852,nan,nan,nan,nan,0.0,0.0
1759502006.4575696,0,-1.205,-0.83,-0.7801621756414647,0.0,False,0.010018110275268555,nan,nan,nan,nan,0.0,0.0
1759502006.4686394,0,-1.205,-0.83,-0.7801621756414647,0.0,False,0.011069774627685547,nan,nan,nan,nan,0.0,0.0
1759502006.4796607,0,-1.205,-0.83,-0.7801621756414647,0.0,False,0.01102137565612793,nan,nan,nan,nan,0.0,0.0
1759502006.489717,0,-1.205,-0.83,-0.7801621756414647,0.0,False,0.010056257247924805,nan,nan,nan,nan,0.0,0.0
1759502006.4997268,0,-1.205,-0.83,-0.7801621756414647,0.0,False,0.010009765625,nan,nan,nan,nan,0.0,0.0
1759502006.5112417,0,-1.205,-0.83,-0.7801621756414647,0.0,False,0.011514902114868164,nan,nan,nan,nan,0.0,0.0
1759502006.522691,0,-1.205,-0.83,-0.7801621756414647,0.0,False,0.011449337005615234,nan,nan,nan,nan,0.0,0.0
1759502006.5329096,0,-1.205,-0.83,-0.7801621756414647,0.0,False,0.010218620300292969,nan,nan,nan,nan,0.0,0.0
1759502006.5441751,0,-1.205,-0.83,-0.7801621756414647,0.0,False,0.01126551628112793,nan,nan,nan,nan,0.0,0.0
1759502006.5546556,0,-1.205,-0.83,-0.7801621756414647,0.0,False,0.010480403900146484,nan,nan,nan,nan,0.0,0.0
1759502006.564665,0,-1.205,-0.83,-0.7801621756414647,0.0,False,0.010009527206420898,nan,nan,nan,nan,0.0,0.0
1759502006.5756266,0,-1.205,-0.83,-0.7801621756414647,0.0,False,0.010961532592773438,nan,nan,nan,nan,0.0,0.0
1759502006.5868907,0,-1.205,-0.83,-0.7801621756414647,0.0,False,0.01126408576965332,nan,nan,nan,nan,0.0,0.0
1759502006.5983627,0,-1.205,-0.83,-0.7801621756414647,0.0,False,0.011471986770629883,nan,nan,nan,nan,0.0,0.0
1759502006.6114469,0,-1.2049998061259588,-0.8299996288021405,-0.7229997878558763,0.0,True,0.013084173202514648,-1.2049998044967651,-0.8299996256828308,-0.7177035212516785,0.0,0.0,0.0
1759502006.621674,0,-1.2049998050413424,-0.829999626725497,-0.7181200469986813,0.0,True,0.010227203369140625,-1.2049998044967651,-0.8299996256828308,-0.7177035212516785,0.0,0.0,0.0
1759502006.6331894,0,-1.2049998047010528,-0.8299996260739668,-0.7176555341900066,0.0,True,0.011515378952026367,-1.2049998044967651,-0.8299996256828308,-0.7177035212516785,0.0,0.0,0.0
1759502006.6436043,0,-1.2049998045745929,-0.8299996258318424,-0.7175980247158336,0.0,True,0.010414838790893555,-1.2049998044967651,-0.8299996256828308,-0.7177035212516785,0.0,0.0,0.0
1759502006.653883,0,-1.2049998045264814,-0.8299996257397265,-0.7175923188672648,0.0,True,0.010278701782226562,-1.2049998044967651,-0.8299996256828308,-0.7177035212516785,0.0,0.0,0.0
1759502006.6641228,0,-1.2049998045081152,-0.8299996257045619,-0.7175992708109558,0.0,True,0.010239839553833008,-1.2049998044967651,-0.8299996256828308,-0.7177035212516785,0.0,0.0,0.0
1759502006.6746345,0,-1.2049998045011003,-0.8299996256911313,-0.7176094363904824,0.0,True,0.010511636734008789,-1.2049998044967651,-0.8299996256828308,-0.7177035212516785,0.0,0.0,0.0
1759502006.6858416,0,-1.204999804498421,-0.8299996256860013,-0.7176193245392604,0.0,True,0.011207103729248047,-1.2049998044967651,-0.8299996256828308,-0.7177035212516785,0.0,0.0,0.0
1759502006.6959803,0,-1.2049998044973975,-0.8299996256840418,-0.7176306647147896,0.0,True,0.010138750076293945,-1.2049998044967651,-0.8299996256828308,-0.7177035212516785,0.0,0.0,0.0
1759502006.706828,0,-1.2049998044970067,-0.8299996256832933,-0.7176391782618055,0.0,True,0.010847806930541992,-1.2049998044967651,-0.8299996256828308,-0.7177035212516785,0.0,0.0,0.0
1759502006.7175589,0,-1.2049998044968575,-0.8299996256830074,-0.7176466321061987,0.0,True,0.010730743408203125,-1.2049998044967651,-0.8299996256828308,-0.7177035212516785,0.0,0.0,0.0
1759502006.7280488,0,-1.2049998044968004,-0.8299996256828983,-0.717653168373495,0.0,True,0.010489940643310547,-1.2049998044967651,-0.8299996256828308,-0.7177035212516785,0.0,0.0,0.0
1759502006.7387176,0,-1.2049998044967787,-0.8299996256828566,-0.7176584282414336,0.0,True,0.010668754577636719,-1.2049998044967651,-0.8299996256828308,-0.7177035212516785,0.0,0.0,0.0
1759502006.7490263,0,-1.2049998044967702,-0.8299996256828407,-0.7176631416812072,0.0,True,0.01030874252319336,-1.2049998044967651,-0.8299996256828308,-0.7177035212516785,0.0,0.0,0.0
1759502006.759844,0,-1.2049998044967671,-0.8299996256828346,-0.7176666905809608,0.0,True,0.010817766189575195,-1.2049998044967651,-0.8299996256828308,-0.7177035212516785,0.0,0.0,0.0
1759502006.7713273,0,-1.2049998044967658,-0.8299996256828323,-0.7176693641147089,0.0,True,0.011483192443847656,-1.2049998044967651,-0.8299996256828308,-0.7177035212516785,0.0,0.0,0.0
1759502006.782618,0,-1.2049998044967654,-0.8299996256828314,-0.7176720073512115,0.0,True,0.011290788650512695,-1.2049998044967651,-0.8299996256828308,-0.7177035212516785,0.0,0.0,0.0
1759502006.7937303,0,-1.2049998044967651,-0.829999625682831,-0.7176745253611934,0.0,True,0.011112213134765625,-1.2049998044967651,-0.8299996256828308,-0.7177035212516785,0.0,0.0,0.0
1759502006.8372555,0,-1.2049998044967651,-0.8299996256828309,-0.717664186884253,0.0,True,0.04352521896362305,-1.2049998044967651,-0.8299996256828308,-0.7177035212516785,0.0,0.0,0.0
1759502006.8402693,0,-1.2049998044967651,-0.8299996256828308,-0.7176751269782802,0.0,True,0.0030138492584228516,-1.2049998044967651,-0.8299996256828308,-0.7177035212516785,0.0,0.0,0.0
1759502006.8502944,0,-1.2049998044967651,-0.8299996256828308,-0.7176804120353104,0.0,True,0.0100250244140625,-1.2049998044967651,-0.8299996256828308,-0.7177035212516785,0.0,0.0,0.0
1759502006.8606105,0,-1.2049998044967651,-0.8299996256828308,-0.7176836988593855,0.0,True,0.010316133499145508,-1.2049998044967651,-0.8299996256828308,-0.7177035212516785,0.0,0.0,0.0
1759502006.8707771,0,-1.2049998044967651,-0.8299996256828308,-0.7176860500265843,0.0,True,0.010166645050048828,-1.2049998044967651,-0.8299996256828308,-0.7177035212516785,0.0,0.0,0.0
1759502006.8822007,0,-1.2049998044967651,-0.8299996256828308,-0.7176874153152308,0.0,True,0.011423587799072266,-1.2049998044967651,-0.8299996256828308,-0.7177035212516785,0.0,0.0,0.0
1759502006.8925598,0,-1.2049998044967651,-0.8299996256828308,-0.7176888038464515,0.0,True,0.010359048843383789,-1.2049998044967651,-0.8299996256828308,-0.7177035212516785,0.0,0.0,0.0
1759502006.9037125,0,-1.2049998044967651,-0.8299996256828308,-0.7176897100373427,0.0,True,0.01115274429321289,-1.2049998044967651,-0.8299996256828308,-0.7177035212516785,0.0,0.0,0.0
1759502006.9138172,0,-1.2049998044967651,-0.8299996256828308,-0.7176907464257116,0.0,True,0.010104656219482422,-1.2049998044967651,-0.8299996256828308,-0.7177035212516785,0.0,0.0,0.0
1759502006.9253776,0,-1.2049998044967651,-0.8299996256828308,-0.7176912467480214,0.0,True,0.011560440063476562,-1.2049998044967651,-0.8299996256828308,-0.7177035212516785,0.0,0.0,0.0
1759502006.9359586,0,-1.2049998044967651,-0.8299996256828308,-0.7176919493635836,0.0,True,0.010581016540527344,-1.2049998044967651,-0.8299996256828308,-0.7177035212516785,0.0,0.0,0.0
1759502006.946322,0,-1.2049998044967651,-0.8299996256828308,-0.7176926229007599,0.0,True,0.010363340377807617,-1.2049998044967651,-0.8299996256828308,-0.7177035212516785,0.0,0.0,0.0
1759502006.9567335,0,-1.2049998044967651,-0.8299996256828308,-0.7176931923124243,0.0,True,0.010411500930786133,-1.2049998044967651,-0.8299996256828308,-0.7177035212516785,0.0,0.0,0.0
1759502006.9683473,0,-1.2049998044967651,-0.8299996256828308,-0.7176934405876239,0.0,True,0.011613845825195312,-1.2049998044967651,-0.8299996256828308,-0.7177035212516785,0.0,0.0,0.0
1759502006.9796462,0,-1.2049998044967651,-0.8299996256828308,-0.717693781543737,0.0,True,0.011298894882202148,-1.2049998044967651,-0.8299996256828308,-0.7177035212516785,0.0,0.0,0.0
1759502006.9899178,0,-1.2049998044967651,-0.8299996256828308,-0.7176943322249407,0.0,True,0.010271549224853516,-1.2049998044967651,-0.8299996256828308,-0.7177035212516785,0.0,0.0,0.0
1759502007.0000315,0,-1.2049998044967651,-0.8299996256828308,-0.7176948470000148,0.0,True,0.010113716125488281,-1.2049998044967651,-0.8299996256828308,-0.7177035212516785,0.0,0.0,0.0
1759502007.0113175,0,-1.2049998044967651,-0.8299996256828308,-0.7176950790398031,0.0,True,0.011286020278930664,-1.2049998044967651,-0.8299996256828308,-0.7177035212516785,0.0,0.0,0.0
1759502007.0217652,0,-1.2049998044967651,-0.8299996256828308,-0.71769546224278,0.0,True,0.01044774055480957,-1.2049998044967651,-0.8299996256828308,-0.7177035212516785,0.0,0.0,0.0
1759502007.0322363,0,-1.2049998044967651,-0.8299996256828308,-0.7176958139343448,0.0,True,0.010471105575561523,-1.2049998044967651,-0.8299996256828308,-0.7177035212516785,0.0,0.0,0.0
1759502007.0423324,0,-1.2049998044967651,-0.8299996256828308,-0.7176961930196342,0.0,True,0.010096073150634766,-1.2049998044967651,-0.8299996256828308,-0.7177035212516785,0.0,0.0,0.0
1759502007.0526052,0,-1.2049998044967651,-0.8299996256828308,-0.7176965002863867,0.0,True,0.010272741317749023,-1.2049998044967651,-0.8299996256828308,-0.7177035212516785,0.0,0.0,0.0
1759502007.0637748,0,-1.2049998044967651,-0.8299996256828308,-0.7176966449853843,0.0,True,0.011169672012329102,-1.2049998044967651,-0.8299996256828308,-0.7177035212516785,0.0,0.0,0.0
1759502007.074068,0,-1.2049998044967651,-0.8299996256828308,-0.7176969348656357,0.0,True,0.010293245315551758,-1.2049998044967651,-0.8299996256828308,-0.7177035212516785,0.0,0.0,0.0
1759502007.0842972,0,-1.2049998044967651,-0.8299996256828308,-0.7176972164964006,0.0,True,0.010229110717773438,-1.2049998044967651,-0.8299996256828308,-0.7177035212516785,0.0,0.0,0.0
1759502007.09603,0,-1.2049998044967651,-0.8299996256828308,-0.7176972724888344,0.0,True,0.011732816696166992,-1.2049998044967651,-0.8299996256828308,-0.7177035212516785,0.0,0.0,0.0
1759502007.1065562,0,-1.2049998044967651,-0.8299996256828308,-0.7176975233244569,0.0,True,0.010526180267333984,-1.2049998044967651,-0.8299996256828308,-0.7177035212516785,0.0,0.0,0.0
1759502007.1174326,0,-1.2049998044967651,-0.8299996256828308,-0.7176977243965261,0.0,True,0.01087641716003418,-1.2049998044967651,-0.8299996256828308,-0.7177035212516785,0.0,0.0,0.0
1759502007.1281502,0,-1.2049998044967651,-0.8299996256828308,-0.7176979392367393,0.0,True,0.010717630386352539,-1.2049998044967651,-0.8299996256828308,-0.7177035212516785,0.0,0.0,0.0
1759502007.138806,0,-1.2049998044967651,-0.8299996256828308,-0.7176981519717636,0.0,True,0.010655879974365234,-1.2049998044967651,-0.8299996256828308,-0.7177035212516785,0.0,0.0,0.0
1759502007.1493425,0,-1.2049998044967651,-0.8299996256828308,-0.7176983657356857,0.0,True,0.010536432266235352,-1.2049998044967651,-0.8299996256828308,-0.7177035212516785,0.0,0.0,0.0
1759502007.1596878,0,-1.2049998044967651,-0.8299996256828308,-0.717698584559713,0.0,True,0.010345220565795898,-1.2049998044967651,-0.8299996256828308,-0.7177035212516785,0.0,0.0,0.0
1759502007.1702366,0,-1.2049998044967651,-0.8299996256828308,-0.7176987624567985,0.0,True,0.010548830032348633,-1.2049998044967651,-0.8299996256828308,-0.7177035212516785,0.0,0.0,0.0
1759502007.1816905,0,-1.2049998044967651,-0.8299996256828308,-0.717698839902777,0.0,True,0.011453866958618164,-1.2049998044967651,-0.8299996256828308,-0.7177035212516785,0.0,0.0,0.0
1759502007.1925306,0,-1.2049998044967651,-0.8299996256828308,-0.7176989968491654,0.0,True,0.010840177536010742,-1.2049998044967651,-0.8299996256828308,-0.7177035212516785,0.0,0.0,0.0
1759502007.203093,0,-1.2049998044967651,-0.8299996256828308,-0.7176991810524012,0.0,True,0.010562419891357422,-1.2049998044967651,-0.8299996256828308,-0.7177035212516785,0.0,0.0,0.0
1759502007.2134047,0,-1.2049998044967651,-0.8299996256828308,-0.7176993746231375,0.0,True,0.010311603546142578,-1.2049998044967651,-0.8299996256828308,-0.7177035212516785,0.0,0.0,0.0
1759502007.2236998,0,-1.2049998044967651,-0.8299996256828308,-0.717699549620372,0.0,True,0.01029515266418457,-1.2049998044967651,-0.8299996256828308,-0.7177035212516785,0.0,0.0,0.0
1759502007.2341597,0,-1.2049998044967651,-0.8299996256828308,-0.7176996931567672,0.0,True,0.01045989990234375,-1.2049998044967651,-0.8299996256828308,-0.7177035212516785,0.0,0.0,0.0
1759502007.2444105,0,-1.2049998044967651,-0.8299996256828308,-0.717699843951694,0.0,True,0.01025080680847168,-1.2049998044967651,-0.8299996256828308,-0.7177035212516785,0.0,0.0,0.0
1759502007.2549639,0,-1.2049998044967651,-0.8299996256828308,-0.7176999592025979,0.0,True,0.010553359985351562,-1.2049998044967651,-0.8299996256828308,-0.7177035212516785,0.0,0.0,0.0
1759502007.2653773,0,-1.2049998044967651,-0.8299996256828308,-0.7177000815400056,0.0,True,0.010413408279418945,-1.2049998044967651,-0.8299996256828308,-0.7177035212516785,0.0,0.0,0.0
1759502007.276733,0,-1.2049998044967651,-0.8299996256828308,-0.7177001304244826,0.0,True,0.01135563850402832,-1.2049998044967651,-0.8299996256828308,-0.7177035212516785,0.0,0.0,0.0
1759502007.2878323,0,-1.2049998044967651,-0.8299996256828308,-0.7177002135582224,0.0,True,0.01109933853149414,-1.2049998044967651,-0.8299996256828308,-0.7177035212516785,0.0,0.0,0.0
1759502007.2991881,0,-1.2049998044967651,-0.8299996256828308,-0.7177002895905353,0.0,True,0.011355876922607422,-1.2049998044967651,-0.8299996256828308,-0.7177035212516785,0.0,0.0,0.0
1759502007.3092065,0,-1.2049998044967651,-0.8299996256828308,-0.7177004628520347,0.0,True,0.010018348693847656,-1.2049998044967651,-0.8299996256828308,-0.7177035212516785,0.0,0.0,0.0
1759502007.3193395,0,-1.2049998044967651,-0.8299996256828308,-0.7177006087518087,0.0,True,0.010133028030395508,-1.2049998044967651,-0.8299996256828308,-0.7177035212516785,0.0,0.0,0.0
1759502007.3297076,0,-1.2049998044967651,-0.8299996256828308,-0.7177007204277839,0.0,True,0.010368108749389648,-1.2049998044967651,-0.8299996256828308,-0.7177035212516785,0.0,0.0,0.0
1759502007.3406084,0,-1.2049998044967651,-0.8299996256828308,-0.7177007904241641,0.0,True,0.010900735855102539,-1.2049998044967651,-0.8299996256828308,-0.7177035212516785,0.0,0.0,0.0
1759502007.35096,0,-1.2049998044967651,-0.8299996256828308,-0.717700894768452,0.0,True,0.01035165786743164,-1.2049998044967651,-0.8299996256828308,-0.7177035212516785,0.0,0.0,0.0
1759502007.3625364,0,-1.2049998044967651,-0.8299996256828308,-0.717700925906783,0.0,True,0.011576414108276367,-1.2049998044967651,-0.8299996256828308,-0.7177035212516785,0.0,0.0,0.0
1759502007.3735342,0,-1.2049998044967651,-0.8299996256828308,-0.7177010016727685,0.0,True,0.010997772216796875,-1.2049998044967651,-0.8299996256828308,-0.7177035212516785,0.0,0.0,0.0
1759502007.383939,0,-1.2049998044967651,-0.8299996256828308,-0.71770111228453,0.0,True,0.010404825210571289,-1.2049998044967651,-0.8299996256828308,-0.7177035212516785,0.0,0.0,0.0
1759502007.3946548,0,-1.2049998044967651,-0.8299996256828308,-0.7177011980631836,0.0,True,0.010715723037719727,-1.2049998044967651,-0.8299996256828308,-0.7177035212516785,0.0,0.0,0.0
1759502007.409467,0,-1.2049998044967651,-0.8299996256828308,-0.7177010849629575,0.0,True,0.014812231063842773,-1.2049998044967651,-0.8299996256828308,-0.7177035212516785,0.0,0.0,0.0
1759502007.4160595,0,-1.2049998044967651,-0.8299996256828308,-0.7177014054319315,0.0,True,0.006592512130737305,-1.2049998044967651,-0.8299996256828308,-0.7177035212516785,0.0,0.0,0.0
1759502007.426275,0,-1.2049998044967651,-0.8299996256828308,-0.7177015027715914,0.0,True,0.010215520858764648,-1.2049998044967651,-0.8299996256828308,-0.7177035212516785,0.0,0.0,0.0
1759502007.4375005,0,-1.2049998044967651,-0.8299996256828308,-0.7177015322322582,0.0,True,0.011225461959838867,-1.2049998044967651,-0.8299996256828308,-0.7177035212516785,0.0,0.0,0.0
1759502007.4487314,0,-1.2049998044967651,-0.8299996256828308,-0.7177015685990327,0.0,True,0.011230945587158203,-1.2049998044967651,-0.8299996256828308,-0.7177035212516785,0.0,0.0,0.0
1759502007.4590492,0,-1.2049998044967651,-0.8299996256828308,-0.7177016506667364,0.0,True,0.010317802429199219,-1.2049998044967651,-0.8299996256828308,-0.7177035212516785,0.0,0.0,0.0
1759502007.470471,0,-1.2049998044967651,-0.8299996256828308,-0.7177016844679258,0.0,True,0.011421680450439453,-1.2049998044967651,-0.8299996256828308,-0.7177035212516785,0.0,0.0,0.0
1759502007.481937,0,-1.2049998044967651,-0.8299996256828308,-0.7177017226535867,0.0,True,0.011466026306152344,-1.2049998044967651,-0.8299996256828308,-0.7177035212516785,0.0,0.0,0.0
1759502007.4921021,0,-1.2049998044967651,-0.8299996256828308,-0.7177018150891801,0.0,True,0.010165214538574219,-1.2049998044967651,-0.8299996256828308,-0.7177035212516785,0.0,0.0,0.0
1759502007.5023305,0,-1.2049998044967651,-0.8299996256828308,-0.7177018954833159,0.0,True,0.010228395462036133,-1.2049998044967651,-0.8299996256828308,-0.7177035212516785,0.0,0.0,0.0
1759502007.5127351,0,-1.2049998044967651,-0.8299996256828308,-0.7177019593493554,0.0,True,0.010404586791992188,-1.2049998044967651,-0.8299996256828308,-0.7177035212516785,0.0,0.0,0.0
1759502007.5239508,0,-1.2049998044967651,-0.8299996256828308,-0.7177019905723476,0.0,True,0.011215686798095703,-1.2049998044967651,-0.8299996256828308,-0.7177035212516785,0.0,0.0,0.0
1759502007.5354757,0,-1.2049998044967651,-0.8299996256828308,-0.7177020161169096,0.0,True,0.01152491569519043,-1.2049998044967651,-0.8299996256828308,-0.7177035212516785,0.0,0.0,0.0
1759502007.54586,0,-1.2049998044967651,-0.8299996256828308,-0.7177020839275272,0.0,True,0.010384321212768555,-1.2049998044967651,-0.8299996256828308,-0.7177035212516785,0.0,0.0,0.0
1759502007.5559552,0,-1.2049998044967651,-0.8299996256828308,-0.7177021551498388,0.0,True,0.01009511947631836,-1.2049998044967651,-0.8299996256828308,-0.7177035212516785,0.0,0.0,0.0
1759502007.566874,0,-1.2049998044967651,-0.8299996256828308,-0.7177021934584218,0.0,True,0.010918855667114258,-1.2049998044967651,-0.8299996256828308,-0.7177035212516785,0.0,0.0,0.0
1759502007.577191,0,-1.2049998044967651,-0.8299996256828308,-0.7177022476649881,0.0,True,0.010317087173461914,-1.2049998044967651,-0.8299996256828308,-0.7177035212516785,0.0,0.0,0.0
1759502007.5886612,0,-1.2049998044967651,-0.8299996256828308,-0.7177022670977529,0.0,True,0.01147007942199707,-1.2049998044967651,-0.8299996256828308,-0.7177035212516785,0.0,0.0,0.0
1759502007.5992625,0,-1.2049998044967651,-0.8299996256828308,-0.717702313887358,0.0,True,0.010601282119750977,-1.2049998044967651,-0.8299996256828308,-0.7177035212516785,0.0,0.0,0.0
1759502007.6105292,0,-1.2049998044967651,-0.8299996256828308,-0.7177023428110516,0.0,True,0.011266708374023438,-1.2049998044967651,-0.8299996256828308,-0.7177035212516785,0.0,0.0,0.0
1759502007.6207693,0,-1.2049998044967651,-0.8299996256828308,-0.7177023983952395,0.0,True,0.01024007797241211,-1.2049998044967651,-0.8299996256828308,-0.7177035212516785,0.0,0.0,0.0
1759502007.630853,0,-1.2049998044967651,-0.8299996256828308,-0.7177024522761553,0.0,True,0.010083675384521484,-1.2049998044967651,-0.8299996256828308,-0.7177035212516785,0.0,0.0,0.0
1759502007.64114,0,-1.2049998044967651,-0.8299996256828308,-0.7177024944863337,0.0,True,0.010287046432495117,-1.2049998044967651,-0.8299996256828308,-0.7177035212516785,0.0,0.0,0.0
1759502007.6525002,0,-1.2049998044967651,-0.8299996256828308,-0.7177025090780464,0.0,True,0.01136016845703125,-1.2049998044967651,-0.8299996256828308,-0.7177035212516785,0.0,0.0,0.0
1759502007.6626666,0,-1.2049998044967651,-0.8299996256828308,-0.7177025529644787,0.0,True,0.010166406631469727,-1.2049998044967651,-0.8299996256828308,-0.7177035212516785,0.0,0.0,0.0
1759502007.6732445,0,-1.2049998044967651,-0.8299996256828308,-0.7177025853790333,0.0,True,0.010577917098999023,-1.2049998044967651,-0.8299996256828308,-0.7177035212516785,0.0,0.0,0.0
1759502007.6845422,0,-1.2049998044967651,-0.8299996256828308,-0.7177026018612267,0.0,True,0.01129770278930664,-1.2049998044967651,-0.8299996256828308,-0.7177035212516785,0.0,0.0,0.0
1759502007.6960185,0,-1.2049998044967651,-0.8299996256828308,-0.7177026183886692,0.0,True,0.011476278305053711,-1.2049998044967651,-0.8299996256828308,-0.7177035212516785,0.0,0.0,0.0
1759502007.7064774,0,-1.2049998044967651,-0.8299996256828308,-0.7177026577917172,0.0,True,0.010458946228027344,-1.2049998044967651,-0.8299996256828308,-0.7177035212516785,0.0,0.0,0.0
1759502007.7176714,0,-1.2049998044967651,-0.8299996256828308,-0.7177026815172578,0.0,True,0.011193990707397461,-1.2049998044967651,-0.8299996256828308,-0.7177035212516785,0.0,0.0,0.0
1759502007.7280767,0,-1.2049998044967651,-0.8299996256828308,-0.7177027189694254,0.0,True,0.010405302047729492,-1.2049998044967651,-0.8299996256828308,-0.7177035212516785,0.0,0.0,0.0
1759502007.738501,0,-1.2049998044967651,-0.8299996256828308,-0.7177027528230369,0.0,True,0.010424375534057617,-1.2049998044967651,-0.8299996256828308,-0.7177035212516785,0.0,0.0,0.0
1759502007.7487264,0,-1.2049998044967651,-0.8299996256828308,-0.7177027863734029,0.0,True,0.010225296020507812,-1.2049998044967651,-0.8299996256828308,-0.7177035212516785,0.0,0.0,0.0
1759502007.7589662,0,-1.2049998044967651,-0.8299996256828308,-0.7177028160272627,0.0,True,0.010239839553833008,-1.2049998044967651,-0.8299996256828308,-0.7177035212516785,0.0,0.0,0.0
1759502007.7703874,0,-1.2049998044967651,-0.8299996256828308,-0.7177028250828208,0.0,True,0.01142120361328125,-1.2049998044967651,-0.8299996256828308,-0.7177035212516785,0.0,0.0,0.0
1759502007.7807486,0,-1.2049998044967651,-0.8299996256828308,-0.7177028525891238,0.0,True,0.010361194610595703,-1.2049998044967651,-0.8299996256828308,-0.7177035212516785,0.0,0.0,0.0
1759502007.791003,0,-1.2049998044967651,-0.8299996256828308,-0.717702880327181,0.0,True,0.010254383087158203,-1.2049998044967651,-0.8299996256828308,-0.7177035212516785,0.0,0.0,0.0
1759502007.8021908,0,-1.2049998044967651,-0.8299996256828308,-0.7177028927788918,0.0,True,0.01118779182434082,-1.2049998044967651,-0.8299996256828308,-0.7177035212516785,0.0,0.0,0.0
1759502007.8133407,0,-1.2049998044967651,-0.8299996256828308,-0.7177029073455827,0.0,True,0.011149883270263672,-1.2049998044967651,-0.8299996256828308,-0.7177035212516785,0.0,0.0,0.0
1759502007.8241224,0,-1.2049998044967651,-0.8299996256828308,-0.7177029283411507,0.0,True,0.01078176498413086,-1.2049998044967651,-0.8299996256828308,-0.7177035212516785,0.0,0.0,0.0
1759502007.8345957,0,-1.2049998044967651,-0.8299996256828308,-0.7177029527227177,0.0,True,0.010473251342773438,-1.2049998044967651,-0.8299996256828308,-0.7177035212516785,0.0,0.0,0.0
1759502007.8460405,0,-1.2049998044967651,-0.8299996256828308,-0.7177029637367909,0.0,True,0.011444807052612305,-1.2049998044967651,-0.8299996256828308,-0.7177035212516785,0.0,0.0,0.0
1759502007.8563626,0,-1.2049998044967651,-0.8299996256828308,-0.7177029890799069,0.0,True,0.010322093963623047,-1.2049998044967651,-0.8299996256828308,-0.7177035212516785,0.0,0.0,0.0
1759502007.8670547,0,-1.2049998044967651,-0.8299996256828308,-0.717703008289547,0.0,True,0.010692119598388672,-1.2049998044967651,-0.8299996256828308,-0.7177035212516785,0.0,0.0,0.0
1759502007.8776395,0,-1.2049998044967651,-0.8299996256828308,-0.7177030272828819,0.0,True,0.010584831237792969,-1.2049998044967651,-0.8299996256828308,-0.7177035212516785,0.0,0.0,0.0
1759502007.887666,0,-1.2049998044967651,-0.8299996256828308,-0.7177030508032907,0.0,True,0.01002645492553711,-1.2049998044967651,-0.8299996256828308,-0.7177035212516785,0.0,0.0,0.0
1759502007.8980134,0,-1.2049998044967651,-0.8299996256828308,-0.717703068335954,0.0,True,0.010347366333007812,-1.2049998044967651,-0.8299996256828308,-0.7177035212516785,0.0,0.0,0.0
1759502007.9085069,0,-1.2049998044967651,-0.8299996256828308,-0.7177030828716617,0.0,True,0.01049351692199707,-1.2049998044967651,-0.8299996256828308,-0.7177035212516785,0.0,0.0,0.0
1759502007.9193096,0,-1.2049998044967651,-0.8299996256828308,-0.7177030939557518,0.0,True,0.010802745819091797,-1.2049998044967651,-0.8299996256828308,-0.7177035212516785,0.0,0.0,0.0
1759502007.9296994,0,-1.2049998044967651,-0.8299996256828308,-0.7177031092448658,0.0,True,0.01038980484008789,-1.2049998044967651,-0.8299996256828308,-0.7177035212516785,0.0,0.0,0.0
1759502007.941224,0,-1.2049998044967651,-0.8299996256828308,-0.71770311401351,0.0,True,0.011524677276611328,-1.2049998044967651,-0.8299996256828308,-0.7177035212516785,0.0,0.0,0.0
1759502007.951481,0,-1.2049998044967651,-0.8299996256828308,-0.7177031315727085,0.0,True,0.01025700569152832,-1.2049998044967651,-0.8299996256828308,-0.7177035212516785,0.0,0.0,0.0
1759502007.9617035,0,-1.2049998044967651,-0.8299996256828308,-0.7177031482948841,0.0,True,0.010222434997558594,-1.2049998044967651,-0.8299996256828308,-0.7177035212516785,0.0,0.0,0.0
1759502007.9720397,0,-1.2049998044967651,-0.8299996256828308,-0.7177031623188057,0.0,True,0.010336160659790039,-1.2049998044967651,-0.8299996256828308,-0.7177035212516785,0.0,0.0,0.0
1759502007.982385,0,-1.2049998044967651,-0.8299996256828308,-0.7177031750942682,0.0,True,0.010345220565795898,-1.2049998044967651,-0.8299996256828308,-0.7177035212516785,0.0,0.0,0.0
1759502007.992622,0,-1.2049998044967651,-0.8299996256828308,-0.717703187835065,0.0,True,0.010236978530883789,-1.2049998044967651,-0.8299996256828308,-0.7177035212516785,0.0,0.0,0.0
1759502008.002895,0,-1.2049998044967651,-0.8299996256828308,-0.7177031994095948,0.0,True,0.010273218154907227,-1.2049998044967651,-0.8299996256828308,-0.7177035212516785,0.0,0.0,0.0
1759502008.0130827,0,-1.2049998044967651,-0.8299996256828308,-0.7177032108666701,0.0,True,0.010187625885009766,-1.2049998044967651,-0.8299996256828308,-0.7177035212516785,0.0,0.0,0.0
1759502008.023574,0,-1.2049998044967651,-0.8299996256828308,-0.7177032195420168,0.0,True,0.010491371154785156,-1.2049998044967651,-0.8299996256828308,-0.7177035212516785,0.0,0.0,0.0
1759502008.0349524,0,-1.2049998044967651,-0.8299996256828308,-0.7177032224496926,0.0,True,0.011378288269042969,-1.2049998044967651,-0.8299996256828308,-0.7177035212516785,0.0,0.0,0.0
1759502008.0450776,0,-1.2049998044967651,-0.8299996256828308,-0.7177032350182433,0.0,True,0.010125160217285156,-1.2049998044967651,-0.8299996256828308,-0.7177035212516785,0.0,0.0,0.0
1759502008.0563846,0,-1.2049998044967651,-0.8299996256828308,-0.7177032397061414,0.0,True,0.011307001113891602,-1.2049998044967651,-0.8299996256828308,-0.7177035212516785,0.0,0.0,0.0
1759502008.0673132,0,-1.2049998044967651,-0.8299996256828308,-0.7177032475932847,0.0,True,0.010928630828857422,-1.2049998044967651,-0.8299996256828308,-0.7177035212516785,0.0,0.0,0.0
1759502008.0776632,0,-1.2049998044967651,-0.8299996256828308,-0.7177032591890686,0.0,True,0.01034998893737793,-1.2049998044967651,-0.8299996256828308,-0.7177035212516785,0.0,0.0,0.0
1759502008.0883873,0,-1.2049998044967651,-0.8299996256828308,-0.717703267821598,0.0,True,0.010724067687988281,-1.2049998044967651,-0.8299996256828308,-0.7177035212516785,0.0,0.0,0.0
1759502008.0997345,0,-1.2049998044967651,-0.8299996256828308,-0.7177032728051636,0.0,True,0.011347293853759766,-1.2049998044967651,-0.8299996256828308,-0.7177035212516785,0.0,0.0,0.0
1759502008.1098897,0,-1.2049998044967651,-0.8299996256828308,-0.7177032846502005,0.0,True,0.010155200958251953,-1.2049998044967651,-0.8299996256828308,-0.7177035212516785,0.0,0.0,0.0
1759502008.1213622,0,-1.2049998044967651,-0.8299996256828308,-0.7177032889348265,0.0,True,0.011472463607788086,-1.2049998044967651,-0.8299996256828308,-0.7177035212516785,0.0,0.0,0.0
1759502008.1328192,0,-1.2049998044967651,-0.8299996256828308,-0.717703293986867,0.0,True,0.011456966400146484,-1.2049998044967651,-0.8299996256828308,-0.7177035212516785,0.0,0.0,0.0
1759502008.1430976,0,-1.2049998044967651,-0.8299996256828308,-0.717703305266193,0.0,True,0.010278463363647461,-1.2049998044967651,-0.8299996256828308,-0.7177035212516785,0.0,0.0,0.0
1759502008.1536906,0,-1.2049998044967651,-0.8299996256828308,-0.7177033140338906,0.0,True,0.010592937469482422,-1.2049998044967651,-0.8299996256828308,-0.7177035212516785,0.0,0.0,0.0
1759502008.1650302,0,-1.2049998044967651,-0.8299996256828308,-0.7177033187619948,0.0,True,0.011339664459228516,-1.2049998044967651,-0.8299996256828308,-0.7177035212516785,0.0,0.0,0.0
1759502008.1764226,0,-1.2049998044967651,-0.8299996256828308,-0.7177033236834411,0.0,True,0.011392354965209961,-1.2049998044967651,-0.8299996256828308,-0.7177035212516785,0.0,0.0,0.0
1759502008.1874192,0,-1.2049998044967651,-0.8299996256828308,-0.7177033307173311,0.0,True,0.010996580123901367,-1.2049998044967651,-0.8299996256828308,-0.7177035212516785,0.0,0.0,0.0
1759502008.1981337,0,-1.2049998044967651,-0.8299996256828308,-0.7177033386781595,0.0,True,0.010714530944824219,-1.2049998044967651,-0.8299996256828308,-0.7177035212516785,0.0,0.0,0.0
1759502008.2283618,0,-1.2049998044967651,-0.8299996256828308,-0.7177032784718769,0.0,True,0.030228137969970703,-1.2049998044967651,-0.8299996256828308,-0.7177035212516785,0.0,0.0,0.0
1759502008.2388968,0,-1.2049998044967651,-0.8299996256828308,-0.7177033066769365,0.0,True,0.010535001754760742,-1.2049998044967651,-0.8299996256828308,-0.7177035212516785,0.0,0.0,0.0
1759502008.2503886,0,-1.2049998044967651,-0.8299996256828308,-0.7177033295450244,0.0,True,0.011491775512695312,-1.2049998044967651,-0.8299996256828308,-0.7177035212516785,0.0,0.0,0.0
1759502008.2605855,0,-1.2049998044967651,-0.8299996256828308,-0.7177033506445429,0.0,True,0.010196924209594727,-1.2049998044967651,-0.8299996256828308,-0.7177035212516785,0.0,0.0,0.0
1759502008.2719498,0,-1.2049998044967651,-0.8299996256828308,-0.7177033632311058,0.0,True,0.011364221572875977,-1.2049998044967651,-0.8299996256828308,-0.7177035212516785,0.0,0.0,0.0
1759502008.2822678,0,-1.2049998044967651,-0.8299996256828308,-0.717703375925403,0.0,True,0.01031804084777832,-1.2049998044967651,-0.8299996256828308,-0.7177035212516785,0.0,0.0,0.0
1759502008.2926416,0,-1.2049998044967651,-0.8299996256828308,-0.7177033858693278,0.0,True,0.010373830795288086,-1.2049998044967651,-0.8299996256828308,-0.7177035212516785,0.0,0.0,0.0
1759502008.303141,0,-1.2049998044967651,-0.8299996256828308,-0.7177033934934336,0.0,True,0.01049947738647461,-1.2049998044967651,-0.8299996256828308,-0.7177035212516785,0.0,0.0,0.0
1759502008.313401,0,-1.2049998044967651,-0.8299996256828308,-0.7177034004081708,0.0,True,0.010259866714477539,-1.2049998044967651,-0.8299996256828308,-0.7177035212516785,0.0,0.0,0.0
1759502008.3244047,0,-1.2049998044967651,-0.8299996256828308,-0.717703404401842,0.0,True,0.011003732681274414,-1.2049998044967651,-0.8299996256828308,-0.7177035212516785,0.0,0.0,0.0
1759502008.3357391,0,-1.2049998044967651,-0.8299996256828308,-0.7177034073234161,0.0,True,0.011334419250488281,-1.2049998044967651,-0.8299996256828308,-0.7177035212516785,0.0,0.0,0.0
1759502008.3473089,0,-1.2049998044967651,-0.8299996256828308,-0.7177034098655533,0.0,True,0.011569738388061523,-1.2049998044967651,-0.8299996256828308,-0.7177035212516785,0.0,0.0,0.0
1759502008.3580456,0,-1.2049998044967651,-0.8299996256828308,-0.7177034145624077,0.0,True,0.010736703872680664,-1.2049998044967651,-0.8299996256828308,-0.7177035212516785,0.0,0.0,0.0
1759502008.3693783,0,-1.2049998044967651,-0.8299996256828308,-0.7177034176589068,0.0,True,0.01133275032043457,-1.2049998044967651,-0.8299996256828308,-0.7177035212516785,0.0,0.0,0.0
1759502008.380872,0,-1.2049998044967651,-0.8299996256828308,-0.7177034204071084,0.0,True,0.011493682861328125,-1.2049998044967651,-0.8299996256828308,-0.7177035212516785,0.0,0.0,0.0
1759502008.3916035,0,-1.2049998044967651,-0.8299996256828308,-0.7177034248194047,0.0,True,0.01073145866394043,-1.2049998044967651,-0.8299996256828308,-0.7177035212516785,0.0,0.0,0.0
1759502008.4020975,0,-1.2049998044967651,-0.8299996256828308,-0.7177034293256384,0.0,True,0.010493993759155273,-1.2049998044967651,-0.8299996256828308,-0.7177035212516785,0.0,0.0,0.0
1759502008.4144976,0,-1.2049998044967651,-0.8299996256828308,-0.7177034297497151,0.0,True,0.012400150299072266,-1.2049998044967651,-0.8299996256828308,-0.7177035212516785,0.0,0.0,0.0
1759502008.4249437,0,-1.2049998044967651,-0.8299996256828308,-0.7177034343163697,0.0,True,0.01044607162475586,-1.2049998044967651,-0.8299996256828308,-0.7177035212516785,0.0,0.0,0.0
1759502008.4362369,0,-1.2049998044967651,-0.8299996256828308,-0.717703437036965,0.0,True,0.011293172836303711,-1.2049998044967651,-0.8299996256828308,-0.7177035212516785,0.0,0.0,0.0
1759502008.4474435,0,-1.2049998044967651,-0.8299996256828308,-0.7177034397971145,0.0,True,0.011206626892089844,-1.2049998044967651,-0.8299996256828308,-0.7177035212516785,0.0,0.0,0.0
1759502008.4587858,0,-1.2049998044967651,-0.8299996256828308,-0.7177034422947095,0.0,True,0.011342287063598633,-1.2049998044967651,-0.8299996256828308,-0.7177035212516785,0.0,0.0,0.0
1759502008.4702163,0,-1.2049998044967651,-0.8299996256828308,-0.7177034446632184,0.0,True,0.011430501937866211,-1.2049998044967651,-0.8299996256828308,-0.7177035212516785,0.0,0.0,0.0
1759502008.4806948,0,-1.2049998044967651,-0.8299996256828308,-0.7177034484995062,0.0,True,0.010478496551513672,-1.2049998044967651,-0.8299996256828308,-0.7177035212516785,0.0,0.0,0.0
1759502008.4921708,0,-1.2049998044967651,-0.8299996256828308,-0.7177034504560265,0.0,True,0.01147603988647461,-1.2049998044967651,-0.8299996256828308,-0.7177035212516785,0.0,0.0,0.0
1759502008.5024745,0,-1.2049998044967651,-0.8299996256828308,-0.7177034540664131,0.0,True,0.010303735733032227,-1.2049998044967651,-0.8299996256828308,-0.7177035212516785,0.0,0.0,0.0
1759502008.5137396,0,-1.2049998044967651,-0.8299996256828308,-0.717703455957027,0.0,True,0.011265039443969727,-1.2049998044967651,-0.8299996256828308,-0.7177035212516785,0.0,0.0,0.0
1759502008.5240316,0,-1.2049998044967651,-0.8299996256828308,-0.7177034590922879,0.0,True,0.01029205322265625,-1.2049998044967651,-0.8299996256828308,-0.7177035212516785,0.0,0.0,0.0
1759502008.535314,0,-1.2049998044967651,-0.8299996256828308,-0.717703460630986,0.0,True,0.01128244400024414,-1.2049998044967651,-0.8299996256828308,-0.7177035212516785,0.0,0.0,0.0
1759502008.5465612,0,-1.2049998044967651,-0.8299996256828308,-0.7177034622504266,0.0,True,0.01124715805053711,-1.2049998044967651,-0.8299996256828308,-0.7177035212516785,0.0,0.0,0.0
1759502008.557939,0,-1.2049998044967651,-0.8299996256828308,-0.7177034638074495,0.0,True,0.011377811431884766,-1.2049998044967651,-0.8299996256828308,-0.7177035212516785,0.0,0.0,0.0
1759502008.5693905,0,-1.2049998044967651,-0.8299996256828308,-0.7177034653787473,0.0,True,0.011451482772827148,-1.2049998044967651,-0.8299996256828308,-0.7177035212516785,0.0,0.0,0.0
1759502008.5807314,0,-1.2049998044967651,-0.8299996256828308,-0.7177034671601081,0.0,True,0.011340856552124023,-1.2049998044967651,-0.8299996256828308,-0.7177035212516785,0.0,0.0,0.0
1759502008.591954,0,-1.2049998044967651,-0.8299996256828308,-0.7177034690779003,0.0,True,0.011222600936889648,-1.2049998044967651,-0.8299996256828308,-0.7177035212516785,0.0,0.0,0.0
1759502008.6033864,0,-1.2049998044967651,-0.8299996256828308,-0.7177034707207071,0.0,True,0.011432409286499023,-1.2049998044967651,-0.8299996256828308,-0.7177035212516785,0.0,0.0,0.0
1759502008.6180897,0,-1.2049998044967651,-0.8299996256828308,-0.7177034691727204,0.0,True,0.01470327377319336,-1.2049998044967651,-0.8299996256828308,-0.7177035212516785,0.0,0.0,0.0
1759502008.6295428,0,-1.2049998044967651,-0.8299996256828308,-0.7177034717087238,0.0,True,0.01145315170288086,-1.2049998044967651,-0.8299996256828308,-0.7177035212516785,0.0,0.0,0.0
1759502008.640975,0,-1.2049998044967651,-0.8299996256828308,-0.7177034742224588,0.0,True,0.011432170867919922,-1.2049998044967651,-0.8299996256828308,-0.7177035212516785,0.0,0.0,0.0
1759502008.6524286,0,-1.2049998044967651,-0.8299996256828308,-0.7177034764257577,0.0,True,0.011453628540039062,-1.2049998044967651,-0.8299996256828308,-0.7177035212516785,0.0,0.0,0.0
1759502008.6627936,0,-1.2049998044967651,-0.8299996256828308,-0.717703479303605,0.0,True,0.010365009307861328,-1.2049998044967651,-0.8299996256828308,-0.7177035212516785,0.0,0.0,0.0
1759502008.6741385,0,-1.2049998044967651,-0.8299996256828308,-0.7177034809216281,0.0,True,0.01134490966796875,-1.2049998044967651,-0.8299996256828308,-0.7177035212516785,0.0,0.0,0.0
1759502008.6854272,0,-1.2049998044967651,-0.8299996256828308,-0.7177034824208448,0.0,True,0.011288642883300781,-1.2049998044967651,-0.8299996256828308,-0.7177035212516785,0.0,0.0,0.0
1759502008.6968052,0,-1.2049998044967651,-0.8299996256828308,-0.7177034837731036,0.0,True,0.011378049850463867,-1.2049998044967651,-0.8299996256828308,-0.7177035212516785,0.0,0.0,0.0
1759502008.721515,0,-1.2049998044967651,-0.8299996256828308,-0.7177034757760676,0.0,True,0.024709701538085938,-1.2049998044967651,-0.8299996256828308,-0.7177035212516785,0.0,0,0
1759502008.7317202,0,-1.2049998044967651,-0.8299996256828308,-0.7177034806234985,0.0,True,0.010205268859863281,-1.2049998044967651,-0.8299996256828308,-0.7177035212516785,0.0,0,0
1759502008.7417715,0,-1.2049998044967651,-0.8299996256828308,-0.7177034850942441,0.0,True,0.010051250457763672,-1.2049998044967651,-0.8299996256828308,-0.7177035212516785,0.0,0,0
1759502008.7531493,0,-1.2049998044967651,-0.8299996256828308,-0.7177034876513453,0.0,True,0.011377811431884766,-1.2049998044967651,-0.8299996256828308,-0.7177035212516785,0.0,0,0
1759502008.7642288,0,-1.2049998044967651,-0.8299996256828308,-0.7177034898242436,0.0,True,0.011079549789428711,-1.2049998044967651,-0.8299996256828308,-0.7177035212516785,0.0,0,0
1759502008.7756507,0,-1.2049998044967651,-0.8299996256828308,-0.717703491414035,0.0,True,0.011421918869018555,-1.2049998044967651,-0.8299996256828308,-0.7177035212516785,0.0,0,0
1759502008.7859282,0,-1.2049998044967651,-0.8299996256828308,-0.7177034934128947,0.0,True,0.010277509689331055,-1.2049998044967651,-0.8299996256828308,-0.7177035212516785,0.0,0,0
1759502008.7965946,0,-1.2049998044967651,-0.8299996256828308,-0.7177034948580463,0.0,True,0.010666370391845703,-1.2049998044967651,-0.8299996256828308,-0.7177035212516785,0.0,0,0
1759502008.8072193,0,-1.2049998044967651,-0.8299996256828308,-0.7177034960914277,0.0,True,0.01062464714050293,-1.2049998044967651,-0.8299996256828308,-0.7177035212516785,0.0,0,0
1759502008.8223674,0,-1.2049998044967651,-0.8299996256828308,-0.7177034949041001,0.0,True,0.015148162841796875,-1.2049998044967651,-0.8299996256828308,-0.7177035212516785,0.0,0,0
1759502008.8335981,0,-1.2049998044967651,-0.8299996256828308,-0.7177034961921258,0.0,True,0.011230707168579102,-1.2049998044967651,-0.8299996256828308,-0.7177035212516785,0.0,0,0
1759502008.8442569,0,-1.2049998044967651,-0.8299996256828308,-0.7177034977327992,0.0,True,0.010658740997314453,-1.2049998044967651,-0.8299996256828308,-0.7177035212516785,0.0,0,0
1759502008.8555205,0,-1.2049998044967651,-0.8299996256828308,-0.7177034987611748,0.0,True,0.011263608932495117,-1.2049998044967651,-0.8299996256828308,-0.7177035212516785,0.0,0,0
1759502008.8664029,0,-1.2049998044967651,-0.8299996256828308,-0.7177034998294971,0.0,True,0.010882377624511719,-1.2049998044967651,-0.8299996256828308,-0.7177035212516785,0.0,0,0
1759502008.877203,0,-1.2049998044967651,-0.8299996256828308,-0.7177035008075627,0.0,True,0.01080012321472168,-1.2049998044967651,-0.8299996256828308,-0.7177035212516785,0.0,0,0
1759502008.8882563,0,-1.2049998044967651,-0.8299996256828308,-0.7177035015677937,0.0,True,0.011053323745727539,-1.2049998044967651,-0.8299996256828308,-0.7177035212516785,0.0,0,0
1759502008.898575,0,-1.2049998044967651,-0.8299996256828308,-0.7177035025572032,0.0,True,0.010318756103515625,-1.2049998044967651,-0.8299996256828308,-0.7177035212516785,0.0,0,0
1759502008.90923,0,-1.2049998044967651,-0.8299996256828308,-0.7177035032932597,0.0,True,0.010654926300048828,-1.2049998044967651,-0.8299996256828308,-0.7177035212516785,0.0,0,0
1759502008.9199624,0,-1.2049998044967651,-0.8299996256828308,-0.7177035039238859,0.0,True,0.010732412338256836,-1.2049998044967651,-0.8299996256828308,-0.7177035212516785,0.0,0,0
1759502008.9305882,0,-1.2049998044967651,-0.8299996256828308,-0.7177035045516789,0.0,True,0.010625839233398438,-1.2049998044967651,-0.8299996256828308,-0.7177035212516785,0.0,0,0
1759502008.9408762,0,-1.2049998044967651,-0.8299996256828308,-0.7177035052548444,0.0,True,0.010288000106811523,-1.2049998044967651,-0.8299996256828308,-0.7177035212516785,0.0,0,0
1759502008.9514701,0,-1.2049998044967651,-0.8299996256828308,-0.7177035057843035,0.0,True,0.010593891143798828,-1.2049998044967651,-0.8299996256828308,-0.7177035212516785,0.0,0,0
1759502008.962692,0,-1.2049998044967651,-0.8299996256828308,-0.7177035060775463,0.0,True,0.011221885681152344,-1.2049998044967651,-0.8299996256828308,-0.7177035212516785,0.0,0,0
1759502008.9729915,0,-1.2049998044967651,-0.8299996256828308,-0.7177035067028843,0.0,True,0.010299444198608398,-1.2049998044967651,-0.8299996256828308,-0.7177035212516785,0.0,0,0
1759502008.9832635,0,-1.2049998044967651,-0.8299996256828308,-0.7177035072921214,0.0,True,0.010272026062011719,-1.2049998044967651,-0.8299996256828308,-0.7177035212516785,0.0,0,0
1759502008.99403,0,-1.2049998044967651,-0.8299996256828308,-0.717703507675628,0.0,True,0.01076650619506836,-1.2049998044967651,-0.8299996256828308,-0.7177035212516785,0.0,0,0
1759502009.0050874,0,-1.2049998044967651,-0.8299996256828308,-0.7177035079725176,0.0,True,0.011057376861572266,-1.2049998044967651,-0.8299996256828308,-0.7177035212516785,0.0,0,0
1759502009.0284376,0,-1.2049998044967651,-0.8299996256828308,-0.7177035050395091,0.0,True,0.023350238800048828,-1.2049998044967651,-0.8299996256828308,-0.7177035212516785,0.0,0,0
1759502009.0388134,0,-1.2049998044967651,-0.8299996256828308,-0.7177035065266519,0.0,True,0.010375738143920898,-1.2049998044967651,-0.8299996256828308,-0.7177035212516785,0.0,0,0
1759502009.0493102,0,-1.2049998044967651,-0.8299996256828308,-0.7177035078945853,0.0,True,0.010496854782104492,-1.2049998044967651,-0.8299996256828308,-0.7177035212516785,0.0,0,0
1759502009.0600443,0,-1.2049998044967651,-0.8299996256828308,-0.7177035088988468,0.0,True,0.010734081268310547,-1.2049998044967651,-0.8299996256828308,-0.7177035212516785,0.0,0,0
1759502009.07054,0,-1.2049998044967651,-0.8299996256828308,-0.7177035097430995,0.0,True,0.010495662689208984,-1.2049998044967651,-0.8299996256828308,-0.7177035212516785,0.0,0,0
1759502009.080568,0,-1.2049998044967651,-0.8299996256828308,-0.7177035105264373,0.0,True,0.01002812385559082,-1.2049998044967651,-0.8299996256828308,-0.7177035212516785,0.0,0,0
1759502009.090668,0,-1.2049998044967651,-0.8299996256828308,-0.717703511143835,0.0,True,0.01009988784790039,-1.2049998044967651,-0.8299996256828308,-0.7177035212516785,0.0,0,0
1759502009.1010127,0,-1.2049998044967651,-0.8299996256828308,-0.7177035115997263,0.0,True,0.010344743728637695,-1.2049998044967651,-0.8299996256828308,-0.7177035212516785,0.0,0,0
1759502009.1122873,0,-1.2049998044967651,-0.8299996256828308,-0.7177035118059525,0.0,True,0.011274576187133789,-1.2049998044967651,-0.8299996256828308,-0.7177035212516785,0.0,0,0
1759502009.122298,0,-1.2049998044967651,-0.8299996256828308,-0.7177035122707291,0.0,True,0.010010719299316406,-1.2049998044967651,-0.8299996256828308,-0.7177035212516785,0.0,0,0
1759502009.1327913,0,-1.2049998044967651,-0.8299996256828308,-0.7177035125938964,0.0,True,0.010493278503417969,-1.2049998044967651,-0.8299996256828308,-0.7177035212516785,0.0,0,0
1759502009.1434164,0,-1.2049998044967651,-0.8299996256828308,-0.7177035128634444,0.0,True,0.010625123977661133,-1.2049998044967651,-0.8299996256828308,-0.7177035212516785,0.0,0,0
1759502009.1547146,0,-1.2049998044967651,-0.8299996256828308,-0.7177035130049951,0.0,True,0.011298179626464844,-1.2049998044967651,-0.8299996256828308,-0.7177035212516785,0.0,0,0
1759502009.1661665,0,-1.2049998044967651,-0.8299996256828308,-0.7177035131505871,0.0,True,0.011451959609985352,-1.2049998044967651,-0.8299996256828308,-0.7177035212516785,0.0,0,0
1759502009.1777024,0,-1.2049998044967651,-0.8299996256828308,-0.7177035133195577,0.0,True,0.011535882949829102,-1.2049998044967651,-0.8299996256828308,-0.7177035212516785,0.0,0,0
1759502009.1880443,0,-1.2049998044967651,-0.8299996256828308,-0.7177035137074377,0.0,True,0.010341882705688477,-1.2049998044967651,-0.8299996256828308,-0.7177035212516785,0.0,0,0
1759502009.1989095,0,-1.2049998044967651,-0.8299996256828308,-0.7177035139765398,0.0,True,0.010865211486816406,-1.2049998044967651,-0.8299996256828308,-0.7177035212516785,0.0,0,0
1759502009.2092,0,-1.2049998044967651,-0.8299996256828308,-0.7177035143105481,0.0,True,0.010290384292602539,-1.2049998044967651,-0.8299996256828308,-0.7177035212516785,0.0,0,0
1759502009.2263021,0,-1.2049998044967651,-0.8299996256828308,-0.7177035136463168,0.0,True,0.01710224151611328,-1.2049998044967651,-0.8299996256828308,-0.7177035212516785,0.0,0,0
1759502009.2364948,0,-1.2049998044967651,-0.8299996256828308,-0.7177035141922765,0.0,True,0.010192632675170898,-1.2049998044967651,-0.8299996256828308,-0.7177035212516785,0.0,0,0
1759502009.247295,0,-1.2049998044967651,-0.8299996256828308,-0.7177035146216362,0.0,True,0.01080012321472168,-1.2049998044967651,-0.8299996256828308,-0.7177035212516785,0.0,0,0
1759502009.2573347,0,-1.2049998044967651,-0.8299996256828308,-0.7177035150715785,0.0,True,0.010039806365966797,-1.2049998044967651,-0.8299996256828308,-0.7177035212516785,0.0,0,0
1759502009.2687933,0,-1.2049998044967651,-0.8299996256828308,-0.7177035152656082,0.0,True,0.011458635330200195,-1.2049998044967651,-0.8299996256828308,-0.7177035212516785,0.0,0,0
1759502009.2790854,0,-1.2049998044967651,-0.8299996256828308,-0.7177035155837359,0.0,True,0.01029205322265625,-1.2049998044967651,-0.8299996256828308,-0.7177035212516785,0.0,0,0
1759502009.2902138,0,-1.2049998044967651,-0.8299996256828308,-0.7177035157665959,0.0,True,0.011128425598144531,-1.2049998044967651,-0.8299996256828308,-0.7177035212516785,0.0,0,0
1759502009.3005345,0,-1.2049998044967651,-0.8299996256828308,-0.7177035160282976,0.0,True,0.010320663452148438,-1.2049998044967651,-0.8299996256828308,-0.7177035212516785,0.0,0,0
1759502009.3108044,0,-1.2049998044967651,-0.8299996256828308,-0.7177035162664396,0.0,True,0.010269880294799805,-1.2049998044967651,-0.8299996256828308,-0.7177035212516785,0.0,0,0
1759502009.3209565,0,-1.2049998044967651,-0.8299996256828308,-0.717703516486754,0.0,True,0.010152101516723633,-1.2049998044967651,-0.8299996256828308,-0.7177035212516785,0.0,0,0
1759502009.3310359,0,-1.2049998044967651,-0.8299996256828308,-0.7177035166875179,0.0,True,0.010079383850097656,-1.2049998044967651,-0.8299996256828308,-0.7177035212516785,0.0,0,0
1759502009.3418677,0,-1.2049998044967651,-0.8299996256828308,-0.7177035167915466,0.0,True,0.010831832885742188,-1.2049998044967651,-0.8299996256828308,-0.7177035212516785,0.0,0,0
1759502009.3520038,0,-1.2049998044967651,-0.8299996256828308,-0.7177035169655355,0.0,True,0.010136127471923828,-1.2049998044967651,-0.8299996256828308,-0.7177035212516785,0.0,0,0
1759502009.3633003,0,-1.2049998044967651,-0.8299996256828308,-0.7177035170212402,0.0,True,0.011296510696411133,-1.2049998044967651,-0.8299996256828308,-0.7177035212516785,0.0,0,0
1759502009.3743374,0,-1.2049998044967651,-0.8299996256828308,-0.717703517117819,0.0,True,0.011037111282348633,-1.2049998044967651,-0.8299996256828308,-0.7177035212516785,0.0,0,0
1759502009.3850727,0,-1.2049998044967651,-0.8299996256828308,-0.7177035172528825,0.0,True,0.010735273361206055,-1.2049998044967651,-0.8299996256828308,-0.7177035212516785,0.0,0,0
1759502009.3954744,0,-1.2049998044967651,-0.8299996256828308,-0.7177035174138915,0.0,True,0.010401725769042969,-1.2049998044967651,-0.8299996256828308,-0.7177035212516785,0.0,0,0
1759502009.4057462,0,-1.2049998044967651,-0.8299996256828308,-0.7177035175722857,0.0,True,0.010271787643432617,-1.2049998044967651,-0.8299996256828308,-0.7177035212516785,0.0,0,0
1759502009.4229445,0,-1.2049998044967651,-0.8299996256828308,-0.7177035171873847,0.0,True,0.01719832420349121,-1.2049998044967651,-0.8299996256828308,-0.7177035212516785,0.0,0,0
1759502009.4342835,0,-1.2049998044967651,-0.8299996256828308,-0.7177035173881716,0.0,True,0.011338949203491211,-1.2049998044967651,-0.8299996256828308,-0.7177035212516785,0.0,0,0
1759502009.4451835,0,-1.2049998044967651,-0.8299996256828308,-0.7177035176300421,0.0,True,0.010900020599365234,-1.2049998044967651,-0.8299996256828308,-0.7177035212516785,0.0,0,0
1759502009.4557295,0,-1.2049998044967651,-0.8299996256828308,-0.7177035178588795,0.0,True,0.010545969009399414,-1.2049998044967651,-0.8299996256828308,-0.7177035212516785,0.0,0,0
1759502009.4659553,0,-1.2049998044967651,-0.8299996256828308,-0.7177035180692286,0.0,True,0.010225772857666016,-1.2049998044967651,-0.8299996256828308,-0.7177035212516785,0.0,0,0
1759502009.4760127,0,-1.2049998044967651,-0.8299996256828308,-0.7177035182532414,0.0,True,0.010057449340820312,-1.2049998044967651,-0.8299996256828308,-0.7177035212516785,0.0,0,0
1759502009.4867282,0,-1.2049998044967651,-0.8299996256828308,-0.7177035183652798,0.0,True,0.010715484619140625,-1.2049998044967651,-0.8299996256828308,-0.7177035212516785,0.0,0,0
1759502009.4970937,0,-1.2049998044967651,-0.8299996256828308,-0.7177035184866583,0.0,True,0.010365486145019531,-1.2049998044967651,-0.8299996256828308,-0.7177035212516785,0.0,0,0
1759502009.5078275,0,-1.2049998044967651,-0.8299996256828308,-0.7177035185750569,0.0,True,0.010733842849731445,-1.2049998044967651,-0.8299996256828308,-0.7177035212516785,0.0,0,0
1759502009.5184436,0,-1.2049998044967651,-0.8299996256828308,-0.7177035186660419,0.0,True,0.010616064071655273,-1.2049998044967651,-0.8299996256828308,-0.7177035212516785,0.0,0,0
1759502009.528884,0,-1.2049998044967651,-0.8299996256828308,-0.7177035187626313,0.0,True,0.010440349578857422,-1.2049998044967651,-0.8299996256828308,-0.7177035212516785,0.0,0,0
1759502009.5393548,0,-1.2049998044967651,-0.8299996256828308,-0.717703518850918,0.0,True,0.010470867156982422,-1.2049998044967651,-0.8299996256828308,-0.7177035212516785,0.0,0,0
1759502009.5502234,0,-1.2049998044967651,-0.8299996256828308,-0.7177035189134315,0.0,True,0.010868549346923828,-1.2049998044967651,-0.8299996256828308,-0.7177035212516785,0.0,0,0
1759502009.5610793,0,-1.2049998044967651,-0.8299996256828308,-0.7177035189781478,0.0,True,0.010855913162231445,-1.2049998044967651,-0.8299996256828308,-0.7177035212516785,0.0,0,0
1759502009.572237,0,-1.2049998044967651,-0.8299996256828308,-0.7177035190306018,0.0,True,0.011157751083374023,-1.2049998044967651,-0.8299996256828308,-0.7177035212516785,0.0,0,0
1759502009.5835094,0,-1.2049998044967651,-0.8299996256828308,-0.7177035190830452,0.0,True,0.011272430419921875,-1.2049998044967651,-0.8299996256828308,-0.7177035212516785,0.0,0,0
1759502009.5941167,0,-1.2049998044967651,-0.8299996256828308,-0.7177035191703585,0.0,True,0.010607242584228516,-1.2049998044967651,-0.8299996256828308,-0.7177035212516785,0.0,0,0
1759502009.6045697,0,-1.2049998044967651,-0.8299996256828308,-0.717703519258901,0.0,True,0.010452985763549805,-1.2049998044967651,-0.8299996256828308,-0.7177035212516785,0.0,0,0
1759502009.617728,0,-1.2049998044967651,-0.8299996256828308,-0.7177035192282464,0.0,True,0.013158321380615234,-1.2049998044967651,-0.8299996256828308,-0.7177035212516785,0.0,0,0
1759502009.628831,0,-1.2049998044967651,-0.8299996256828308,-0.717703519305811,0.0,True,0.011102914810180664,-1.2049998044967651,-0.8299996256828308,-0.7177035212516785,0.0,0,0
1759502009.639563,0,-1.2049998044967651,-0.8299996256828308,-0.7177035193990875,0.0,True,0.010732173919677734,-1.2049998044967651,-0.8299996256828308,-0.7177035212516785,0.0,0,0
1759502009.650483,0,-1.2049998044967651,-0.8299996256828308,-0.7177035194754744,0.0,True,0.010919809341430664,-1.2049998044967651,-0.8299996256828308,-0.7177035212516785,0.0,0,0
1759502009.6613662,0,-1.2049998044967651,-0.8299996256828308,-0.7177035195460402,0.0,True,0.010883331298828125,-1.2049998044967651,-0.8299996256828308,-0.7177035212516785,0.0,0,0
1759502009.6716626,0,-1.2049998044967651,-0.8299996256828308,-0.7177035196311614,0.0,True,0.010296344757080078,-1.2049998044967651,-0.8299996256828308,-0.7177035212516785,0.0,0,0
1759502009.6828206,0,-1.2049998044967651,-0.8299996256828308,-0.7177035196771797,0.0,True,0.011157989501953125,-1.2049998044967651,-0.8299996256828308,-0.7177035212516785,0.0,0,0
1759502009.6940389,0,-1.2049998044967651,-0.8299996256828308,-0.7177035197205655,0.0,True,0.01121830940246582,-1.2049998044967651,-0.8299996256828308,-0.7177035212516785,0.0,0,0
1759502009.7048595,0,-1.2049998044967651,-0.8299996256828308,-0.7177035197780341,0.0,True,0.010820627212524414,-1.2049998044967651,-0.8299996256828308,-0.7177035212516785,0.0,0,0
1759502009.715191,0,-1.2049998044967651,-0.8299996256828308,-0.7177035198473529,0.0,True,0.010331392288208008,-1.2049998044967651,-0.8299996256828308,-0.7177035212516785,0.0,0,0
1759502009.7260003,0,-1.2049998044967651,-0.8299996256828308,-0.7177035198950428,0.0,True,0.01080942153930664,-1.2049998044967651,-0.8299996256828308,-0.7177035212516785,0.0,0.5235987755982988,0.02922553827449271
1759502009.7371645,0,-1.2049998044967651,-0.8299996256828308,-0.7177035199299411,0.0,True,0.011164188385009766,-1.2049998044967651,-0.8299996256828308,-0.7177035212516785,0.0,0.5235987755982988,0.03172975244228857
1759502009.7480497,0,-1.2049998044967651,-0.8299996256828308,-0.7177035199740054,0.0,True,0.010885238647460938,-1.2049998044967651,-0.8299996256828308,-0.7177035212516785,0.0,0.5235987755982988,0.029420306859756364
1759502009.7593582,0,-1.2049998044967651,-0.8299996256828308,-0.7177035200064275,0.0,True,0.011308431625366211,-1.2049998044967651,-0.8299996256828308,-0.7177035212516785,0.0,0.5235987755982988,0.03178310956577648
1759502009.77086,0,-1.2049998044967651,-0.8299996256828308,-0.7177035200360375,0.0,True,0.011501789093017578,-1.2049998044967651,-0.8299996256828308,-0.7177035212516785,0.0,0.5235987755982988,0.033783897673428924
1759502009.7817051,0,-1.2049998044967651,-0.8299996256828308,-0.7177035200848181,0.0,True,0.010845184326171875,-1.2049998044967651,-0.8299996256828308,-0.7177035212516785,0.0,0.5235987755982988,0.0325312595100726
1759502009.7923398,0,-1.2049998044967651,-0.8299996256828308,-0.7177035201358706,0.0,True,0.010634660720825195,-1.2049998044967651,-0.8299996256828308,-0.7177035212516785,0.0,0.5235987755982988,0.029965850318787898
1759502009.8037195,0,-1.2049998044967651,-0.8299996256828308,-0.7177035201651378,0.0,True,0.011379718780517578,-1.2049998044967651,-0.8299996256828308,-0.7177035212516785,0.0,0.5235987755982988,0.03391011206069121
1759502009.8254488,0,-1.2041065823597317,-0.8307781757406401,-0.7172597109300263,0.008858348718825983,True,0.021729230880737305,-1.2036441564559937,-0.8311811089515686,-0.7162981033325195,0.008858348718825983,0.5235987755982988,0.03475878208452458
1759502009.8293266,0,-1.2038108990707634,-0.8310358268142168,-0.7169949268810534,0.008858348718825983,True,0.003877878189086914,-1.2036441564559937,-0.8311811089515686,-0.7162981033325195,0.008858348718825983,0.5235987755982988,0.03376102724578266
1759502009.8401291,0,-1.203680294817773,-0.8311496348440006,-0.7167582514074624,0.008858348718825983,True,0.010802507400512695,-1.2036441564559937,-0.8311811089515686,-0.7162981033325195,0.008858348718825983,0.5235987755982988,0.03265350474438246
1759502009.850796,0,-1.203630748963188,-0.8311927977366079,-0.7165943845700795,0.008858348718825983,True,0.010666847229003906,-1.2036441564559937,-0.8311811089515686,-0.7162981033325195,0.008858348718825983,0.5235987755982988,0.03140996207560076
1759502009.861229,0,-1.203612417062935,-0.8312087603277123,-0.7164773428640565,0.008858348718825983,True,0.010432958602905273,-1.2036441564559937,-0.8311811089515686,-0.7162981033325195,0.008858348718825983,0.5235987755982988,0.03096838713776799
1759502009.872264,0,-1.2036038761910564,-0.8312161922346029,-0.716389943586087,0.008858348718825983,True,0.011034965515136719,-1.2036441564559937,-0.8311811089515686,-0.7162981033325195,0.008858348718825983,0.5235987755982988,0.03204257357776726
1759502009.8824534,0,-1.2036027691166349,-0.8312171500355906,-0.7163315795242227,0.008858348718825983,True,0.010189533233642578,-1.2036441564559937,-0.8311811089515686,-0.7162981033325195,0.008858348718825983,0.5235987755982988,0.03250830047292671
1759502009.893167,0,-1.2036010076605081,-0.831218678739507,-0.7162865378883314,0.008858348718825983,True,0.010713577270507812,-1.2036441564559937,-0.8311811089515686,-0.7162981033325195,0.008858348718825983,0.5235987755982988,0.030056696972782647
1759502009.9042532,0,-1.2035993828105422,-0.8312200893770166,-0.7162534114081094,0.008858348718825983,True,0.011086225509643555,-1.2036441564559937,-0.8311811089515686,-0.7162981033325195,0.008858348718825983,0.5235987755982988,0.02948716020421305
1759502009.915057,0,-1.203599482400235,-0.8312199996085425,-0.7162318940303667,0.008858348718825983,True,0.010803699493408203,-1.2036441564559937,-0.8311811089515686,-0.7162981033325195,0.008858348718825983,0.5235987755982988,0.03262098030546253
1759502009.9257088,0,-1.2035999075303347,-0.8312196273426723,-0.7162174244772945,0.008858348718825983,True,0.010651826858520508,-1.2036441564559937,-0.8311811089515686,-0.7162981033325195,0.008858348718825983,0.5235987755982988,0.03069488081309862
1759502009.9371617,0,-1.2035980251085292,-0.8312212644268007,-0.7162040290815455,0.008858348718825983,True,0.011452913284301758,-1.2036441564559937,-0.8311811089515686,-0.7162981033325195,0.008858348718825983,0.5235987755982988,0.028993382358691554
1759502009.9475749,0,-1.2035999593471884,-0.8312195795460677,-0.7162005762743817,0.008858348718825983,True,0.010413169860839844,-1.2036441564559937,-0.8311811089515686,-0.7162981033325195,0.008858348718825983,0.5235987755982988,0.029775794858936323
1759502009.9588728,0,-1.2035984399986355,-0.8312209014190777,-0.7161939034742559,0.008858348718825983,True,0.011297941207885742,-1.2036441564559937,-0.8311811089515686,-0.7162981033325195,0.008858348718825983,0.5235987755982988,0.029502681801651456
1759502009.9695861,0,-1.2035993515095071,-0.8312201074537651,-0.7161933010036403,0.008858348718825983,True,0.010713338851928711,-1.2036441564559937,-0.8311811089515686,-0.7162981033325195,0.008858348718825983,0.5235987755982988,0.027897146773654964
1759502009.9804618,0,-1.2035992852813304,-0.8312201648581349,-0.7161923087776731,0.008858348718825983,True,0.010875701904296875,-1.2036441564559937,-0.8311811089515686,-0.7162981033325195,0.008858348718825983,0.5235987755982988,0.02899315280646801
1759502009.9910853,0,-1.203599903742921,-0.8312196263952017,-0.7161934804866767,0.008858348718825983,True,0.010623455047607422,-1.2036441564559937,-0.8311811089515686,-0.7162981033325195,0.008858348718825983,0.5235987755982988,0.03096367407795358
1759502010.0013785,0,-1.2036009827567038,-0.8312186871929018,-0.7161960041177053,0.008858348718825983,True,0.010293245315551758,-1.2036441564559937,-0.8311811089515686,-0.7162981033325195,0.008858348718825983,0.5235987755982988,0.029383087661244853
1759502010.0125482,0,-1.2035991581663517,-0.8312202754991606,-0.7161945921084651,0.008858348718825983,True,0.011169672012329102,-1.2036441564559937,-0.8311811089515686,-0.7162981033325195,0.008858348718825983,0.5235987755982988,0.0276673359655868
1759502010.022804,0,-1.1963230692167541,-0.8373860342312491,-0.7088353839601744,0.07971246317823702,True,0.010255813598632812,-1.1922074556350708,-0.8408651351928711,-0.6894803047180176,0.07971246317823702,0.5235987755982988,0.02814677693817939
1759502010.033765,0,-1.1935260711072828,-0.8397534090357592,-0.7029578068380751,0.07971246317823702,True,0.010961055755615234,-1.1922074556350708,-0.8408651351928711,-0.6894803047180176,0.07971246317823702,0.5235987755982988,0.028590698017448766
