timestamp,observer_vehicle_id,vehicle_0_x,vehicle_0_y,vehicle_0_theta,vehicle_0_velocity,vehicle_1_x,vehicle_1_y,vehicle_1_theta,vehicle_1_velocity,vehicle_2_x,vehicle_2_y,vehicle_2_theta,vehicle_2_velocity
1759839567.964477,1,0.0,0.0,0.0,0.0,-1.735,-0.35,-0.7801621756414646,0.0,0.0,0.0,0.0,0.0
1759839567.9751134,1,0.0,0.0,0.0,0.0,-1.735,-0.35,-0.7801621756414646,0.0,0.0,0.0,0.0,0.0
1759839567.98625,1,0.0,0.0,0.0,0.0,-1.735,-0.35,-0.7801621756414646,0.0,0.0,0.0,0.0,0.0
1759839567.9978333,1,-0.2407010989189148,-0.16579411792755128,1.7415930488921723,0.0,-1.735,-0.35,-0.7801621756414646,0.0,0.0,0.0,0.0,0.0
1759839568.0089216,1,-0.4311831832802342,-0.29699754532995387,3.1407534085636026,0.0,-1.735,-0.35,-0.7801621756414646,0.0,0.0,0.0,0.0,0.0
1759839568.0203202,1,-0.5822744486654732,-0.40106870737953754,-2.01085750199155,0.0,-1.735,-0.35,-0.7801621756414646,0.0,0.0,0.0,0.0,0.0
1759839568.0308495,1,-0.7025530845582345,-0.4839162325172902,0.12386924093254795,0.0,-1.735,-0.35,-0.7801621756414646,0.0,0.0,0.0,0.0,0.0
1759839568.0424862,1,-0.7984306890652838,-0.5499564082358387,1.8482349009081986,0.0,-1.735,-0.35,-0.7801621756414646,0.0,0.0,0.0,0.0,0.0
1759839568.0533223,1,-0.8794752392775259,-0.6057795686494835,1.3367470460515913,0.0,-1.735,-0.35,-0.7801621756414646,0.0,0.0,0.0,0.0,0.0
1759839568.0635402,1,-0.9436993288483189,-0.6500168633860406,0.9314163764549902,0.0,-1.735,-0.35,-0.7801621756414646,0.0,0.0,0.0,0.0,0.0
1759839568.0735626,1,-0.99472861894624,-0.685165633284456,0.6093606421867704,0.0,-1.735,-0.35,-0.7801621756414646,0.0,0.0,0.0,0.0,0.0
1759839568.0847597,1,-1.0353215380382188,-0.7131258727847715,0.3531708668798589,0.0,-1.735,-0.35,-0.7801621756414646,0.0,0.0,0.0,0.0,0.0
1759839568.0956905,1,-1.0677070465383756,-0.7354328808605424,0.14877964960732015,0.0,-1.735,-0.35,-0.7801621756414646,0.0,0.0,0.0,0.0,0.0
1759839568.1066747,1,-1.095089691693898,-0.7542939367744012,-0.024037528034097352,0.0,-1.735,-0.35,-0.7801621756414646,0.0,0.0,0.0,0.0,0.0
1759839568.117793,1,-1.1167665509084796,-0.7692248702675308,-0.1608443853818024,0.0,-1.735,-0.35,-0.7801621756414646,0.0,0.0,0.0,0.0,0.0
1759839568.1284578,1,-1.1339800361726327,-0.7810814497249066,-0.26948202516522984,0.0,-1.735,-0.35,-0.7801621756414646,0.0,0.0,0.0,0.0,0.0
1759839568.1396675,1,-1.1476761170322787,-0.7905152551672716,-0.35592064442460114,0.0,-1.735,-0.35,-0.7801621756414646,0.0,0.0,0.0,0.0,0.0
1759839568.150271,1,-1.1592273219457883,-0.7984716786796366,-0.42882253612178856,0.0,-1.735,-0.35,-0.7801621756414646,0.0,0.0,0.0,0.0,0.0
1759839568.162499,1,-1.1683389297685203,-0.8047477175222553,-0.4863276580249745,0.0,-1.7350002506176632,-0.3499986346065998,-0.7229974524431348,0.0,0.0,0.0,0.0,0.0
1759839568.173247,1,-1.1755579552114341,-0.8097201532292166,-0.5318883259327053,0.0,-1.735000252019728,-0.3499986269679906,-0.7181145037136965,0.0,0.0,0.0,0.0,0.0
1759839568.1837356,1,-1.1812937047611807,-0.8136709144632475,-0.5680877523655936,0.0,-1.7350002524596146,-0.3499986245714385,-0.7176558564672213,0.0,0.0,0.0,0.0,0.0
1759839568.1940556,1,-1.1858631167234888,-0.8168183070553459,-0.5969261963625849,0.0,-1.7350002526230872,-0.34999862368082163,-0.7175961033870504,0.0,0.0,0.0,0.0,0.0
1759839568.2055197,1,-1.1895078939845671,-0.8193288149819657,-0.6199290916568011,0.0,-1.7350002526852801,-0.34999862334198784,-0.7175853269592771,0.0,0.0,0.0,0.0,0.0
1759839568.216555,1,-1.1925911201079864,-0.8214525287422177,-0.6393879289478418,0.0,-1.735000252709022,-0.3499986232126399,-0.7175927527223553,0.0,0.0,0.0,0.0,0.0
1759839568.2272425,1,-1.1950342031154428,-0.8231353144973601,-0.6548066990372308,0.0,-1.7350002527180897,-0.3499986231632376,-0.7176053813009453,0.0,0.0,0.0,0.0,0.0
1759839568.2379541,1,-1.1969749389706295,-0.8244720855532902,-0.6670550589431481,0.0,-1.7350002527215533,-0.3499986231443678,-0.7176175750832954,0.0,0.0,0.0,0.0,0.0
1759839568.2488852,1,-1.1985201937145076,-0.8255364508094555,-0.676807460950234,0.0,-1.7350002527228763,-0.34999862313716024,-0.7176279810185342,0.0,0.0,0.0,0.0,0.0
1759839568.2597132,1,-1.1998240104942532,-0.8264345145664278,-0.6850361011987353,0.0,-1.7350002527233817,-0.34999862313440716,-0.7176370600691229,0.0,0.0,0.0,0.0,0.0
1759839568.2703264,1,-1.200854498171067,-0.8271443103359942,-0.6915397085343218,0.0,-1.7350002527235746,-0.3499986231333556,-0.7176448766136332,0.0,0.0,0.0,0.0,0.0
1759839568.2815528,1,-1.2016705198503617,-0.8277063827885525,-0.6966897794171371,0.0,-1.7350002527236483,-0.34999862313295393,-0.7176507374295404,0.0,0.0,0.0,0.0,0.0
1759839568.2918136,1,-1.202319080604249,-0.8281531088288282,-0.7007829719622399,0.0,-1.7350002527236765,-0.3499986231328005,-0.7176565995075315,0.0,0.0,0.0,0.0,0.0
1759839568.3020902,1,-1.2028357974212003,-0.8285090212953119,-0.7040440718829454,0.0,-1.7350002527236872,-0.3499986231327419,-0.7176613237176355,0.0,0.0,0.0,0.0,0.0
1759839568.3124876,1,-1.2032484240044437,-0.8287932368272263,-0.7066482381762651,0.0,-1.7350002527236914,-0.3499986231327195,-0.7176650833626432,0.0,0.0,0.0,0.0,0.0
1759839568.3233497,1,-1.2035976019250059,-0.8290337491753286,-0.7088519676692897,0.0,-1.735000252723693,-0.34999862313271096,-0.7176679382611049,0.0,0.0,0.0,0.0,0.0
1759839568.33472,1,-1.2038739834823162,-0.8292241196810406,-0.7105962652130529,0.0,-1.7350002527236934,-0.3499986231327077,-0.7176701810171338,0.0,0.0,0.0,0.0,0.0
1759839568.3450031,1,-1.2040935821251928,-0.8293753783435395,-0.7119821947848775,0.0,-1.7350002527236936,-0.34999862313270647,-0.7176728993358399,0.0,0.0,0.0,0.0,0.0
1759839568.3552456,1,-1.2042684988289618,-0.8294958602659878,-0.7130861279840275,0.0,-1.7350002527236938,-0.34999862313270597,-0.7176752307150558,0.0,0.0,0.0,0.0,0.0
1759839568.3707054,1,-1.2044074005405094,-0.8295915352065624,-0.7139627635911023,0.0,-1.7350000589698522,-0.3499995165231652,-0.7176752640896087,6.389655239634268e-06,0.0,0.0,0.0,0.0
1759839568.3810215,1,-1.2045254258852864,-0.8296728305896216,-0.7147076444036998,0.0,-1.7350000012871727,-0.3499998202666358,-0.7176782371410404,6.389655239634268e-06,0.0,0.0,0.0,0.0
1759839568.3916805,1,-1.2046189345733773,-0.8297372389981044,-0.7152977958470338,0.0,-1.734999978624183,-0.34999993683673913,-0.7176805987622412,6.389655239634268e-06,0.0,0.0,0.0,0.0
1759839568.401706,1,-1.2046932560900723,-0.8297884313600558,-0.7157668533351004,0.0,-1.734999971132595,-0.34999998034591645,-0.7176827307258051,6.389655239634268e-06,0.0,0.0,0.0,0.0
1759839568.4132016,1,-1.2047523785207583,-0.8298291546526595,-0.7161399864472752,0.0,-1.7349485332162105,-0.34998949639214105,-0.7096744654672763,5.814586268067184e-06,0.0,0.0,0.0,0.0
1759839568.4233484,1,-1.2047996045677347,-0.8298616837639836,-0.7164380391775093,0.0,-1.734958305504798,-0.34999148393960733,-0.7111973172878333,5.866345616175479e-06,0.0,0.0,0.0,0.0
1759839568.433475,1,-1.2048374193336502,-0.829887730422743,-0.7166766954899846,0.0,-1.7349661291013707,-0.349993075169389,-0.7124166523343038,5.908528450923368e-06,0.0,0.0,0.0,0.0
1759839568.44451,1,-1.2048697360898977,-0.8299099900745436,-0.7168806527984732,0.0,-1.7349727367532004,-0.3499944346042474,-0.7134470226392979,6.002521904652881e-06,0.0,0.0,0.0,0.0
1759839568.4545135,1,-1.2048953701143734,-0.829927646687562,-0.717042434092293,0.0,-1.7349727379085549,-0.3499944338663701,-0.7134479434382038,6.002521904652881e-06,0.0,0.0,0.0,0.0
1759839568.467009,1,-1.204915699812447,-0.8299416497018764,-0.7171707387547328,0.0,-1.7349774941802039,-0.34999541661001476,-0.7141897579461953,6.071783042798528e-06,0.0,0.0,0.0,0.0
1759839568.477297,1,-1.2049319075037042,-0.8299528134944648,-0.7172730286337142,0.0,-1.734981462678668,-0.3499962312073695,-0.7148085697779403,6.127894879394748e-06,0.0,0.0,0.0,0.0
1759839568.4882364,1,-1.204944851591846,-0.829961729330346,-0.7173547212812694,0.0,-1.7349846265041955,-0.34999688346479374,-0.7153021683814744,6.172658541275336e-06,0.0,0.0,0.0,0.0
1759839568.4995668,1,-1.2049552115472342,-0.8299688652259736,-0.717420104966465,0.0,-1.7349894496711016,-0.3499978793812021,-0.7160543013973797,6.240916382834267e-06,0.0,0.0,0.0,0.0
1759839568.5098846,1,-1.2049640755114173,-0.8299749706888725,-0.7174760471613889,0.0,-1.7349894510675163,-0.34999787816448935,-0.716054950864722,6.240916382834267e-06,0.0,0.0,0.0,0.0
1759839568.5204628,1,-1.204971110817413,-0.8299798165793628,-0.7175204483402797,0.0,-1.734991215118518,-0.34999824249144457,-0.7163303526193603,6.265876465817432e-06,0.0,0.0,0.0,0.0
1759839568.530764,1,-1.2049767103936158,-0.829983673544943,-0.7175557883503436,0.0,-1.7349926661969919,-0.3499985421059885,-0.7165569280142173,6.2864224023127595e-06,0.0,0.0,0.0,0.0
1759839568.542022,1,-1.2049811736816427,-0.829986747839795,-0.7175839570256285,0.0,-1.7349938618212617,-0.34999879117949373,-0.7167437593944168,6.303376508167553e-06,0.0,0.0,0.0,0.0
1759839568.5536537,1,-1.2049847392890447,-0.829989203815841,-0.7176064602646066,0.0,-1.734994849773786,-0.3499989972435046,-0.7168981409995662,6.31738586449332e-06,0.0,0.0,0.0,0.0
1759839568.5661025,1,-1.204987756239765,-0.82999128187937,-0.7176255008249913,0.0,-1.7349957219513876,-0.34999908290079496,-0.7170292228702306,5.785962275185373e-07,0.0,0.0,0.0,0.0
1759839568.5767903,1,-1.2049901521664612,-0.8299929321840475,-0.7176406219824658,0.0,-1.7349964522648376,-0.34999922648410403,-0.717142406432266,5.888371213014146e-07,0.0,0.0,0.0,0.0
1759839568.587937,1,-1.2049920588325767,-0.8299942454880037,-0.7176526553216456,0.0,-1.7349970302069926,-0.34999934347557676,-0.7172324293892637,5.969832018847444e-07,0.0,0.0,0.0,0.0
1759839568.599167,1,-1.2049935800133287,-0.829995293271191,-0.7176622557880267,0.0,-1.7349975067444654,-0.34999944142843925,-0.717306874566185,6.03717405390653e-07,0.0,0.0,0.0,0.0
1759839568.6106904,1,-1.2049947964738452,-0.829996131164305,-0.7176699331059767,0.0,-1.7349979010955585,-0.34999952315266186,-0.7173685569850003,6.092971901698072e-07,0.0,0.0,0.0,0.0
1759839568.6214175,1,-1.2049957727138068,-0.8299968035944665,-0.7176760943454735,0.0,-1.7349982384684761,-0.3499995934444397,-0.7174215123428496,6.140742673038371e-07,0.0,0.0,0.0,0.0
1759839568.6319513,1,-1.2049966070908236,-0.8299973783100018,-0.717681360260447,0.0,-1.7349982385268878,-0.34999959339345,-0.7174218692803339,6.140742673038371e-07,0.0,0.0,0.0,0.0
1759839568.6424203,1,-1.2049972712406485,-0.8299978357737315,-0.7176855518386391,0.0,-1.7349985302456976,-0.34999965219192436,-0.7174674949374906,5.578907256082552e-07,0.0,0.0,0.0,0.0
1759839568.6532242,1,-1.2049978010203561,-0.8299982006838645,-0.717688895380993,0.0,-1.7349987719378441,-0.3499996985755069,-0.7175050849323001,4.56358901558203e-07,0.0,0.0,0.0,0.0
1759839568.6645203,1,-1.2049982244727209,-0.8299984923561512,-0.71769156787089,0.0,-1.7349989717093388,-0.3499997359238528,-0.7175361046145428,3.7551215890430974e-07,0.0,0.0,0.0,0.0
1759839568.6754084,1,-1.2049985639829142,-0.8299987262094076,-0.7176937105854835,0.0,-1.7349991405180736,-0.34999976688010187,-0.7175623950297579,3.1149152436347863e-07,0.0,0.0,0.0,0.0
1759839568.6855574,1,-1.204998837103318,-0.8299989143336439,-0.7176954343012564,0.0,-1.7349992798483618,-0.34999979187938135,-0.7175841990860787,2.601888344243547e-07,0.0,0.0,0.0,0.0
1759839568.6962464,1,-1.204999071692138,-0.82999907591748,-0.7176969148367385,0.0,-1.7349992798485436,-0.3499997918792234,-0.7175843950090781,2.601888344243547e-07,0.0,0.0,0.0,0.0
1759839568.7074842,1,-1.2049992584591804,-0.829999204561868,-0.7176980935597205,0.0,-1.7349994000629074,-0.3499998126982582,-0.7176030686998879,2.1604890196421537e-07,0.0,0.0,0.0,0.0
1759839568.718149,1,-1.204999407637565,-0.8299993073153396,-0.7176990350534003,0.0,-1.7349994991733293,-0.3499998295338986,-0.7176185503275964,1.8094489108359345e-07,0.0,0.0,0.0,0.0
1759839568.7283845,1,-1.2049995271465255,-0.8299993896326311,-0.7176997892975988,0.0,-1.7349995782881795,-0.34999984261796985,-0.7176309742780071,1.529364391438657e-07,0.0,0.0,0.0,0.0
1759839568.739313,1,-1.2049996230460605,-0.8299994556878454,-0.7177003945381406,0.0,-1.7349996444604996,-0.3499998533764752,-0.7176413135928036,1.299937905941323e-07,0.0,0.0,0.0,0.0
1759839568.7493987,1,-1.204999700267559,-0.8299995088777032,-0.7177008818979763,0.0,-1.7349997019366799,-0.3499998625825171,-0.717650378476121,1.0979708864480557e-07,0.0,0.0,0.0,0.0
1759839568.7604458,1,-1.2049997662528997,-0.8299995543281407,-0.7177012983442426,0.0,-1.7349997019366803,-0.34999986258251664,-0.7176504797606282,1.0979708864480557e-07,0.0,0.0,0.0,0.0
1759839568.771925,1,-1.204999818895955,-0.8299995905884655,-0.717701630584761,0.0,-1.7349997515777067,-0.34999987023463824,-0.7176581980186351,9.23660807545155e-08,0.0,0.0,0.0,0.0
1759839568.7826154,1,-1.2049998610431683,-0.8299996196192967,-0.7177018965839881,0.0,-1.7349997928284646,-0.3499998764563171,-0.7176647011605434,7.784532136299999e-08,0.0,0.0,0.0,0.0
1759839568.7939231,1,-1.2049998948494542,-0.8299996429049307,-0.7177021099420083,0.0,-1.7349998271453926,-0.3499998815179752,-0.71767008401113,6.57518986175466e-08,0.0,0.0,0.0,0.0
1759839568.8050466,1,-1.2049999220424494,-0.8299996616353563,-0.7177022815622676,0.0,-1.7349998546114285,-0.3499998854471728,-0.7176744295277663,5.6077944436208676e-08,0.0,0.0,0.0,0.0
1759839568.8151674,1,-1.2049999439966557,-0.8299996767573253,-0.7177024201195159,0.0,-1.7349998778491782,-0.3499998887032271,-0.7176781937453595,4.788179640164897e-08,0.0,0.0,0.0,0.0
1759839568.8261526,1,-1.204999962805339,-0.8299996897126709,-0.7177025388247598,0.0,-1.7349998778491782,-0.3499998887032271,-0.717678300047832,4.788179640164897e-08,0.0,0.0,0.0,0.0
1759839568.8373492,1,-1.2049999778582932,-0.8299997000810853,-0.7177026338268692,0.0,-1.7349998975012604,-0.3499998913989677,-0.7176814111878328,4.095404445117603e-08,0.0,0.0,0.0,0.0
1759839568.8489194,1,-1.204999989932199,-0.829999708397543,-0.7177027100276279,0.0,-1.7349999145866462,-0.3499998936398527,-0.7176841079401699,3.4937481032331884e-08,0.0,0.0,0.0,0.0
1759839568.8603032,1,-1.204999999644685,-0.8299997150874643,-0.7177027713250087,0.0,-1.7349999289860543,-0.34999989549096344,-0.7176864138715223,2.986909130264609e-08,0.0,0.0,0.0,0.0
1759839568.870417,1,-1.205000007489221,-0.8299997204907492,-0.7177028208333951,0.0,-1.7349999411457404,-0.34999989702248785,-0.7176884533878318,2.559570549450333e-08,0.0,0.0,0.0,0.0
1759839568.8816774,1,-1.2050000142229012,-0.829999725128881,-0.7177028633309541,0.0,-1.734999951464643,-0.3499998982958917,-0.7176901235373453,2.1972069901150437e-08,0.0,0.0,0.0,0.0
1759839568.8928711,1,-1.2050000196124304,-0.8299997288411671,-0.7177028973453171,0.0,-1.7349999602490063,-0.3499998993563102,-0.7176915592357684,1.8889731090335497e-08,0.0,0.0,0.0,0.0
1759839568.9035642,1,-1.2050000239397656,-0.8299997318218182,-0.7177029246559682,0.0,-1.734999967908994,-0.34999990023509536,-0.7176928500275844,1.6204599653385363e-08,0.0,0.0,0.0,0.0
1759839568.9142041,1,-1.205000027423138,-0.8299997342211511,-0.717702946640206,0.0,-1.734999974421797,-0.3499999009680759,-0.7176939587726644,1.3922833966389587e-08,0.0,0.0,0.0,0.0
1759839568.9256308,1,-1.2050000302316581,-0.8299997361556485,-0.7177029643653204,0.0,-1.7349999849201527,-0.3499999021193726,-0.7176956349374225,1.0246965557881242e-08,0.0,0.0,0.0,0.0
1759839568.9362018,1,-1.2050000326418016,-0.8299997378157457,-0.7177029795762035,0.0,-1.7349999849201527,-0.34999990211937265,-0.7176957368466652,1.0246965557881242e-08,0.0,0.0,0.0,0.0
1759839568.9469225,1,-1.2050000345719436,-0.8299997391452199,-0.7177029917577046,0.0,-1.734999988891157,-0.34999990253508934,-0.7176964378492848,8.857531610694441e-09,0.0,0.0,0.0,0.0
1759839568.9575458,1,-1.2050000361217337,-0.8299997402127088,-0.7177030015387286,0.0,-1.7349999923541464,-0.34999990287715416,-0.7176970587201636,7.647037469021897e-09,0.0,0.0,0.0,0.0
1759839568.9732795,1,-1.2050000373622718,-0.8299997410671864,-0.7177030093680045,0.0,-1.734999998125304,-0.34999990343805454,-0.7176978166894962,5.630332404633255e-09,0.0,0.0,0.0,0.0
1759839568.980787,1,-1.2050000383679451,-0.8299997417598901,-0.7177030157150032,0.0,-1.7350000003623876,-0.3499999036460143,-0.7176984236252223,4.849098462096089e-09,0.0,0.0,0.0,0.0
1759839568.9908412,1,-1.205000039231985,-0.8299997423550373,-0.7177030211681266,0.0,-1.7350000003623876,-0.3499999036460143,-0.7176985382340663,4.849098462096089e-09,0.0,0.0,0.0,0.0
1759839569.0011234,1,-1.2050000399242764,-0.8299997428318846,-0.7177030255373106,0.0,-1.7350000022617051,-0.3499999038174237,-0.7176989122480656,4.186126619772437e-09,0.0,0.0,0.0,0.0
1759839569.0122297,1,-1.2050000404798067,-0.8299997432145317,-0.7177030290433708,0.0,-1.7350000040118865,-0.34999990396768044,-0.7176992240515939,3.57580256796327e-09,0.0,0.0,0.0,0.0
1759839569.0230634,1,-1.2050000409268815,-0.8299997435224751,-0.7177030318649458,0.0,-1.7350000054825754,-0.3499999040896964,-0.717699505280504,3.0631858114542367e-09,0.0,0.0,0.0,0.0
1759839569.033291,1,-1.2050000412878223,-0.8299997437710896,-0.7177030341429133,0.0,-1.735000006722269,-0.3499999041890501,-0.7176997728342434,2.6312908839466703e-09,0.0,0.0,0.0,0.0
1759839569.0434375,1,-1.2050000415799433,-0.8299997439723015,-0.7177030359865458,0.0,-1.7350000078207004,-0.349999904275351,-0.7177000140389876,2.248794198870348e-09,0.0,0.0,0.0,0.0
1759839569.0538223,1,-1.2050000418315747,-0.8299997441456242,-0.7177030375746406,0.0,-1.7350000078207004,-0.349999904275351,-0.7177000674639819,2.248794198870348e-09,0.0,0.0,0.0,0.0
1759839569.0651243,1,-1.205000042033341,-0.8299997442846001,-0.7177030388480276,0.0,-1.7350000087029647,-0.349999904340875,-0.7177002273818469,1.9417281694273387e-09,0.0,0.0,0.0,0.0
1759839569.0757153,1,-1.2050000421956761,-0.8299997443964159,-0.7177030398725559,0.0,-1.7350000095142983,-0.349999904397581,-0.7177004057066726,1.6596179643088451e-09,0.0,0.0,0.0,0.0
1759839569.0867944,1,-1.2050000423265383,-0.8299997444865532,-0.7177030406984527,0.0,-1.7350000107978871,-0.3499999044826512,-0.7177006436836602,1.2136011894514191e-09,0.0,0.0,0.0,0.0
1759839569.0971372,1,-1.205000042432387,-0.8299997445594613,-0.7177030413664841,0.0,-1.7350000107978871,-0.3499999044826512,-0.7177007009851917,1.2136011894514191e-09,0.0,0.0,0.0,0.0
1759839569.1074688,1,-1.2050000425182097,-0.8299997446185756,-0.7177030419081264,0.0,-1.7350000113025932,-0.3499999045141335,-0.7177008357549283,1.0383525677687309e-09,0.0,0.0,0.0,0.0
1759839569.1182933,1,-1.2050000425928638,-0.8299997446699969,-0.7177030423792822,0.0,-1.7350000113025932,-0.3499999045141335,-0.7177008709836201,1.0383525677687309e-09,0.0,0.0,0.0,0.0
1759839569.1293895,1,-1.2050000426527685,-0.8299997447112591,-0.7177030427573527,0.0,-1.7350000117369544,-0.34999990453875657,-0.7177009711886438,8.876681475269188e-10,0.0,0.0,0.0,0.0
1759839569.1409044,1,-1.2050000427009406,-0.8299997447444398,-0.7177030430613757,0.0,-1.7350000121016376,-0.3499999045584744,-0.7177010527532122,7.61208874734165e-10,0.0,0.0,0.0,0.0
1759839569.1514273,1,-1.2050000427398238,-0.8299997447712224,-0.7177030433067748,0.0,-1.7350000124100553,-0.34999990457436536,-0.717701153891935,6.543081122916711e-10,0.0,0.0,0.0,0.0
1759839569.1628199,1,-1.2050000427712553,-0.8299997447928723,-0.7177030435051456,0.0,-1.7350000126713223,-0.3499999045871601,-0.7177012243199646,5.637907651895508e-10,0.0,0.0,0.0,0.0
1759839569.179886,1,-1.2050000427980987,-0.829999744811362,-0.7177030436745594,0.0,-1.7350000128930352,-0.3499999045974521,-0.7177011676602685,4.870116139112294e-10,0.0,0.0,0.0,0.0
1759839569.1911104,1,-1.205000042819678,-0.8299997448262257,-0.7177030438107508,0.0,-1.7350000130821532,-0.3499999046057749,-0.7177012704516845,4.215497754870363e-10,0.0,0.0,0.0,0.0
1759839569.202518,1,-1.2050000428370673,-0.8299997448382035,-0.7177030439204983,0.0,-1.735000013247567,-0.3499999046120908,-0.7177013651115219,3.6435012166234704e-10,0.0,0.0,0.0,0.0
1759839569.2140286,1,-1.2050000428511156,-0.8299997448478799,-0.7177030440091596,0.0,-1.7350000133794958,-0.34999990461655933,-0.7177014427688115,3.187519727888579e-10,0.0,0.0,0.0,0.0
1759839569.2255392,1,-1.2050000428624947,-0.8299997448557177,-0.7177030440809758,0.0,-1.7350000134936447,-0.34999990462028646,-0.7177015102906644,2.793114772719702e-10,0.0,0.0,0.0,0.0
1759839569.236613,1,-1.2050000428717407,-0.8299997448620865,-0.71770304413933,0.0,-1.7350000135932193,-0.34999990462340863,-0.7177015781439278,2.4491910668444993e-10,0.0,0.0,0.0,0.0
1759839569.2481496,1,-1.2050000428797478,-0.8299997448676019,-0.7177030441898655,0.0,-1.7350000135932193,-0.34999990462340863,-0.7177016141264727,2.4491910668444993e-10,0.0,0.0,0.0,0.0
1759839569.2584794,1,-1.205000042886211,-0.8299997448720537,-0.7177030442306567,0.0,-1.7350000136860662,-0.34999990462636615,-0.7177016835645876,2.1286064279912732e-10,0.0,0.0,0.0,0.0
1759839569.268663,1,-1.2050000428914414,-0.8299997448756564,-0.7177030442636669,0.0,-1.7350000137606665,-0.349999904628432,-0.7177017445780425,1.8711498709931208e-10,0.0,0.0,0.0,0.0
1759839569.2798817,1,-1.205000042895679,-0.8299997448785753,-0.7177030442904121,0.0,-1.7350000138266073,-0.3499999046298762,-0.7177017805797867,1.6438146760446513e-10,0.0,0.0,0.0,0.0
1759839569.2917163,1,-1.205000042899119,-0.8299997448809446,-0.7177030443121218,0.0,-1.7350000138843338,-0.349999904631095,-0.7177018049034575,1.444854643631648e-10,0.0,0.0,0.0,0.0
1759839569.303918,1,-1.2050000429019176,-0.8299997448828723,-0.7177030443297839,0.0,-1.7350000139305184,-0.3499999046318738,-0.7177018251380474,1.2857525798555525e-10,0.0,0.0,0.0,0.0
1759839569.315081,1,-1.2050000429043481,-0.8299997448845463,-0.7177030443451227,0.0,-1.7350000139305184,-0.3499999046318738,-0.7177018549929916,1.2857525798555525e-10,0.0,0.0,0.0,0.0
1759839569.3264785,1,-1.2050000429063135,-0.8299997448859,-0.7177030443575265,0.0,-1.7350000139719148,-0.34999990463256603,-0.7177018887361324,1.1431801002541942e-10,0.0,0.0,0.0,0.0
1759839569.3370836,1,-1.2050000429079084,-0.8299997448869987,-0.7177030443675925,0.0,-1.7350000140118778,-0.3499999046333068,-0.7177019313840739,1.005566968982826e-10,0.0,0.0,0.0,0.0
1759839569.3484092,1,-1.205000042909205,-0.8299997448878916,-0.7177030443757744,0.0,-1.7350000140441348,-0.34999990463377023,-0.7177019591868863,8.945443566391433e-11,0.0,0.0,0.0,0.0
1759839569.3590949,1,-1.2050000429102623,-0.8299997448886198,-0.7177030443824468,0.0,-1.7350000140754944,-0.34999990463413355,-0.7177019940295234,7.867037753274402e-11,0.0,0.0,0.0,0.0
1759839569.370097,1,-1.2050000429111778,-0.8299997448892503,-0.717703044388224,0.0,-1.7350000140754944,-0.34999990463413355,-0.7177020154467018,7.867037753274402e-11,0.0,0.0,0.0,0.0
1759839569.3895388,1,-1.2050000429119119,-0.8299997448897561,-0.7177030443928585,0.0,-1.735000014126724,-0.3499999046346167,-0.7177019529638595,6.106135624404611e-11,0.0,0.0,0.0,0.0
1759839569.400575,1,-1.2050000429125092,-0.8299997448901676,-0.7177030443966282,0.0,-1.7350000141475852,-0.3499999046347579,-0.7177020030988569,5.3894802151140225e-11,0.0,0.0,0.0,0.0
1759839569.4118702,1,-1.2050000429129961,-0.829999744890503,-0.7177030443997016,0.0,-1.7350000141673256,-0.34999990463481523,-0.7177020495264629,4.711913906152731e-11,0.0,0.0,0.0,0.0
1759839569.423159,1,-1.2050000429133942,-0.8299997448907772,-0.7177030444022136,0.0,-1.7350000141842452,-0.3499999046348273,-0.7177020880540892,4.1313816214242477e-11,0.0,0.0,0.0,0.0
1759839569.4346416,1,-1.2050000429137424,-0.8299997448910171,-0.7177030444044118,0.0,-1.7350000141842452,-0.3499999046348273,-0.7177021142786956,4.1313816214242477e-11,0.0,0.0,0.0,0.0
1759839569.4459226,1,-1.2050000429140248,-0.8299997448912118,-0.7177030444061946,0.0,-1.735000014198819,-0.3499999046348067,-0.7177021432469407,3.631516254601782e-11,0.0,0.0,0.0,0.0
1759839569.456825,1,-1.2050000429142547,-0.82999974489137,-0.7177030444076448,0.0,-1.7350000142104947,-0.3499999046347424,-0.7177021717917076,3.2312449871585705e-11,0.0,0.0,0.0,0.0
1759839569.467116,1,-1.2050000429144423,-0.8299997448914991,-0.7177030444088283,0.0,-1.735000014220843,-0.3499999046346764,-0.7177022018894339,2.8765664897735757e-11,0.0,0.0,0.0,0.0
1759839569.4785275,1,-1.2050000429145955,-0.8299997448916047,-0.717703044409795,0.0,-1.7350000142301256,-0.34999990463456326,-0.7177022185625247,2.5587728245516185e-11,0.0,0.0,0.0,0.0
1759839569.4887755,1,-1.2050000429147212,-0.8299997448916913,-0.7177030444105877,0.0,-1.7350000142382833,-0.3499999046344589,-0.7177022433305014,2.279536642383394e-11,0.0,0.0,0.0,0.0
1759839569.5000854,1,-1.2050000429148313,-0.829999744891767,-0.7177030444112816,0.0,-1.735000014245486,-0.34999990463435904,-0.7177022568875175,2.0330541826056395e-11,0.0,0.0,0.0,0.0
1759839569.510621,1,-1.2050000429149208,-0.8299997448918286,-0.7177030444118463,0.0,-1.7350000142518514,-0.349999904634264,-0.717702275436487,1.815282823978525e-11,0.0,0.0,0.0,0.0
1759839569.5210505,1,-1.2050000429149939,-0.8299997448918789,-0.7177030444123069,0.0,-1.7350000142574344,-0.349999904634172,-0.71770229293985,1.6243364095249783e-11,0.0,0.0,0.0,0.0
1759839569.5312686,1,-1.2050000429150536,-0.8299997448919201,-0.7177030444126838,0.0,-1.7350000142619313,-0.3499999046340793,-0.7177023099508626,1.4706035622549812e-11,0.0,0.0,0.0,0.0
1759839569.541861,1,-1.2050000429151024,-0.8299997448919537,-0.7177030444129925,0.0,-1.735000014266067,-0.3499999046339706,-0.7177023228387318,1.3293967611151464e-11,0.0,0.0,0.0,0.0
1759839569.5520754,1,-1.2050000429151453,-0.8299997448919831,-0.7177030444132627,0.0,-1.7350000142697772,-0.34999990463387487,-0.7177023372657101,1.2027151428952337e-11,0.0,0.0,0.0,0.0
1759839569.5633368,1,-1.2050000429151801,-0.8299997448920071,-0.7177030444134823,0.0,-1.7350000142734698,-0.34999990463379443,-0.717702344224044,1.0766112751150883e-11,0.0,0.0,0.0,0.0
1759839569.5744715,1,-1.2050000429152083,-0.8299997448920267,-0.7177030444136613,0.0,-1.7350000142767283,-0.34999990463372066,-0.7177023527099581,9.653477169474253e-12,0.0,0.0,0.0,0.0
1759839569.5908418,1,-1.2050000429152312,-0.8299997448920424,-0.7177030444138066,0.0,-1.7350000142826123,-0.34999990463355896,-0.7177023335669419,7.64692770355772e-12,0.0,0.0,0.0,0.0
1759839569.6015744,1,-1.2050000429152514,-0.8299997448920563,-0.7177030444139341,0.0,-1.7350000142826123,-0.34999990463355896,-0.7177023522257204,7.64692770355772e-12,0.0,0.0,0.0,0.0
1759839569.61224,1,-1.2050000429152679,-0.8299997448920676,-0.7177030444140374,0.0,-1.7350000142851294,-0.3499999046334894,-0.7177023719723752,6.788647740412159e-12,0.0,0.0,0.0,0.0
1759839569.6238604,1,-1.205000042915281,-0.8299997448920768,-0.7177030444141214,0.0,-1.7350000142873405,-0.3499999046334252,-0.7177023838257889,6.034919509406843e-12,0.0,0.0,0.0,0.0
1759839569.634559,1,-1.2050000429152918,-0.8299997448920843,-0.7177030444141899,0.0,-1.7350000142892859,-0.34999990463336567,-0.7177023993477846,5.372100304031771e-12,0.0,0.0,0.0,0.0
1759839569.6457133,1,-1.2050000429153007,-0.8299997448920905,-0.7177030444142459,0.0,-1.7350000142910211,-0.34999990463330244,-0.7177024112542353,4.781425792882056e-12,0.0,0.0,0.0,0.0
1759839569.6558037,1,-1.205000042915308,-0.8299997448920955,-0.7177030444142919,0.0,-1.7350000142924034,-0.3499999046332464,-0.7177024266817211,4.31112926586901e-12,0.0,0.0,0.0,0.0
1759839569.6664972,1,-1.2050000429153143,-0.8299997448920998,-0.7177030444143323,0.0,-1.7350000142924034,-0.3499999046332464,-0.7177024358399041,4.31112926586901e-12,0.0,0.0,0.0,0.0
1759839569.6772819,1,-1.2050000429153196,-0.8299997448921035,-0.717703044414365,0.0,-1.735000014293766,-0.3499999046331951,-0.7177024451727103,3.847393199945543e-12,0.0,0.0,0.0,0.0
1759839569.6886466,1,-1.2050000429153238,-0.8299997448921064,-0.7177030444143918,0.0,-1.7350000142948554,-0.3499999046331496,-0.7177024511790085,3.4768662877995975e-12,0.0,0.0,0.0,0.0
1759839569.7000396,1,-1.2050000429153271,-0.8299997448921088,-0.7177030444144137,0.0,-1.7350000142958317,-0.3499999046331085,-0.7177024574637987,3.1448689125978903e-12,0.0,0.0,0.0,0.0
1759839569.7113914,1,-1.20500004291533,-0.8299997448921107,-0.7177030444144316,0.0,-1.735000014296709,-0.3499999046330706,-0.7177024642387115,2.8465962728148302e-12,0.0,0.0,0.0,0.0
1759839569.7222068,1,-1.2050000429153322,-0.8299997448921124,-0.7177030444144462,0.0,-1.7350000142974964,-0.349999904633036,-0.7177024732373507,2.5790142137734243e-12,0.0,0.0,0.0,0.0
1759839569.7330718,1,-1.205000042915334,-0.8299997448921137,-0.7177030444144584,0.0,-1.7350000142982156,-0.34999990463300007,-0.7177024815833362,2.3348305948301923e-12,0.0,0.0,0.0,0.0
1759839569.7445905,1,-1.2050000429153358,-0.8299997448921148,-0.7177030444144691,0.0,-1.7350000142982156,-0.34999990463300007,-0.7177024858631078,2.3348305948301923e-12,0.0,0.0,0.0,0.0
1759839569.7552636,1,-1.2050000429153374,-0.8299997448921158,-0.7177030444144779,0.0,-1.735000014298862,-0.3499999046329677,-0.7177024943567738,2.1153855080341736e-12,0.0,0.0,0.0,0.0
1759839569.766221,1,-1.2050000429153385,-0.8299997448921166,-0.717703044414485,0.0,-1.7350000142994417,-0.34999990463293845,-0.7177025012764348,1.9186270581996582e-12,0.0,0.0,0.0,0.0
1759839569.777558,1,-1.2050000429153396,-0.8299997448921171,-0.7177030444144908,0.0,-1.7350000142999624,-0.349999904632912,-0.7177025065525093,1.7419272794942654e-12,0.0,0.0,0.0,0.0
1759839569.80001,1,-1.2050000429153402,-0.8299997448921177,-0.7177030444144956,0.0,-1.7350000143008393,-0.34999990463286573,-0.717702479856409,1.4444406672266815e-12,0.0,0.0,0.0,0.0
1759839569.8116298,1,-1.205000042915341,-0.8299997448921181,-0.7177030444144998,0.0,-1.7350000143012483,-0.34999990463284275,-0.7177024944828377,1.3058510146942132e-12,0.0,0.0,0.0,0.0
1759839569.8227618,1,-1.2050000429153416,-0.8299997448921185,-0.7177030444145033,0.0,-1.7350000143012483,-0.34999990463284275,-0.7177025092127718,1.3058510146942132e-12,0.0,0.0,0.0,0.0
1759839569.8338416,1,-1.205000042915342,-0.8299997448921188,-0.717703044414506,0.0,-1.7350000143016133,-0.3499999046328219,-0.7177025218830857,1.1821273192451488e-12,0.0,0.0,0.0,0.0
1759839569.845153,1,-1.2050000429153425,-0.829999744892119,-0.7177030444145084,0.0,-1.735000014301939,-0.3499999046328031,-0.7177025314255292,1.071763035165992e-12,0.0,0.0,0.0,0.0
1759839569.855298,1,-1.205000042915343,-0.8299997448921193,-0.7177030444145104,0.0,-1.73500001430226,-0.3499999046327851,-0.7177025418412964,9.630470249433867e-13,0.0,0.0,0.0,0.0
1759839569.8664782,1,-1.2050000429153431,-0.8299997448921195,-0.7177030444145119,0.0,-1.735000014302519,-0.34999990463276953,-0.7177025479721607,8.753012700522796e-13,0.0,0.0,0.0,0.0
1759839569.88111,1,-1.2050000429153434,-0.8299997448921197,-0.7177030444145134,0.0,-1.735000014302519,-0.34999990463276953,-0.7177025451294045,8.753012700522796e-13,0.0,0.0,0.0,0.0
1759839569.8956103,1,-1.2050000429153434,-0.8299997448921198,-0.7177030444145145,0.0,-1.7350000143027593,-0.34999990463275366,-0.7177025452601371,7.940998120943014e-13,0.0,0.0,0.0,0.0
1759839569.908793,1,-1.2050000429153434,-0.8299997448921199,-0.7177030444145154,0.0,-1.7350000143029765,-0.34999990463273933,-0.7177025500830136,7.20643057038711e-13,0.0,0.0,0.0,0.0
1759839569.9196792,1,-1.2050000429153434,-0.8299997448921199,-0.7177030444145162,0.0,-1.735000014303173,-0.34999990463272646,-0.7177025596861274,6.54231494674619e-13,0.0,0.0,0.0,0.0
1759839569.9312122,1,-1.2050000429153434,-0.8299997448921199,-0.7177030444145168,0.0,-1.73500001430335,-0.34999990463271474,-0.7177025665803335,5.943802771566499e-13,0.0,0.0,0.0,0.0
1759839569.9445837,1,-1.2050000429153434,-0.8299997448921199,-0.7177030444145174,0.0,-1.7350000143035103,-0.3499999046327041,-0.717702569081951,5.402182608698835e-13,0.0,0.0,0.0,0.0
1759839569.9577105,1,-1.2050000429153434,-0.8299997448921199,-0.7177030444145179,0.0,-1.7350000143035103,-0.3499999046327041,-0.7177025718303908,5.402182608698835e-13,0.0,0.0,0.0,0.0
1759839569.9695513,1,-1.2050000429153434,-0.8299997448921199,-0.7177030444145183,0.0,-1.735000014303653,-0.3499999046326943,-0.7177025776285729,4.919286470289473e-13,0.0,0.0,0.0,0.0
1759839569.980956,1,-1.2050000429153434,-0.8299997448921199,-0.7177030444145186,0.0,-1.7350000143037847,-0.3499999046326846,-0.7177025836598705,4.475022686809001e-13,0.0,0.0,0.0,0.0
1759839569.9985132,1,-1.2050000429153434,-0.8299997448921199,-0.7177030444145189,0.0,-1.735000014303987,-0.34999990463266895,-0.7177025800733308,3.792496996853486e-13,0.0,0.0,0.0,0.0
1759839570.008123,1,-1.2050000429153434,-0.8299997448921199,-0.7177030444145192,0.0,-1.7350000143040853,-0.34999990463266173,-0.7177025898199706,3.460434430181736e-13,0.0,0.0,0.0,0.0
1759839570.018991,1,-1.2050000429153434,-0.8299997448921199,-0.7177030444145194,0.0,-1.7350000143040853,-0.34999990463266173,-0.7177025958636929,3.460434430181736e-13,0.0,0.0,0.0,0.0
1759839570.0293698,1,-1.2050000429153434,-0.8299997448921199,-0.7177030444145195,0.0,-1.7350000143041646,-0.3499999046326556,-0.7177026016228351,3.1930661171769696e-13,0.0,0.0,0.0,0.0
1759839570.0407655,1,-1.2050000429153434,-0.8299997448921199,-0.7177030444145196,0.0,-1.7350000143042477,-0.349999904632649,-0.7177026051105342,2.912952418594388e-13,0.0,0.0,0.0,0.0
1759839570.051399,1,-1.2050000429153434,-0.8299997448921199,-0.7177030444145197,0.0,-1.7350000143043274,-0.34999990463264286,-0.7177026091875989,2.644055250046053e-13,0.0,0.0,0.0,0.0
1759839570.0622132,1,-1.2050000429153434,-0.8299997448921199,-0.7177030444145198,0.0,-1.7350000143043918,-0.3499999046326377,-0.7177026124746443,2.4276881311314496e-13,0.0,0.0,0.0,0.0
1759839570.0732427,1,-1.2050000429153434,-0.8299997448921199,-0.7177030444145198,0.0,-1.7350000143043918,-0.3499999046326377,-0.7177026146912903,2.4276881311314496e-13,0.0,0.0,0.0,0.0
1759839570.083845,1,-1.2050000429153434,-0.8299997448921199,-0.7177030444145198,0.0,-1.7350000143044495,-0.349999904632633,-0.7177026176560531,2.2327933079290822e-13,0.0,0.0,0.0,0.0
1759839570.0949504,1,-1.2050000429153434,-0.8299997448921199,-0.7177030444145198,0.0,-1.7350000143045095,-0.349999904632628,-0.717702619913612,2.0307395444677984e-13,0.0,0.0,0.0,0.0
1759839570.1055486,1,-1.2050000429153434,-0.8299997448921199,-0.7177030444145198,0.0,-1.7350000143045625,-0.3499999046326235,-0.7177026225744494,1.8525895415176516e-13,0.0,0.0,0.0,0.0
1759839570.1166852,1,-1.2050000429153434,-0.8299997448921199,-0.7177030444145198,0.0,-1.7350000143046178,-0.349999904632619,-0.7177026242566527,1.6658325364401057e-13,0.0,0.0,0.0,0.0
1759839570.1276824,1,-1.2050000429153434,-0.8299997448921199,-0.7177030444145198,0.0,-1.7350000143046629,-0.34999990463261516,-0.7177026260015918,1.5147209102865887e-13,0.0,0.0,0.0,0.0
1759839570.1382203,1,-1.2050000429153434,-0.8299997448921199,-0.7177030444145198,0.0,-1.7350000143046629,-0.34999990463261516,-0.7177026280095361,1.5147209102865887e-13,0.0,0.0,0.0,0.0
1759839570.1484504,1,-1.2050000429153434,-0.8299997448921199,-0.7177030444145198,0.0,-1.7350000143046989,-0.34999990463261194,-0.7177026303921026,1.393214193983902e-13,0.0,0.0,0.0,0.0
1759839570.1598425,1,-1.2050000429153434,-0.8299997448921199,-0.7177030444145198,0.0,-1.7350000143047326,-0.3499999046326087,-0.717702631496385,1.280379367824054e-13,0.0,0.0,0.0,0.0
1759839570.171221,1,-1.2050000429153434,-0.8299997448921199,-0.7177030444145198,0.0,-1.735000014304763,-0.3499999046326059,-0.7177026327665594,1.1777613492532496e-13,0.0,0.0,0.0,0.0
1759839570.182404,1,-1.2050000429153434,-0.8299997448921199,-0.7177030444145198,0.0,-1.7350000143047908,-0.3499999046326033,-0.717702634359952,1.0845621209566117e-13,0.0,0.0,0.0,0.0
1759839570.193124,1,-1.2050000429153434,-0.8299997448921199,-0.7177030444145198,0.0,-1.7350000143048165,-0.3499999046326009,-0.7177026364010569,9.986643361603318e-14,0.0,0.0,0.0,0.0
1759839570.2067144,1,-1.2050000429153434,-0.8299997448921199,-0.7177030444145198,0.0,-1.7350000143048396,-0.34999990463259867,-0.7177026360037053,9.207601104320525e-14,0.0,0.0,0.0,0.0
1759839570.216903,1,-1.2050000429153434,-0.8299997448921199,-0.7177030444145198,0.0,-1.7350000143048785,-0.3499999046325947,-0.7177026390919482,7.89900070227804e-14,0.0,0.0,0.0,0.0
1759839570.227204,1,-1.2050000429153434,-0.8299997448921199,-0.7177030444145198,0.0,-1.735000014304895,-0.3499999046325931,-0.7177026414400262,7.352524064762087e-14,0.0,0.0,0.0,0.0
1759839570.237823,1,-1.2050000429153434,-0.8299997448921199,-0.7177030444145198,0.0,-1.73500001430491,-0.34999990463259156,-0.717702643197411,6.841236700841021e-14,0.0,0.0,0.0,0.0
1759839570.2493253,1,-1.2050000429153434,-0.8299997448921199,-0.7177030444145198,0.0,-1.735000014304926,-0.34999990463259,-0.7177026442450471,6.311089217241866e-14,0.0,0.0,0.0,0.0
1759839570.2602942,1,-1.2050000429153434,-0.8299997448921199,-0.7177030444145198,0.0,-1.735000014304941,-0.34999990463258845,-0.717702645756827,5.804435779928763e-14,0.0,0.0,0.0,0.0
1759839570.2706425,1,-1.2050000429153434,-0.8299997448921199,-0.7177030444145198,0.0,-1.7350000143049547,-0.349999904632587,-0.7177026475971264,5.344323323491932e-14,0.0,0.0,0.0,0.0
1759839570.2813358,1,-1.2050000429153434,-0.8299997448921199,-0.7177030444145198,0.0,-1.7350000143049658,-0.3499999046325859,-0.7177026490025007,4.974835999231031e-14,0.0,0.0,0.0,0.0
1759839570.2917,1,-1.2050000429153434,-0.8299997448921199,-0.7177030444145198,0.0,-1.735000014304976,-0.3499999046325848,-0.7177026505066351,4.6309951304118775e-14,0.0,0.0,0.0,0.0
1759839570.301793,1,-1.2050000429153434,-0.8299997448921199,-0.7177030444145198,0.0,-1.735000014304976,-0.3499999046325848,-0.7177026518007725,4.6309951304118775e-14,0.0,0.0,0.0,0.0
1759839570.3121378,1,-1.2050000429153434,-0.8299997448921199,-0.7177030444145198,0.0,-1.7350000143049857,-0.3499999046325838,-0.717702653039892,4.3108601473785503e-14,0.0,0.0,0.0,0.0
1759839570.3221662,1,-1.2050000429153434,-0.8299997448921199,-0.7177030444145198,0.0,-1.735000014305004,-0.3499999046325818,-0.7177026545594851,3.6985377134559874e-14,0.0,0.0,0.0,0.0
1759839570.3329437,1,-1.2050000429153434,-0.8299997448921199,-0.7177030444145198,0.0,-1.7350000143050124,-0.3499999046325809,-0.717702655347193,3.416586752941982e-14,0.0,0.0,0.0,0.0
1759839570.3444455,1,-1.2050000429153434,-0.8299997448921199,-0.7177030444145198,0.0,-1.73500001430502,-0.34999990463258007,-0.7177026558468558,3.163212128216068e-14,0.0,0.0,0.0,0.0
1759839570.354518,1,-1.2050000429153434,-0.8299997448921199,-0.7177030444145198,0.0,-1.73500001430502,-0.34999990463258007,-0.717702656941799,3.163212128216068e-14,0.0,0.0,0.0,0.0
1759839570.3657873,1,-1.2050000429153434,-0.8299997448921199,-0.7177030444145198,0.0,-1.7350000143050333,-0.3499999046325786,-0.7177026579002728,2.7130358300465755e-14,0.0,0.0,0.0,0.0
1759839570.3762727,1,-1.2050000429153434,-0.8299997448921199,-0.7177030444145198,0.0,-1.7350000143050393,-0.3499999046325779,-0.7177026590075605,2.5117118084636334e-14,0.0,0.0,0.0,0.0
1759839570.3874817,1,-1.2050000429153434,-0.8299997448921199,-0.7177030444145198,0.0,-1.7350000143050492,-0.3499999046325768,-0.7177026599266826,2.1812201292043384e-14,0.0,0.0,0.0,0.0
1759839570.3987193,1,-1.2050000429153434,-0.8299997448921199,-0.7177030444145198,0.0,-1.7350000143050492,-0.3499999046325768,-0.717702660446264,2.1812201292043384e-14,0.0,0.0,0.0,0.0
1759839570.4112496,1,-1.2050000429153434,-0.8299997448921199,-0.7177030444145198,0.0,-1.7350000143050572,-0.3499999046325758,-0.7177026608248497,1.91310951527462e-14,0.0,0.0,0.0,0.0
1759839570.421857,1,-1.2050000429153434,-0.8299997448921199,-0.7177030444145198,0.0,-1.735000014305061,-0.34999990463257535,-0.7177026620234231,1.787737320898106e-14,0.0,0.0,0.0,0.0
1759839570.433261,1,-1.2050000429153434,-0.8299997448921199,-0.7177030444145198,0.0,-1.735000014305068,-0.3499999046325746,-0.7177026629716162,1.5566730410748106e-14,0.0,0.0,0.0,0.0
1759839570.4438252,1,-1.2050000429153434,-0.8299997448921199,-0.7177030444145198,0.0,-1.735000014305068,-0.3499999046325746,-0.7177026639085275,1.5566730410748106e-14,0.0,0.0,0.0,0.0
1759839570.455301,1,-1.2050000429153434,-0.8299997448921199,-0.7177030444145198,0.0,-1.735000014305074,-0.3499999046325739,-0.7177026646601659,1.3654644310344892e-14,0.0,0.0,0.0,0.0
1759839570.466754,1,-1.2050000429153434,-0.8299997448921199,-0.7177030444145198,0.0,-1.735000014305076,-0.34999990463257363,-0.7177026652926423,1.284820265478042e-14,0.0,0.0,0.0,0.0
1759839570.4770195,1,-1.2050000429153434,-0.8299997448921199,-0.7177030444145198,0.0,-1.735000014305079,-0.34999990463257324,-0.7177026663793329,1.194810108826967e-14,0.0,0.0,0.0,0.0
1759839570.4876423,1,-1.2050000429153434,-0.8299997448921199,-0.7177030444145198,0.0,-1.7350000143050814,-0.34999990463257297,-0.7177026672114385,1.1122039920027657e-14,0.0,0.0,0.0,0.0
1759839570.4987984,1,-1.2050000429153434,-0.8299997448921199,-0.7177030444145198,0.0,-1.7350000143050839,-0.34999990463257263,-0.7177026677965853,1.0280548423748816e-14,0.0,0.0,0.0,0.0
1759839570.5103712,1,-1.2050000429153434,-0.8299997448921199,-0.7177030444145198,0.0,-1.735000014305089,-0.349999904632572,-0.7177026683982679,8.569921532390585e-15,0.0,0.0,0.0,0.0
1759839570.5215533,1,-1.2050000429153434,-0.8299997448921199,-0.7177030444145198,0.0,-1.7350000143050912,-0.34999990463257175,-0.7177026690184695,7.842343690069225e-15,0.0,0.0,0.0,0.0
1759839570.5325668,1,-1.2050000429153434,-0.8299997448921199,-0.7177030444145198,0.0,-1.735000014305093,-0.3499999046325715,-0.7177026696794363,7.203522848672131e-15,0.0,0.0,0.0,0.0
1759839570.5435455,1,-1.2050000429153434,-0.8299997448921199,-0.7177030444145198,0.0,-1.735000014305093,-0.3499999046325715,-0.7177026702039895,7.203522848672131e-15,0.0,0.0,0.0,0.0
1759839570.5536785,1,-1.2050000429153434,-0.8299997448921199,-0.7177030444145198,0.0,-1.7350000143050948,-0.3499999046325713,-0.7177026710268789,6.634900035381564e-15,0.0,0.0,0.0,0.0
1759839570.5639436,1,-1.2050000429153434,-0.8299997448921199,-0.7177030444145198,0.0,-1.7350000143050965,-0.3499999046325711,-0.7177026717430919,6.0526890251794054e-15,0.0,0.0,0.0,0.0
1759839570.5753849,1,-1.2050000429153434,-0.8299997448921199,-0.7177030444145198,0.0,-1.735000014305098,-0.34999990463257086,-0.7177026720742908,5.5389804079719994e-15,0.0,0.0,0.0,0.0
1759839570.5858114,1,-1.2050000429153434,-0.8299997448921199,-0.7177030444145198,0.0,-1.7350000143050994,-0.3499999046325707,-0.7177026726878477,5.055098341180335e-15,0.0,0.0,0.0,0.0
1759839570.5971026,1,-1.2050000429153434,-0.8299997448921199,-0.7177030444145198,0.0,-1.7350000143051008,-0.3499999046325705,-0.7177026730539134,4.6645794535665544e-15,0.0,0.0,0.0,0.0
1759839570.6122856,1,-1.2050000429153434,-0.8299997448921199,-0.7177030444145198,0.0,-1.7350000143051016,-0.34999990463257036,-0.7177026725592236,4.318312147539638e-15,0.0,0.0,0.0,0.0
1759839570.6223216,1,-1.2050000429153434,-0.8299997448921199,-0.7177030444145198,0.0,-1.735000014305103,-0.34999990463257014,-0.71770267349811,3.928815394490763e-15,0.0,0.0,0.0,0.0
1759839570.633614,1,-1.2050000429153434,-0.8299997448921199,-0.7177030444145198,0.0,-1.735000014305104,-0.34999990463257,-0.717702674086601,3.5628120960309154e-15,0.0,0.0,0.0,0.0
1759839570.6450505,1,-1.2050000429153434,-0.8299997448921199,-0.7177030444145198,0.0,-1.7350000143051059,-0.34999990463256975,-0.7177026746537974,2.986779289709221e-15,0.0,0.0,0.0,0.0
1759839570.6550615,1,-1.2050000429153434,-0.8299997448921199,-0.7177030444145198,0.0,-1.7350000143051065,-0.34999990463256964,-0.7177026753961865,2.706717568977748e-15,0.0,0.0,0.0,0.0
1759839570.6654072,1,-1.2050000429153434,-0.8299997448921199,-0.7177030444145198,0.0,-1.7350000143051074,-0.3499999046325695,-0.7177026759622199,2.4490724871032062e-15,0.0,0.0,0.0,0.0
1759839570.6767867,1,-1.2050000429153434,-0.8299997448921199,-0.7177030444145198,0.0,-1.7350000143051085,-0.34999990463256936,-0.7177026763214251,2.0361654419083083e-15,0.0,0.0,0.0,0.0
1759839570.6881297,1,-1.2050000429153434,-0.8299997448921199,-0.7177030444145198,0.0,-1.7350000143051092,-0.34999990463256925,-0.7177026766157745,1.846907921008335e-15,0.0,0.0,0.0,0.0
1759839570.6989796,1,-1.2050000429153434,-0.8299997448921199,-0.7177030444145198,0.0,-1.73500001430511,-0.34999990463256914,-0.7177026770915803,1.5135997360190507e-15,0.0,0.0,0.0,0.0
1759839570.710419,1,-1.2050000429153434,-0.8299997448921199,-0.7177030444145198,0.0,-1.7350000143051105,-0.3499999046325691,-0.7177026773662604,1.378207409937015e-15,0.0,0.0,0.0,0.0
1759839570.7216897,1,-1.2050000429153434,-0.8299997448921199,-0.7177030444145198,0.0,-1.7350000143051112,-0.34999990463256897,-0.7177026777250358,1.1572435300658517e-15,0.0,0.0,0.0,0.0
1759839570.7328331,1,-1.2050000429153434,-0.8299997448921199,-0.7177030444145198,0.0,-1.7350000143051112,-0.34999990463256897,-0.7177026779967242,1.1572435300658517e-15,0.0,0.0,0.0,0.0
1759839570.7440488,1,-1.2050000429153434,-0.8299997448921199,-0.7177030444145198,0.0,-1.7350000143051119,-0.34999990463256886,-0.717702678364125,9.524800288808452e-16,0.0,0.0,0.0,0.0
1759839570.7544296,1,-1.2050000429153434,-0.8299997448921199,-0.7177030444145198,0.0,-1.735000014305112,-0.3499999046325688,-0.7177026787742038,8.646119612428311e-16,0.0,0.0,0.0,0.0
1759839570.764831,1,-1.2050000429153434,-0.8299997448921199,-0.7177030444145198,0.0,-1.7350000143051125,-0.34999990463256875,-0.7177026791854162,7.167551276068035e-16,0.0,0.0,0.0,0.0
1759839570.775867,1,-1.2050000429153434,-0.8299997448921199,-0.7177030444145198,0.0,-1.7350000143051125,-0.34999990463256875,-0.717702679377066,7.167551276068035e-16,0.0,0.0,0.0,0.0
1759839570.7869656,1,-1.2050000429153434,-0.8299997448921199,-0.7177030444145198,0.0,-1.7350000143051127,-0.3499999046325687,-0.7177026796035811,6.54756464912852e-16,0.0,0.0,0.0,0.0
1759839570.7975264,1,-1.2050000429153434,-0.8299997448921199,-0.7177030444145198,0.0,-1.735000014305113,-0.3499999046325687,-0.7177026798966344,5.994597429346941e-16,0.0,0.0,0.0,0.0
1759839570.809625,1,-1.2050000429153434,-0.8299997448921199,-0.7177030444145198,0.0,-1.7350000143051132,-0.34999990463256864,-0.7177026800202718,5.017258153589458e-16,0.0,0.0,0.0,0.0
1759839570.819916,1,-1.2050000429153434,-0.8299997448921199,-0.7177030444145198,0.0,-1.7350000143051134,-0.34999990463256864,-0.717702680353463,4.569802996506688e-16,0.0,0.0,0.0,0.0
1759839570.8313456,1,-1.2050000429153434,-0.8299997448921199,-0.7177030444145198,0.0,-1.7350000143051134,-0.3499999046325686,-0.7177026805290438,4.140732222999192e-16,0.0,0.0,0.0,0.0
1759839570.8417952,1,-1.2050000429153434,-0.8299997448921199,-0.7177030444145198,0.0,-1.7350000143051136,-0.3499999046325686,-0.7177026808102092,3.760689017130795e-16,0.0,0.0,0.0,0.0
1759839570.85197,1,-1.2050000429153434,-0.8299997448921199,-0.7177030444145198,0.0,-1.7350000143051136,-0.3499999046325685,-0.717702681094872,3.398272285760292e-16,0.0,0.0,0.0,0.0
1759839570.862813,1,-1.2050000429153434,-0.8299997448921199,-0.7177030444145198,0.0,-1.7350000143051139,-0.3499999046325685,-0.7177026813234839,2.735925162533053e-16,0.0,0.0,0.0,0.0
1759839570.8729846,1,-1.2050000429153434,-0.8299997448921199,-0.7177030444145198,0.0,-1.7350000143051139,-0.3499999046325685,-0.7177026815329945,2.735925162533053e-16,0.0,0.0,0.0,0.0
1759839570.8830013,1,-1.2050000429153434,-0.8299997448921199,-0.7177030444145198,0.0,-1.735000014305114,-0.34999990463256847,-0.7177026817707727,2.429748801490045e-16,0.0,0.0,0.0,0.0
1759839570.8934827,1,-1.2050000429153434,-0.8299997448921199,-0.7177030444145198,0.0,-1.735000014305114,-0.34999990463256847,-0.7177026819376356,2.1503092722381928e-16,0.0,0.0,0.0,0.0
1759839570.9037268,1,-1.2050000429153434,-0.8299997448921199,-0.7177030444145198,0.0,-1.735000014305114,-0.34999990463256847,-0.717702682113698,1.911229240959895e-16,0.0,0.0,0.0,0.0
1759839570.914829,1,-1.2050000429153434,-0.8299997448921199,-0.7177030444145198,0.0,-1.7350000143051143,-0.34999990463256847,-0.7177026822337734,1.503164272526484e-16,0.0,0.0,0.0,0.0
1759839570.9255617,1,-1.2050000429153434,-0.8299997448921199,-0.7177030444145198,0.0,-1.7350000143051143,-0.34999990463256847,-0.7177026823435751,1.503164272526484e-16,0.0,0.0,0.0,0.0
1759839570.9355657,1,-1.2050000429153434,-0.8299997448921199,-0.7177030444145198,0.0,-1.7350000143051143,-0.3499999046325684,-0.717702682542722,1.327895431562308e-16,0.0,0.0,0.0,0.0
1759839570.945882,1,-1.2050000429153434,-0.8299997448921199,-0.7177030444145198,0.0,-1.7350000143051143,-0.3499999046325684,-0.7177026827022396,1.163526556915719e-16,0.0,0.0,0.0,0.0
1759839570.956929,1,-1.2050000429153434,-0.8299997448921199,-0.7177030444145198,0.0,-1.7350000143051145,-0.3499999046325684,-0.717702682819601,9.016510997338419e-17,0.0,0.0,0.0,0.0
1759839570.9671633,1,-1.2050000429153434,-0.8299997448921199,-0.7177030444145198,0.0,-1.7350000143051145,-0.3499999046325684,-0.7177026829745364,8.025753947272561e-17,0.0,0.0,0.0,0.0
1759839570.977208,1,-1.2050000429153434,-0.8299997448921199,-0.7177030444145198,0.0,-1.7350000143051145,-0.3499999046325684,-0.7177026831148402,8.025753947272561e-17,0.0,0.0,0.0,0.0
1759839570.9884598,1,-1.2050000429153434,-0.8299997448921199,-0.7177030444145198,0.0,-1.7350000143051145,-0.3499999046325684,-0.7177026831952914,6.359302927484564e-17,0.0,0.0,0.0,0.0
1759839570.9989552,1,-1.2050000429153434,-0.8299997448921199,-0.7177030444145198,0.0,-1.7350000143051145,-0.34999990463256836,-0.7177026833217033,5.590486286268552e-17,0.0,0.0,0.0,0.0
1759839571.014056,1,-1.2050000429153434,-0.8299997448921199,-0.7177030444145198,0.0,-1.7350000143051145,-0.34999990463256836,-0.7177026831750228,4.31541221564672e-17,0.0,0.0,0.0,0.0
1759839571.0252893,1,-1.2050000429153434,-0.8299997448921199,-0.7177030444145198,0.0,-1.7350000143051145,-0.34999990463256836,-0.7177026833293956,3.814490476387657e-17,0.0,0.0,0.0,0.0
1759839571.036096,1,-1.2050000429153434,-0.8299997448921199,-0.7177030444145198,0.0,-1.7350000143051147,-0.34999990463256836,-0.71770268351621,3.3696529577222786e-17,0.0,0.0,0.0,0.0
1759839571.046716,1,-1.2050000429153434,-0.8299997448921199,-0.7177030444145198,0.0,-1.7350000143051147,-0.34999990463256836,-0.7177026837038488,2.6501693382902286e-17,0.0,0.0,0.0,0.0
1759839571.057844,1,-1.2050000429153434,-0.8299997448921199,-0.7177030444145198,0.0,-1.7350000143051147,-0.34999990463256836,-0.7177026838237921,2.358496482382648e-17,0.0,0.0,0.0,0.0
1759839571.069092,1,-1.2050000429153434,-0.8299997448921199,-0.7177030444145198,0.0,-1.7350000143051147,-0.34999990463256836,-0.7177026839264649,2.0842488595638523e-17,0.0,0.0,0.0,0.0
1759839571.0799007,1,-1.2050000429153434,-0.8299997448921199,-0.7177030444145198,0.0,-1.7350000143051147,-0.34999990463256836,-0.7177026840465699,1.8639581366887795e-17,0.0,0.0,0.0,0.0
1759839571.0904546,1,-1.2050000429153434,-0.8299997448921199,-0.7177030444145198,0.0,-1.7350000143051147,-0.34999990463256836,-0.7177026841724,1.6503162163951917e-17,0.0,0.0,0.0,0.0
1759839571.1005416,1,-1.2050000429153434,-0.8299997448921199,-0.7177030444145198,0.0,-1.7350000143051147,-0.34999990463256836,-0.7177026843060407,1.463570643966854e-17,0.0,0.0,0.0,0.0
1759839571.1108656,1,-1.2050000429153434,-0.8299997448921199,-0.7177030444145198,0.0,-1.7350000143051147,-0.34999990463256836,-0.7177026844113831,1.2783118840942161e-17,0.0,0.0,0.0,0.0
1759839571.1222017,1,-1.2050000429153434,-0.8299997448921199,-0.7177030444145198,0.0,-1.7350000143051147,-0.34999990463256836,-0.7177026844594017,1.129293405006638e-17,0.0,0.0,0.0,0.0
1759839571.1329346,1,-1.2050000429153434,-0.8299997448921199,-0.7177030444145198,0.0,-1.7350000143051147,-0.34999990463256836,-0.7177026845402854,9.808466748827115e-18,0.0,0.0,0.0,0.0
1759839571.1441522,1,-1.2050000429153434,-0.8299997448921199,-0.7177030444145198,0.0,-1.7350000143051147,-0.34999990463256836,-0.7177026846066044,7.362455487274561e-18,0.0,0.0,0.0,0.0
1759839571.155092,1,-1.2050000429153434,-0.8299997448921199,-0.7177030444145198,0.0,-1.7350000143051147,-0.34999990463256836,-0.7177026846799522,6.2918286954792414e-18,0.0,0.0,0.0,0.0
1759839571.1660454,1,-1.2050000429153434,-0.8299997448921199,-0.7177030444145198,0.0,-1.7350000143051147,-0.34999990463256836,-0.7177026847520926,5.3666481281472255e-18,0.0,0.0,0.0,0.0
1759839571.1760693,1,-1.2050000429153434,-0.8299997448921199,-0.7177030444145198,0.0,-1.7350000143051147,-0.34999990463256836,-0.7177026848563128,4.598056639022471e-18,0.0,0.0,0.0,0.0
1759839571.1871197,1,-1.2050000429153434,-0.8299997448921199,-0.7177030444145198,0.0,-1.7350000143051147,-0.34999990463256836,-0.7177026849103862,3.9551732477202805e-18,0.0,0.0,0.0,0.0
1759839571.198353,1,-1.2050000429153434,-0.8299997448921199,-0.7177030444145198,0.0,-1.7350000143051147,-0.34999990463256836,-0.7177026849654408,2.926684733452531e-18,0.0,0.0,0.0,0.0
1759839571.2102873,1,-1.2050000429153434,-0.8299997448921199,-0.7177030444145198,0.0,-1.7350000143051147,-0.34999990463256836,-0.7177026849936337,2.5176677719353853e-18,0.0,0.0,0.0,0.0
1759839571.2197418,1,-1.2050000429153434,-0.8299997448921199,-0.7177030444145198,0.0,-1.7350000143051147,-0.34999990463256836,-0.7177026851117787,2.158412792770788e-18,0.0,0.0,0.0,0.0
1759839571.2303035,1,-1.2050000429153434,-0.8299997448921199,-0.7177030444145198,0.0,-1.7350000143051147,-0.34999990463256836,-0.7177026851780515,1.856188250570769e-18,0.0,0.0,0.0,0.0
1759839571.2403617,1,-1.2050000429153434,-0.8299997448921199,-0.7177030444145198,0.0,-1.7350000143051147,-0.34999990463256836,-0.7177026852510915,1.589658257661092e-18,0.0,0.0,0.0,0.0
1759839571.2517126,1,-1.2050000429153434,-0.8299997448921199,-0.7177030444145198,0.0,-1.7350000143051147,-0.34999990463256836,-0.7177026852790919,1.3474398428497499e-18,0.0,0.0,0.0,0.0
1759839571.262907,1,-1.2050000429153434,-0.8299997448921199,-0.7177030444145198,0.0,-1.7350000143051147,-0.34999990463256836,-0.7177026853153589,1.1452221425298244e-18,0.0,0.0,0.0,0.0
1759839571.2744036,1,-1.2050000429153434,-0.8299997448921199,-0.7177030444145198,0.0,-1.7350000143051147,-0.34999990463256836,-0.7177026853421774,1.1452221425298244e-18,0.0,0.0,0.0,0.0
1759839571.2845693,1,-1.2050000429153434,-0.8299997448921199,-0.7177030444145198,0.0,-1.7350000143051147,-0.34999990463256836,-0.7177026854146448,9.76169115102592e-19,0.0,0.0,0.0,0.0
1759839571.295733,1,-1.2050000429153434,-0.8299997448921199,-0.7177030444145198,0.0,-1.7350000143051147,-0.34999990463256836,-0.717702685453808,8.344936404170986e-19,0.0,0.0,0.0,0.0
1759839571.3063273,1,-1.2050000429153434,-0.8299997448921199,-0.7177030444145198,0.0,-1.7350000143051147,-0.34999990463256836,-0.7177026855060743,7.105777397635876e-19,0.0,0.0,0.0,0.0
1759839571.3172102,1,-1.2050000429153434,-0.8299997448921199,-0.7177030444145198,0.0,-1.7350000143051147,-0.34999990463256836,-0.7177026855487011,6.029725669173152e-19,0.0,0.0,0.0,0.0
1759839571.3278995,1,-1.2050000429153434,-0.8299997448921199,-0.7177030444145198,0.0,-1.7350000143051147,-0.34999990463256836,-0.7177026855935686,5.132755687311128e-19,0.0,0.0,0.0,0.0
1759839571.3387375,1,-1.2050000429153434,-0.8299997448921199,-0.7177030444145198,0.0,-1.7350000143051147,-0.34999990463256836,-0.7177026856292954,5.132755687311128e-19,0.0,0.0,0.0,0.0
1759839571.3489919,1,-1.2050000429153434,-0.8299997448921199,-0.7177030444145198,0.0,-1.7350000143051147,-0.34999990463256836,-0.7177026856808983,4.35205533598368e-19,0.0,0.0,0.0,0.0
1759839571.360209,1,-1.2050000429153434,-0.8299997448921199,-0.7177030444145198,0.0,-1.7350000143051147,-0.34999990463256836,-0.7177026857073753,3.700694195919224e-19,0.0,0.0,0.0,0.0
1759839571.3707957,1,-1.2050000429153434,-0.8299997448921199,-0.7177030444145198,0.0,-1.7350000143051147,-0.34999990463256836,-0.7177026857473341,3.154276754873052e-19,0.0,0.0,0.0,0.0
1759839571.3821292,1,-1.2050000429153434,-0.8299997448921199,-0.7177030444145198,0.0,-1.7350000143051147,-0.34999990463256836,-0.7177026857714219,2.6821244222157965e-19,0.0,0.0,0.0,0.0
1759839571.3927798,1,-1.2050000429153434,-0.8299997448921199,-0.7177030444145198,0.0,-1.7350000143051147,-0.34999990463256836,-0.7177026858099489,2.2859640597638843e-19,0.0,0.0,0.0,0.0
1759839571.4039392,1,-1.2050000429153434,-0.8299997448921199,-0.7177030444145198,0.0,-1.7350000143051147,-0.34999990463256836,-0.7177026858345292,2.2859640597638843e-19,0.0,0.0,0.0,0.0
1759839571.4194124,1,-1.2050000429153434,-0.8299997448921199,-0.7177030444145198,0.0,-1.7350000143051147,-0.34999990463256836,-0.7177026857907215,1.7005099620156614e-19,0.0,0.0,0.0,0.0
1759839571.4295852,1,-1.2050000429153434,-0.8299997448921199,-0.7177030444145198,0.0,-1.7350000143051147,-0.34999990463256836,-0.7177026858564379,1.4706543578655106e-19,0.0,0.0,0.0,0.0
1759839571.4412267,1,-1.2050000429153434,-0.8299997448921199,-0.7177030444145198,0.0,-1.7350000143051147,-0.34999990463256836,-0.7177026858931468,1.2739820456852472e-19,0.0,0.0,0.0,0.0
1759839571.4523296,1,-1.2050000429153434,-0.8299997448921199,-0.7177030444145198,0.0,-1.7350000143051147,-0.34999990463256836,-0.7177026859348182,1.1023715452278528e-19,0.0,0.0,0.0,0.0
1759839571.4634466,1,-1.2050000429153434,-0.8299997448921199,-0.7177030444145198,0.0,-1.7350000143051147,-0.34999990463256836,-0.717702685969712,1.1023715452278528e-19,0.0,0.0,0.0,0.0
1759839571.4746037,1,-1.2050000429153434,-0.8299997448921199,-0.7177030444145198,0.0,-1.7350000143051147,-0.34999990463256836,-0.7177026860027698,9.551469716507789e-20,0.0,0.0,0.0,0.0
1759839571.4850912,1,-1.2050000429153434,-0.8299997448921199,-0.7177030444145198,0.0,-1.7350000143051147,-0.34999990463256836,-0.7177026860422974,8.286297615471784e-20,0.0,0.0,0.0,0.0
1759839571.495242,1,-1.2050000429153434,-0.8299997448921199,-0.7177030444145198,0.0,-1.7350000143051147,-0.34999990463256836,-0.7177026860812411,7.273573800595564e-20,0.0,0.0,0.0,0.0
1759839571.5065138,1,-1.2050000429153434,-0.8299997448921199,-0.7177030444145198,0.0,-1.7350000143051147,-0.34999990463256836,-0.7177026861017017,5.606912140752495e-20,0.0,0.0,0.0,0.0
1759839571.517595,1,-1.2050000429153434,-0.8299997448921199,-0.7177030444145198,0.0,-1.7350000143051147,-0.34999990463256836,-0.7177026861227279,4.919364379180384e-20,0.0,0.0,0.0,0.0
1759839571.5279002,1,-1.2050000429153434,-0.8299997448921199,-0.7177030444145198,0.0,-1.7350000143051147,-0.34999990463256836,-0.7177026861531257,4.31835016729444e-20,0.0,0.0,0.0,0.0
1759839571.5383313,1,-1.2050000429153434,-0.8299997448921199,-0.7177030444145198,0.0,-1.7350000143051147,-0.34999990463256836,-0.7177026861787426,3.790945624436043e-20,0.0,0.0,0.0,0.0
1759839571.5493186,1,-1.2050000429153434,-0.8299997448921199,-0.7177030444145198,0.0,-1.7350000143051147,-0.34999990463256836,-0.7177026861953765,3.329539970169996e-20,0.0,0.0,0.0,0.0
1759839571.560536,1,-1.2050000429153434,-0.8299997448921199,-0.7177030444145198,0.0,-1.7350000143051147,-0.34999990463256836,-0.7177026862093312,2.959498155220906e-20,0.0,0.0,0.0,0.0
1759839571.570817,1,-1.2050000429153434,-0.8299997448921199,-0.7177030444145198,0.0,-1.7350000143051147,-0.34999990463256836,-0.7177026862341734,2.569370162293338e-20,0.0,0.0,0.0,0.0
1759839571.581433,1,-1.2050000429153434,-0.8299997448921199,-0.7177030444145198,0.0,-1.7350000143051147,-0.34999990463256836,-0.7177026862540982,2.215821544607191e-20,0.0,0.0,0.0,0.0
1759839571.591486,1,-1.2050000429153434,-0.8299997448921199,-0.7177030444145198,0.0,-1.7350000143051147,-0.34999990463256836,-0.7177026862781275,1.915963209034645e-20,0.0,0.0,0.0,0.0
1759839571.6025145,1,-1.2050000429153434,-0.8299997448921199,-0.7177030444145198,0.0,-1.7350000143051147,-0.34999990463256836,-0.7177026862901134,1.6754728589565828e-20,0.0,0.0,0.0,0.0
1759839571.6199384,1,-1.2050000429153434,-0.8299997448921199,-0.7177030444145198,0.0,-1.7350000143051147,-0.34999990463256836,-0.7177026862462497,1.285149946194319e-20,0.0,0.0,0.0,0.0
1759839571.6308448,1,-1.2050000429153434,-0.8299997448921199,-0.7177030444145198,0.0,-1.7350000143051147,-0.34999990463256836,-0.7177026862774055,1.1272065760414112e-20,0.0,0.0,0.0,0.0
1759839571.6420007,1,-1.2050000429153434,-0.8299997448921199,-0.7177030444145198,0.0,-1.7350000143051147,-0.34999990463256836,-0.7177026863061787,9.910650583327137e-21,0.0,0.0,0.0,0.0
1759839571.6528203,1,-1.2050000429153434,-0.8299997448921199,-0.7177030444145198,0.0,-1.7350000143051147,-0.34999990463256836,-0.7177026863333437,8.655835590046965e-21,0.0,0.0,0.0,0.0
1759839571.664173,1,-1.2050000429153434,-0.8299997448921199,-0.7177030444145198,0.0,-1.7350000143051147,-0.34999990463256836,-0.7177026863521885,7.581806295569198e-21,0.0,0.0,0.0,0.0
