timestamp,observer_vehicle_id,vehicle_0_x,vehicle_0_y,vehicle_0_theta,vehicle_0_velocity,vehicle_1_x,vehicle_1_y,vehicle_1_theta,vehicle_1_velocity,vehicle_2_x,vehicle_2_y,vehicle_2_theta,vehicle_2_velocity
1759839567.8354857,0,-1.205,-0.83,-0.7801621756414646,0.0,0.0,0.0,0.0,0.0,0.0,0.0,0.0,0.0
1759839567.8465812,0,-1.205,-0.83,-0.7801621756414646,0.0,0.0,0.0,0.0,0.0,0.0,0.0,0.0,0.0
1759839567.8575785,0,-1.205,-0.83,-0.7801621756414646,0.0,0.0,0.0,0.0,0.0,0.0,0.0,0.0,0.0
1759839567.8689353,0,-1.205,-0.83,-0.7801621756414646,0.0,0.0,0.0,0.0,0.0,0.0,0.0,0.0,0.0
1759839567.879729,0,-1.205,-0.83,-0.7801621756414646,0.0,0.0,0.0,0.0,0.0,0.0,0.0,0.0,0.0
1759839567.8905833,0,-1.205,-0.83,-0.7801621756414646,0.0,0.0,0.0,0.0,0.0,0.0,0.0,0.0,0.0
1759839567.9011424,0,-1.205,-0.83,-0.7801621756414646,0.0,0.0,0.0,0.0,0.0,0.0,0.0,0.0,0.0
1759839567.9115157,0,-1.205,-0.83,-0.7801621756414646,0.0,0.0,0.0,0.0,0.0,0.0,0.0,0.0,0.0
1759839567.9218886,0,-1.205,-0.83,-0.7801621756414646,0.0,0.0,0.0,0.0,0.0,0.0,0.0,0.0,0.0
1759839567.9332545,0,-1.205,-0.83,-0.7801621756414646,0.0,0.0,0.0,0.0,0.0,0.0,0.0,0.0,0.0
1759839567.943565,0,-1.205,-0.83,-0.7801621756414646,0.0,0.0,0.0,0.0,0.0,0.0,0.0,0.0,0.0
1759839567.953921,0,-1.205,-0.83,-0.7801621756414646,0.0,0.0,0.0,0.0,0.0,0.0,0.0,0.0,0.0
1759839567.9651992,0,-1.205,-0.83,-0.7801621756414646,0.0,0.0,0.0,0.0,0.0,0.0,0.0,0.0,0.0
1759839567.9762344,0,-1.205,-0.83,-0.7801621756414646,0.0,0.0,0.0,0.0,0.0,0.0,0.0,0.0,0.0
1759839567.9877322,0,-1.205,-0.83,-0.7801621756414646,0.0,0.0,0.0,0.0,0.0,0.0,0.0,0.0,0.0
1759839567.9989471,0,-1.205,-0.83,-0.7801621756414646,0.0,-0.3399014108181,-0.0685680079460144,1.7443514358565955,0.0,0.0,0.0,0.0,0.0
1759839568.0096562,0,-1.205,-0.83,-0.7801621756414646,0.0,-0.6102251787386962,-0.12310018014901652,-3.1309426217677223,0.0,0.0,0.0,0.0,0.0
1759839568.0199606,0,-1.205,-0.83,-0.7801621756414646,0.0,-0.8258511419261705,-0.16659821306867992,-0.7833547405467305,0.0,0.0,0.0,0.0,0.0
1759839568.0318346,0,-1.2050000425577163,-0.8299997470180194,-0.7229993436060216,0.0,-0.9979812974448207,-0.2013218755652376,1.1140307964657892,0.0,0.0,0.0,0.0,0.0
1759839568.0423565,0,-1.205000042795803,-0.8299997456027273,-0.7181180468239141,0.0,-1.1440386793469008,-0.23078590073280417,2.6359858029090706,0.0,0.0,0.0,0.0,0.0
1759839568.0538929,0,-1.2050000428705006,-0.8299997451586908,-0.7176542204679635,0.0,-1.2597878886290088,-0.2541358853142093,-2.4191173760073736,0.0,0.0,0.0,0.0,0.0
1759839568.064977,0,-1.2050000428982601,-0.829999744993676,-0.7175950195247225,0.0,-1.3518123095624759,-0.2726998895370989,-0.20468430884645958,0.0,0.0,0.0,0.0,0.0
1759839568.076116,0,-1.2050000429088212,-0.8299997449308965,-0.717589305099576,0.0,-1.4251626023281714,-0.2874967785676426,1.5820685980227769,0.0,0.0,0.0,0.0,0.0
1759839568.0867722,0,-1.205000042912853,-0.8299997449069307,-0.7175983603277629,0.0,-1.4838117525745653,-0.2993280192513532,3.0317002357867535,0.0,0.0,0.0,0.0,0.0
1759839568.096885,0,-1.2050000429143926,-0.8299997448977774,-0.7176111417807789,0.0,-1.5308511582204223,-0.30881723652861537,-2.0686709786035395,0.0,0.0,0.0,0.0,0.0
1759839568.1069307,0,-1.2050000429149808,-0.8299997448942812,-0.7176228306167562,0.0,-1.5708949180237557,-0.3168952284197777,0.08127677702518123,0.0,0.0,0.0,0.0,0.0
1759839568.1175108,0,-1.2050000429152055,-0.8299997448929457,-0.717632060045009,0.0,-1.6027368528904904,-0.32331867349375876,1.8112033053071654,0.0,0.0,0.0,0.0,0.0
1759839568.1276643,0,-1.2050000429152912,-0.8299997448924357,-0.7176406910343847,0.0,-1.628131788086495,-0.32844157108373084,-3.072584248978939,0.0,0.0,0.0,0.0,0.0
1759839568.1384342,0,-1.205000042915324,-0.8299997448922408,-0.7176472414069934,0.0,-1.6484206260256489,-0.33253442023572155,-0.7405564524758625,0.0,0.0,0.0,0.0,0.0
1759839568.1495285,0,-1.2050000429153365,-0.8299997448921663,-0.7176526924289597,0.0,-1.6646655375063943,-0.33581149171598723,1.148687167372959,0.0,0.0,0.0,0.0,0.0
1759839568.1601593,0,-1.2050000429153414,-0.8299997448921379,-0.7176579791581865,0.0,-1.6784757026703796,-0.33859740399690647,2.6671772533871296,0.0,0.0,0.0,0.0,0.0
1759839568.1702704,0,-1.2050000429153431,-0.829999744892127,-0.7176628658670516,0.0,-1.6894599386985443,-0.3408132441178619,-2.3888283869721123,0.0,0.0,0.0,0.0,0.0
1759839568.181373,0,-1.2050000429153438,-0.8299997448921229,-0.7176661543770457,0.0,-1.6982085123913468,-0.34257808607318224,-0.18283754597226284,0.0,0.0,0.0,0.0,0.0
1759839568.1916225,0,-1.205000042915344,-0.8299997448921214,-0.7176696498267905,0.0,-1.7052010023680246,-0.34398867482928436,1.6004630026217763,0.0,0.0,0.0,0.0,0.0
1759839568.2031143,0,-1.2050000429153442,-0.8299997448921207,-0.7176718574894085,0.0,-1.710796030057276,-0.34511735476659733,3.050162271981089,0.0,0.0,0.0,0.0,0.0
1759839568.2142391,0,-1.2050000429153442,-0.8299997448921205,-0.7176741604847496,0.0,-1.7155583302518878,-0.3460777683940146,2.308816585083203,0.0,0.0,0.0,0.0,0.0
1759839568.225464,0,-1.2050000429153442,-0.8299997448921204,-0.7176762210045897,0.0,-1.7193399773355227,-0.346840413595868,1.7201288417118905,0.0,0.0,0.0,0.0,0.0
1759839568.238524,0,-1.2050000429153442,-0.8299997448921204,-0.7176772463763044,0.0,-1.7223451523056705,-0.3474464675773807,1.252314253918133,0.0,0.0,0.0,0.0,0.0
1759839568.2490373,0,-1.2050000429153442,-0.8299997448921204,-0.7176795972149677,0.0,-1.7247470309283672,-0.3479308547151865,0.878414607817904,0.0,0.0,0.0,0.0,0.0
1759839568.259053,0,-1.2050000429153442,-0.8299997448921204,-0.7176817984820012,0.0,-1.7266725055770646,-0.3483191654088189,0.5786766098525319,0.0,0.0,0.0,0.0,0.0
1759839568.2706456,0,-1.2050000429153442,-0.8299997448921204,-0.7176829475946924,0.0,-1.728306916572338,-0.34864877726202315,0.32424839398004857,0.0,0.0,0.0,0.0,0.0
1759839568.2812142,0,-1.2050000429153442,-0.8299997448921204,-0.7176843872608281,0.0,-1.7296064087614473,-0.34891084600110744,0.12195687723700716,0.0,0.0,0.0,0.0,0.0
1759839568.291249,0,-1.2050000429153442,-0.8299997448921204,-0.7176858275671822,0.0,-1.7306427830070072,-0.3491198517142849,-0.03937515677190681,0.0,0.0,0.0,0.0,0.0
1759839568.3015804,0,-1.2050000429153442,-0.8299997448921204,-0.717686926224463,0.0,-1.7314710243542728,-0.3492868832419497,-0.1683072117482876,0.0,0.0,0.0,0.0,0.0
1759839568.3117342,0,-1.2050000429153442,-0.8299997448921204,-0.7176879231590192,0.0,-1.7321346716275967,-0.34942072106381145,-0.27161696199396523,0.0,0.0,0.0,0.0,0.0
1759839568.3231692,0,-1.2050000429153442,-0.8299997448921204,-0.7176884000573871,0.0,-1.7326986048511361,-0.34953444954179647,-0.359404259284129,0.0,0.0,0.0,0.0,0.0
1759839568.3339515,0,-1.2050000429153442,-0.8299997448921204,-0.7176891001893395,0.0,-1.7331465952166316,-0.34962479581027833,-0.42914277043630095,0.0,0.0,0.0,0.0,0.0
1759839568.3442376,0,-1.2050000429153442,-0.8299997448921204,-0.7176899095481276,0.0,-1.733503575821319,-0.34969678812984134,-0.48471382240202737,0.0,0.0,0.0,0.0,0.0
1759839568.3557422,0,-1.2050000429153442,-0.8299997448921204,-0.7176903086388009,0.0,-1.7337883647279904,-0.34975422154137087,-0.5290468167554725,0.0,0.0,0.0,0.0,0.0
1759839568.3664086,0,-1.2050000429153442,-0.8299997448921204,-0.7176909452071811,0.0,-1.7340163784790283,-0.3498002051007406,-0.5645416415203324,0.0,0.0,0.0,0.0,0.0
1759839568.3776116,0,-1.2050000429153442,-0.8299997448921204,-0.7176914146666036,0.0,-1.7342096478556086,-0.34983918175812145,-0.5946278210726423,0.0,0.0,0.0,0.0,0.0
1759839568.3885627,0,-1.2050000429153442,-0.8299997448921204,-0.7176919346360506,0.0,-1.7343632203721495,-0.34987015274517713,-0.6185344036296221,0.0,0.0,0.0,0.0,0.0
1759839568.3989017,0,-1.2050000429153442,-0.8299997448921204,-0.7176925633298089,0.0,-1.734485620069425,-0.34989493510752256,-0.6375895749566907,6.389655239634268e-07,0.0,0.0,0.0,0.0
1759839568.4100428,0,-1.2050000429153442,-0.8299997448921204,-0.7176929505501305,0.0,-1.7345833430242823,-0.3499147606854178,-0.6528045333684929,1.1565590050463807e-06,0.0,0.0,0.0,0.0
1759839568.4210763,0,-1.2050000429153442,-0.8299997448921204,-0.7176933480730803,0.0,-1.7346615801007357,-0.34993065243587707,-0.6649864261688603,1.5783873525252698e-06,0.0,0.0,0.0,0.0
1759839568.4391844,0,-1.2050000429153442,-0.8299997448921204,-0.7176924222308578,0.0,-1.7347276777038645,-0.3499442204202199,-0.6752831366823151,2.518321889820393e-06,0.0,0.0,0.0,0.0
1759839568.4471786,0,-1.2050000429153442,-0.8299997448921204,-0.7176937481255923,0.0,-1.7347752821485747,-0.3499540097653703,-0.6826996222225883,3.2109332712768626e-06,0.0,0.0,0.0,0.0
1759839568.4576943,0,-1.2050000429153442,-0.8299997448921204,-0.7176944161957657,0.0,-1.7348149486358766,-0.3499621709663089,-0.6888796752150699,3.7720516372390654e-06,0.0,0.0,0.0,0.0
1759839568.4690373,0,-1.2050000429153442,-0.8299997448921204,-0.7176947949972146,0.0,-1.7348465922531902,-0.34996868828922817,-0.6938098768121539,4.219688256044943e-06,0.0,0.0,0.0,0.0
1759839568.47924,0,-1.2050000429153442,-0.8299997448921204,-0.7176953158752646,0.0,-1.7348725901086086,-0.34997404833171025,-0.6978606280362516,4.587518208777856e-06,0.0,0.0,0.0,0.0
1759839568.4893024,0,-1.2050000429153442,-0.8299997448921204,-0.7176957817450891,0.0,-1.7348948360573548,-0.34997863616320163,-0.7013267799588037,4.9022666716342485e-06,0.0,0.0,0.0,0.0
1759839568.5007806,0,-1.2050000429153442,-0.8299997448921204,-0.7176959628043029,0.0,-1.7349124773060365,-0.3499822785450964,-0.7040755977876981,5.151867501465902e-06,0.0,0.0,0.0,0.0
1759839568.5116272,0,-1.2050000429153442,-0.8299997448921204,-0.7176962422818498,0.0,-1.7349269845707627,-0.3499852775673101,-0.7063362069478012,5.357326866419182e-06,0.0,0.0,0.0,0.0
1759839568.5220363,0,-1.2050000429153442,-0.8299997448921204,-0.7176965723151625,0.0,-1.7349389559407207,-0.3499877549361246,-0.7082017436793182,5.526867924967114e-06,0.0,0.0,0.0,0.0
1759839568.532357,0,-1.2050000429153442,-0.8299997448921204,-0.7176968793723297,0.0,-1.7349488479625894,-0.3499898045349247,-0.7097433456446014,5.66696148822478e-06,0.0,0.0,0.0,0.0
1759839568.5437565,0,-1.2050000429153442,-0.8299997448921204,-0.7176970140889374,0.0,-1.734957250593903,-0.3499915477877289,-0.7110529272009755,5.785962275185372e-06,0.0,0.0,0.0,0.0
1759839568.5542572,0,-1.2050000429153442,-0.8299997448921204,-0.7176972736987217,0.0,-1.734964482660215,-0.3499930456627987,-0.7121799748124436,5.888371213014146e-06,0.0,0.0,0.0,0.0
1759839568.564756,0,-1.2050000429153442,-0.8299997448921204,-0.717697517712887,0.0,-1.7349702352551168,-0.3499942389969679,-0.7130765331719972,5.969832018847444e-06,0.0,0.0,0.0,0.0
1759839568.576189,0,-1.2050000429153442,-0.8299997448921204,-0.7176976342324419,0.0,-1.7349749906558727,-0.34999522723276905,-0.7138177565505034,6.0371740539065304e-06,0.0,0.0,0.0,0.0
1759839568.5876968,0,-1.2050000429153442,-0.8299997448921204,-0.7176977590235971,0.0,-1.7349789305836454,-0.34999604760304276,-0.714431945763443,6.092971901698072e-06,0.0,0.0,0.0,0.0
1759839568.5987597,0,-1.2050000429153442,-0.8299997448921204,-0.717697950865805,0.0,-1.7349823031434761,-0.34999675154161425,-0.7149578051886952,6.14074267303837e-06,0.0,0.0,0.0,0.0
1759839568.6097786,0,-1.2050000429153442,-0.8299997448921204,-0.7176981451319868,0.0,-1.7349852158760186,-0.3499973434160275,-0.7154108722851629,5.578907256082552e-06,0.0,0.0,0.0,0.0
1759839568.6198096,0,-1.2050000429153442,-0.8299997448921204,-0.7176984266030466,0.0,-1.7349876250636311,-0.3499978140034869,-0.7157843872444595,4.56358901558203e-06,0.0,0.0,0.0,0.0
1759839568.631332,0,-1.2050000429153442,-0.8299997448921204,-0.7176985285327735,0.0,-1.7349896166556542,-0.3499981928322516,-0.7160929492907631,3.755121589043097e-06,0.0,0.0,0.0,0.0
1759839568.6487968,0,-1.2050000429153442,-0.8299997448921204,-0.7176981126475398,0.0,-1.7349912999077428,-0.3499985066159151,-0.716353690385053,3.1149152436347863e-06,0.0,0.0,0.0,0.0
1759839568.6603231,0,-1.2050000429153442,-0.8299997448921204,-0.7176983940528814,0.0,-1.7349926893411263,-0.3499987599867772,-0.7165688444933468,2.6018883442435466e-06,0.0,0.0,0.0,0.0
1759839568.6710851,0,-1.2050000429153442,-0.8299997448921204,-0.7176987388322225,0.0,-1.7349938881589098,-0.3499989710805982,-0.7167543348016606,2.1604890196421534e-06,0.0,0.0,0.0,0.0
1759839568.6818779,0,-1.2050000429153442,-0.8299997448921204,-0.7176990204608344,0.0,-1.7349948766183987,-0.3499991417458515,-0.7169072622204918,1.8094489108359344e-06,0.0,0.0,0.0,0.0
1759839568.6927662,0,-1.2050000429153442,-0.8299997448921204,-0.7176992441644644,0.0,-1.7349956656568588,-0.3499992744286308,-0.7170292985977988,1.529364391438657e-06,0.0,0.0,0.0,0.0
1759839568.703937,0,-1.2050000429153442,-0.8299997448921204,-0.717699412958952,0.0,-1.7349963256517014,-0.34999938352254506,-0.7171313615103532,1.299937905941323e-06,0.0,0.0,0.0,0.0
1759839568.7151334,0,-1.2050000429153442,-0.8299997448921204,-0.7176995620170049,0.0,-1.7349968988920255,-0.3499994769112153,-0.7172199720305056,1.0979708864480556e-06,0.0,0.0,0.0,0.0
1759839568.7258866,0,-1.2050000429153442,-0.8299997448921204,-0.7176997295348411,0.0,-1.7349973939891699,-0.3499995545787867,-0.7172964570600923,9.23660807545155e-07,0.0,0.0,0.0,0.0
1759839568.7360103,0,-1.2050000429153442,-0.8299997448921204,-0.7176999197912899,0.0,-1.7349978054028672,-0.3499996177505363,-0.7173599902885475,7.784532136299999e-07,0.0,0.0,0.0,0.0
1759839568.7467933,0,-1.2050000429153442,-0.8299997448921204,-0.7177000392136462,0.0,-1.7349981476611211,-0.34999966916244446,-0.7174128343164748,6.57518986175466e-07,0.0,0.0,0.0,0.0
1759839568.757175,0,-1.2050000429153442,-0.8299997448921204,-0.7177001713686622,0.0,-1.7349984215927219,-0.3499997090906305,-0.71745512043203,5.607794443620868e-07,0.0,0.0,0.0,0.0
1759839568.7672577,0,-1.2050000429153442,-0.8299997448921204,-0.7177003077755781,0.0,-1.7349986533527855,-0.34999974219019475,-0.717490879894121,4.788179640164896e-07,0.0,0.0,0.0,0.0
1759839568.7783003,0,-1.2050000429153442,-0.8299997448921204,-0.7177003715674388,0.0,-1.734998849351725,-0.3499997696032061,-0.7175211155785022,4.095404445117603e-07,0.0,0.0,0.0,0.0
1759839568.7892795,0,-1.2050000429153442,-0.8299997448921204,-0.7177004413077501,0.0,-1.7349990197523413,-0.34999979240773665,-0.717547398835741,3.493748103233188e-07,0.0,0.0,0.0,0.0
1759839568.8005192,0,-1.2050000429153442,-0.8299997448921204,-0.7177005014232769,0.0,-1.7349991633646091,-0.3499998112521684,-0.7175695528735868,2.986909130264609e-07,0.0,0.0,0.0,0.0
1759839568.8117838,0,-1.2050000429153442,-0.8299997448921204,-0.7177005668984755,0.0,-1.7349992846395492,-0.34999982684845254,-0.7175882572337602,2.5595705494503326e-07,0.0,0.0,0.0,0.0
1759839568.8223987,0,-1.2050000429153442,-0.8299997448921204,-0.7177006700189281,0.0,-1.7349993875555973,-0.3499998398208009,-0.7176041350733992,2.1972069901150435e-07,0.0,0.0,0.0,0.0
1759839568.8331304,0,-1.2050000429153442,-0.8299997448921204,-0.7177007603918497,0.0,-1.7349994751670308,-0.34999985062769673,-0.7176176543774496,1.8889731090335496e-07,0.0,0.0,0.0,0.0
1759839568.8447342,0,-1.2050000429153442,-0.8299997448921204,-0.7177008035947257,0.0,-1.734999551564634,-0.34999985959213714,-0.7176294505333269,1.620459965338536e-07,0.0,0.0,0.0,0.0
1759839568.8557162,0,-1.2050000429153442,-0.8299997448921204,-0.7177008822579243,0.0,-1.7349996165207726,-0.34999986707200376,-0.7176394825479243,1.3922833966389587e-07,0.0,0.0,0.0,0.0
1759839568.8657649,0,-1.2050000429153442,-0.8299997448921204,-0.7177010004495888,0.0,-1.7349996718810614,-0.3499998733188097,-0.7176480312906721,1.197902379723104e-07,0.0,0.0,0.0,0.0
1759839568.8771486,0,-1.2050000429153442,-0.8299997448921204,-0.7177010467274858,0.0,-1.7349997212274184,-0.3499998788267153,-0.7176556693306779,1.024696555788124e-07,0.0,0.0,0.0,0.0
1759839568.8883479,0,-1.2050000429153442,-0.8299997448921204,-0.7177011026236748,0.0,-1.7349997608327925,-0.3499998830752593,-0.7176618029947711,8.857531610694441e-08,0.0,0.0,0.0,0.0
1759839568.8990357,0,-1.2050000429153442,-0.8299997448921204,-0.717701181338148,0.0,-1.7349997953714957,-0.349999886575516,-0.717667161694648,7.647037469021896e-08,0.0,0.0,0.0,0.0
1759839568.9092028,0,-1.2050000429153442,-0.8299997448921204,-0.7177012745329723,0.0,-1.734999826576782,-0.3499998897277925,-0.7176720069327057,6.553515791255392e-08,0.0,0.0,0.0,0.0
1759839568.9204097,0,-1.2050000429153442,-0.8299997448921204,-0.7177013178062985,0.0,-1.7349998529311508,-0.3499998923171491,-0.7176760997655119,5.630332404633255e-08,0.0,0.0,0.0,0.0
1759839568.9315634,0,-1.2050000429153442,-0.8299997448921204,-0.717701364120952,0.0,-1.7349998752431341,-0.34999989444812474,-0.7176795741504878,4.849098462096089e-08,0.0,0.0,0.0,0.0
1759839568.9424763,0,-1.2050000429153442,-0.8299997448921204,-0.7177014213313306,0.0,-1.7349998941863696,-0.34999989620581917,-0.7176825250718549,4.1861266197724375e-08,0.0,0.0,0.0,0.0
1759839568.9525332,0,-1.2050000429153442,-0.8299997448921204,-0.7177015055232232,0.0,-1.7349999116422037,-0.34999989774852486,-0.7176852616205832,3.57580256796327e-08,0.0,0.0,0.0,0.0
1759839568.963768,0,-1.2050000429153442,-0.8299997448921204,-0.717701541510781,0.0,-1.7349999263104774,-0.3499998990023969,-0.7176875656291302,3.0631858114542367e-08,0.0,0.0,0.0,0.0
1759839568.974903,0,-1.2050000429153442,-0.8299997448921204,-0.7177015818628227,0.0,-1.734999938674879,-0.34999990002433723,-0.7176895121294058,2.6312908839466702e-08,0.0,0.0,0.0,0.0
1759839568.9856036,0,-1.2050000429153442,-0.8299997448921204,-0.7177016375035095,0.0,-1.7349999496303792,-0.3499999009125021,-0.7176912351311013,2.248794198870348e-08,0.0,0.0,0.0,0.0
1759839568.9965732,0,-1.2050000429153442,-0.8299997448921204,-0.7177016825891585,0.0,-1.7349999584298876,-0.34999990158793637,-0.7176926256376802,1.9417281694273386e-08,0.0,0.0,0.0,0.0
1759839569.0066755,0,-1.2050000429153442,-0.8299997448921204,-0.7177017505731236,0.0,-1.7349999665219737,-0.3499999021735491,-0.7176939214670959,1.659617964308845e-08,0.0,0.0,0.0,0.0
1759839569.0174634,0,-1.2050000429153442,-0.8299997448921204,-0.7177017920809412,0.0,-1.7349999733169652,-0.34999990264544245,-0.7176950130913581,1.4228398324117961e-08,0.0,0.0,0.0,0.0
1759839569.0280595,0,-1.2050000429153442,-0.8299997448921204,-0.7177018362725445,0.0,-1.7349999793242603,-0.349999903053584,-0.7176959582092061,1.213601189451419e-08,0.0,0.0,0.0,0.0
1759839569.0393999,0,-1.2050000429153442,-0.8299997448921204,-0.7177018596947916,0.0,-1.7349999843581203,-0.3499999033799318,-0.7176967723741056,1.0383525677687307e-08,0.0,0.0,0.0,0.0
1759839569.0567124,0,-1.2050000429153442,-0.8299997448921204,-0.7177017453618221,0.0,-1.7349999886903797,-0.3499999036360725,-0.7176974920135745,8.876681475269187e-09,0.0,0.0,0.0,0.0
1759839569.0677006,0,-1.2050000429153442,-0.8299997448921204,-0.7177018253689411,0.0,-1.734999992327685,-0.34999990384156804,-0.7176980995978821,7.61208874734165e-09,0.0,0.0,0.0,0.0
1759839569.0787516,0,-1.2050000429153442,-0.8299997448921204,-0.7177019022034123,0.0,-1.734999995403809,-0.34999990400750736,-0.7176986130132377,6.54308112291671e-09,0.0,0.0,0.0,0.0
1759839569.0900247,0,-1.2050000429153442,-0.8299997448921204,-0.7177019619101372,0.0,-1.7349999980096604,-0.34999990414140764,-0.7176990491470374,5.637907651895508e-09,0.0,0.0,0.0,0.0
1759839569.1015298,0,-1.2050000429153442,-0.8299997448921204,-0.7177020086337933,0.0,-1.735000000221007,-0.3499999042493774,-0.7176994229130318,4.870116139112294e-09,0.0,0.0,0.0,0.0
1759839569.112852,0,-1.2050000429153442,-0.8299997448921204,-0.7177020546091004,0.0,-1.7350000021072556,-0.3499999043369104,-0.7176997450635685,4.215497754870362e-09,0.0,0.0,0.0,0.0
1759839569.1243143,0,-1.2050000429153442,-0.8299997448921204,-0.7177020938689935,0.0,-1.7350000037570843,-0.34999990440383133,-0.7177000338769646,3.6435012166234704e-09,0.0,0.0,0.0,0.0
1759839569.1351388,0,-1.2050000429153442,-0.8299997448921204,-0.7177021420160195,0.0,-1.7350000050729382,-0.3499999044515154,-0.7177002676938117,3.187519727888579e-09,0.0,0.0,0.0,0.0
1759839569.146235,0,-1.2050000429153442,-0.8299997448921204,-0.7177021797730578,0.0,-1.735000006211455,-0.34999990449138024,-0.717700468440535,2.7931147727197016e-09,0.0,0.0,0.0,0.0
1759839569.1567342,0,-1.2050000429153442,-0.8299997448921204,-0.7177022239494395,0.0,-1.735000007204611,-0.3499999045248639,-0.7177006452935273,2.449191066844499e-09,0.0,0.0,0.0,0.0
1759839569.1672626,0,-1.2050000429153442,-0.8299997448921204,-0.7177022620058509,0.0,-1.735000008130665,-0.3499999045565475,-0.7177008093608516,2.128606427991273e-09,0.0,0.0,0.0,0.0
1759839569.1796653,0,-1.2050000429153442,-0.8299997448921204,-0.7177022656324271,0.0,-1.735000008874727,-0.34999990457889896,-0.7177009448961116,1.8711498709931206e-09,0.0,0.0,0.0,0.0
1759839569.1900144,0,-1.2050000429153442,-0.8299997448921204,-0.7177023061600742,0.0,-1.7350000095324245,-0.3499999045948359,-0.7177010709233517,1.6438146760446511e-09,0.0,0.0,0.0,0.0
1759839569.2007678,0,-1.2050000429153442,-0.8299997448921204,-0.7177023370567444,0.0,-1.7350000101081897,-0.34999990460833247,-0.7177011834667464,1.444854643631648e-09,0.0,0.0,0.0,0.0
1759839569.2118726,0,-1.2050000429153442,-0.8299997448921204,-0.7177023595951049,0.0,-1.7350000105688357,-0.349999904617167,-0.7177012754633803,1.2857525798555525e-09,0.0,0.0,0.0,0.0
1759839569.2221558,0,-1.2050000429153442,-0.8299997448921204,-0.7177023927548589,0.0,-1.7350000109817274,-0.3499999046250266,-0.717701357836206,1.143180100254194e-09,0.0,0.0,0.0,0.0
1759839569.2337155,0,-1.2050000429153442,-0.8299997448921204,-0.7177024051613294,0.0,-1.7350000113803201,-0.34999990463333974,-0.7177014405859532,1.005566968982826e-09,0.0,0.0,0.0,0.0
1759839569.244399,0,-1.2050000429153442,-0.8299997448921204,-0.7177024303951303,0.0,-1.7350000117020545,-0.3499999046387038,-0.717701505975482,8.945443566391433e-10,0.0,0.0,0.0,0.0
1759839569.2607708,0,-1.2050000429153442,-0.8299997448921204,-0.7177023846790256,0.0,-1.7350000120148386,-0.3499999046430468,-0.7177015765010781,7.867037753274401e-10,0.0,0.0,0.0,0.0
1759839569.2717147,0,-1.2050000429153442,-0.8299997448921204,-0.7177024234745931,0.0,-1.7350000122875597,-0.3499999046464435,-0.7177016259835098,6.927044768013697e-10,0.0,0.0,0.0,0.0
1759839569.281849,0,-1.2050000429153442,-0.8299997448921204,-0.717702470221889,0.0,-1.735000012525809,-0.34999990464903635,-0.7177016746193661,6.106135624404611e-10,0.0,0.0,0.0,0.0
1759839569.2934866,0,-1.2050000429153442,-0.8299997448921204,-0.7177024917217505,0.0,-1.7350000127338774,-0.34999990465091896,-0.7177017216418518,5.389480215114022e-10,0.0,0.0,0.0,0.0
1759839569.3047943,0,-1.2050000429153442,-0.8299997448921204,-0.7177025144469802,0.0,-1.735000012930774,-0.34999990465193836,-0.7177017756601326,4.711913906152731e-10,0.0,0.0,0.0,0.0
1759839569.3166974,0,-1.2050000429153442,-0.8299997448921204,-0.7177025295793502,0.0,-1.7350000130995324,-0.34999990465244,-0.7177018242755525,4.1313816214242473e-10,0.0,0.0,0.0,0.0
1759839569.3277373,0,-1.2050000429153442,-0.8299997448921204,-0.7177025535828374,0.0,-1.7350000132448935,-0.3499999046525637,-0.7177018689003958,3.631516254601782e-10,0.0,0.0,0.0,0.0
1759839569.340791,0,-1.2050000429153442,-0.8299997448921204,-0.7177025566390274,0.0,-1.7350000133613475,-0.3499999046521837,-0.7177019069434726,3.2312449871585706e-10,0.0,0.0,0.0,0.0
1759839569.3509068,0,-1.2050000429153442,-0.8299997448921204,-0.7177025899701839,0.0,-1.7350000134645651,-0.349999904651757,-0.7177019435937114,2.876566489773576e-10,0.0,0.0,0.0,0.0
1759839569.36153,0,-1.2050000429153442,-0.8299997448921204,-0.7177026143304842,0.0,-1.7350000135571508,-0.34999990465083497,-0.7177019803719463,2.5587728245516184e-10,0.0,0.0,0.0,0.0
1759839569.3726256,0,-1.2050000429153442,-0.8299997448921204,-0.7177026307036272,0.0,-1.735000013638517,-0.3499999046499747,-0.7177020148992574,2.279536642383394e-10,0.0,0.0,0.0,0.0
1759839569.382704,0,-1.2050000429153442,-0.8299997448921204,-0.7177026539647712,0.0,-1.7350000137103585,-0.3499999046491377,-0.7177020453796266,2.0330541826056393e-10,0.0,0.0,0.0,0.0
1759839569.3929868,0,-1.2050000429153442,-0.8299997448921204,-0.7177026722647,0.0,-1.7350000137738484,-0.349999904648331,-0.7177020714794915,1.815282823978525e-10,0.0,0.0,0.0,0.0
1759839569.4038167,0,-1.2050000429153442,-0.8299997448921204,-0.7177026837489429,0.0,-1.735000013829534,-0.3499999046475367,-0.7177020936195025,1.6243364095249784e-10,0.0,0.0,0.0,0.0
1759839569.4149094,0,-1.2050000429153442,-0.8299997448921204,-0.7177026927388859,0.0,-1.7350000138743888,-0.3499999046467111,-0.7177021135320164,1.470603562254981e-10,0.0,0.0,0.0,0.0
1759839569.4260378,0,-1.2050000429153442,-0.8299997448921204,-0.7177027019656492,0.0,-1.7350000139156387,-0.3499999046457165,-0.7177021355161491,1.3293967611151462e-10,0.0,0.0,0.0,0.0
1759839569.4368625,0,-1.2050000429153442,-0.8299997448921204,-0.7177027138198113,0.0,-1.7350000139526462,-0.34999990464484243,-0.7177021556481439,1.2027151428952337e-10,0.0,0.0,0.0,0.0
1759839569.4471552,0,-1.2050000429153442,-0.8299997448921204,-0.717702728891652,0.0,-1.7350000139894766,-0.34999990464412106,-0.7177021780822093,1.0766112751150882e-10,0.0,0.0,0.0,0.0
1759839569.4611957,0,-1.2050000429153442,-0.8299997448921204,-0.7177027180808988,0.0,-1.73500001402198,-0.3499999046434564,-0.7177021985512716,9.653477169474252e-11,0.0,0.0,0.0,0.0
1759839569.4713666,0,-1.2050000429153442,-0.8299997448921204,-0.7177027374561149,0.0,-1.7350000140518216,-0.3499999046426645,-0.7177022228074307,8.633198490085918e-11,0.0,0.0,0.0,0.0
1759839569.4824388,0,-1.2050000429153442,-0.8299997448921204,-0.7177027498955262,0.0,-1.7350000140806656,-0.3499999046419715,-0.7177022352474753,7.646927703557719e-11,0.0,0.0,0.0,0.0
1759839569.493702,0,-1.2050000429153442,-0.8299997448921204,-0.7177027599110168,0.0,-1.735000014105773,-0.34999990464133224,-0.7177022493828332,6.788647740412158e-11,0.0,0.0,0.0,0.0
1759839569.5051074,0,-1.2050000429153442,-0.8299997448921204,-0.7177027687702378,0.0,-1.7350000141278286,-0.34999990464073955,-0.7177022645804145,6.034919509406842e-11,0.0,0.0,0.0,0.0
1759839569.5158467,0,-1.2050000429153442,-0.8299997448921204,-0.7177027812423624,0.0,-1.73500001414723,-0.34999990464018815,-0.7177022799817184,5.372100304031771e-11,0.0,0.0,0.0,0.0
1759839569.526423,0,-1.2050000429153442,-0.8299997448921204,-0.71770279343027,0.0,-1.735000014164538,-0.3499999046395952,-0.7177022987451305,4.7814257928820556e-11,0.0,0.0,0.0,0.0
1759839569.536887,0,-1.2050000429153442,-0.8299997448921204,-0.7177028047564917,0.0,-1.7350000141783253,-0.34999990463906483,-0.7177023131903844,4.3111292658690096e-11,0.0,0.0,0.0,0.0
1759839569.548114,0,-1.2050000429153442,-0.8299997448921204,-0.7177028110100778,0.0,-1.7350000141919184,-0.3499999046385826,-0.7177023298790958,3.8473931999455423e-11,0.0,0.0,0.0,0.0
1759839569.5592499,0,-1.2050000429153442,-0.8299997448921204,-0.7177028177979654,0.0,-1.7350000142027844,-0.34999990463815234,-0.7177023427269182,3.4768662877995975e-11,0.0,0.0,0.0,0.0
1759839569.5695963,0,-1.2050000429153442,-0.8299997448921204,-0.717702828361988,0.0,-1.735000014212522,-0.3499999046377627,-0.7177023555562065,3.14486891259789e-11,0.0,0.0,0.0,0.0
1759839569.579668,0,-1.2050000429153442,-0.8299997448921204,-0.7177028390685081,0.0,-1.7350000142212727,-0.3499999046374041,-0.7177023670991282,2.8465962728148302e-11,0.0,0.0,0.0,0.0
1759839569.5903058,0,-1.2050000429153442,-0.8299997448921204,-0.7177028458633288,0.0,-1.7350000142291249,-0.3499999046370748,-0.7177023784047447,2.579014213773424e-11,0.0,0.0,0.0,0.0
1759839569.6003168,0,-1.2050000429153442,-0.8299997448921204,-0.7177028547952933,0.0,-1.7350000142362991,-0.34999990463673186,-0.7177023905142648,2.3348305948301923e-11,0.0,0.0,0.0,0.0
1759839569.6103482,0,-1.2050000429153442,-0.8299997448921204,-0.7177028626688493,0.0,-1.7350000142427469,-0.3499999046364224,-0.7177024011682009,2.1153855080341735e-11,0.0,0.0,0.0,0.0
1759839569.6215293,0,-1.2050000429153442,-0.8299997448921204,-0.7177028651362729,0.0,-1.735000014248529,-0.3499999046361433,-0.717702411109298,1.918627058199658e-11,0.0,0.0,0.0,0.0
1759839569.6318693,0,-1.2050000429153442,-0.8299997448921204,-0.7177028714646241,0.0,-1.7350000142537223,-0.3499999046358901,-0.7177024204529016,1.7419272794942653e-11,0.0,0.0,0.0,0.0
1759839569.6423116,0,-1.2050000429153442,-0.8299997448921204,-0.7177028772487847,0.0,-1.7350000142583433,-0.3499999046356594,-0.7177024292898211,1.584725313963793e-11,0.0,0.0,0.0,0.0
1759839569.6536055,0,-1.2050000429153442,-0.8299997448921204,-0.7177028797304921,0.0,-1.7350000142624684,-0.34999990463544733,-0.7177024372903552,1.4444406672266813e-11,0.0,0.0,0.0,0.0
1759839569.6716335,0,-1.2050000429153442,-0.8299997448921204,-0.7177028604072717,0.0,-1.7350000142665474,-0.349999904635226,-0.7177024470510027,1.3058510146942132e-11,0.0,0.0,0.0,0.0
1759839569.6817396,0,-1.2050000429153442,-0.8299997448921204,-0.7177028745973377,0.0,-1.7350000142701894,-0.349999904635026,-0.7177024552737001,1.1821273192451487e-11,0.0,0.0,0.0,0.0
1759839569.6925805,0,-1.2050000429153442,-0.8299997448921204,-0.7177028855206693,0.0,-1.7350000142734383,-0.34999990463484554,-0.717702462386041,1.0717630351659919e-11,0.0,0.0,0.0,0.0
1759839569.7037654,0,-1.2050000429153442,-0.8299997448921204,-0.7177028934195206,0.0,-1.7350000142766393,-0.3499999046346724,-0.7177024658372785,9.630470249433868e-12,0.0,0.0,0.0,0.0
1759839569.7151132,0,-1.2050000429153442,-0.8299997448921204,-0.7177028997726769,0.0,-1.7350000142792241,-0.3499999046345223,-0.7177024700566129,8.753012700522796e-12,0.0,0.0,0.0,0.0
1759839569.7262115,0,-1.2050000429153442,-0.8299997448921204,-0.7177029062512599,0.0,-1.7350000142816193,-0.349999904634369,-0.7177024756407744,7.940998120943014e-12,0.0,0.0,0.0,0.0
1759839569.7369182,0,-1.2050000429153442,-0.8299997448921204,-0.7177029131593784,0.0,-1.7350000142837863,-0.34999990463423086,-0.7177024817415755,7.206430570387109e-12,0.0,0.0,0.0,0.0
1759839569.7473795,0,-1.2050000429153442,-0.8299997448921204,-0.7177029198458023,0.0,-1.7350000142857454,-0.34999990463410613,-0.7177024875128167,6.542314946746189e-12,0.0,0.0,0.0,0.0
1759839569.7588952,0,-1.2050000429153442,-0.8299997448921204,-0.7177029229779244,0.0,-1.7350000142875108,-0.34999990463399333,-0.7177024933621469,5.943802771566498e-12,0.0,0.0,0.0,0.0
1759839569.76904,0,-1.2050000429153442,-0.8299997448921204,-0.7177029294967703,0.0,-1.735000014289109,-0.3499999046338899,-0.7177024989942431,5.402182608698835e-12,0.0,0.0,0.0,0.0
1759839569.7809143,0,-1.2050000429153442,-0.8299997448921204,-0.7177029311886187,0.0,-1.7350000142905346,-0.3499999046337957,-0.7177025047568271,4.919286470289473e-12,0.0,0.0,0.0,0.0
1759839569.7911417,0,-1.2050000429153442,-0.8299997448921204,-0.7177029369945327,0.0,-1.7350000142918476,-0.3499999046337011,-0.7177025111381595,4.4750226868090004e-12,0.0,0.0,0.0,0.0
1759839569.802705,0,-1.2050000429153442,-0.8299997448921204,-0.7177029393021321,0.0,-1.7350000142928965,-0.3499999046336213,-0.7177025168935502,4.120163918774544e-12,0.0,0.0,0.0,0.0
1759839569.816345,0,-1.2050000429153442,-0.8299997448921204,-0.7177029374728754,0.0,-1.7350000142938653,-0.3499999046335491,-0.7177025221079062,3.792496996853486e-12,0.0,0.0,0.0,0.0
1759839569.8284752,0,-1.2050000429153442,-0.8299997448921204,-0.7177029403835462,0.0,-1.735000014294847,-0.34999990463347913,-0.7177025272502519,3.4604344301817358e-12,0.0,0.0,0.0,0.0
1759839569.8401556,0,-1.2050000429153442,-0.8299997448921204,-0.7177029446907106,0.0,-1.7350000142956377,-0.3499999046334197,-0.7177025311432356,3.1930661171769693e-12,0.0,0.0,0.0,0.0
1759839569.8537095,0,-1.2050000429153442,-0.8299997448921204,-0.7177029453878081,0.0,-1.7350000142964666,-0.34999990463335573,-0.7177025364178589,2.9129524185943875e-12,0.0,0.0,0.0,0.0
1759839569.8757627,0,-1.2050000429153442,-0.8299997448921204,-0.7177029326696225,0.0,-1.735000014297262,-0.3499999046332962,-0.7177025418307722,2.644055250046053e-12,0.0,0.0,0.0,0.0
1759839569.8874018,0,-1.2050000429153442,-0.8299997448921204,-0.7177029427647579,0.0,-1.7350000142979023,-0.3499999046332458,-0.7177025464006968,2.4276881311314495e-12,0.0,0.0,0.0,0.0
1759839569.901005,0,-1.2050000429153442,-0.8299997448921204,-0.7177029489832378,0.0,-1.7350000142984792,-0.34999990463320013,-0.7177025506605373,2.232793307929082e-12,0.0,0.0,0.0,0.0
1759839569.9149814,0,-1.2050000429153442,-0.8299997448921204,-0.7177029537398987,0.0,-1.7350000142990778,-0.3499999046331511,-0.7177025561253161,2.0307395444677983e-12,0.0,0.0,0.0,0.0
1759839569.929574,0,-1.2050000429153442,-0.8299997448921204,-0.7177029573084113,0.0,-1.7350000142996054,-0.3499999046331075,-0.7177025607722496,1.8525895415176514e-12,0.0,0.0,0.0,0.0
1759839569.9406147,0,-1.2050000429153442,-0.8299997448921204,-0.7177029655682041,0.0,-1.7350000143001585,-0.3499999046330635,-0.7177025631276944,1.6658325364401056e-12,0.0,0.0,0.0,0.0
1759839569.9515839,0,-1.2050000429153442,-0.8299997448921204,-0.7177029723519047,0.0,-1.7350000143006064,-0.34999990463302616,-0.7177025648083727,1.5147209102865886e-12,0.0,0.0,0.0,0.0
1759839569.9649577,0,-1.2050000429153442,-0.8299997448921204,-0.7177029746847641,0.0,-1.7350000143009667,-0.3499999046329948,-0.7177025673515733,1.3932141939839018e-12,0.0,0.0,0.0,0.0
1759839569.9765773,0,-1.2050000429153442,-0.8299997448921204,-0.7177029789577336,0.0,-1.735000014301302,-0.3499999046329637,-0.7177025704616716,1.2803793678240538e-12,0.0,0.0,0.0,0.0
1759839569.987804,0,-1.2050000429153442,-0.8299997448921204,-0.7177029831280635,0.0,-1.7350000143016064,-0.34999990463293557,-0.7177025740342224,1.1777613492532496e-12,0.0,0.0,0.0,0.0
1759839569.9995058,0,-1.2050000429153442,-0.8299997448921204,-0.7177029860779971,0.0,-1.735000014301883,-0.34999990463291003,-0.7177025776809676,1.0845621209566117e-12,0.0,0.0,0.0,0.0
1759839570.0101867,0,-1.2050000429153442,-0.8299997448921204,-0.7177029897265559,0.0,-1.7350000143021382,-0.3499999046328867,-0.7177025815157897,9.986643361603317e-13,0.0,0.0,0.0,0.0
1759839570.0218904,0,-1.2050000429153442,-0.8299997448921204,-0.7177029917369994,0.0,-1.7350000143023694,-0.3499999046328655,-0.7177025850730497,9.207601104320524e-13,0.0,0.0,0.0,0.0
1759839570.0324175,0,-1.2050000429153442,-0.8299997448921204,-0.7177029947366638,0.0,-1.7350000143025854,-0.34999990463284447,-0.7177025886061491,8.480720281808011e-13,0.0,0.0,0.0,0.0
1759839570.0434303,0,-1.2050000429153442,-0.8299997448921204,-0.7177029968451372,0.0,-1.7350000143027584,-0.349999904632827,-0.717702591308218,7.899000702278039e-13,0.0,0.0,0.0,0.0
1759839570.0538764,0,-1.2050000429153442,-0.8299997448921204,-0.7177029992295161,0.0,-1.735000014302921,-0.3499999046328107,-0.7177025933596592,7.352524064762087e-13,0.0,0.0,0.0,0.0
1759839570.0646896,0,-1.2050000429153442,-0.8299997448921204,-0.7177030009618441,0.0,-1.735000014303073,-0.3499999046327957,-0.7177025953431788,6.841236700841021e-13,0.0,0.0,0.0,0.0
1759839570.0805752,0,-1.2050000429153442,-0.8299997448921204,-0.7177029981135234,0.0,-1.735000014303231,-0.3499999046327808,-0.7177025983535609,6.311089217241867e-13,0.0,0.0,0.0,0.0
1759839570.0911002,0,-1.2050000429153442,-0.8299997448921204,-0.7177030010278571,0.0,-1.7350000143033817,-0.3499999046327656,-0.7177026017609813,5.804435779928763e-13,0.0,0.0,0.0,0.0
1759839570.101706,0,-1.2050000429153442,-0.8299997448921204,-0.7177030036962097,0.0,-1.7350000143035187,-0.3499999046327518,-0.7177026046437511,5.344323323491932e-13,0.0,0.0,0.0,0.0
1759839570.1123059,0,-1.2050000429153442,-0.8299997448921204,-0.7177030059064222,0.0,-1.7350000143036286,-0.34999990463274033,-0.7177026071304107,4.974835999231031e-13,0.0,0.0,0.0,0.0
1759839570.123404,0,-1.2050000429153442,-0.8299997448921204,-0.7177030073836743,0.0,-1.735000014303731,-0.34999990463272973,-0.7177026095968043,4.630995130411877e-13,0.0,0.0,0.0,0.0
1759839570.1345973,0,-1.2050000429153442,-0.8299997448921204,-0.7177030086474794,0.0,-1.7350000143038262,-0.34999990463271996,-0.7177026120791736,4.31086014737855e-13,0.0,0.0,0.0,0.0
1759839570.1455743,0,-1.2050000429153442,-0.8299997448921204,-0.7177030100066855,0.0,-1.7350000143039161,-0.34999990463271013,-0.717702614761288,4.008521368500063e-13,0.0,0.0,0.0,0.0
1759839570.1555758,0,-1.2050000429153442,-0.8299997448921204,-0.717703011945936,0.0,-1.7350000143040085,-0.3499999046327004,-0.7177026164741441,3.6985377134559874e-13,0.0,0.0,0.0,0.0
1759839570.1663094,0,-1.2050000429153442,-0.8299997448921204,-0.7177030131116702,0.0,-1.7350000143040927,-0.34999990463269154,-0.7177026187162109,3.416586752941982e-13,0.0,0.0,0.0,0.0
1759839570.1771963,0,-1.2050000429153442,-0.8299997448921204,-0.7177030140616019,0.0,-1.735000014304168,-0.3499999046326835,-0.7177026216096564,3.163212128216068e-13,0.0,0.0,0.0,0.0
1759839570.1875546,0,-1.2050000429153442,-0.8299997448921204,-0.7177030153183281,0.0,-1.7350000143042372,-0.34999990463267616,-0.7177026242318534,2.9308493877919607e-13,0.0,0.0,0.0,0.0
1759839570.1987376,0,-1.2050000429153442,-0.8299997448921204,-0.7177030159635365,0.0,-1.7350000143043023,-0.3499999046326689,-0.7177026269304425,2.7130358300465754e-13,0.0,0.0,0.0,0.0
1759839570.208954,0,-1.2050000429153442,-0.8299997448921204,-0.7177030172134149,0.0,-1.7350000143043622,-0.3499999046326622,-0.7177026294456706,2.5117118084636333e-13,0.0,0.0,0.0,0.0
1759839570.2190201,0,-1.2050000429153442,-0.8299997448921204,-0.7177030184367208,0.0,-1.7350000143044169,-0.34999990463265607,-0.7177026317423909,2.3283676794356867e-13,0.0,0.0,0.0,0.0
1759839570.2299552,0,-1.2050000429153442,-0.8299997448921204,-0.7177030190261693,0.0,-1.735000014304461,-0.349999904632651,-0.7177026337507537,2.1812201292043382e-13,0.0,0.0,0.0,0.0
1759839570.2403622,0,-1.2050000429153442,-0.8299997448921204,-0.7177030199168363,0.0,-1.7350000143045021,-0.3499999046326463,-0.7177026356088769,2.0437649043350456e-13,0.0,0.0,0.0,0.0
1759839570.250815,0,-1.2050000429153442,-0.8299997448921204,-0.7177030207450699,0.0,-1.7350000143045412,-0.3499999046326419,-0.7177026372784661,1.91310951527462e-13,0.0,0.0,0.0,0.0
1759839570.2619443,0,-1.2050000429153442,-0.8299997448921204,-0.717703021188223,0.0,-1.7350000143045787,-0.34999990463263747,-0.7177026390908182,1.7877373208981058e-13,0.0,0.0,0.0,0.0
1759839570.2724102,0,-1.2050000429153442,-0.8299997448921204,-0.7177030220175453,0.0,-1.735000014304614,-0.3499999046326333,-0.7177026407582705,1.669816296232485e-13,0.0,0.0,0.0,0.0
1759839570.2827568,0,-1.2050000429153442,-0.8299997448921204,-0.7177030228722696,0.0,-1.735000014304648,-0.34999990463262937,-0.7177026422159142,1.5566730410748106e-13,0.0,0.0,0.0,0.0
1759839570.2932582,0,-1.2050000429153442,-0.8299997448921204,-0.7177030235879088,0.0,-1.7350000143046798,-0.3499999046326257,-0.7177026435102575,1.450641750212735e-13,0.0,0.0,0.0,0.0
1759839570.304682,0,-1.2050000429153442,-0.8299997448921204,-0.7177030238594391,0.0,-1.735000014304705,-0.3499999046326227,-0.7177026446924096,1.3654644310344892e-13,0.0,0.0,0.0,0.0
1759839570.3148928,0,-1.2050000429153442,-0.8299997448921204,-0.7177030247428338,0.0,-1.7350000143047293,-0.3499999046326199,-0.7177026458340062,1.284820265478042e-13,0.0,0.0,0.0,0.0
1759839570.3264654,0,-1.2050000429153442,-0.8299997448921204,-0.7177030250050596,0.0,-1.7350000143047564,-0.34999990463261665,-0.7177026472550927,1.194810108826967e-13,0.0,0.0,0.0,0.0
1759839570.3364675,0,-1.2050000429153442,-0.8299997448921204,-0.717703025972872,0.0,-1.735000014304781,-0.3499999046326137,-0.7177026484829426,1.1122039920027656e-13,0.0,0.0,0.0,0.0
1759839570.3477638,0,-1.2050000429153442,-0.8299997448921204,-0.7177030263472268,0.0,-1.735000014304806,-0.34999990463261077,-0.7177026497817811,1.0280548423748815e-13,0.0,0.0,0.0,0.0
1759839570.3592548,0,-1.2050000429153442,-0.8299997448921204,-0.7177030266819918,0.0,-1.7350000143048323,-0.34999990463260755,-0.7177026511723601,9.404151359359157e-14,0.0,0.0,0.0,0.0
1759839570.3697944,0,-1.2050000429153442,-0.8299997448921204,-0.717703027433302,0.0,-1.7350000143048572,-0.3499999046326045,-0.7177026525536027,8.569921532390585e-14,0.0,0.0,0.0,0.0
1759839570.3798442,0,-1.2050000429153442,-0.8299997448921204,-0.7177030283047614,0.0,-1.735000014304879,-0.3499999046326017,-0.7177026538623005,7.842343690069225e-14,0.0,0.0,0.0,0.0
1759839570.3898494,0,-1.2050000429153442,-0.8299997448921204,-0.7177030290724709,0.0,-1.7350000143048983,-0.3499999046325994,-0.7177026550574672,7.203522848672131e-14,0.0,0.0,0.0,0.0
1759839570.4005723,0,-1.2050000429153442,-0.8299997448921204,-0.7177030294987023,0.0,-1.7350000143049156,-0.3499999046325972,-0.7177026560877364,6.634900035381563e-14,0.0,0.0,0.0,0.0
1759839570.4120114,0,-1.2050000429153442,-0.8299997448921204,-0.7177030296894316,0.0,-1.7350000143049327,-0.3499999046325949,-0.7177026573642223,6.052689025179405e-14,0.0,0.0,0.0,0.0
1759839570.42233,0,-1.2050000429153442,-0.8299997448921204,-0.7177030302975211,0.0,-1.735000014304948,-0.3499999046325929,-0.7177026585403363,5.5389804079719994e-14,0.0,0.0,0.0,0.0
1759839570.4333434,0,-1.2050000429153442,-0.8299997448921204,-0.7177030306663976,0.0,-1.7350000143049624,-0.34999990463259095,-0.7177026597415159,5.0550983411803343e-14,0.0,0.0,0.0,0.0
1759839570.443863,0,-1.2050000429153442,-0.8299997448921204,-0.7177030311827259,0.0,-1.735000014304974,-0.3499999046325894,-0.7177026608098471,4.664579453566554e-14,0.0,0.0,0.0,0.0
1759839570.454926,0,-1.2050000429153442,-0.8299997448921204,-0.7177030315225039,0.0,-1.7350000143049844,-0.349999904632588,-0.7177026617642122,4.318312147539637e-14,0.0,0.0,0.0,0.0
1759839570.465996,0,-1.2050000429153442,-0.8299997448921204,-0.7177030318730573,0.0,-1.7350000143049964,-0.3499999046325864,-0.7177026629415486,3.9288153944907633e-14,0.0,0.0,0.0,0.0
1759839570.4768584,0,-1.2050000429153442,-0.8299997448921204,-0.7177030322934996,0.0,-1.7350000143050075,-0.3499999046325849,-0.7177026639887913,3.562812096030915e-14,0.0,0.0,0.0,0.0
1759839570.4887338,0,-1.2050000429153442,-0.8299997448921204,-0.7177030324569955,0.0,-1.7350000143050164,-0.3499999046325836,-0.7177026649095053,3.268835213072486e-14,0.0,0.0,0.0,0.0
1759839570.4988005,0,-1.2050000429153442,-0.8299997448921204,-0.7177030331142493,0.0,-1.735000014305025,-0.34999990463258246,-0.717702665724305,2.986779289709221e-14,0.0,0.0,0.0,0.0
1759839570.5103421,0,-1.2050000429153442,-0.8299997448921204,-0.7177030333592391,0.0,-1.7350000143050333,-0.34999990463258124,-0.7177026666925753,2.7067175689777476e-14,0.0,0.0,0.0,0.0
1759839570.5207858,0,-1.2050000429153442,-0.8299997448921204,-0.7177030338640461,0.0,-1.735000014305041,-0.3499999046325801,-0.7177026675385688,2.449072487103206e-14,0.0,0.0,0.0,0.0
1759839570.5309653,0,-1.2050000429153442,-0.8299997448921204,-0.7177030343829074,0.0,-1.7350000143050472,-0.3499999046325792,-0.7177026682486306,2.241700456979897e-14,0.0,0.0,0.0,0.0
1759839570.542468,0,-1.2050000429153442,-0.8299997448921204,-0.7177030345585571,0.0,-1.7350000143050532,-0.34999990463257824,-0.7177026689503968,2.036165441908308e-14,0.0,0.0,0.0,0.0
1759839570.5526533,0,-1.2050000429153442,-0.8299997448921204,-0.7177030350263323,0.0,-1.7350000143050588,-0.3499999046325774,-0.7177026695903408,1.8469079210083347e-14,0.0,0.0,0.0,0.0
1759839570.5635464,0,-1.2050000429153442,-0.8299997448921204,-0.7177030353138925,0.0,-1.735000014305064,-0.34999990463257663,-0.7177026703766222,1.672413239012435e-14,0.0,0.0,0.0,0.0
1759839570.5743349,0,-1.2050000429153442,-0.8299997448921204,-0.7177030356105333,0.0,-1.7350000143050688,-0.34999990463257596,-0.7177026710621003,1.5135997360190507e-14,0.0,0.0,0.0,0.0
1759839570.585692,0,-1.2050000429153442,-0.8299997448921204,-0.7177030357980492,0.0,-1.7350000143050728,-0.34999990463257535,-0.7177026716540488,1.378207409937015e-14,0.0,0.0,0.0,0.0
1759839570.5966084,0,-1.2050000429153442,-0.8299997448921204,-0.7177030360865508,0.0,-1.7350000143050766,-0.34999990463257474,-0.7177026722184296,1.2604268060552136e-14,0.0,0.0,0.0,0.0
1759839570.60685,0,-1.2050000429153442,-0.8299997448921204,-0.717703036487146,0.0,-1.7350000143050797,-0.34999990463257424,-0.7177026727390216,1.1572435300658517e-14,0.0,0.0,0.0,0.0
1759839570.6183705,0,-1.2050000429153442,-0.8299997448921204,-0.7177030366341732,0.0,-1.7350000143050828,-0.34999990463257374,-0.7177026733539664,1.0529497175286666e-14,0.0,0.0,0.0,0.0
1759839570.629131,0,-1.2050000429153442,-0.8299997448921204,-0.7177030369219253,0.0,-1.7350000143050859,-0.3499999046325733,-0.7177026738901212,9.524800288808453e-15,0.0,0.0,0.0,0.0
1759839570.6402266,0,-1.2050000429153442,-0.8299997448921204,-0.7177030371502173,0.0,-1.7350000143050885,-0.34999990463257286,-0.7177026743648813,8.64611961242831e-15,0.0,0.0,0.0,0.0
1759839570.6504595,0,-1.2050000429153442,-0.8299997448921204,-0.7177030375037674,0.0,-1.735000014305091,-0.3499999046325725,-0.7177026747974286,7.874658900618618e-15,0.0,0.0,0.0,0.0
1759839570.661896,0,-1.2050000429153442,-0.8299997448921204,-0.7177030376474729,0.0,-1.7350000143050932,-0.3499999046325722,-0.71770267531248,7.167551276068035e-15,0.0,0.0,0.0,0.0
1759839570.6729207,0,-1.2050000429153442,-0.8299997448921204,-0.7177030378611402,0.0,-1.7350000143050952,-0.3499999046325719,-0.7177026757911558,6.5475646491285195e-15,0.0,0.0,0.0,0.0
1759839570.6837804,0,-1.2050000429153442,-0.8299997448921204,-0.7177030380995753,0.0,-1.735000014305097,-0.34999990463257163,-0.7177026762318559,5.994597429346941e-15,0.0,0.0,0.0,0.0
1759839570.6941411,0,-1.2050000429153442,-0.8299997448921204,-0.7177030383910825,0.0,-1.7350000143050983,-0.34999990463257147,-0.7177026766058469,5.500498545325456e-15,0.0,0.0,0.0,0.0
1759839570.7049751,0,-1.2050000429153442,-0.8299997448921204,-0.7177030385927647,0.0,-1.7350000143050996,-0.34999990463257125,-0.717702676990358,5.0172581535894585e-15,0.0,0.0,0.0,0.0
1759839570.715825,0,-1.2050000429153442,-0.8299997448921204,-0.7177030387815293,0.0,-1.735000014305101,-0.349999904632571,-0.7177026774015172,4.569802996506687e-15,0.0,0.0,0.0,0.0
1759839570.7272644,0,-1.2050000429153442,-0.8299997448921204,-0.7177030388980529,0.0,-1.7350000143051023,-0.3499999046325707,-0.7177026777607298,4.140732222999192e-15,0.0,0.0,0.0,0.0
1759839570.737471,0,-1.2050000429153442,-0.8299997448921204,-0.7177030391685157,0.0,-1.7350000143051034,-0.34999990463257047,-0.7177026780957565,3.760689017130795e-15,0.0,0.0,0.0,0.0
1759839570.7476404,0,-1.2050000429153442,-0.8299997448921204,-0.717703039415996,0.0,-1.7350000143051045,-0.34999990463257025,-0.7177026784102508,3.3982722857602918e-15,0.0,0.0,0.0,0.0
1759839570.7588534,0,-1.2050000429153442,-0.8299997448921204,-0.7177030395219433,0.0,-1.7350000143051056,-0.34999990463257,-0.7177026788113234,3.0441238726792725e-15,0.0,0.0,0.0,0.0
1759839570.7696924,0,-1.2050000429153442,-0.8299997448921204,-0.7177030396738573,0.0,-1.7350000143051065,-0.34999990463256986,-0.7177026791779677,2.735925162533053e-15,0.0,0.0,0.0,0.0
1759839570.7810967,0,-1.2050000429153442,-0.8299997448921204,-0.7177030397724806,0.0,-1.7350000143051074,-0.3499999046325697,-0.7177026795259951,2.4297488014900446e-15,0.0,0.0,0.0,0.0
1759839570.7916634,0,-1.2050000429153442,-0.8299997448921204,-0.7177030399639399,0.0,-1.7350000143051083,-0.3499999046325695,-0.7177026798438174,2.1503092722381926e-15,0.0,0.0,0.0,0.0
1759839570.8017864,0,-1.2050000429153442,-0.8299997448921204,-0.7177030401839204,0.0,-1.735000014305109,-0.34999990463256936,-0.7177026801187008,1.911229240959895e-15,0.0,0.0,0.0,0.0
1759839570.8123329,0,-1.2050000429153442,-0.8299997448921204,-0.7177030403384635,0.0,-1.7350000143051096,-0.34999990463256925,-0.7177026804063875,1.6965746802564544e-15,0.0,0.0,0.0,0.0
1759839570.823394,0,-1.2050000429153442,-0.8299997448921204,-0.7177030404359818,0.0,-1.7350000143051103,-0.3499999046325692,-0.717702680662781,1.5031642725264838e-15,0.0,0.0,0.0,0.0
1759839570.834625,0,-1.2050000429153442,-0.8299997448921204,-0.7177030405255724,0.0,-1.735000014305111,-0.3499999046325691,-0.7177026809226102,1.3278954315623078e-15,0.0,0.0,0.0,0.0
1759839570.8456583,0,-1.2050000429153442,-0.8299997448921204,-0.7177030406420037,0.0,-1.7350000143051114,-0.34999990463256897,-0.7177026812048686,1.163526556915719e-15,0.0,0.0,0.0,0.0
1759839570.8569722,0,-1.2050000429153442,-0.8299997448921204,-0.7177030407401208,0.0,-1.7350000143051119,-0.3499999046325689,-0.7177026814875661,1.01782528992684e-15,0.0,0.0,0.0,0.0
1759839570.8683019,0,-1.2050000429153442,-0.8299997448921204,-0.7177030408435066,0.0,-1.735000014305112,-0.34999990463256886,-0.7177026817246062,9.016510997338418e-16,0.0,0.0,0.0,0.0
1759839570.878601,0,-1.2050000429153442,-0.8299997448921204,-0.7177030410251248,0.0,-1.7350000143051123,-0.3499999046325688,-0.7177026819301225,8.02575394727256e-16,0.0,0.0,0.0,0.0
1759839570.8887746,0,-1.2050000429153442,-0.8299997448921204,-0.7177030411950227,0.0,-1.7350000143051125,-0.34999990463256875,-0.717702682117556,7.176843461774884e-16,0.0,0.0,0.0,0.0
1759839570.9031615,0,-1.2050000429153442,-0.8299997448921204,-0.717703041062741,0.0,-1.7350000143051127,-0.3499999046325687,-0.7177026823034122,6.359302927484564e-16,0.0,0.0,0.0,0.0
1759839570.9145582,0,-1.2050000429153442,-0.8299997448921204,-0.7177030411901573,0.0,-1.735000014305113,-0.34999990463256864,-0.7177026825115759,5.590486286268552e-16,0.0,0.0,0.0,0.0
1759839570.9254277,0,-1.2050000429153442,-0.8299997448921204,-0.7177030413585186,0.0,-1.7350000143051132,-0.34999990463256864,-0.7177026826998422,4.938825576879159e-16,0.0,0.0,0.0,0.0
1759839570.9364884,0,-1.2050000429153442,-0.8299997448921204,-0.7177030414960726,0.0,-1.7350000143051134,-0.34999990463256864,-0.7177026828957853,4.3154122156467197e-16,0.0,0.0,0.0,0.0
1759839570.9472234,0,-1.2050000429153442,-0.8299997448921204,-0.7177030416371082,0.0,-1.7350000143051134,-0.34999990463256864,-0.7177026830687379,3.8144904763876565e-16,0.0,0.0,0.0,0.0
1759839570.9573534,0,-1.2050000429153442,-0.8299997448921204,-0.7177030417947847,0.0,-1.7350000143051136,-0.34999990463256864,-0.7177026832436126,3.369652957722278e-16,0.0,0.0,0.0,0.0
1759839570.9676013,0,-1.2050000429153442,-0.8299997448921204,-0.7177030419220999,0.0,-1.7350000143051136,-0.34999990463256864,-0.7177026834020673,2.9848859431181303e-16,0.0,0.0,0.0,0.0
1759839570.9781797,0,-1.2050000429153442,-0.8299997448921204,-0.7177030420139694,0.0,-1.7350000143051136,-0.34999990463256864,-0.7177026835405285,2.6501693382902283e-16,0.0,0.0,0.0,0.0
1759839570.9881878,0,-1.2050000429153442,-0.8299997448921204,-0.7177030421263879,0.0,-1.7350000143051136,-0.34999990463256864,-0.717702683664597,2.358496482382648e-16,0.0,0.0,0.0,0.0
1759839570.9989915,0,-1.2050000429153442,-0.8299997448921204,-0.7177030421868444,0.0,-1.7350000143051136,-0.34999990463256864,-0.717702683771325,2.084248859563852e-16,0.0,0.0,0.0,0.0
1759839571.0099986,0,-1.2050000429153442,-0.8299997448921204,-0.7177030422373196,0.0,-1.7350000143051136,-0.34999990463256864,-0.7177026838631825,1.8639581366887795e-16,0.0,0.0,0.0,0.0
1759839571.020444,0,-1.2050000429153442,-0.8299997448921204,-0.7177030423182327,0.0,-1.7350000143051136,-0.34999990463256864,-0.7177026839821395,1.6503162163951917e-16,0.0,0.0,0.0,0.0
1759839571.0314302,0,-1.2050000429153442,-0.8299997448921204,-0.7177030423715607,0.0,-1.7350000143051136,-0.34999990463256864,-0.717702684088777,1.463570643966854e-16,0.0,0.0,0.0,0.0
1759839571.0426497,0,-1.2050000429153442,-0.8299997448921204,-0.7177030424169786,0.0,-1.7350000143051136,-0.34999990463256864,-0.7177026841970052,1.278311884094216e-16,0.0,0.0,0.0,0.0
1759839571.0529416,0,-1.2050000429153442,-0.8299997448921204,-0.7177030425058071,0.0,-1.7350000143051136,-0.34999990463256864,-0.717702684294299,1.129293405006638e-16,0.0,0.0,0.0,0.0
1759839571.0640686,0,-1.2050000429153442,-0.8299997448921204,-0.7177030425541595,0.0,-1.7350000143051136,-0.34999990463256864,-0.7177026844031351,9.808466748827115e-17,0.0,0.0,0.0,0.0
1759839571.0751967,0,-1.2050000429153442,-0.8299997448921204,-0.7177030426037874,0.0,-1.7350000143051136,-0.3499999046325686,-0.7177026844988722,8.5476762259752e-17,0.0,0.0,0.0,0.0
1759839571.0864544,0,-1.2050000429153442,-0.8299997448921204,-0.7177030426515323,0.0,-1.7350000143051136,-0.3499999046325686,-0.7177026845724646,7.362455487274561e-17,0.0,0.0,0.0,0.0
1759839571.1035318,0,-1.2050000429153442,-0.8299997448921204,-0.7177030425002401,0.0,-1.7350000143051139,-0.3499999046325686,-0.71770268466874,6.291828695479241e-17,0.0,0.0,0.0,0.0
1759839571.1136296,0,-1.2050000429153442,-0.8299997448921204,-0.7177030426502995,0.0,-1.7350000143051139,-0.3499999046325686,-0.7177026847610957,5.366648128147225e-17,0.0,0.0,0.0,0.0
1759839571.1236396,0,-1.2050000429153442,-0.8299997448921204,-0.7177030427893492,0.0,-1.7350000143051139,-0.3499999046325686,-0.7177026848439201,4.5980566390224704e-17,0.0,0.0,0.0,0.0
1759839571.1337314,0,-1.2050000429153442,-0.8299997448921204,-0.7177030428968436,0.0,-1.7350000143051139,-0.3499999046325686,-0.7177026849175888,3.9551732477202806e-17,0.0,0.0,0.0,0.0
1759839571.1439059,0,-1.2050000429153442,-0.8299997448921204,-0.7177030429805598,0.0,-1.7350000143051139,-0.3499999046325686,-0.7177026849858253,3.417335972947446e-17,0.0,0.0,0.0,0.0
1759839571.1551385,0,-1.2050000429153442,-0.8299997448921204,-0.7177030430190463,0.0,-1.7350000143051139,-0.3499999046325686,-0.7177026850699241,2.9266847334525307e-17,0.0,0.0,0.0,0.0
1759839571.1656756,0,-1.2050000429153442,-0.8299997448921204,-0.7177030430766855,0.0,-1.7350000143051139,-0.3499999046325686,-0.7177026851476329,2.517667771935385e-17,0.0,0.0,0.0,0.0
1759839571.176745,0,-1.2050000429153442,-0.8299997448921204,-0.7177030431155274,0.0,-1.7350000143051139,-0.3499999046325686,-0.7177026852223031,2.1584127927707878e-17,0.0,0.0,0.0,0.0
1759839571.1871634,0,-1.2050000429153442,-0.8299997448921204,-0.7177030431712836,0.0,-1.7350000143051139,-0.3499999046325686,-0.7177026852877978,1.8561882505707692e-17,0.0,0.0,0.0,0.0
1759839571.1982148,0,-1.2050000429153442,-0.8299997448921204,-0.7177030432060398,0.0,-1.7350000143051139,-0.3499999046325686,-0.7177026853444645,1.589658257661092e-17,0.0,0.0,0.0,0.0
1759839571.2093697,0,-1.2050000429153442,-0.8299997448921204,-0.7177030432381848,0.0,-1.7350000143051139,-0.3499999046325686,-0.717702685410624,1.3474398428497498e-17,0.0,0.0,0.0,0.0
1759839571.2196054,0,-1.2050000429153442,-0.8299997448921204,-0.7177030432938718,0.0,-1.7350000143051139,-0.3499999046325686,-0.7177026854684813,1.1452221425298244e-17,0.0,0.0,0.0,0.0
1759839571.2302961,0,-1.2050000429153442,-0.8299997448921204,-0.7177030433333318,0.0,-1.7350000143051139,-0.3499999046325686,-0.7177026855229548,9.761691151025919e-18,0.0,0.0,0.0,0.0
1759839571.240868,0,-1.2050000429153442,-0.8299997448921204,-0.7177030433725662,0.0,-1.7350000143051139,-0.3499999046325686,-0.7177026855699353,8.344936404170985e-18,0.0,0.0,0.0,0.0
1759839571.2513068,0,-1.2050000429153442,-0.8299997448921204,-0.7177030434122891,0.0,-1.7350000143051139,-0.3499999046325686,-0.7177026856111592,7.105777397635875e-18,0.0,0.0,0.0,0.0
1759839571.2616374,0,-1.2050000429153442,-0.8299997448921204,-0.7177030434512623,0.0,-1.7350000143051139,-0.3499999046325686,-0.7177026856554624,6.029725669173152e-18,0.0,0.0,0.0,0.0
1759839571.2721798,0,-1.2050000429153442,-0.8299997448921204,-0.7177030434826133,0.0,-1.7350000143051139,-0.3499999046325686,-0.7177026856916661,5.132755687311128e-18,0.0,0.0,0.0,0.0
1759839571.2834153,0,-1.2050000429153442,-0.8299997448921204,-0.7177030434988865,0.0,-1.7350000143051139,-0.3499999046325686,-0.7177026857369537,4.352055335983679e-18,0.0,0.0,0.0,0.0
1759839571.2937708,0,-1.2050000429153442,-0.8299997448921204,-0.7177030435350957,0.0,-1.7350000143051139,-0.3499999046325686,-0.7177026857788452,3.700694195919224e-18,0.0,0.0,0.0,0.0
1759839571.3044255,0,-1.2050000429153442,-0.8299997448921204,-0.7177030435638194,0.0,-1.7350000143051139,-0.3499999046325686,-0.7177026858135892,3.1542767548730515e-18,0.0,0.0,0.0,0.0
1759839571.3158348,0,-1.2050000429153442,-0.8299997448921204,-0.7177030435779113,0.0,-1.7350000143051139,-0.3499999046325686,-0.7177026858500547,2.6821244222157965e-18,0.0,0.0,0.0,0.0
1759839571.3258448,0,-1.2050000429153442,-0.8299997448921204,-0.7177030436193341,0.0,-1.7350000143051139,-0.3499999046325686,-0.7177026858812556,2.2859640597638844e-18,0.0,0.0,0.0,0.0
1759839571.33609,0,-1.2050000429153442,-0.8299997448921204,-0.7177030436526763,0.0,-1.7350000143051139,-0.3499999046325686,-0.7177026859073425,1.969917617469201e-18,0.0,0.0,0.0,0.0
1759839571.3462827,0,-1.2050000429153442,-0.8299997448921204,-0.717703043683029,0.0,-1.7350000143051139,-0.3499999046325686,-0.71770268593397,1.7005099620156613e-18,0.0,0.0,0.0,0.0
1759839571.3566473,0,-1.2050000429153442,-0.8299997448921204,-0.7177030437077292,0.0,-1.7350000143051139,-0.3499999046325686,-0.7177026859577853,1.4706543578655104e-18,0.0,0.0,0.0,0.0
1759839571.3676147,0,-1.2050000429153442,-0.8299997448921204,-0.7177030437218264,0.0,-1.7350000143051139,-0.3499999046325686,-0.7177026859806213,1.2739820456852471e-18,0.0,0.0,0.0,0.0
1759839571.3790815,0,-1.2050000429153442,-0.8299997448921204,-0.7177030437304488,0.0,-1.7350000143051139,-0.3499999046325686,-0.7177026860060963,1.1023715452278528e-18,0.0,0.0,0.0,0.0
1759839571.3902304,0,-1.2050000429153442,-0.8299997448921204,-0.7177030437476297,0.0,-1.7350000143051139,-0.3499999046325686,-0.717702686029241,9.551469716507788e-19,0.0,0.0,0.0,0.0
1759839571.400501,0,-1.2050000429153442,-0.8299997448921204,-0.7177030437785934,0.0,-1.7350000143051139,-0.3499999046325686,-0.7177026860509597,8.286297615471783e-19,0.0,0.0,0.0,0.0
1759839571.4106853,0,-1.2050000429153442,-0.8299997448921204,-0.7177030438077594,0.0,-1.7350000143051139,-0.3499999046325686,-0.7177026860707086,7.273573800595564e-19,0.0,0.0,0.0,0.0
1759839571.4218378,0,-1.2050000429153442,-0.8299997448921204,-0.7177030438210269,0.0,-1.7350000143051139,-0.3499999046325686,-0.717702686090384,6.385506249517319e-19,0.0,0.0,0.0,0.0
1759839571.432052,0,-1.2050000429153442,-0.8299997448921204,-0.7177030438467433,0.0,-1.7350000143051139,-0.3499999046325686,-0.7177026861077052,5.606912140752494e-19,0.0,0.0,0.0,0.0
1759839571.4430232,0,-1.2050000429153442,-0.8299997448921204,-0.7177030438613947,0.0,-1.7350000143051139,-0.3499999046325686,-0.7177026861278454,4.919364379180384e-19,0.0,0.0,0.0,0.0
1759839571.4546964,0,-1.2050000429153442,-0.8299997448921204,-0.7177030438683173,0.0,-1.7350000143051139,-0.3499999046325686,-0.7177026861466445,4.31835016729444e-19,0.0,0.0,0.0,0.0
1759839571.4649553,0,-1.2050000429153442,-0.8299997448921204,-0.7177030438940637,0.0,-1.7350000143051139,-0.3499999046325686,-0.7177026861630371,3.7909456244360427e-19,0.0,0.0,0.0,0.0
1759839571.4760942,0,-1.2050000429153442,-0.8299997448921204,-0.7177030439083172,0.0,-1.7350000143051139,-0.3499999046325686,-0.7177026861788729,3.3295399701699952e-19,0.0,0.0,0.0,0.0
1759839571.4871798,0,-1.2050000429153442,-0.8299997448921204,-0.7177030439231711,0.0,-1.7350000143051139,-0.3499999046325686,-0.7177026861929369,2.959498155220906e-19,0.0,0.0,0.0,0.0
1759839571.4985611,0,-1.2050000429153442,-0.8299997448921204,-0.7177030439354724,0.0,-1.7350000143051139,-0.3499999046325686,-0.7177026862057233,2.5693701622933377e-19,0.0,0.0,0.0,0.0
1759839571.5090463,0,-1.2050000429153442,-0.8299997448921204,-0.7177030439573748,0.0,-1.7350000143051139,-0.3499999046325686,-0.7177026862251136,2.215821544607191e-19,0.0,0.0,0.0,0.0
1759839571.5195897,0,-1.2050000429153442,-0.8299997448921204,-0.7177030439768277,0.0,-1.7350000143051139,-0.3499999046325686,-0.7177026862438575,1.9159632090346446e-19,0.0,0.0,0.0,0.0
1759839571.5296926,0,-1.2050000429153442,-0.8299997448921204,-0.7177030439982275,0.0,-1.7350000143051139,-0.3499999046325686,-0.717702686261525,1.6754728589565828e-19,0.0,0.0,0.0,0.0
1759839571.5405314,0,-1.2050000429153442,-0.8299997448921204,-0.7177030440104843,0.0,-1.7350000143051139,-0.3499999046325686,-0.7177026862781258,1.4679151257149372e-19,0.0,0.0,0.0,0.0
1759839571.5508351,0,-1.2050000429153442,-0.8299997448921204,-0.7177030440268375,0.0,-1.7350000143051139,-0.3499999046325686,-0.7177026862961413,1.285149946194319e-19,0.0,0.0,0.0,0.0
1759839571.5618293,0,-1.2050000429153442,-0.8299997448921204,-0.717703044036309,0.0,-1.7350000143051139,-0.3499999046325686,-0.7177026863136158,1.1272065760414112e-19,0.0,0.0,0.0,0.0
