timestamp,vehicle_id,x,y,theta,velocity,gps_available,dt,gps_x,gps_y,gps_theta,gps_velocity,control_steering,control_acceleration
1759839567.964477,1,-1.735,-0.35,-0.7801621756414647,0.0,False,0.01,nan,nan,nan,nan,0.0,0.0
1759839567.9751134,1,-1.735,-0.35,-0.7801621756414647,0.0,False,0.010636329650878906,nan,nan,nan,nan,0.0,0.0
1759839567.98625,1,-1.735,-0.35,-0.7801621756414647,0.0,False,0.011136531829833984,nan,nan,nan,nan,0.0,0.0
1759839567.9978333,1,-1.735,-0.35,-0.7801621756414647,0.0,False,0.011583328247070312,nan,nan,nan,nan,0.0,0.0
1759839568.0089216,1,-1.735,-0.35,-0.7801621756414647,0.0,False,0.011088371276855469,nan,nan,nan,nan,0.0,0.0
1759839568.0203202,1,-1.735,-0.35,-0.7801621756414647,0.0,False,0.011398553848266602,nan,nan,nan,nan,0.0,0.0
1759839568.0308495,1,-1.735,-0.35,-0.7801621756414647,0.0,False,0.010529279708862305,nan,nan,nan,nan,0.0,0.0
1759839568.0424862,1,-1.735,-0.35,-0.7801621756414647,0.0,False,0.011636734008789062,nan,nan,nan,nan,0.0,0.0
1759839568.0533223,1,-1.735,-0.35,-0.7801621756414647,0.0,False,0.010836124420166016,nan,nan,nan,nan,0.0,0.0
1759839568.0635402,1,-1.735,-0.35,-0.7801621756414647,0.0,False,0.010217905044555664,nan,nan,nan,nan,0.0,0.0
1759839568.0735626,1,-1.735,-0.35,-0.7801621756414647,0.0,False,0.010022401809692383,nan,nan,nan,nan,0.0,0.0
1759839568.0847597,1,-1.735,-0.35,-0.7801621756414647,0.0,False,0.011197090148925781,nan,nan,nan,nan,0.0,0.0
1759839568.0956905,1,-1.735,-0.35,-0.7801621756414647,0.0,False,0.010930776596069336,nan,nan,nan,nan,0.0,0.0
1759839568.1066747,1,-1.735,-0.35,-0.7801621756414647,0.0,False,0.010984182357788086,nan,nan,nan,nan,0.0,0.0
1759839568.117793,1,-1.735,-0.35,-0.7801621756414647,0.0,False,0.011118412017822266,nan,nan,nan,nan,0.0,0.0
1759839568.1284578,1,-1.735,-0.35,-0.7801621756414647,0.0,False,0.010664701461791992,nan,nan,nan,nan,0.0,0.0
1759839568.1396675,1,-1.735,-0.35,-0.7801621756414647,0.0,False,0.011209726333618164,nan,nan,nan,nan,0.0,0.0
1759839568.150271,1,-1.735,-0.35,-0.7801621756414647,0.0,False,0.01060342788696289,nan,nan,nan,nan,0.0,0.0
1759839568.162499,1,-1.7350002506176632,-0.3499986346065998,-0.7229974524431348,0.0,True,0.012228012084960938,-1.7350002527236938,-0.3499986231327057,-0.7177010178565979,0.0,0.0,0.0
1759839568.173247,1,-1.735000252019728,-0.3499986269679906,-0.7181145037136965,0.0,True,0.010748147964477539,-1.7350002527236938,-0.3499986231327057,-0.7177010178565979,0.0,0.0,0.0
1759839568.1837356,1,-1.7350002524596146,-0.3499986245714385,-0.7176558564672213,0.0,True,0.010488510131835938,-1.7350002527236938,-0.3499986231327057,-0.7177010178565979,0.0,0.0,0.0
1759839568.1940556,1,-1.7350002526230872,-0.34999862368082163,-0.7175961033870504,0.0,True,0.010319948196411133,-1.7350002527236938,-0.3499986231327057,-0.7177010178565979,0.0,0.0,0.0
1759839568.2055197,1,-1.7350002526852801,-0.34999862334198784,-0.7175853269592771,0.0,True,0.011464118957519531,-1.7350002527236938,-0.3499986231327057,-0.7177010178565979,0.0,0.0,0.0
1759839568.216555,1,-1.735000252709022,-0.3499986232126399,-0.7175927527223553,0.0,True,0.011035442352294922,-1.7350002527236938,-0.3499986231327057,-0.7177010178565979,0.0,0.0,0.0
1759839568.2272425,1,-1.7350002527180897,-0.3499986231632376,-0.7176053813009453,0.0,True,0.01068735122680664,-1.7350002527236938,-0.3499986231327057,-0.7177010178565979,0.0,0.0,0.0
1759839568.2379541,1,-1.7350002527215533,-0.3499986231443678,-0.7176175750832954,0.0,True,0.010711669921875,-1.7350002527236938,-0.3499986231327057,-0.7177010178565979,0.0,0.0,0.0
1759839568.2488852,1,-1.7350002527228763,-0.34999862313716024,-0.7176279810185342,0.0,True,0.010931015014648438,-1.7350002527236938,-0.3499986231327057,-0.7177010178565979,0.0,0.0,0.0
1759839568.2597132,1,-1.7350002527233817,-0.34999862313440716,-0.7176370600691229,0.0,True,0.010828018188476562,-1.7350002527236938,-0.3499986231327057,-0.7177010178565979,0.0,0.0,0.0
1759839568.2703264,1,-1.7350002527235746,-0.3499986231333556,-0.7176448766136332,0.0,True,0.010613203048706055,-1.7350002527236938,-0.3499986231327057,-0.7177010178565979,0.0,0.0,0.0
1759839568.2815528,1,-1.7350002527236483,-0.34999862313295393,-0.7176507374295404,0.0,True,0.011226415634155273,-1.7350002527236938,-0.3499986231327057,-0.7177010178565979,0.0,0.0,0.0
1759839568.2918136,1,-1.7350002527236765,-0.3499986231328005,-0.7176565995075315,0.0,True,0.010260820388793945,-1.7350002527236938,-0.3499986231327057,-0.7177010178565979,0.0,0.0,0.0
1759839568.3020902,1,-1.7350002527236872,-0.3499986231327419,-0.7176613237176355,0.0,True,0.010276556015014648,-1.7350002527236938,-0.3499986231327057,-0.7177010178565979,0.0,0.0,0.0
1759839568.3124876,1,-1.7350002527236914,-0.3499986231327195,-0.7176650833626432,0.0,True,0.01039743423461914,-1.7350002527236938,-0.3499986231327057,-0.7177010178565979,0.0,0.0,0.0
1759839568.3233497,1,-1.735000252723693,-0.34999862313271096,-0.7176679382611049,0.0,True,0.010862112045288086,-1.7350002527236938,-0.3499986231327057,-0.7177010178565979,0.0,0.0,0.0
1759839568.33472,1,-1.7350002527236934,-0.3499986231327077,-0.7176701810171338,0.0,True,0.011370182037353516,-1.7350002527236938,-0.3499986231327057,-0.7177010178565979,0.0,0.0,0.0
1759839568.3450031,1,-1.7350002527236936,-0.34999862313270647,-0.7176728993358399,0.0,True,0.010283231735229492,-1.7350002527236938,-0.3499986231327057,-0.7177010178565979,0.0,0.0,0.0
1759839568.3552456,1,-1.7350002527236938,-0.34999862313270597,-0.7176752307150558,0.0,True,0.010242462158203125,-1.7350002527236938,-0.3499986231327057,-0.7177010178565979,0.0,0.0,0.0
1759839568.3707054,1,-1.735000076948305,-0.34999943995680954,-0.7176752640896087,6.389655239634268e-06,True,0.015459775924682617,-1.7350000143051147,-0.34999990463256836,-0.7177026867866516,6.389655239634268e-06,0.0,0.0
1759839568.3810215,1,-1.7350000192652728,-0.3499997437000836,-0.7176782371410404,6.389655239634268e-06,True,0.010316133499145508,-1.7350000143051147,-0.34999990463256836,-0.7177026867866516,6.389655239634268e-06,0.0,0.0
1759839568.3916805,1,-1.7349999966020029,-0.34999986027003077,-0.7176805987622412,6.389655239634268e-06,True,0.010658979415893555,-1.7350000143051147,-0.34999990463256836,-0.7177026867866516,6.389655239634268e-06,0.0,0.0
1759839568.401706,1,-1.7349999891101622,-0.3499999037790672,-0.7176827307258051,6.389655239634268e-06,True,0.010025501251220703,-1.7350000143051147,-0.34999990463256836,-0.7177026867866516,6.389655239634268e-06,0.0,0.0
1759839568.4132016,1,-1.7349999835456544,-0.3499999227576571,-0.7176838977462303,6.389655239634268e-06,True,0.011495590209960938,-1.7350000143051147,-0.34999990463256836,-0.7177026867866516,6.389655239634268e-06,0.0,0.0
1759839568.4233484,1,-1.7349999839000092,-0.34999992784205863,-0.7176854043899823,6.389655239634268e-06,True,0.010146856307983398,-1.7350000143051147,-0.34999990463256836,-0.7177026867866516,6.389655239634268e-06,0.0,0.0
1759839568.433475,1,-1.7349999840726453,-0.34999992975162736,-0.7176866774637976,6.389655239634268e-06,True,0.010126590728759766,-1.7350000143051147,-0.34999990463256836,-0.7177026867866516,6.389655239634268e-06,0.0,0.0
1759839568.44451,1,-1.73499998246847,-0.34999993193904205,-0.717687454412296,6.389655239634268e-06,True,0.011034965515136719,-1.7350000143051147,-0.34999990463256836,-0.7177026867866516,6.389655239634268e-06,0.0,0.0
1759839568.4545135,1,-1.7349999837520704,-0.3499999311191118,-0.7176884775221914,6.389655239634268e-06,True,0.01000356674194336,-1.7350000143051147,-0.34999990463256836,-0.7177026867866516,6.389655239634268e-06,0.0,0.0
1759839568.467009,1,-1.7349999796606876,-0.34999993480569735,-0.717688661915485,6.389655239634268e-06,True,0.01249551773071289,-1.7350000143051147,-0.34999990463256836,-0.7177026867866516,6.389655239634268e-06,0.0,0.0
1759839568.477297,1,-1.7349999821566544,-0.34999993267063406,-0.7176895580627036,6.389655239634268e-06,True,0.010288000106811523,-1.7350000143051147,-0.34999990463256836,-0.7177026867866516,6.389655239634268e-06,0.0,0.0
1759839568.4882364,1,-1.7349999819124577,-0.3499999329006074,-0.7176902007780654,6.389655239634268e-06,True,0.010939359664916992,-1.7350000143051147,-0.34999990463256836,-0.7177026867866516,6.389655239634268e-06,0.0,0.0
1759839568.4995668,1,-1.7349999811002925,-0.34999993361605575,-0.7176906926683326,6.389655239634268e-06,True,0.011330366134643555,-1.7350000143051147,-0.34999990463256836,-0.7177026867866516,6.389655239634268e-06,0.0,0.0
1759839568.5098846,1,-1.7349999826517737,-0.3499999322641044,-0.717691414298713,6.389655239634268e-06,True,0.010317802429199219,-1.7350000143051147,-0.34999990463256836,-0.7177026867866516,6.389655239634268e-06,0.0,0.0
1759839568.5204628,1,-1.7349999827657157,-0.3499999321656045,-0.7176919920451006,6.389655239634268e-06,True,0.010578155517578125,-1.7350000143051147,-0.34999990463256836,-0.7177026867866516,6.389655239634268e-06,0.0,0.0
1759839568.530764,1,-1.7349999833181764,-0.3499999316837008,-0.7176925636882636,6.389655239634268e-06,True,0.010301351547241211,-1.7350000143051147,-0.34999990463256836,-0.7177026867866516,6.389655239634268e-06,0.0,0.0
1759839568.542022,1,-1.7349999817705313,-0.3499999330349529,-0.71769287225165,6.389655239634268e-06,True,0.01125788688659668,-1.7350000143051147,-0.34999990463256836,-0.7177026867866516,6.389655239634268e-06,0.0,0.0
1759839568.5536537,1,-1.7349999804920504,-0.3499999341511342,-0.717693118261229,6.389655239634268e-06,True,0.01163172721862793,-1.7350000143051147,-0.34999990463256836,-0.7177026867866516,6.389655239634268e-06,0.0,0.0
1759839568.5661025,1,-1.7350000013896734,-0.3499999159076572,-0.7176932557223701,0.0,True,0.012448787689208984,-1.7350000143051147,-0.34999990463256836,-0.7177026867866516,0.0,0.0,0.0
1759839568.5767903,1,-1.7350000093718552,-0.3499999089392691,-0.7176937877233573,0.0,True,0.010687828063964844,-1.7350000143051147,-0.34999990463256836,-0.7177026867866516,0.0,0.0,0.0
1759839568.587937,1,-1.7350000124207772,-0.34999990627758165,-0.7176941956356266,0.0,True,0.011146783828735352,-1.7350000143051147,-0.34999990463256836,-0.7177026867866516,0.0,0.0,0.0
1759839568.599167,1,-1.7350000135853618,-0.3499999052609075,-0.7176945543457052,0.0,True,0.011229991912841797,-1.7350000143051147,-0.34999990463256836,-0.7177026867866516,0.0,0.0,0.0
1759839568.6106904,1,-1.7350000140301935,-0.34999990487257254,-0.717694847120729,0.0,True,0.011523246765136719,-1.7350000143051147,-0.34999990463256836,-0.7177026867866516,0.0,0.0,0.0
1759839568.6214175,1,-1.7350000142001043,-0.3499999047242418,-0.7176952575822,0.0,True,0.010727167129516602,-1.7350000143051147,-0.34999990463256836,-0.7177026867866516,0.0,0.0,0.0
1759839568.6319513,1,-1.7350000142650044,-0.3499999046675845,-0.7176956541794048,0.0,True,0.010533809661865234,-1.7350000143051147,-0.34999990463256836,-0.7177026867866516,0.0,0.0,0.0
1759839568.6424203,1,-1.735000014289794,-0.3499999046459433,-0.7176960085655271,0.0,True,0.01046895980834961,-1.7350000143051147,-0.34999990463256836,-0.7177026867866516,0.0,0.0,0.0
1759839568.6532242,1,-1.7350000142992628,-0.34999990463767716,-0.7176962735642824,0.0,True,0.010803937911987305,-1.7350000143051147,-0.34999990463256836,-0.7177026867866516,0.0,0.0,0.0
1759839568.6645203,1,-1.7350000143028794,-0.34999990463451974,-0.7176964552060738,0.0,True,0.01129603385925293,-1.7350000143051147,-0.34999990463256836,-0.7177026867866516,0.0,0.0,0.0
1759839568.6754084,1,-1.735000014304261,-0.3499999046333137,-0.7176966955458361,0.0,True,0.010888099670410156,-1.7350000143051147,-0.34999990463256836,-0.7177026867866516,0.0,0.0,0.0
1759839568.6855574,1,-1.7350000143047886,-0.3499999046328531,-0.7176970162630489,0.0,True,0.010149002075195312,-1.7350000143051147,-0.34999990463256836,-0.7177026867866516,0.0,0.0,0.0
1759839568.6962464,1,-1.7350000143049902,-0.3499999046326771,-0.7176972339552705,0.0,True,0.010689020156860352,-1.7350000143051147,-0.34999990463256836,-0.7177026867866516,0.0,0.0,0.0
1759839568.7074842,1,-1.7350000143050672,-0.3499999046326099,-0.7176973724663576,0.0,True,0.011237859725952148,-1.7350000143051147,-0.34999990463256836,-0.7177026867866516,0.0,0.0,0.0
1759839568.718149,1,-1.7350000143050965,-0.34999990463258424,-0.7176975823394969,0.0,True,0.010664701461791992,-1.7350000143051147,-0.34999990463256836,-0.7177026867866516,0.0,0.0,0.0
1759839568.7283845,1,-1.7350000143051079,-0.3499999046325744,-0.7176978271313637,0.0,True,0.01023554801940918,-1.7350000143051147,-0.34999990463256836,-0.7177026867866516,0.0,0.0,0.0
1759839568.739313,1,-1.735000014305112,-0.3499999046325707,-0.7176979749352981,0.0,True,0.01092839241027832,-1.7350000143051147,-0.34999990463256836,-0.7177026867866516,0.0,0.0,0.0
1759839568.7493987,1,-1.7350000143051136,-0.34999990463256925,-0.7176982014145228,0.0,True,0.010085821151733398,-1.7350000143051147,-0.34999990463256836,-0.7177026867866516,0.0,0.0,0.0
1759839568.7604458,1,-1.7350000143051143,-0.3499999046325687,-0.7176983139528641,0.0,True,0.011047124862670898,-1.7350000143051147,-0.34999990463256836,-0.7177026867866516,0.0,0.0,0.0
1759839568.771925,1,-1.7350000143051145,-0.34999990463256847,-0.7176983914584731,0.0,True,0.01147913932800293,-1.7350000143051147,-0.34999990463256836,-0.7177026867866516,0.0,0.0,0.0
1759839568.7826154,1,-1.7350000143051147,-0.3499999046325684,-0.7176985579240984,0.0,True,0.010690450668334961,-1.7350000143051147,-0.34999990463256836,-0.7177026867866516,0.0,0.0,0.0
1759839568.7939231,1,-1.7350000143051147,-0.34999990463256836,-0.7176986673105361,0.0,True,0.011307716369628906,-1.7350000143051147,-0.34999990463256836,-0.7177026867866516,0.0,0.0,0.0
1759839568.8050466,1,-1.7350000143051147,-0.34999990463256836,-0.7176987972050703,0.0,True,0.011123418807983398,-1.7350000143051147,-0.34999990463256836,-0.7177026867866516,0.0,0.0,0.0
1759839568.8151674,1,-1.7350000143051147,-0.34999990463256836,-0.7176990063954971,0.0,True,0.010120868682861328,-1.7350000143051147,-0.34999990463256836,-0.7177026867866516,0.0,0.0,0.0
1759839568.8261526,1,-1.7350000143051147,-0.34999990463256836,-0.7176991245093554,0.0,True,0.010985136032104492,-1.7350000143051147,-0.34999990463256836,-0.7177026867866516,0.0,0.0,0.0
1759839568.8373492,1,-1.7350000143051147,-0.34999990463256836,-0.7176992218110918,0.0,True,0.011196613311767578,-1.7350000143051147,-0.34999990463256836,-0.7177026867866516,0.0,0.0,0.0
1759839568.8489194,1,-1.7350000143051147,-0.34999990463256836,-0.717699297840662,0.0,True,0.011570215225219727,-1.7350000143051147,-0.34999990463256836,-0.7177026867866516,0.0,0.0,0.0
1759839568.8603032,1,-1.7350000143051147,-0.34999990463256836,-0.7176993984268485,0.0,True,0.011383771896362305,-1.7350000143051147,-0.34999990463256836,-0.7177026867866516,0.0,0.0,0.0
1759839568.870417,1,-1.7350000143051147,-0.34999990463256836,-0.7176995862938398,0.0,True,0.010113954544067383,-1.7350000143051147,-0.34999990463256836,-0.7177026867866516,0.0,0.0,0.0
1759839568.8816774,1,-1.7350000143051147,-0.34999990463256836,-0.7176996778111171,0.0,True,0.011260271072387695,-1.7350000143051147,-0.34999990463256836,-0.7177026867866516,0.0,0.0,0.0
1759839568.8928711,1,-1.7350000143051147,-0.34999990463256836,-0.7176997708866928,0.0,True,0.01119375228881836,-1.7350000143051147,-0.34999990463256836,-0.7177026867866516,0.0,0.0,0.0
1759839568.9035642,1,-1.7350000143051147,-0.34999990463256836,-0.7176998944158353,0.0,True,0.010693073272705078,-1.7350000143051147,-0.34999990463256836,-0.7177026867866516,0.0,0.0,0.0
1759839568.9142041,1,-1.7350000143051147,-0.34999990463256836,-0.7177000116865244,0.0,True,0.01063990592956543,-1.7350000143051147,-0.34999990463256836,-0.7177026867866516,0.0,0.0,0.0
1759839568.9256308,1,-1.7350000143051147,-0.34999990463256836,-0.7177000755603942,0.0,True,0.011426687240600586,-1.7350000143051147,-0.34999990463256836,-0.7177026867866516,0.0,0.0,0.0
1759839568.9362018,1,-1.7350000143051147,-0.34999990463256836,-0.717700188792886,0.0,True,0.010571002960205078,-1.7350000143051147,-0.34999990463256836,-0.7177026867866516,0.0,0.0,0.0
1759839568.9469225,1,-1.7350000143051147,-0.34999990463256836,-0.717700286166453,0.0,True,0.01072072982788086,-1.7350000143051147,-0.34999990463256836,-0.7177026867866516,0.0,0.0,0.0
1759839568.9575458,1,-1.7350000143051147,-0.34999990463256836,-0.7177003806118876,0.0,True,0.01062321662902832,-1.7350000143051147,-0.34999990463256836,-0.7177026867866516,0.0,0.0,0.0
1759839568.9732795,1,-1.7350000143051147,-0.34999990463256836,-0.71770022968105,0.0,True,0.015733718872070312,-1.7350000143051147,-0.34999990463256836,-0.7177026867866516,0.0,0.0,0.0
1759839568.980787,1,-1.7350000143051147,-0.34999990463256836,-0.7177005180113039,0.0,True,0.0075075626373291016,-1.7350000143051147,-0.34999990463256836,-0.7177026867866516,0.0,0.0,0.0
1759839568.9908412,1,-1.7350000143051147,-0.34999990463256836,-0.7177006453544639,0.0,True,0.01005411148071289,-1.7350000143051147,-0.34999990463256836,-0.7177026867866516,0.0,0.0,0.0
1759839569.0011234,1,-1.7350000143051147,-0.34999990463256836,-0.7177007330454224,0.0,True,0.010282278060913086,-1.7350000143051147,-0.34999990463256836,-0.7177026867866516,0.0,0.0,0.0
1759839569.0122297,1,-1.7350000143051147,-0.34999990463256836,-0.7177007754328173,0.0,True,0.011106252670288086,-1.7350000143051147,-0.34999990463256836,-0.7177026867866516,0.0,0.0,0.0
1759839569.0230634,1,-1.7350000143051147,-0.34999990463256836,-0.7177008319084344,0.0,True,0.010833740234375,-1.7350000143051147,-0.34999990463256836,-0.7177026867866516,0.0,0.0,0.0
1759839569.033291,1,-1.7350000143051147,-0.34999990463256836,-0.7177009129125587,0.0,True,0.010227680206298828,-1.7350000143051147,-0.34999990463256836,-0.7177026867866516,0.0,0.0,0.0
1759839569.0434375,1,-1.7350000143051147,-0.34999990463256836,-0.7177009894731974,0.0,True,0.010146379470825195,-1.7350000143051147,-0.34999990463256836,-0.7177026867866516,0.0,0.0,0.0
1759839569.0538223,1,-1.7350000143051147,-0.34999990463256836,-0.7177010488343019,0.0,True,0.010384798049926758,-1.7350000143051147,-0.34999990463256836,-0.7177026867866516,0.0,0.0,0.0
1759839569.0651243,1,-1.7350000143051147,-0.34999990463256836,-0.7177010720200876,0.0,True,0.011301994323730469,-1.7350000143051147,-0.34999990463256836,-0.7177026867866516,0.0,0.0,0.0
1759839569.0757153,1,-1.7350000143051147,-0.34999990463256836,-0.7177011261777366,0.0,True,0.01059103012084961,-1.7350000143051147,-0.34999990463256836,-0.7177026867866516,0.0,0.0,0.0
1759839569.0867944,1,-1.7350000143051147,-0.34999990463256836,-0.7177011642919329,0.0,True,0.011079072952270508,-1.7350000143051147,-0.34999990463256836,-0.7177026867866516,0.0,0.0,0.0
1759839569.0971372,1,-1.7350000143051147,-0.34999990463256836,-0.7177012279603012,0.0,True,0.010342836380004883,-1.7350000143051147,-0.34999990463256836,-0.7177026867866516,0.0,0.0,0.0
1759839569.1074688,1,-1.7350000143051147,-0.34999990463256836,-0.7177012872416864,0.0,True,0.01033163070678711,-1.7350000143051147,-0.34999990463256836,-0.7177026867866516,0.0,0.0,0.0
1759839569.1182933,1,-1.7350000143051147,-0.34999990463256836,-0.7177013263846774,0.0,True,0.010824441909790039,-1.7350000143051147,-0.34999990463256836,-0.7177026867866516,0.0,0.0,0.0
1759839569.1293895,1,-1.7350000143051147,-0.34999990463256836,-0.7177013577636515,0.0,True,0.01109623908996582,-1.7350000143051147,-0.34999990463256836,-0.7177026867866516,0.0,0.0,0.0
1759839569.1409044,1,-1.7350000143051147,-0.34999990463256836,-0.7177013808815822,0.0,True,0.011514902114868164,-1.7350000143051147,-0.34999990463256836,-0.7177026867866516,0.0,0.0,0.0
1759839569.1514273,1,-1.7350000143051147,-0.34999990463256836,-0.7177014362117902,0.0,True,0.010522842407226562,-1.7350000143051147,-0.34999990463256836,-0.7177026867866516,0.0,0.0,0.0
1759839569.1628199,1,-1.7350000143051147,-0.34999990463256836,-0.7177014660058454,0.0,True,0.011392593383789062,-1.7350000143051147,-0.34999990463256836,-0.7177026867866516,0.0,0.0,0.0
1759839569.179886,1,-1.7350000143051147,-0.34999990463256836,-0.7177013615210726,0.0,True,0.017066240310668945,-1.7350000143051147,-0.34999990463256836,-0.7177026867866516,0.0,0.0,0.0
1759839569.1911104,1,-1.7350000143051147,-0.34999990463256836,-0.717701439939253,0.0,True,0.01122426986694336,-1.7350000143051147,-0.34999990463256836,-0.7177026867866516,0.0,0.0,0.0
1759839569.202518,1,-1.7350000143051147,-0.34999990463256836,-0.7177015130264728,0.0,True,0.011407613754272461,-1.7350000143051147,-0.34999990463256836,-0.7177026867866516,0.0,0.0,0.0
1759839569.2140286,1,-1.7350000143051147,-0.34999990463256836,-0.7177015733327003,0.0,True,0.011510610580444336,-1.7350000143051147,-0.34999990463256836,-0.7177026867866516,0.0,0.0,0.0
1759839569.2255392,1,-1.7350000143051147,-0.34999990463256836,-0.7177016260517899,0.0,True,0.011510610580444336,-1.7350000143051147,-0.34999990463256836,-0.7177026867866516,0.0,0.0,0.0
1759839569.236613,1,-1.7350000143051147,-0.34999990463256836,-0.7177016817939723,0.0,True,0.011073827743530273,-1.7350000143051147,-0.34999990463256836,-0.7177026867866516,0.0,0.0,0.0
1759839569.2481496,1,-1.7350000143051147,-0.34999990463256836,-0.7177017217745778,0.0,True,0.011536598205566406,-1.7350000143051147,-0.34999990463256836,-0.7177026867866516,0.0,0.0,0.0
1759839569.2584794,1,-1.7350000143051147,-0.34999990463256836,-0.7177017806983361,0.0,True,0.010329723358154297,-1.7350000143051147,-0.34999990463256836,-0.7177026867866516,0.0,0.0,0.0
1759839569.268663,1,-1.7350000143051147,-0.34999990463256836,-0.7177018334315903,0.0,True,0.010183572769165039,-1.7350000143051147,-0.34999990463256836,-0.7177026867866516,0.0,0.0,0.0
1759839569.2798817,1,-1.7350000143051147,-0.34999990463256836,-0.7177018594305018,0.0,True,0.011218786239624023,-1.7350000143051147,-0.34999990463256836,-0.7177026867866516,0.0,0.0,0.0
1759839569.2917163,1,-1.7350000143051147,-0.34999990463256836,-0.7177018739519809,0.0,True,0.01183462142944336,-1.7350000143051147,-0.34999990463256836,-0.7177026867866516,0.0,0.0,0.0
1759839569.303918,1,-1.7350000143051147,-0.34999990463256836,-0.7177018862130105,0.0,True,0.012201547622680664,-1.7350000143051147,-0.34999990463256836,-0.7177026867866516,0.0,0.0,0.0
1759839569.315081,1,-1.7350000143051147,-0.34999990463256836,-0.7177019193851706,0.0,True,0.011162996292114258,-1.7350000143051147,-0.34999990463256836,-0.7177026867866516,0.0,0.0,0.0
1759839569.3264785,1,-1.7350000143051147,-0.34999990463256836,-0.7177019477250131,0.0,True,0.011397600173950195,-1.7350000143051147,-0.34999990463256836,-0.7177026867866516,0.0,0.0,0.0
1759839569.3370836,1,-1.7350000143051147,-0.34999990463256836,-0.7177019859171985,0.0,True,0.010605096817016602,-1.7350000143051147,-0.34999990463256836,-0.7177026867866516,0.0,0.0,0.0
1759839569.3484092,1,-1.7350000143051147,-0.34999990463256836,-0.717702009543709,0.0,True,0.011325597763061523,-1.7350000143051147,-0.34999990463256836,-0.7177026867866516,0.0,0.0,0.0
1759839569.3590949,1,-1.7350000143051147,-0.34999990463256836,-0.7177020404215728,0.0,True,0.01068568229675293,-1.7350000143051147,-0.34999990463256836,-0.7177026867866516,0.0,0.0,0.0
1759839569.370097,1,-1.7350000143051147,-0.34999990463256836,-0.7177020642184377,0.0,True,0.011002063751220703,-1.7350000143051147,-0.34999990463256836,-0.7177026867866516,0.0,0.0,0.0
1759839569.3895388,1,-1.7350000143051147,-0.34999990463256836,-0.7177019838910255,0.0,True,0.019441843032836914,-1.7350000143051147,-0.34999990463256836,-0.7177026867866516,0.0,0.0,0.0
1759839569.400575,1,-1.7350000143051147,-0.34999990463256836,-0.7177020343718574,0.0,True,0.011036157608032227,-1.7350000143051147,-0.34999990463256836,-0.7177026867866516,0.0,0.0,0.0
1759839569.4118702,1,-1.7350000143051147,-0.34999990463256836,-0.7177020799560552,0.0,True,0.011295318603515625,-1.7350000143051147,-0.34999990463256836,-0.7177026867866516,0.0,0.0,0.0
1759839569.423159,1,-1.7350000143051147,-0.34999990463256836,-0.7177021173628155,0.0,True,0.011288642883300781,-1.7350000143051147,-0.34999990463256836,-0.7177026867866516,0.0,0.0,0.0
1759839569.4346416,1,-1.7350000143051147,-0.34999990463256836,-0.7177021465012672,0.0,True,0.011482715606689453,-1.7350000143051147,-0.34999990463256836,-0.7177026867866516,0.0,0.0,0.0
1759839569.4459226,1,-1.7350000143051147,-0.34999990463256836,-0.7177021737298901,0.0,True,0.011281013488769531,-1.7350000143051147,-0.34999990463256836,-0.7177026867866516,0.0,0.0,0.0
1759839569.456825,1,-1.7350000143051147,-0.34999990463256836,-0.7177022012192893,0.0,True,0.01090240478515625,-1.7350000143051147,-0.34999990463256836,-0.7177026867866516,0.0,0.0,0.0
1759839569.467116,1,-1.7350000143051147,-0.34999990463256836,-0.7177022305889587,0.0,True,0.010291099548339844,-1.7350000143051147,-0.34999990463256836,-0.7177026867866516,0.0,0.0,0.0
1759839569.4785275,1,-1.7350000143051147,-0.34999990463256836,-0.7177022450281445,0.0,True,0.011411428451538086,-1.7350000143051147,-0.34999990463256836,-0.7177026867866516,0.0,0.0,0.0
1759839569.4887755,1,-1.7350000143051147,-0.34999990463256836,-0.7177022687117507,0.0,True,0.010247945785522461,-1.7350000143051147,-0.34999990463256836,-0.7177026867866516,0.0,0.0,0.0
1759839569.5000854,1,-1.7350000143051147,-0.34999990463256836,-0.7177022803883943,0.0,True,0.01130986213684082,-1.7350000143051147,-0.34999990463256836,-0.7177026867866516,0.0,0.0,0.0
1759839569.510621,1,-1.7350000143051147,-0.34999990463256836,-0.7177022980983754,0.0,True,0.010535717010498047,-1.7350000143051147,-0.34999990463256836,-0.7177026867866516,0.0,0.0,0.0
1759839569.5210505,1,-1.7350000143051147,-0.34999990463256836,-0.7177023150865551,0.0,True,0.01042938232421875,-1.7350000143051147,-0.34999990463256836,-0.7177026867866516,0.0,0.0,0.0
1759839569.5312686,1,-1.7350000143051147,-0.34999990463256836,-0.717702331775179,0.0,True,0.010218143463134766,-1.7350000143051147,-0.34999990463256836,-0.7177026867866516,0.0,0.0,0.0
1759839569.541861,1,-1.7350000143051147,-0.34999990463256836,-0.717702343652352,0.0,True,0.010592460632324219,-1.7350000143051147,-0.34999990463256836,-0.7177026867866516,0.0,0.0,0.0
1759839569.5520754,1,-1.7350000143051147,-0.34999990463256836,-0.7177023574454395,0.0,True,0.01021432876586914,-1.7350000143051147,-0.34999990463256836,-0.7177026867866516,0.0,0.0,0.0
1759839569.5633368,1,-1.7350000143051147,-0.34999990463256836,-0.717702362684248,0.0,True,0.011261463165283203,-1.7350000143051147,-0.34999990463256836,-0.7177026867866516,0.0,0.0,0.0
1759839569.5744715,1,-1.7350000143051147,-0.34999990463256836,-0.7177023698387011,0.0,True,0.011134624481201172,-1.7350000143051147,-0.34999990463256836,-0.7177026867866516,0.0,0.0,0.0
1759839569.5908418,1,-1.7350000143051147,-0.34999990463256836,-0.7177023444913271,0.0,True,0.016370296478271484,-1.7350000143051147,-0.34999990463256836,-0.7177026867866516,0.0,0.0,0.0
1759839569.6015744,1,-1.7350000143051147,-0.34999990463256836,-0.7177023652233032,0.0,True,0.010732650756835938,-1.7350000143051147,-0.34999990463256836,-0.7177026867866516,0.0,0.0,0.0
1759839569.61224,1,-1.7350000143051147,-0.34999990463256836,-0.7177023855934355,0.0,True,0.010665655136108398,-1.7350000143051147,-0.34999990463256836,-0.7177026867866516,0.0,0.0,0.0
1759839569.6238604,1,-1.7350000143051147,-0.34999990463256836,-0.717702397075275,0.0,True,0.011620283126831055,-1.7350000143051147,-0.34999990463256836,-0.7177026867866516,0.0,0.0,0.0
1759839569.634559,1,-1.7350000143051147,-0.34999990463256836,-0.7177024126106808,0.0,True,0.010698556900024414,-1.7350000143051147,-0.34999990463256836,-0.7177026867866516,0.0,0.0,0.0
1759839569.6457133,1,-1.7350000143051147,-0.34999990463256836,-0.717702423755247,0.0,True,0.011154413223266602,-1.7350000143051147,-0.34999990463256836,-0.7177026867866516,0.0,0.0,0.0
1759839569.6558037,1,-1.7350000143051147,-0.34999990463256836,-0.7177024392918696,0.0,True,0.010090351104736328,-1.7350000143051147,-0.34999990463256836,-0.7177026867866516,0.0,0.0,0.0
1759839569.6664972,1,-1.7350000143051147,-0.34999990463256836,-0.7177024494676285,0.0,True,0.010693550109863281,-1.7350000143051147,-0.34999990463256836,-0.7177026867866516,0.0,0.0,0.0
1759839569.6772819,1,-1.7350000143051147,-0.34999990463256836,-0.7177024579831119,0.0,True,0.010784626007080078,-1.7350000143051147,-0.34999990463256836,-0.7177026867866516,0.0,0.0,0.0
1759839569.6886466,1,-1.7350000143051147,-0.34999990463256836,-0.7177024632292408,0.0,True,0.01136469841003418,-1.7350000143051147,-0.34999990463256836,-0.7177026867866516,0.0,0.0,0.0
1759839569.7000396,1,-1.7350000143051147,-0.34999990463256836,-0.7177024687868645,0.0,True,0.011393070220947266,-1.7350000143051147,-0.34999990463256836,-0.7177026867866516,0.0,0.0,0.0
1759839569.7113914,1,-1.7350000143051147,-0.34999990463256836,-0.7177024750319987,0.0,True,0.011351823806762695,-1.7350000143051147,-0.34999990463256836,-0.7177026867866516,0.0,0.0,0.0
1759839569.7222068,1,-1.7350000143051147,-0.34999990463256836,-0.7177024837743069,0.0,True,0.01081538200378418,-1.7350000143051147,-0.34999990463256836,-0.7177026867866516,0.0,0.0,0.0
1759839569.7330718,1,-1.7350000143051147,-0.34999990463256836,-0.7177024917021217,0.0,True,0.010864973068237305,-1.7350000143051147,-0.34999990463256836,-0.7177026867866516,0.0,0.0,0.0
1759839569.7445905,1,-1.7350000143051147,-0.34999990463256836,-0.7177024964574237,0.0,True,0.011518716812133789,-1.7350000143051147,-0.34999990463256836,-0.7177026867866516,0.0,0.0,0.0
1759839569.7552636,1,-1.7350000143051147,-0.34999990463256836,-0.7177025047110597,0.0,True,0.010673046112060547,-1.7350000143051147,-0.34999990463256836,-0.7177026867866516,0.0,0.0,0.0
1759839569.766221,1,-1.7350000143051147,-0.34999990463256836,-0.7177025112950055,0.0,True,0.010957479476928711,-1.7350000143051147,-0.34999990463256836,-0.7177026867866516,0.0,0.0,0.0
1759839569.777558,1,-1.7350000143051147,-0.34999990463256836,-0.7177025161191324,0.0,True,0.011337041854858398,-1.7350000143051147,-0.34999990463256836,-0.7177026867866516,0.0,0.0,0.0
1759839569.80001,1,-1.7350000143051147,-0.34999990463256836,-0.7177024845859705,0.0,True,0.02245187759399414,-1.7350000143051147,-0.34999990463256836,-0.7177026867866516,0.0,0.0,0.0
1759839569.8116298,1,-1.7350000143051147,-0.34999990463256836,-0.7177024997530417,0.0,True,0.011619806289672852,-1.7350000143051147,-0.34999990463256836,-0.7177026867866516,0.0,0.0,0.0
1759839569.8227618,1,-1.7350000143051147,-0.34999990463256836,-0.7177025161196351,0.0,True,0.011132001876831055,-1.7350000143051147,-0.34999990463256836,-0.7177026867866516,0.0,0.0,0.0
1759839569.8338416,1,-1.7350000143051147,-0.34999990463256836,-0.7177025292841286,0.0,True,0.011079788208007812,-1.7350000143051147,-0.34999990463256836,-0.7177026867866516,0.0,0.0,0.0
1759839569.845153,1,-1.7350000143051147,-0.34999990463256836,-0.7177025390965834,0.0,True,0.011311531066894531,-1.7350000143051147,-0.34999990463256836,-0.7177026867866516,0.0,0.0,0.0
1759839569.855298,1,-1.7350000143051147,-0.34999990463256836,-0.7177025502861873,0.0,True,0.010144948959350586,-1.7350000143051147,-0.34999990463256836,-0.7177026867866516,0.0,0.0,0.0
1759839569.8664782,1,-1.7350000143051147,-0.34999990463256836,-0.7177025566294439,0.0,True,0.01118016242980957,-1.7350000143051147,-0.34999990463256836,-0.7177026867866516,0.0,0.0,0.0
1759839569.88111,1,-1.7350000143051147,-0.34999990463256836,-0.7177025534708257,0.0,True,0.01463174819946289,-1.7350000143051147,-0.34999990463256836,-0.7177026867866516,0.0,0.0,0.0
1759839569.8956103,1,-1.7350000143051147,-0.34999990463256836,-0.7177025529956218,0.0,True,0.01450037956237793,-1.7350000143051147,-0.34999990463256836,-0.7177026867866516,0.0,0.0,0.0
1759839569.908793,1,-1.7350000143051147,-0.34999990463256836,-0.7177025576765068,0.0,True,0.013182640075683594,-1.7350000143051147,-0.34999990463256836,-0.7177026867866516,0.0,0.0,0.0
1759839569.9196792,1,-1.7350000143051147,-0.34999990463256836,-0.7177025677053841,0.0,True,0.010886192321777344,-1.7350000143051147,-0.34999990463256836,-0.7177026867866516,0.0,0.0,0.0
1759839569.9312122,1,-1.7350000143051147,-0.34999990463256836,-0.7177025747156875,0.0,True,0.011533021926879883,-1.7350000143051147,-0.34999990463256836,-0.7177026867866516,0.0,0.0,0.0
1759839569.9445837,1,-1.7350000143051147,-0.34999990463256836,-0.717702576869474,0.0,True,0.013371467590332031,-1.7350000143051147,-0.34999990463256836,-0.7177026867866516,0.0,0.0,0.0
1759839569.9577105,1,-1.7350000143051147,-0.34999990463256836,-0.7177025799232961,0.0,True,0.013126850128173828,-1.7350000143051147,-0.34999990463256836,-0.7177026867866516,0.0,0.0,0.0
1759839569.9695513,1,-1.7350000143051147,-0.34999990463256836,-0.7177025857254336,0.0,True,0.0118408203125,-1.7350000143051147,-0.34999990463256836,-0.7177026867866516,0.0,0.0,0.0
1759839569.980956,1,-1.7350000143051147,-0.34999990463256836,-0.7177025917178383,0.0,True,0.011404752731323242,-1.7350000143051147,-0.34999990463256836,-0.7177026867866516,0.0,0.0,0.0
1759839569.9985132,1,-1.7350000143051147,-0.34999990463256836,-0.7177025865139335,0.0,True,0.017557144165039062,-1.7350000143051147,-0.34999990463256836,-0.7177026867866516,0.0,0.0,0.0
1759839570.008123,1,-1.7350000143051147,-0.34999990463256836,-0.7177025967721615,0.0,True,0.009609699249267578,-1.7350000143051147,-0.34999990463256836,-0.7177026867866516,0.0,0.0,0.0
1759839570.018991,1,-1.7350000143051147,-0.34999990463256836,-0.7177026034874086,0.0,True,0.010868072509765625,-1.7350000143051147,-0.34999990463256836,-0.7177026867866516,0.0,0.0,0.0
1759839570.0293698,1,-1.7350000143051147,-0.34999990463256836,-0.7177026094539016,0.0,True,0.010378837585449219,-1.7350000143051147,-0.34999990463256836,-0.7177026867866516,0.0,0.0,0.0
1759839570.0407655,1,-1.7350000143051147,-0.34999990463256836,-0.7177026127430537,0.0,True,0.011395692825317383,-1.7350000143051147,-0.34999990463256836,-0.7177026867866516,0.0,0.0,0.0
1759839570.051399,1,-1.7350000143051147,-0.34999990463256836,-0.7177026166716907,0.0,True,0.010633468627929688,-1.7350000143051147,-0.34999990463256836,-0.7177026867866516,0.0,0.0,0.0
1759839570.0622132,1,-1.7350000143051147,-0.34999990463256836,-0.717702619816194,0.0,True,0.010814189910888672,-1.7350000143051147,-0.34999990463256836,-0.7177026867866516,0.0,0.0,0.0
1759839570.0732427,1,-1.7350000143051147,-0.34999990463256836,-0.7177026222791341,0.0,True,0.011029481887817383,-1.7350000143051147,-0.34999990463256836,-0.7177026867866516,0.0,0.0,0.0
1759839570.083845,1,-1.7350000143051147,-0.34999990463256836,-0.7177026250999994,0.0,True,0.010602235794067383,-1.7350000143051147,-0.34999990463256836,-0.7177026867866516,0.0,0.0,0.0
1759839570.0949504,1,-1.7350000143051147,-0.34999990463256836,-0.7177026270012004,0.0,True,0.011105537414550781,-1.7350000143051147,-0.34999990463256836,-0.7177026867866516,0.0,0.0,0.0
1759839570.1055486,1,-1.7350000143051147,-0.34999990463256836,-0.7177026294413604,0.0,True,0.010598182678222656,-1.7350000143051147,-0.34999990463256836,-0.7177026867866516,0.0,0.0,0.0
1759839570.1166852,1,-1.7350000143051147,-0.34999990463256836,-0.7177026310487591,0.0,True,0.011136531829833984,-1.7350000143051147,-0.34999990463256836,-0.7177026867866516,0.0,0.0,0.0
1759839570.1276824,1,-1.7350000143051147,-0.34999990463256836,-0.7177026328008385,0.0,True,0.010997295379638672,-1.7350000143051147,-0.34999990463256836,-0.7177026867866516,0.0,0.0,0.0
1759839570.1382203,1,-1.7350000143051147,-0.34999990463256836,-0.7177026350318876,0.0,True,0.010537862777709961,-1.7350000143051147,-0.34999990463256836,-0.7177026867866516,0.0,0.0,0.0
1759839570.1484504,1,-1.7350000143051147,-0.34999990463256836,-0.7177026373966058,0.0,True,0.010230064392089844,-1.7350000143051147,-0.34999990463256836,-0.7177026867866516,0.0,0.0,0.0
1759839570.1598425,1,-1.7350000143051147,-0.34999990463256836,-0.7177026382780198,0.0,True,0.01139211654663086,-1.7350000143051147,-0.34999990463256836,-0.7177026867866516,0.0,0.0,0.0
1759839570.171221,1,-1.7350000143051147,-0.34999990463256836,-0.7177026392923747,0.0,True,0.01137852668762207,-1.7350000143051147,-0.34999990463256836,-0.7177026867866516,0.0,0.0,0.0
1759839570.182404,1,-1.7350000143051147,-0.34999990463256836,-0.7177026406576168,0.0,True,0.011183023452758789,-1.7350000143051147,-0.34999990463256836,-0.7177026867866516,0.0,0.0,0.0
1759839570.193124,1,-1.7350000143051147,-0.34999990463256836,-0.71770264249942,0.0,True,0.010720014572143555,-1.7350000143051147,-0.34999990463256836,-0.7177026867866516,0.0,0.0,0.0
1759839570.2067144,1,-1.7350000143051147,-0.34999990463256836,-0.7177026416626671,0.0,True,0.013590335845947266,-1.7350000143051147,-0.34999990463256836,-0.7177026867866516,0.0,0.0,0.0
1759839570.216903,1,-1.7350000143051147,-0.34999990463256836,-0.7177026444012515,0.0,True,0.010188579559326172,-1.7350000143051147,-0.34999990463256836,-0.7177026867866516,0.0,0.0,0.0
1759839570.227204,1,-1.7350000143051147,-0.34999990463256836,-0.7177026467822891,0.0,True,0.01030111312866211,-1.7350000143051147,-0.34999990463256836,-0.7177026867866516,0.0,0.0,0.0
1759839570.237823,1,-1.7350000143051147,-0.34999990463256836,-0.7177026485145479,0.0,True,0.010618925094604492,-1.7350000143051147,-0.34999990463256836,-0.7177026867866516,0.0,0.0,0.0
1759839570.2493253,1,-1.7350000143051147,-0.34999990463256836,-0.7177026493441012,0.0,True,0.011502265930175781,-1.7350000143051147,-0.34999990463256836,-0.7177026867866516,0.0,0.0,0.0
1759839570.2602942,1,-1.7350000143051147,-0.34999990463256836,-0.7177026506452542,0.0,True,0.010968923568725586,-1.7350000143051147,-0.34999990463256836,-0.7177026867866516,0.0,0.0,0.0
1759839570.2706425,1,-1.7350000143051147,-0.34999990463256836,-0.7177026523697236,0.0,True,0.010348320007324219,-1.7350000143051147,-0.34999990463256836,-0.7177026867866516,0.0,0.0,0.0
1759839570.2813358,1,-1.7350000143051147,-0.34999990463256836,-0.7177026536549551,0.0,True,0.01069331169128418,-1.7350000143051147,-0.34999990463256836,-0.7177026867866516,0.0,0.0,0.0
1759839570.2917,1,-1.7350000143051147,-0.34999990463256836,-0.7177026550521717,0.0,True,0.010364055633544922,-1.7350000143051147,-0.34999990463256836,-0.7177026867866516,0.0,0.0,0.0
1759839570.301793,1,-1.7350000143051147,-0.34999990463256836,-0.7177026564901023,0.0,True,0.010093212127685547,-1.7350000143051147,-0.34999990463256836,-0.7177026867866516,0.0,0.0,0.0
1759839570.3121378,1,-1.7350000143051147,-0.34999990463256836,-0.717702657591083,0.0,True,0.010344743728637695,-1.7350000143051147,-0.34999990463256836,-0.7177026867866516,0.0,0.0,0.0
1759839570.3221662,1,-1.7350000143051147,-0.34999990463256836,-0.7177026587911897,0.0,True,0.010028362274169922,-1.7350000143051147,-0.34999990463256836,-0.7177026867866516,0.0,0.0,0.0
1759839570.3329437,1,-1.7350000143051147,-0.34999990463256836,-0.7177026594173022,0.0,True,0.010777473449707031,-1.7350000143051147,-0.34999990463256836,-0.7177026867866516,0.0,0.0,0.0
1759839570.3444455,1,-1.7350000143051147,-0.34999990463256836,-0.717702659650989,0.0,True,0.011501789093017578,-1.7350000143051147,-0.34999990463256836,-0.7177026867866516,0.0,0.0,0.0
1759839570.354518,1,-1.7350000143051147,-0.34999990463256836,-0.7177026608675927,0.0,True,0.010072469711303711,-1.7350000143051147,-0.34999990463256836,-0.7177026867866516,0.0,0.0,0.0
1759839570.3657873,1,-1.7350000143051147,-0.34999990463256836,-0.7177026613413648,0.0,True,0.011269330978393555,-1.7350000143051147,-0.34999990463256836,-0.7177026867866516,0.0,0.0,0.0
1759839570.3762727,1,-1.7350000143051147,-0.34999990463256836,-0.7177026622922149,0.0,True,0.010485410690307617,-1.7350000143051147,-0.34999990463256836,-0.7177026867866516,0.0,0.0,0.0
1759839570.3874817,1,-1.7350000143051147,-0.34999990463256836,-0.7177026628351193,0.0,True,0.01120901107788086,-1.7350000143051147,-0.34999990463256836,-0.7177026867866516,0.0,0.0,0.0
1759839570.3987193,1,-1.7350000143051147,-0.34999990463256836,-0.7177026634124317,0.0,True,0.011237621307373047,-1.7350000143051147,-0.34999990463256836,-0.7177026867866516,0.0,0.0,0.0
1759839570.4112496,1,-1.7350000143051147,-0.34999990463256836,-0.7177026634411146,0.0,True,0.012530326843261719,-1.7350000143051147,-0.34999990463256836,-0.7177026867866516,0.0,0.0,0.0
1759839570.421857,1,-1.7350000143051147,-0.34999990463256836,-0.7177026645714903,0.0,True,0.010607481002807617,-1.7350000143051147,-0.34999990463256836,-0.7177026867866516,0.0,0.0,0.0
1759839570.433261,1,-1.7350000143051147,-0.34999990463256836,-0.7177026652778054,0.0,True,0.011403799057006836,-1.7350000143051147,-0.34999990463256836,-0.7177026867866516,0.0,0.0,0.0
1759839570.4438252,1,-1.7350000143051147,-0.34999990463256836,-0.717702666318818,0.0,True,0.010564327239990234,-1.7350000143051147,-0.34999990463256836,-0.7177026867866516,0.0,0.0,0.0
1759839570.455301,1,-1.7350000143051147,-0.34999990463256836,-0.7177026668788056,0.0,True,0.011475801467895508,-1.7350000143051147,-0.34999990463256836,-0.7177026867866516,0.0,0.0,0.0
1759839570.466754,1,-1.7350000143051147,-0.34999990463256836,-0.7177026674547129,0.0,True,0.011452913284301758,-1.7350000143051147,-0.34999990463256836,-0.7177026867866516,0.0,0.0,0.0
1759839570.4770195,1,-1.7350000143051147,-0.34999990463256836,-0.7177026685042485,0.0,True,0.010265588760375977,-1.7350000143051147,-0.34999990463256836,-0.7177026867866516,0.0,0.0,0.0
1759839570.4876423,1,-1.7350000143051147,-0.34999990463256836,-0.7177026692923825,0.0,True,0.010622739791870117,-1.7350000143051147,-0.34999990463256836,-0.7177026867866516,0.0,0.0,0.0
1759839570.4987984,1,-1.7350000143051147,-0.34999990463256836,-0.7177026697982303,0.0,True,0.011156082153320312,-1.7350000143051147,-0.34999990463256836,-0.7177026867866516,0.0,0.0,0.0
1759839570.5103712,1,-1.7350000143051147,-0.34999990463256836,-0.7177026701587863,0.0,True,0.011572837829589844,-1.7350000143051147,-0.34999990463256836,-0.7177026867866516,0.0,0.0,0.0
1759839570.5215533,1,-1.7350000143051147,-0.34999990463256836,-0.7177026707024883,0.0,True,0.011182069778442383,-1.7350000143051147,-0.34999990463256836,-0.7177026867866516,0.0,0.0,0.0
1759839570.5325668,1,-1.7350000143051147,-0.34999990463256836,-0.7177026713040995,0.0,True,0.011013507843017578,-1.7350000143051147,-0.34999990463256836,-0.7177026867866516,0.0,0.0,0.0
1759839570.5435455,1,-1.7350000143051147,-0.34999990463256836,-0.7177026718869364,0.0,True,0.01097869873046875,-1.7350000143051147,-0.34999990463256836,-0.7177026867866516,0.0,0.0,0.0
1759839570.5536785,1,-1.7350000143051147,-0.34999990463256836,-0.7177026726867837,0.0,True,0.010133028030395508,-1.7350000143051147,-0.34999990463256836,-0.7177026867866516,0.0,0.0,0.0
1759839570.5639436,1,-1.7350000143051147,-0.34999990463256836,-0.7177026733407441,0.0,True,0.010265111923217773,-1.7350000143051147,-0.34999990463256836,-0.7177026867866516,0.0,0.0,0.0
1759839570.5753849,1,-1.7350000143051147,-0.34999990463256836,-0.7177026735780636,0.0,True,0.011441230773925781,-1.7350000143051147,-0.34999990463256836,-0.7177026867866516,0.0,0.0,0.0
1759839570.5858114,1,-1.7350000143051147,-0.34999990463256836,-0.717702674126329,0.0,True,0.010426521301269531,-1.7350000143051147,-0.34999990463256836,-0.7177026867866516,0.0,0.0,0.0
1759839570.5971026,1,-1.7350000143051147,-0.34999990463256836,-0.7177026744143653,0.0,True,0.011291265487670898,-1.7350000143051147,-0.34999990463256836,-0.7177026867866516,0.0,0.0,0.0
1759839570.6122856,1,-1.7350000143051147,-0.34999990463256836,-0.7177026737586694,0.0,True,0.015182971954345703,-1.7350000143051147,-0.34999990463256836,-0.7177026867866516,0.0,0.0,0.0
1759839570.6223216,1,-1.7350000143051147,-0.34999990463256836,-0.7177026746710613,0.0,True,0.010035991668701172,-1.7350000143051147,-0.34999990463256836,-0.7177026867866516,0.0,0.0,0.0
1759839570.633614,1,-1.7350000143051147,-0.34999990463256836,-0.7177026752085798,0.0,True,0.011292457580566406,-1.7350000143051147,-0.34999990463256836,-0.7177026867866516,0.0,0.0,0.0
1759839570.6450505,1,-1.7350000143051147,-0.34999990463256836,-0.7177026756459632,0.0,True,0.01143646240234375,-1.7350000143051147,-0.34999990463256836,-0.7177026867866516,0.0,0.0,0.0
1759839570.6550615,1,-1.7350000143051147,-0.34999990463256836,-0.7177026763632544,0.0,True,0.010010957717895508,-1.7350000143051147,-0.34999990463256836,-0.7177026867866516,0.0,0.0,0.0
1759839570.6654072,1,-1.7350000143051147,-0.34999990463256836,-0.7177026768981811,0.0,True,0.010345697402954102,-1.7350000143051147,-0.34999990463256836,-0.7177026867866516,0.0,0.0,0.0
1759839570.6767867,1,-1.7350000143051147,-0.34999990463256836,-0.7177026771404282,0.0,True,0.011379480361938477,-1.7350000143051147,-0.34999990463256836,-0.7177026867866516,0.0,0.0,0.0
1759839570.6881297,1,-1.7350000143051147,-0.34999990463256836,-0.7177026773963782,0.0,True,0.011343002319335938,-1.7350000143051147,-0.34999990463256836,-0.7177026867866516,0.0,0.0,0.0
1759839570.6989796,1,-1.7350000143051147,-0.34999990463256836,-0.7177026777615225,0.0,True,0.010849952697753906,-1.7350000143051147,-0.34999990463256836,-0.7177026867866516,0.0,0.0,0.0
1759839570.710419,1,-1.7350000143051147,-0.34999990463256836,-0.7177026780009506,0.0,True,0.011439323425292969,-1.7350000143051147,-0.34999990463256836,-0.7177026867866516,0.0,0.0,0.0
1759839570.7216897,1,-1.7350000143051147,-0.34999990463256836,-0.7177026782790374,0.0,True,0.011270761489868164,-1.7350000143051147,-0.34999990463256836,-0.7177026867866516,0.0,0.0,0.0
1759839570.7328331,1,-1.7350000143051147,-0.34999990463256836,-0.7177026785809133,0.0,True,0.01114344596862793,-1.7350000143051147,-0.34999990463256836,-0.7177026867866516,0.0,0.0,0.0
1759839570.7440488,1,-1.7350000143051147,-0.34999990463256836,-0.7177026788612366,0.0,True,0.011215686798095703,-1.7350000143051147,-0.34999990463256836,-0.7177026867866516,0.0,0.0,0.0
1759839570.7544296,1,-1.7350000143051147,-0.34999990463256836,-0.7177026792641286,0.0,True,0.010380744934082031,-1.7350000143051147,-0.34999990463256836,-0.7177026867866516,0.0,0.0,0.0
1759839570.764831,1,-1.7350000143051147,-0.34999990463256836,-0.7177026796157424,0.0,True,0.010401487350463867,-1.7350000143051147,-0.34999990463256836,-0.7177026867866516,0.0,0.0,0.0
1759839570.775867,1,-1.7350000143051147,-0.34999990463256836,-0.7177026798286867,0.0,True,0.011035919189453125,-1.7350000143051147,-0.34999990463256836,-0.7177026867866516,0.0,0.0,0.0
1759839570.7869656,1,-1.7350000143051147,-0.34999990463256836,-0.717702680027184,0.0,True,0.011098623275756836,-1.7350000143051147,-0.34999990463256836,-0.7177026867866516,0.0,0.0,0.0
1759839570.7975264,1,-1.7350000143051147,-0.34999990463256836,-0.717702680303832,0.0,True,0.010560750961303711,-1.7350000143051147,-0.34999990463256836,-0.7177026867866516,0.0,0.0,0.0
1759839570.809625,1,-1.7350000143051147,-0.34999990463256836,-0.7177026803569291,0.0,True,0.012098550796508789,-1.7350000143051147,-0.34999990463256836,-0.7177026867866516,0.0,0.0,0.0
1759839570.819916,1,-1.7350000143051147,-0.34999990463256836,-0.717702680681457,0.0,True,0.010291099548339844,-1.7350000143051147,-0.34999990463256836,-0.7177026867866516,0.0,0.0,0.0
1759839570.8313456,1,-1.7350000143051147,-0.34999990463256836,-0.7177026808366342,0.0,True,0.011429548263549805,-1.7350000143051147,-0.34999990463256836,-0.7177026867866516,0.0,0.0,0.0
1759839570.8417952,1,-1.7350000143051147,-0.34999990463256836,-0.717702681111815,0.0,True,0.010449647903442383,-1.7350000143051147,-0.34999990463256836,-0.7177026867866516,0.0,0.0,0.0
1759839570.85197,1,-1.7350000143051147,-0.34999990463256836,-0.7177026813931633,0.0,True,0.010174751281738281,-1.7350000143051147,-0.34999990463256836,-0.7177026867866516,0.0,0.0,0.0
1759839570.862813,1,-1.7350000143051147,-0.34999990463256836,-0.7177026815618746,0.0,True,0.010843038558959961,-1.7350000143051147,-0.34999990463256836,-0.7177026867866516,0.0,0.0,0.0
1759839570.8729846,1,-1.7350000143051147,-0.34999990463256836,-0.7177026817946643,0.0,True,0.010171651840209961,-1.7350000143051147,-0.34999990463256836,-0.7177026867866516,0.0,0.0,0.0
1759839570.8830013,1,-1.7350000143051147,-0.34999990463256836,-0.7177026820201924,0.0,True,0.010016679763793945,-1.7350000143051147,-0.34999990463256836,-0.7177026867866516,0.0,0.0,0.0
1759839570.8934827,1,-1.7350000143051147,-0.34999990463256836,-0.7177026821702821,0.0,True,0.01048135757446289,-1.7350000143051147,-0.34999990463256836,-0.7177026867866516,0.0,0.0,0.0
1759839570.9037268,1,-1.7350000143051147,-0.34999990463256836,-0.7177026823353643,0.0,True,0.010244131088256836,-1.7350000143051147,-0.34999990463256836,-0.7177026867866516,0.0,0.0,0.0
1759839570.914829,1,-1.7350000143051147,-0.34999990463256836,-0.7177026824083281,0.0,True,0.01110219955444336,-1.7350000143051147,-0.34999990463256836,-0.7177026867866516,0.0,0.0,0.0
1759839570.9255617,1,-1.7350000143051147,-0.34999990463256836,-0.7177026825303301,0.0,True,0.010732650756835938,-1.7350000143051147,-0.34999990463256836,-0.7177026867866516,0.0,0.0,0.0
1759839570.9355657,1,-1.7350000143051147,-0.34999990463256836,-0.7177026827227344,0.0,True,0.010004043579101562,-1.7350000143051147,-0.34999990463256836,-0.7177026867866516,0.0,0.0,0.0
1759839570.945882,1,-1.7350000143051147,-0.34999990463256836,-0.7177026828686142,0.0,True,0.01031637191772461,-1.7350000143051147,-0.34999990463256836,-0.7177026867866516,0.0,0.0,0.0
1759839570.956929,1,-1.7350000143051147,-0.34999990463256836,-0.7177026829412672,0.0,True,0.011046886444091797,-1.7350000143051147,-0.34999990463256836,-0.7177026867866516,0.0,0.0,0.0
1759839570.9671633,1,-1.7350000143051147,-0.34999990463256836,-0.7177026830905824,0.0,True,0.010234355926513672,-1.7350000143051147,-0.34999990463256836,-0.7177026867866516,0.0,0.0,0.0
1759839570.977208,1,-1.7350000143051147,-0.34999990463256836,-0.7177026832464755,0.0,True,0.010044574737548828,-1.7350000143051147,-0.34999990463256836,-0.7177026867866516,0.0,0.0,0.0
1759839570.9884598,1,-1.7350000143051147,-0.34999990463256836,-0.7177026832943891,0.0,True,0.01125192642211914,-1.7350000143051147,-0.34999990463256836,-0.7177026867866516,0.0,0.0,0.0
1759839570.9989552,1,-1.7350000143051147,-0.34999990463256836,-0.7177026834117175,0.0,True,0.010495424270629883,-1.7350000143051147,-0.34999990463256836,-0.7177026867866516,0.0,0.0,0.0
1759839571.014056,1,-1.7350000143051147,-0.34999990463256836,-0.7177026832060491,0.0,True,0.015100717544555664,-1.7350000143051147,-0.34999990463256836,-0.7177026867866516,0.0,0.0,0.0
1759839571.0252893,1,-1.7350000143051147,-0.34999990463256836,-0.7177026833583575,0.0,True,0.011233329772949219,-1.7350000143051147,-0.34999990463256836,-0.7177026867866516,0.0,0.0,0.0
1759839571.036096,1,-1.7350000143051147,-0.34999990463256836,-0.7177026835464986,0.0,True,0.010806798934936523,-1.7350000143051147,-0.34999990463256836,-0.7177026867866516,0.0,0.0,0.0
1759839571.046716,1,-1.7350000143051147,-0.34999990463256836,-0.7177026837219955,0.0,True,0.010619878768920898,-1.7350000143051147,-0.34999990463256836,-0.7177026867866516,0.0,0.0,0.0
1759839571.057844,1,-1.7350000143051147,-0.34999990463256836,-0.7177026838414804,0.0,True,0.011127948760986328,-1.7350000143051147,-0.34999990463256836,-0.7177026867866516,0.0,0.0,0.0
1759839571.069092,1,-1.7350000143051147,-0.34999990463256836,-0.7177026839437026,0.0,True,0.011248111724853516,-1.7350000143051147,-0.34999990463256836,-0.7177026867866516,0.0,0.0,0.0
1759839571.0799007,1,-1.7350000143051147,-0.34999990463256836,-0.7177026840669463,0.0,True,0.010808706283569336,-1.7350000143051147,-0.34999990463256836,-0.7177026867866516,0.0,0.0,0.0
1759839571.0904546,1,-1.7350000143051147,-0.34999990463256836,-0.7177026841935401,0.0,True,0.010553836822509766,-1.7350000143051147,-0.34999990463256836,-0.7177026867866516,0.0,0.0,0.0
1759839571.1005416,1,-1.7350000143051147,-0.34999990463256836,-0.717702684330181,0.0,True,0.010087013244628906,-1.7350000143051147,-0.34999990463256836,-0.7177026867866516,0.0,0.0,0.0
1759839571.1108656,1,-1.7350000143051147,-0.34999990463256836,-0.7177026844352028,0.0,True,0.01032400131225586,-1.7350000143051147,-0.34999990463256836,-0.7177026867866516,0.0,0.0,0.0
1759839571.1222017,1,-1.7350000143051147,-0.34999990463256836,-0.7177026844777465,0.0,True,0.011336088180541992,-1.7350000143051147,-0.34999990463256836,-0.7177026867866516,0.0,0.0,0.0
1759839571.1329346,1,-1.7350000143051147,-0.34999990463256836,-0.7177026845555243,0.0,True,0.010732889175415039,-1.7350000143051147,-0.34999990463256836,-0.7177026867866516,0.0,0.0,0.0
1759839571.1441522,1,-1.7350000143051147,-0.34999990463256836,-0.7177026846103978,0.0,True,0.011217594146728516,-1.7350000143051147,-0.34999990463256836,-0.7177026867866516,0.0,0.0,0.0
1759839571.155092,1,-1.7350000143051147,-0.34999990463256836,-0.717702684681198,0.0,True,0.010939836502075195,-1.7350000143051147,-0.34999990463256836,-0.7177026867866516,0.0,0.0,0.0
1759839571.1660454,1,-1.7350000143051147,-0.34999990463256836,-0.7177026847510923,0.0,True,0.010953426361083984,-1.7350000143051147,-0.34999990463256836,-0.7177026867866516,0.0,0.0,0.0
1759839571.1760693,1,-1.7350000143051147,-0.34999990463256836,-0.7177026848576897,0.0,True,0.010023832321166992,-1.7350000143051147,-0.34999990463256836,-0.7177026867866516,0.0,0.0,0.0
1759839571.1871197,1,-1.7350000143051147,-0.34999990463256836,-0.717702684909586,0.0,True,0.01105046272277832,-1.7350000143051147,-0.34999990463256836,-0.7177026867866516,0.0,0.0,0.0
1759839571.198353,1,-1.7350000143051147,-0.34999990463256836,-0.7177026849538315,0.0,True,0.011233329772949219,-1.7350000143051147,-0.34999990463256836,-0.7177026867866516,0.0,0.0,0.0
1759839571.2102873,1,-1.7350000143051147,-0.34999990463256836,-0.7177026849765227,0.0,True,0.011934280395507812,-1.7350000143051147,-0.34999990463256836,-0.7177026867866516,0.0,0.0,0.0
1759839571.2197418,1,-1.7350000143051147,-0.34999990463256836,-0.7177026850994981,0.0,True,0.009454488754272461,-1.7350000143051147,-0.34999990463256836,-0.7177026867866516,0.0,0.0,0.0
1759839571.2303035,1,-1.7350000143051147,-0.34999990463256836,-0.7177026851658574,0.0,True,0.010561704635620117,-1.7350000143051147,-0.34999990463256836,-0.7177026867866516,0.0,0.0,0.0
1759839571.2403617,1,-1.7350000143051147,-0.34999990463256836,-0.7177026852407167,0.0,True,0.010058164596557617,-1.7350000143051147,-0.34999990463256836,-0.7177026867866516,0.0,0.0,0.0
1759839571.2517126,1,-1.7350000143051147,-0.34999990463256836,-0.7177026852644772,0.0,True,0.011350870132446289,-1.7350000143051147,-0.34999990463256836,-0.7177026867866516,0.0,0.0,0.0
1759839571.262907,1,-1.7350000143051147,-0.34999990463256836,-0.7177026852983452,0.0,True,0.011194467544555664,-1.7350000143051147,-0.34999990463256836,-0.7177026867866516,0.0,0.0,0.0
1759839571.2744036,1,-1.7350000143051147,-0.34999990463256836,-0.7177026853281436,0.0,True,0.011496543884277344,-1.7350000143051147,-0.34999990463256836,-0.7177026867866516,0.0,0.0,0.0
1759839571.2845693,1,-1.7350000143051147,-0.34999990463256836,-0.7177026854026103,0.0,True,0.010165691375732422,-1.7350000143051147,-0.34999990463256836,-0.7177026867866516,0.0,0.0,0.0
1759839571.295733,1,-1.7350000143051147,-0.34999990463256836,-0.717702685440905,0.0,True,0.011163711547851562,-1.7350000143051147,-0.34999990463256836,-0.7177026867866516,0.0,0.0,0.0
1759839571.3063273,1,-1.7350000143051147,-0.34999990463256836,-0.7177026854943982,0.0,True,0.010594367980957031,-1.7350000143051147,-0.34999990463256836,-0.7177026867866516,0.0,0.0,0.0
1759839571.3172102,1,-1.7350000143051147,-0.34999990463256836,-0.7177026855368389,0.0,True,0.010882854461669922,-1.7350000143051147,-0.34999990463256836,-0.7177026867866516,0.0,0.0,0.0
1759839571.3278995,1,-1.7350000143051147,-0.34999990463256836,-0.7177026855826689,0.0,True,0.010689258575439453,-1.7350000143051147,-0.34999990463256836,-0.7177026867866516,0.0,0.0,0.0
1759839571.3387375,1,-1.7350000143051147,-0.34999990463256836,-0.7177026856223652,0.0,True,0.010838031768798828,-1.7350000143051147,-0.34999990463256836,-0.7177026867866516,0.0,0.0,0.0
1759839571.3489919,1,-1.7350000143051147,-0.34999990463256836,-0.71770268567467,0.0,True,0.010254383087158203,-1.7350000143051147,-0.34999990463256836,-0.7177026867866516,0.0,0.0,0.0
1759839571.360209,1,-1.7350000143051147,-0.34999990463256836,-0.7177026856994342,0.0,True,0.011217117309570312,-1.7350000143051147,-0.34999990463256836,-0.7177026867866516,0.0,0.0,0.0
1759839571.3707957,1,-1.7350000143051147,-0.34999990463256836,-0.7177026857399724,0.0,True,0.010586738586425781,-1.7350000143051147,-0.34999990463256836,-0.7177026867866516,0.0,0.0,0.0
1759839571.3821292,1,-1.7350000143051147,-0.34999990463256836,-0.7177026857626849,0.0,True,0.011333465576171875,-1.7350000143051147,-0.34999990463256836,-0.7177026867866516,0.0,0.0,0.0
1759839571.3927798,1,-1.7350000143051147,-0.34999990463256836,-0.7177026858020259,0.0,True,0.010650634765625,-1.7350000143051147,-0.34999990463256836,-0.7177026867866516,0.0,0.0,0.0
1759839571.4039392,1,-1.7350000143051147,-0.34999990463256836,-0.7177026858293374,0.0,True,0.011159420013427734,-1.7350000143051147,-0.34999990463256836,-0.7177026867866516,0.0,0.0,0.0
1759839571.4194124,1,-1.7350000143051147,-0.34999990463256836,-0.717702685774805,0.0,True,0.015473127365112305,-1.7350000143051147,-0.34999990463256836,-0.7177026867866516,0.0,0.0,0.0
1759839571.4295852,1,-1.7350000143051147,-0.34999990463256836,-0.7177026858451772,0.0,True,0.010172843933105469,-1.7350000143051147,-0.34999990463256836,-0.7177026867866516,0.0,0.0,0.0
1759839571.4412267,1,-1.7350000143051147,-0.34999990463256836,-0.7177026858834274,0.0,True,0.011641502380371094,-1.7350000143051147,-0.34999990463256836,-0.7177026867866516,0.0,0.0,0.0
1759839571.4523296,1,-1.7350000143051147,-0.34999990463256836,-0.7177026859268985,0.0,True,0.011102914810180664,-1.7350000143051147,-0.34999990463256836,-0.7177026867866516,0.0,0.0,0.0
1759839571.4634466,1,-1.7350000143051147,-0.34999990463256836,-0.7177026859656692,0.0,True,0.011116981506347656,-1.7350000143051147,-0.34999990463256836,-0.7177026867866516,0.0,0.0,0.0
1759839571.4746037,1,-1.7350000143051147,-0.34999990463256836,-0.7177026859998286,0.0,True,0.011157035827636719,-1.7350000143051147,-0.34999990463256836,-0.7177026867866516,0.0,0.0,0.0
1759839571.4850912,1,-1.7350000143051147,-0.34999990463256836,-0.7177026860413349,0.0,True,0.010487556457519531,-1.7350000143051147,-0.34999990463256836,-0.7177026867866516,0.0,0.0,0.0
1759839571.495242,1,-1.7350000143051147,-0.34999990463256836,-0.7177026860824114,0.0,True,0.010150909423828125,-1.7350000143051147,-0.34999990463256836,-0.7177026867866516,0.0,0.0,0.0
1759839571.5065138,1,-1.7350000143051147,-0.34999990463256836,-0.7177026861010347,0.0,True,0.01127171516418457,-1.7350000143051147,-0.34999990463256836,-0.7177026867866516,0.0,0.0,0.0
1759839571.517595,1,-1.7350000143051147,-0.34999990463256836,-0.7177026861221592,0.0,True,0.011081218719482422,-1.7350000143051147,-0.34999990463256836,-0.7177026867866516,0.0,0.0,0.0
1759839571.5279002,1,-1.7350000143051147,-0.34999990463256836,-0.7177026861538458,0.0,True,0.010305166244506836,-1.7350000143051147,-0.34999990463256836,-0.7177026867866516,0.0,0.0,0.0
1759839571.5383313,1,-1.7350000143051147,-0.34999990463256836,-0.7177026861804876,0.0,True,0.010431051254272461,-1.7350000143051147,-0.34999990463256836,-0.7177026867866516,0.0,0.0,0.0
1759839571.5493186,1,-1.7350000143051147,-0.34999990463256836,-0.7177026861972102,0.0,True,0.010987281799316406,-1.7350000143051147,-0.34999990463256836,-0.7177026867866516,0.0,0.0,0.0
1759839571.560536,1,-1.7350000143051147,-0.34999990463256836,-0.7177026862111529,0.0,True,0.011217355728149414,-1.7350000143051147,-0.34999990463256836,-0.7177026867866516,0.0,0.0,0.0
1759839571.570817,1,-1.7350000143051147,-0.34999990463256836,-0.7177026862373346,0.0,True,0.010281085968017578,-1.7350000143051147,-0.34999990463256836,-0.7177026867866516,0.0,0.0,0.0
1759839571.581433,1,-1.7350000143051147,-0.34999990463256836,-0.7177026862573186,0.0,True,0.010616064071655273,-1.7350000143051147,-0.34999990463256836,-0.7177026867866516,0.0,0.0,0.0
1759839571.591486,1,-1.7350000143051147,-0.34999990463256836,-0.7177026862819353,0.0,True,0.010052919387817383,-1.7350000143051147,-0.34999990463256836,-0.7177026867866516,0.0,0.0,0.0
1759839571.6025145,1,-1.7350000143051147,-0.34999990463256836,-0.7177026862932898,0.0,True,0.011028528213500977,-1.7350000143051147,-0.34999990463256836,-0.7177026867866516,0.0,0.0,0.0
