timestamp,vehicle_id,x,y,theta,velocity,gps_available,dt,gps_x,gps_y,gps_theta,gps_velocity,control_steering,control_acceleration
1759839567.8354857,0,-1.205,-0.83,-0.7801621756414647,0.0,False,0.01,nan,nan,nan,nan,0.0,0.0
1759839567.8465812,0,-1.205,-0.83,-0.7801621756414647,0.0,False,0.011095523834228516,nan,nan,nan,nan,0.0,0.0
1759839567.8575785,0,-1.205,-0.83,-0.7801621756414647,0.0,False,0.010997295379638672,nan,nan,nan,nan,0.0,0.0
1759839567.8689353,0,-1.205,-0.83,-0.7801621756414647,0.0,False,0.011356830596923828,nan,nan,nan,nan,0.0,0.0
1759839567.879729,0,-1.205,-0.83,-0.7801621756414647,0.0,False,0.010793685913085938,nan,nan,nan,nan,0.0,0.0
1759839567.8905833,0,-1.205,-0.83,-0.7801621756414647,0.0,False,0.010854244232177734,nan,nan,nan,nan,0.0,0.0
1759839567.9011424,0,-1.205,-0.83,-0.7801621756414647,0.0,False,0.01055908203125,nan,nan,nan,nan,0.0,0.0
1759839567.9115157,0,-1.205,-0.83,-0.7801621756414647,0.0,False,0.010373353958129883,nan,nan,nan,nan,0.0,0.0
1759839567.9218886,0,-1.205,-0.83,-0.7801621756414647,0.0,False,0.01037287712097168,nan,nan,nan,nan,0.0,0.0
1759839567.9332545,0,-1.205,-0.83,-0.7801621756414647,0.0,False,0.011365890502929688,nan,nan,nan,nan,0.0,0.0
1759839567.943565,0,-1.205,-0.83,-0.7801621756414647,0.0,False,0.01031041145324707,nan,nan,nan,nan,0.0,0.0
1759839567.953921,0,-1.205,-0.83,-0.7801621756414647,0.0,False,0.01035618782043457,nan,nan,nan,nan,0.0,0.0
1759839567.9651992,0,-1.205,-0.83,-0.7801621756414647,0.0,False,0.011278152465820312,nan,nan,nan,nan,0.0,0.0
1759839567.9762344,0,-1.205,-0.83,-0.7801621756414647,0.0,False,0.01103520393371582,nan,nan,nan,nan,0.0,0.0
1759839567.9877322,0,-1.205,-0.83,-0.7801621756414647,0.0,False,0.011497735977172852,nan,nan,nan,nan,0.0,0.0
1759839567.9989471,0,-1.205,-0.83,-0.7801621756414647,0.0,False,0.011214971542358398,nan,nan,nan,nan,0.0,0.0
1759839568.0096562,0,-1.205,-0.83,-0.7801621756414647,0.0,False,0.010709047317504883,nan,nan,nan,nan,0.0,0.0
1759839568.0199606,0,-1.205,-0.83,-0.7801621756414647,0.0,False,0.010304450988769531,nan,nan,nan,nan,0.0,0.0
1759839568.0318346,0,-1.2050000425577163,-0.8299997470180194,-0.7229993436060216,0.0,True,0.011873960494995117,-1.2050000429153442,-0.8299997448921204,-0.7177030444145203,0.0,0.0,0.0
1759839568.0423565,0,-1.205000042795803,-0.8299997456027273,-0.7181180468239141,0.0,True,0.010521888732910156,-1.2050000429153442,-0.8299997448921204,-0.7177030444145203,0.0,0.0,0.0
1759839568.0538929,0,-1.2050000428705006,-0.8299997451586908,-0.7176542204679635,0.0,True,0.011536359786987305,-1.2050000429153442,-0.8299997448921204,-0.7177030444145203,0.0,0.0,0.0
1759839568.064977,0,-1.2050000428982601,-0.829999744993676,-0.7175950195247225,0.0,True,0.01108407974243164,-1.2050000429153442,-0.8299997448921204,-0.7177030444145203,0.0,0.0,0.0
1759839568.076116,0,-1.2050000429088212,-0.8299997449308965,-0.7175893050995761,0.0,True,0.011139154434204102,-1.2050000429153442,-0.8299997448921204,-0.7177030444145203,0.0,0.0,0.0
1759839568.0867722,0,-1.205000042912853,-0.8299997449069307,-0.7175983603277629,0.0,True,0.010656118392944336,-1.2050000429153442,-0.8299997448921204,-0.7177030444145203,0.0,0.0,0.0
1759839568.096885,0,-1.2050000429143926,-0.8299997448977774,-0.7176111417807789,0.0,True,0.010112762451171875,-1.2050000429153442,-0.8299997448921204,-0.7177030444145203,0.0,0.0,0.0
1759839568.1069307,0,-1.2050000429149808,-0.8299997448942812,-0.7176228306167562,0.0,True,0.010045766830444336,-1.2050000429153442,-0.8299997448921204,-0.7177030444145203,0.0,0.0,0.0
1759839568.1175108,0,-1.2050000429152055,-0.8299997448929457,-0.717632060045009,0.0,True,0.010580062866210938,-1.2050000429153442,-0.8299997448921204,-0.7177030444145203,0.0,0.0,0.0
1759839568.1276643,0,-1.2050000429152912,-0.8299997448924357,-0.7176406910343847,0.0,True,0.010153532028198242,-1.2050000429153442,-0.8299997448921204,-0.7177030444145203,0.0,0.0,0.0
1759839568.1384342,0,-1.205000042915324,-0.8299997448922408,-0.7176472414069934,0.0,True,0.010769844055175781,-1.2050000429153442,-0.8299997448921204,-0.7177030444145203,0.0,0.0,0.0
1759839568.1495285,0,-1.2050000429153365,-0.8299997448921663,-0.7176526924289597,0.0,True,0.011094331741333008,-1.2050000429153442,-0.8299997448921204,-0.7177030444145203,0.0,0.0,0.0
1759839568.1601593,0,-1.2050000429153414,-0.8299997448921379,-0.7176579791581865,0.0,True,0.01063084602355957,-1.2050000429153442,-0.8299997448921204,-0.7177030444145203,0.0,0.0,0.0
1759839568.1702704,0,-1.2050000429153431,-0.829999744892127,-0.7176628658670516,0.0,True,0.010111093521118164,-1.2050000429153442,-0.8299997448921204,-0.7177030444145203,0.0,0.0,0.0
1759839568.181373,0,-1.2050000429153438,-0.8299997448921229,-0.7176661543770457,0.0,True,0.011102437973022461,-1.2050000429153442,-0.8299997448921204,-0.7177030444145203,0.0,0.0,0.0
1759839568.1916225,0,-1.205000042915344,-0.8299997448921214,-0.7176696498267905,0.0,True,0.010249614715576172,-1.2050000429153442,-0.8299997448921204,-0.7177030444145203,0.0,0.0,0.0
1759839568.2031143,0,-1.2050000429153442,-0.8299997448921207,-0.7176718574894085,0.0,True,0.011491775512695312,-1.2050000429153442,-0.8299997448921204,-0.7177030444145203,0.0,0.0,0.0
1759839568.2142391,0,-1.2050000429153442,-0.8299997448921205,-0.7176741604847496,0.0,True,0.011124849319458008,-1.2050000429153442,-0.8299997448921204,-0.7177030444145203,0.0,0.0,0.0
1759839568.225464,0,-1.2050000429153442,-0.8299997448921204,-0.7176762210045897,0.0,True,0.011224985122680664,-1.2050000429153442,-0.8299997448921204,-0.7177030444145203,0.0,0.0,0.0
1759839568.238524,0,-1.2050000429153442,-0.8299997448921204,-0.7176772463763044,0.0,True,0.013059854507446289,-1.2050000429153442,-0.8299997448921204,-0.7177030444145203,0.0,0.0,0.0
1759839568.2490373,0,-1.2050000429153442,-0.8299997448921204,-0.7176795972149677,0.0,True,0.0105133056640625,-1.2050000429153442,-0.8299997448921204,-0.7177030444145203,0.0,0.0,0.0
1759839568.259053,0,-1.2050000429153442,-0.8299997448921204,-0.7176817984820012,0.0,True,0.010015726089477539,-1.2050000429153442,-0.8299997448921204,-0.7177030444145203,0.0,0.0,0.0
1759839568.2706456,0,-1.2050000429153442,-0.8299997448921204,-0.7176829475946924,0.0,True,0.011592626571655273,-1.2050000429153442,-0.8299997448921204,-0.7177030444145203,0.0,0.0,0.0
1759839568.2812142,0,-1.2050000429153442,-0.8299997448921204,-0.7176843872608281,0.0,True,0.010568618774414062,-1.2050000429153442,-0.8299997448921204,-0.7177030444145203,0.0,0.0,0.0
1759839568.291249,0,-1.2050000429153442,-0.8299997448921204,-0.7176858275671822,0.0,True,0.010034799575805664,-1.2050000429153442,-0.8299997448921204,-0.7177030444145203,0.0,0.0,0.0
1759839568.3015804,0,-1.2050000429153442,-0.8299997448921204,-0.717686926224463,0.0,True,0.010331392288208008,-1.2050000429153442,-0.8299997448921204,-0.7177030444145203,0.0,0.0,0.0
1759839568.3117342,0,-1.2050000429153442,-0.8299997448921204,-0.7176879231590192,0.0,True,0.010153770446777344,-1.2050000429153442,-0.8299997448921204,-0.7177030444145203,0.0,0.0,0.0
1759839568.3231692,0,-1.2050000429153442,-0.8299997448921204,-0.7176884000573871,0.0,True,0.01143503189086914,-1.2050000429153442,-0.8299997448921204,-0.7177030444145203,0.0,0.0,0.0
1759839568.3339515,0,-1.2050000429153442,-0.8299997448921204,-0.7176891001893395,0.0,True,0.010782241821289062,-1.2050000429153442,-0.8299997448921204,-0.7177030444145203,0.0,0.0,0.0
1759839568.3442376,0,-1.2050000429153442,-0.8299997448921204,-0.7176899095481275,0.0,True,0.010286092758178711,-1.2050000429153442,-0.8299997448921204,-0.7177030444145203,0.0,0.0,0.0
1759839568.3557422,0,-1.2050000429153442,-0.8299997448921204,-0.7176903086388009,0.0,True,0.011504650115966797,-1.2050000429153442,-0.8299997448921204,-0.7177030444145203,0.0,0.0,0.0
1759839568.3664086,0,-1.2050000429153442,-0.8299997448921204,-0.7176909452071811,0.0,True,0.010666370391845703,-1.2050000429153442,-0.8299997448921204,-0.7177030444145203,0.0,0.0,0.0
1759839568.3776116,0,-1.2050000429153442,-0.8299997448921204,-0.7176914146666036,0.0,True,0.01120305061340332,-1.2050000429153442,-0.8299997448921204,-0.7177030444145203,0.0,0.0,0.0
1759839568.3885627,0,-1.2050000429153442,-0.8299997448921204,-0.7176919346360506,0.0,True,0.010951042175292969,-1.2050000429153442,-0.8299997448921204,-0.7177030444145203,0.0,0.0,0.0
1759839568.3989017,0,-1.2050000429153442,-0.8299997448921204,-0.717692563329809,0.0,True,0.010339021682739258,-1.2050000429153442,-0.8299997448921204,-0.7177030444145203,0.0,0.0,0.0
1759839568.4100428,0,-1.2050000429153442,-0.8299997448921204,-0.7176929505501306,0.0,True,0.011141061782836914,-1.2050000429153442,-0.8299997448921204,-0.7177030444145203,0.0,0.0,0.0
1759839568.4210763,0,-1.2050000429153442,-0.8299997448921204,-0.7176933480730803,0.0,True,0.01103353500366211,-1.2050000429153442,-0.8299997448921204,-0.7177030444145203,0.0,0.0,0.0
1759839568.4391844,0,-1.2050000429153442,-0.8299997448921204,-0.7176924222308578,0.0,True,0.018108129501342773,-1.2050000429153442,-0.8299997448921204,-0.7177030444145203,0.0,0.0,0.0
1759839568.4471786,0,-1.2050000429153442,-0.8299997448921204,-0.7176937481255923,0.0,True,0.00799417495727539,-1.2050000429153442,-0.8299997448921204,-0.7177030444145203,0.0,0.0,0.0
1759839568.4576943,0,-1.2050000429153442,-0.8299997448921204,-0.7176944161957657,0.0,True,0.010515689849853516,-1.2050000429153442,-0.8299997448921204,-0.7177030444145203,0.0,0.0,0.0
1759839568.4690373,0,-1.2050000429153442,-0.8299997448921204,-0.7176947949972146,0.0,True,0.011343002319335938,-1.2050000429153442,-0.8299997448921204,-0.7177030444145203,0.0,0.0,0.0
1759839568.47924,0,-1.2050000429153442,-0.8299997448921204,-0.7176953158752646,0.0,True,0.010202646255493164,-1.2050000429153442,-0.8299997448921204,-0.7177030444145203,0.0,0.0,0.0
1759839568.4893024,0,-1.2050000429153442,-0.8299997448921204,-0.7176957817450891,0.0,True,0.010062456130981445,-1.2050000429153442,-0.8299997448921204,-0.7177030444145203,0.0,0.0,0.0
1759839568.5007806,0,-1.2050000429153442,-0.8299997448921204,-0.7176959628043029,0.0,True,0.011478185653686523,-1.2050000429153442,-0.8299997448921204,-0.7177030444145203,0.0,0.0,0.0
1759839568.5116272,0,-1.2050000429153442,-0.8299997448921204,-0.7176962422818498,0.0,True,0.010846614837646484,-1.2050000429153442,-0.8299997448921204,-0.7177030444145203,0.0,0.0,0.0
1759839568.5220363,0,-1.2050000429153442,-0.8299997448921204,-0.7176965723151625,0.0,True,0.010409116744995117,-1.2050000429153442,-0.8299997448921204,-0.7177030444145203,0.0,0.0,0.0
1759839568.532357,0,-1.2050000429153442,-0.8299997448921204,-0.7176968793723297,0.0,True,0.010320663452148438,-1.2050000429153442,-0.8299997448921204,-0.7177030444145203,0.0,0.0,0.0
1759839568.5437565,0,-1.2050000429153442,-0.8299997448921204,-0.7176970140889374,0.0,True,0.011399507522583008,-1.2050000429153442,-0.8299997448921204,-0.7177030444145203,0.0,0.0,0.0
1759839568.5542572,0,-1.2050000429153442,-0.8299997448921204,-0.7176972736987217,0.0,True,0.010500669479370117,-1.2050000429153442,-0.8299997448921204,-0.7177030444145203,0.0,0.0,0.0
1759839568.564756,0,-1.2050000429153442,-0.8299997448921204,-0.717697517712887,0.0,True,0.010498762130737305,-1.2050000429153442,-0.8299997448921204,-0.7177030444145203,0.0,0.0,0.0
1759839568.576189,0,-1.2050000429153442,-0.8299997448921204,-0.7176976342324419,0.0,True,0.011433124542236328,-1.2050000429153442,-0.8299997448921204,-0.7177030444145203,0.0,0.0,0.0
1759839568.5876968,0,-1.2050000429153442,-0.8299997448921204,-0.7176977590235971,0.0,True,0.011507749557495117,-1.2050000429153442,-0.8299997448921204,-0.7177030444145203,0.0,0.0,0.0
1759839568.5987597,0,-1.2050000429153442,-0.8299997448921204,-0.717697950865805,0.0,True,0.011062860488891602,-1.2050000429153442,-0.8299997448921204,-0.7177030444145203,0.0,0.0,0.0
1759839568.6097786,0,-1.2050000429153442,-0.8299997448921204,-0.7176981451319868,0.0,True,0.011018991470336914,-1.2050000429153442,-0.8299997448921204,-0.7177030444145203,0.0,0.0,0.0
1759839568.6198096,0,-1.2050000429153442,-0.8299997448921204,-0.7176984266030466,0.0,True,0.010030984878540039,-1.2050000429153442,-0.8299997448921204,-0.7177030444145203,0.0,0.0,0.0
1759839568.631332,0,-1.2050000429153442,-0.8299997448921204,-0.7176985285327735,0.0,True,0.011522293090820312,-1.2050000429153442,-0.8299997448921204,-0.7177030444145203,0.0,0.0,0.0
1759839568.6487968,0,-1.2050000429153442,-0.8299997448921204,-0.7176981126475397,0.0,True,0.017464876174926758,-1.2050000429153442,-0.8299997448921204,-0.7177030444145203,0.0,0.0,0.0
1759839568.6603231,0,-1.2050000429153442,-0.8299997448921204,-0.7176983940528814,0.0,True,0.011526346206665039,-1.2050000429153442,-0.8299997448921204,-0.7177030444145203,0.0,0.0,0.0
1759839568.6710851,0,-1.2050000429153442,-0.8299997448921204,-0.7176987388322225,0.0,True,0.01076197624206543,-1.2050000429153442,-0.8299997448921204,-0.7177030444145203,0.0,0.0,0.0
1759839568.6818779,0,-1.2050000429153442,-0.8299997448921204,-0.7176990204608344,0.0,True,0.010792732238769531,-1.2050000429153442,-0.8299997448921204,-0.7177030444145203,0.0,0.0,0.0
1759839568.6927662,0,-1.2050000429153442,-0.8299997448921204,-0.7176992441644643,0.0,True,0.010888338088989258,-1.2050000429153442,-0.8299997448921204,-0.7177030444145203,0.0,0.0,0.0
1759839568.703937,0,-1.2050000429153442,-0.8299997448921204,-0.717699412958952,0.0,True,0.01117086410522461,-1.2050000429153442,-0.8299997448921204,-0.7177030444145203,0.0,0.0,0.0
1759839568.7151334,0,-1.2050000429153442,-0.8299997448921204,-0.717699562017005,0.0,True,0.011196374893188477,-1.2050000429153442,-0.8299997448921204,-0.7177030444145203,0.0,0.0,0.0
1759839568.7258866,0,-1.2050000429153442,-0.8299997448921204,-0.7176997295348411,0.0,True,0.010753154754638672,-1.2050000429153442,-0.8299997448921204,-0.7177030444145203,0.0,0.0,0.0
1759839568.7360103,0,-1.2050000429153442,-0.8299997448921204,-0.7176999197912899,0.0,True,0.010123729705810547,-1.2050000429153442,-0.8299997448921204,-0.7177030444145203,0.0,0.0,0.0
1759839568.7467933,0,-1.2050000429153442,-0.8299997448921204,-0.7177000392136463,0.0,True,0.010782957077026367,-1.2050000429153442,-0.8299997448921204,-0.7177030444145203,0.0,0.0,0.0
1759839568.757175,0,-1.2050000429153442,-0.8299997448921204,-0.7177001713686622,0.0,True,0.010381698608398438,-1.2050000429153442,-0.8299997448921204,-0.7177030444145203,0.0,0.0,0.0
1759839568.7672577,0,-1.2050000429153442,-0.8299997448921204,-0.7177003077755781,0.0,True,0.010082721710205078,-1.2050000429153442,-0.8299997448921204,-0.7177030444145203,0.0,0.0,0.0
1759839568.7783003,0,-1.2050000429153442,-0.8299997448921204,-0.7177003715674388,0.0,True,0.011042594909667969,-1.2050000429153442,-0.8299997448921204,-0.7177030444145203,0.0,0.0,0.0
1759839568.7892795,0,-1.2050000429153442,-0.8299997448921204,-0.7177004413077501,0.0,True,0.010979175567626953,-1.2050000429153442,-0.8299997448921204,-0.7177030444145203,0.0,0.0,0.0
1759839568.8005192,0,-1.2050000429153442,-0.8299997448921204,-0.7177005014232769,0.0,True,0.011239767074584961,-1.2050000429153442,-0.8299997448921204,-0.7177030444145203,0.0,0.0,0.0
1759839568.8117838,0,-1.2050000429153442,-0.8299997448921204,-0.7177005668984755,0.0,True,0.011264562606811523,-1.2050000429153442,-0.8299997448921204,-0.7177030444145203,0.0,0.0,0.0
1759839568.8223987,0,-1.2050000429153442,-0.8299997448921204,-0.7177006700189281,0.0,True,0.010614871978759766,-1.2050000429153442,-0.8299997448921204,-0.7177030444145203,0.0,0.0,0.0
1759839568.8331304,0,-1.2050000429153442,-0.8299997448921204,-0.7177007603918497,0.0,True,0.010731697082519531,-1.2050000429153442,-0.8299997448921204,-0.7177030444145203,0.0,0.0,0.0
1759839568.8447342,0,-1.2050000429153442,-0.8299997448921204,-0.7177008035947257,0.0,True,0.011603832244873047,-1.2050000429153442,-0.8299997448921204,-0.7177030444145203,0.0,0.0,0.0
1759839568.8557162,0,-1.2050000429153442,-0.8299997448921204,-0.7177008822579243,0.0,True,0.010982036590576172,-1.2050000429153442,-0.8299997448921204,-0.7177030444145203,0.0,0.0,0.0
1759839568.8657649,0,-1.2050000429153442,-0.8299997448921204,-0.7177010004495887,0.0,True,0.010048627853393555,-1.2050000429153442,-0.8299997448921204,-0.7177030444145203,0.0,0.0,0.0
1759839568.8771486,0,-1.2050000429153442,-0.8299997448921204,-0.7177010467274858,0.0,True,0.011383771896362305,-1.2050000429153442,-0.8299997448921204,-0.7177030444145203,0.0,0.0,0.0
1759839568.8883479,0,-1.2050000429153442,-0.8299997448921204,-0.7177011026236748,0.0,True,0.011199235916137695,-1.2050000429153442,-0.8299997448921204,-0.7177030444145203,0.0,0.0,0.0
1759839568.8990357,0,-1.2050000429153442,-0.8299997448921204,-0.717701181338148,0.0,True,0.010687828063964844,-1.2050000429153442,-0.8299997448921204,-0.7177030444145203,0.0,0.0,0.0
1759839568.9092028,0,-1.2050000429153442,-0.8299997448921204,-0.7177012745329723,0.0,True,0.010167121887207031,-1.2050000429153442,-0.8299997448921204,-0.7177030444145203,0.0,0.0,0.0
1759839568.9204097,0,-1.2050000429153442,-0.8299997448921204,-0.7177013178062985,0.0,True,0.011206865310668945,-1.2050000429153442,-0.8299997448921204,-0.7177030444145203,0.0,0.0,0.0
1759839568.9315634,0,-1.2050000429153442,-0.8299997448921204,-0.717701364120952,0.0,True,0.011153697967529297,-1.2050000429153442,-0.8299997448921204,-0.7177030444145203,0.0,0.0,0.0
1759839568.9424763,0,-1.2050000429153442,-0.8299997448921204,-0.7177014213313306,0.0,True,0.010912895202636719,-1.2050000429153442,-0.8299997448921204,-0.7177030444145203,0.0,0.0,0.0
1759839568.9525332,0,-1.2050000429153442,-0.8299997448921204,-0.7177015055232232,0.0,True,0.01005697250366211,-1.2050000429153442,-0.8299997448921204,-0.7177030444145203,0.0,0.0,0.0
1759839568.963768,0,-1.2050000429153442,-0.8299997448921204,-0.717701541510781,0.0,True,0.011234760284423828,-1.2050000429153442,-0.8299997448921204,-0.7177030444145203,0.0,0.0,0.0
1759839568.974903,0,-1.2050000429153442,-0.8299997448921204,-0.7177015818628227,0.0,True,0.011135101318359375,-1.2050000429153442,-0.8299997448921204,-0.7177030444145203,0.0,0.0,0.0
1759839568.9856036,0,-1.2050000429153442,-0.8299997448921204,-0.7177016375035095,0.0,True,0.010700464248657227,-1.2050000429153442,-0.8299997448921204,-0.7177030444145203,0.0,0.0,0.0
1759839568.9965732,0,-1.2050000429153442,-0.8299997448921204,-0.7177016825891585,0.0,True,0.01096963882446289,-1.2050000429153442,-0.8299997448921204,-0.7177030444145203,0.0,0.0,0.0
1759839569.0066755,0,-1.2050000429153442,-0.8299997448921204,-0.7177017505731236,0.0,True,0.010102272033691406,-1.2050000429153442,-0.8299997448921204,-0.7177030444145203,0.0,0.0,0.0
1759839569.0174634,0,-1.2050000429153442,-0.8299997448921204,-0.7177017920809412,0.0,True,0.0107879638671875,-1.2050000429153442,-0.8299997448921204,-0.7177030444145203,0.0,0.0,0.0
1759839569.0280595,0,-1.2050000429153442,-0.8299997448921204,-0.7177018362725445,0.0,True,0.010596036911010742,-1.2050000429153442,-0.8299997448921204,-0.7177030444145203,0.0,0.0,0.0
1759839569.0393999,0,-1.2050000429153442,-0.8299997448921204,-0.7177018596947917,0.0,True,0.01134037971496582,-1.2050000429153442,-0.8299997448921204,-0.7177030444145203,0.0,0.0,0.0
1759839569.0567124,0,-1.2050000429153442,-0.8299997448921204,-0.717701745361822,0.0,True,0.01731252670288086,-1.2050000429153442,-0.8299997448921204,-0.7177030444145203,0.0,0.0,0.0
1759839569.0677006,0,-1.2050000429153442,-0.8299997448921204,-0.7177018253689411,0.0,True,0.010988235473632812,-1.2050000429153442,-0.8299997448921204,-0.7177030444145203,0.0,0.0,0.0
1759839569.0787516,0,-1.2050000429153442,-0.8299997448921204,-0.7177019022034123,0.0,True,0.011050939559936523,-1.2050000429153442,-0.8299997448921204,-0.7177030444145203,0.0,0.0,0.0
1759839569.0900247,0,-1.2050000429153442,-0.8299997448921204,-0.7177019619101372,0.0,True,0.01127314567565918,-1.2050000429153442,-0.8299997448921204,-0.7177030444145203,0.0,0.0,0.0
1759839569.1015298,0,-1.2050000429153442,-0.8299997448921204,-0.7177020086337933,0.0,True,0.011505126953125,-1.2050000429153442,-0.8299997448921204,-0.7177030444145203,0.0,0.0,0.0
1759839569.112852,0,-1.2050000429153442,-0.8299997448921204,-0.7177020546091004,0.0,True,0.011322259902954102,-1.2050000429153442,-0.8299997448921204,-0.7177030444145203,0.0,0.0,0.0
1759839569.1243143,0,-1.2050000429153442,-0.8299997448921204,-0.7177020938689935,0.0,True,0.011462211608886719,-1.2050000429153442,-0.8299997448921204,-0.7177030444145203,0.0,0.0,0.0
1759839569.1351388,0,-1.2050000429153442,-0.8299997448921204,-0.7177021420160195,0.0,True,0.010824441909790039,-1.2050000429153442,-0.8299997448921204,-0.7177030444145203,0.0,0.0,0.0
1759839569.146235,0,-1.2050000429153442,-0.8299997448921204,-0.7177021797730578,0.0,True,0.01109623908996582,-1.2050000429153442,-0.8299997448921204,-0.7177030444145203,0.0,0.0,0.0
1759839569.1567342,0,-1.2050000429153442,-0.8299997448921204,-0.7177022239494395,0.0,True,0.010499238967895508,-1.2050000429153442,-0.8299997448921204,-0.7177030444145203,0.0,0.0,0.0
1759839569.1672626,0,-1.2050000429153442,-0.8299997448921204,-0.7177022620058509,0.0,True,0.010528326034545898,-1.2050000429153442,-0.8299997448921204,-0.7177030444145203,0.0,0.0,0.0
1759839569.1796653,0,-1.2050000429153442,-0.8299997448921204,-0.7177022656324272,0.0,True,0.012402772903442383,-1.2050000429153442,-0.8299997448921204,-0.7177030444145203,0.0,0.0,0.0
1759839569.1900144,0,-1.2050000429153442,-0.8299997448921204,-0.7177023061600742,0.0,True,0.010349035263061523,-1.2050000429153442,-0.8299997448921204,-0.7177030444145203,0.0,0.0,0.0
1759839569.2007678,0,-1.2050000429153442,-0.8299997448921204,-0.7177023370567444,0.0,True,0.010753393173217773,-1.2050000429153442,-0.8299997448921204,-0.7177030444145203,0.0,0.0,0.0
1759839569.2118726,0,-1.2050000429153442,-0.8299997448921204,-0.7177023595951049,0.0,True,0.011104822158813477,-1.2050000429153442,-0.8299997448921204,-0.7177030444145203,0.0,0.0,0.0
1759839569.2221558,0,-1.2050000429153442,-0.8299997448921204,-0.7177023927548589,0.0,True,0.010283231735229492,-1.2050000429153442,-0.8299997448921204,-0.7177030444145203,0.0,0.0,0.0
1759839569.2337155,0,-1.2050000429153442,-0.8299997448921204,-0.7177024051613294,0.0,True,0.011559724807739258,-1.2050000429153442,-0.8299997448921204,-0.7177030444145203,0.0,0.0,0.0
1759839569.244399,0,-1.2050000429153442,-0.8299997448921204,-0.7177024303951303,0.0,True,0.010683536529541016,-1.2050000429153442,-0.8299997448921204,-0.7177030444145203,0.0,0.0,0.0
1759839569.2607708,0,-1.2050000429153442,-0.8299997448921204,-0.7177023846790256,0.0,True,0.016371726989746094,-1.2050000429153442,-0.8299997448921204,-0.7177030444145203,0.0,0.0,0.0
1759839569.2717147,0,-1.2050000429153442,-0.8299997448921204,-0.7177024234745932,0.0,True,0.010943889617919922,-1.2050000429153442,-0.8299997448921204,-0.7177030444145203,0.0,0.0,0.0
1759839569.281849,0,-1.2050000429153442,-0.8299997448921204,-0.717702470221889,0.0,True,0.010134220123291016,-1.2050000429153442,-0.8299997448921204,-0.7177030444145203,0.0,0.0,0.0
1759839569.2934866,0,-1.2050000429153442,-0.8299997448921204,-0.7177024917217505,0.0,True,0.011637687683105469,-1.2050000429153442,-0.8299997448921204,-0.7177030444145203,0.0,0.0,0.0
1759839569.3047943,0,-1.2050000429153442,-0.8299997448921204,-0.7177025144469802,0.0,True,0.011307716369628906,-1.2050000429153442,-0.8299997448921204,-0.7177030444145203,0.0,0.0,0.0
1759839569.3166974,0,-1.2050000429153442,-0.8299997448921204,-0.7177025295793502,0.0,True,0.011903047561645508,-1.2050000429153442,-0.8299997448921204,-0.7177030444145203,0.0,0.0,0.0
1759839569.3277373,0,-1.2050000429153442,-0.8299997448921204,-0.7177025535828374,0.0,True,0.011039972305297852,-1.2050000429153442,-0.8299997448921204,-0.7177030444145203,0.0,0.0,0.0
1759839569.340791,0,-1.2050000429153442,-0.8299997448921204,-0.7177025566390274,0.0,True,0.013053655624389648,-1.2050000429153442,-0.8299997448921204,-0.7177030444145203,0.0,0.0,0.0
1759839569.3509068,0,-1.2050000429153442,-0.8299997448921204,-0.7177025899701839,0.0,True,0.010115861892700195,-1.2050000429153442,-0.8299997448921204,-0.7177030444145203,0.0,0.0,0.0
1759839569.36153,0,-1.2050000429153442,-0.8299997448921204,-0.7177026143304843,0.0,True,0.01062321662902832,-1.2050000429153442,-0.8299997448921204,-0.7177030444145203,0.0,0.0,0.0
1759839569.3726256,0,-1.2050000429153442,-0.8299997448921204,-0.7177026307036272,0.0,True,0.011095523834228516,-1.2050000429153442,-0.8299997448921204,-0.7177030444145203,0.0,0.0,0.0
1759839569.382704,0,-1.2050000429153442,-0.8299997448921204,-0.7177026539647713,0.0,True,0.01007843017578125,-1.2050000429153442,-0.8299997448921204,-0.7177030444145203,0.0,0.0,0.0
1759839569.3929868,0,-1.2050000429153442,-0.8299997448921204,-0.7177026722647,0.0,True,0.010282754898071289,-1.2050000429153442,-0.8299997448921204,-0.7177030444145203,0.0,0.0,0.0
1759839569.4038167,0,-1.2050000429153442,-0.8299997448921204,-0.7177026837489429,0.0,True,0.010829925537109375,-1.2050000429153442,-0.8299997448921204,-0.7177030444145203,0.0,0.0,0.0
1759839569.4149094,0,-1.2050000429153442,-0.8299997448921204,-0.7177026927388859,0.0,True,0.011092662811279297,-1.2050000429153442,-0.8299997448921204,-0.7177030444145203,0.0,0.0,0.0
1759839569.4260378,0,-1.2050000429153442,-0.8299997448921204,-0.7177027019656492,0.0,True,0.011128425598144531,-1.2050000429153442,-0.8299997448921204,-0.7177030444145203,0.0,0.0,0.0
1759839569.4368625,0,-1.2050000429153442,-0.8299997448921204,-0.7177027138198113,0.0,True,0.01082468032836914,-1.2050000429153442,-0.8299997448921204,-0.7177030444145203,0.0,0.0,0.0
1759839569.4471552,0,-1.2050000429153442,-0.8299997448921204,-0.717702728891652,0.0,True,0.010292768478393555,-1.2050000429153442,-0.8299997448921204,-0.7177030444145203,0.0,0.0,0.0
1759839569.4611957,0,-1.2050000429153442,-0.8299997448921204,-0.7177027180808988,0.0,True,0.014040470123291016,-1.2050000429153442,-0.8299997448921204,-0.7177030444145203,0.0,0.0,0.0
1759839569.4713666,0,-1.2050000429153442,-0.8299997448921204,-0.7177027374561149,0.0,True,0.010170936584472656,-1.2050000429153442,-0.8299997448921204,-0.7177030444145203,0.0,0.0,0.0
1759839569.4824388,0,-1.2050000429153442,-0.8299997448921204,-0.7177027498955262,0.0,True,0.011072158813476562,-1.2050000429153442,-0.8299997448921204,-0.7177030444145203,0.0,0.0,0.0
1759839569.493702,0,-1.2050000429153442,-0.8299997448921204,-0.7177027599110168,0.0,True,0.011263132095336914,-1.2050000429153442,-0.8299997448921204,-0.7177030444145203,0.0,0.0,0.0
1759839569.5051074,0,-1.2050000429153442,-0.8299997448921204,-0.7177027687702378,0.0,True,0.011405467987060547,-1.2050000429153442,-0.8299997448921204,-0.7177030444145203,0.0,0.0,0.0
1759839569.5158467,0,-1.2050000429153442,-0.8299997448921204,-0.7177027812423624,0.0,True,0.010739326477050781,-1.2050000429153442,-0.8299997448921204,-0.7177030444145203,0.0,0.0,0.0
1759839569.526423,0,-1.2050000429153442,-0.8299997448921204,-0.71770279343027,0.0,True,0.010576248168945312,-1.2050000429153442,-0.8299997448921204,-0.7177030444145203,0.0,0.0,0.0
1759839569.536887,0,-1.2050000429153442,-0.8299997448921204,-0.7177028047564917,0.0,True,0.010463953018188477,-1.2050000429153442,-0.8299997448921204,-0.7177030444145203,0.0,0.0,0.0
1759839569.548114,0,-1.2050000429153442,-0.8299997448921204,-0.7177028110100778,0.0,True,0.011227130889892578,-1.2050000429153442,-0.8299997448921204,-0.7177030444145203,0.0,0.0,0.0
1759839569.5592499,0,-1.2050000429153442,-0.8299997448921204,-0.7177028177979654,0.0,True,0.01113581657409668,-1.2050000429153442,-0.8299997448921204,-0.7177030444145203,0.0,0.0,0.0
1759839569.5695963,0,-1.2050000429153442,-0.8299997448921204,-0.717702828361988,0.0,True,0.010346412658691406,-1.2050000429153442,-0.8299997448921204,-0.7177030444145203,0.0,0.0,0.0
1759839569.579668,0,-1.2050000429153442,-0.8299997448921204,-0.7177028390685081,0.0,True,0.010071754455566406,-1.2050000429153442,-0.8299997448921204,-0.7177030444145203,0.0,0.0,0.0
1759839569.5903058,0,-1.2050000429153442,-0.8299997448921204,-0.7177028458633288,0.0,True,0.010637760162353516,-1.2050000429153442,-0.8299997448921204,-0.7177030444145203,0.0,0.0,0.0
1759839569.6003168,0,-1.2050000429153442,-0.8299997448921204,-0.7177028547952933,0.0,True,0.010010957717895508,-1.2050000429153442,-0.8299997448921204,-0.7177030444145203,0.0,0.0,0.0
1759839569.6103482,0,-1.2050000429153442,-0.8299997448921204,-0.7177028626688493,0.0,True,0.010031461715698242,-1.2050000429153442,-0.8299997448921204,-0.7177030444145203,0.0,0.0,0.0
1759839569.6215293,0,-1.2050000429153442,-0.8299997448921204,-0.7177028651362729,0.0,True,0.011181116104125977,-1.2050000429153442,-0.8299997448921204,-0.7177030444145203,0.0,0.0,0.0
1759839569.6318693,0,-1.2050000429153442,-0.8299997448921204,-0.7177028714646241,0.0,True,0.010339975357055664,-1.2050000429153442,-0.8299997448921204,-0.7177030444145203,0.0,0.0,0.0
1759839569.6423116,0,-1.2050000429153442,-0.8299997448921204,-0.7177028772487848,0.0,True,0.010442256927490234,-1.2050000429153442,-0.8299997448921204,-0.7177030444145203,0.0,0.0,0.0
1759839569.6536055,0,-1.2050000429153442,-0.8299997448921204,-0.7177028797304921,0.0,True,0.011293888092041016,-1.2050000429153442,-0.8299997448921204,-0.7177030444145203,0.0,0.0,0.0
1759839569.6716335,0,-1.2050000429153442,-0.8299997448921204,-0.7177028604072717,0.0,True,0.01802802085876465,-1.2050000429153442,-0.8299997448921204,-0.7177030444145203,0.0,0.0,0.0
1759839569.6817396,0,-1.2050000429153442,-0.8299997448921204,-0.7177028745973377,0.0,True,0.010106086730957031,-1.2050000429153442,-0.8299997448921204,-0.7177030444145203,0.0,0.0,0.0
1759839569.6925805,0,-1.2050000429153442,-0.8299997448921204,-0.7177028855206693,0.0,True,0.010840892791748047,-1.2050000429153442,-0.8299997448921204,-0.7177030444145203,0.0,0.0,0.0
1759839569.7037654,0,-1.2050000429153442,-0.8299997448921204,-0.7177028934195206,0.0,True,0.011184930801391602,-1.2050000429153442,-0.8299997448921204,-0.7177030444145203,0.0,0.0,0.0
1759839569.7151132,0,-1.2050000429153442,-0.8299997448921204,-0.7177028997726769,0.0,True,0.011347770690917969,-1.2050000429153442,-0.8299997448921204,-0.7177030444145203,0.0,0.0,0.0
1759839569.7262115,0,-1.2050000429153442,-0.8299997448921204,-0.7177029062512599,0.0,True,0.011098384857177734,-1.2050000429153442,-0.8299997448921204,-0.7177030444145203,0.0,0.0,0.0
1759839569.7369182,0,-1.2050000429153442,-0.8299997448921204,-0.7177029131593784,0.0,True,0.010706663131713867,-1.2050000429153442,-0.8299997448921204,-0.7177030444145203,0.0,0.0,0.0
1759839569.7473795,0,-1.2050000429153442,-0.8299997448921204,-0.7177029198458023,0.0,True,0.01046133041381836,-1.2050000429153442,-0.8299997448921204,-0.7177030444145203,0.0,0.0,0.0
1759839569.7588952,0,-1.2050000429153442,-0.8299997448921204,-0.7177029229779244,0.0,True,0.011515617370605469,-1.2050000429153442,-0.8299997448921204,-0.7177030444145203,0.0,0.0,0.0
1759839569.76904,0,-1.2050000429153442,-0.8299997448921204,-0.7177029294967703,0.0,True,0.010144948959350586,-1.2050000429153442,-0.8299997448921204,-0.7177030444145203,0.0,0.0,0.0
1759839569.7809143,0,-1.2050000429153442,-0.8299997448921204,-0.7177029311886187,0.0,True,0.011874198913574219,-1.2050000429153442,-0.8299997448921204,-0.7177030444145203,0.0,0.0,0.0
1759839569.7911417,0,-1.2050000429153442,-0.8299997448921204,-0.7177029369945327,0.0,True,0.010227441787719727,-1.2050000429153442,-0.8299997448921204,-0.7177030444145203,0.0,0.0,0.0
1759839569.802705,0,-1.2050000429153442,-0.8299997448921204,-0.7177029393021321,0.0,True,0.011563301086425781,-1.2050000429153442,-0.8299997448921204,-0.7177030444145203,0.0,0.0,0.0
1759839569.816345,0,-1.2050000429153442,-0.8299997448921204,-0.7177029374728754,0.0,True,0.01363992691040039,-1.2050000429153442,-0.8299997448921204,-0.7177030444145203,0.0,0.0,0.0
1759839569.8284752,0,-1.2050000429153442,-0.8299997448921204,-0.7177029403835462,0.0,True,0.012130260467529297,-1.2050000429153442,-0.8299997448921204,-0.7177030444145203,0.0,0.0,0.0
1759839569.8401556,0,-1.2050000429153442,-0.8299997448921204,-0.7177029446907106,0.0,True,0.011680364608764648,-1.2050000429153442,-0.8299997448921204,-0.7177030444145203,0.0,0.0,0.0
1759839569.8537095,0,-1.2050000429153442,-0.8299997448921204,-0.7177029453878081,0.0,True,0.013553857803344727,-1.2050000429153442,-0.8299997448921204,-0.7177030444145203,0.0,0.0,0.0
1759839569.8757627,0,-1.2050000429153442,-0.8299997448921204,-0.7177029326696225,0.0,True,0.022053241729736328,-1.2050000429153442,-0.8299997448921204,-0.7177030444145203,0.0,0.0,0.0
1759839569.8874018,0,-1.2050000429153442,-0.8299997448921204,-0.7177029427647579,0.0,True,0.011639118194580078,-1.2050000429153442,-0.8299997448921204,-0.7177030444145203,0.0,0.0,0.0
1759839569.901005,0,-1.2050000429153442,-0.8299997448921204,-0.7177029489832378,0.0,True,0.01360321044921875,-1.2050000429153442,-0.8299997448921204,-0.7177030444145203,0.0,0.0,0.0
1759839569.9149814,0,-1.2050000429153442,-0.8299997448921204,-0.7177029537398987,0.0,True,0.013976335525512695,-1.2050000429153442,-0.8299997448921204,-0.7177030444145203,0.0,0.0,0.0
1759839569.929574,0,-1.2050000429153442,-0.8299997448921204,-0.7177029573084113,0.0,True,0.014592647552490234,-1.2050000429153442,-0.8299997448921204,-0.7177030444145203,0.0,0.0,0.0
1759839569.9406147,0,-1.2050000429153442,-0.8299997448921204,-0.7177029655682041,0.0,True,0.011040687561035156,-1.2050000429153442,-0.8299997448921204,-0.7177030444145203,0.0,0.0,0.0
1759839569.9515839,0,-1.2050000429153442,-0.8299997448921204,-0.7177029723519048,0.0,True,0.010969161987304688,-1.2050000429153442,-0.8299997448921204,-0.7177030444145203,0.0,0.0,0.0
1759839569.9649577,0,-1.2050000429153442,-0.8299997448921204,-0.7177029746847641,0.0,True,0.013373851776123047,-1.2050000429153442,-0.8299997448921204,-0.7177030444145203,0.0,0.0,0.0
1759839569.9765773,0,-1.2050000429153442,-0.8299997448921204,-0.7177029789577336,0.0,True,0.01161956787109375,-1.2050000429153442,-0.8299997448921204,-0.7177030444145203,0.0,0.0,0.0
1759839569.987804,0,-1.2050000429153442,-0.8299997448921204,-0.7177029831280635,0.0,True,0.011226654052734375,-1.2050000429153442,-0.8299997448921204,-0.7177030444145203,0.0,0.0,0.0
1759839569.9995058,0,-1.2050000429153442,-0.8299997448921204,-0.7177029860779971,0.0,True,0.011701822280883789,-1.2050000429153442,-0.8299997448921204,-0.7177030444145203,0.0,0.0,0.0
1759839570.0101867,0,-1.2050000429153442,-0.8299997448921204,-0.7177029897265559,0.0,True,0.010680913925170898,-1.2050000429153442,-0.8299997448921204,-0.7177030444145203,0.0,0.0,0.0
1759839570.0218904,0,-1.2050000429153442,-0.8299997448921204,-0.7177029917369993,0.0,True,0.011703729629516602,-1.2050000429153442,-0.8299997448921204,-0.7177030444145203,0.0,0.0,0.0
1759839570.0324175,0,-1.2050000429153442,-0.8299997448921204,-0.7177029947366638,0.0,True,0.01052713394165039,-1.2050000429153442,-0.8299997448921204,-0.7177030444145203,0.0,0.0,0.0
1759839570.0434303,0,-1.2050000429153442,-0.8299997448921204,-0.7177029968451372,0.0,True,0.011012792587280273,-1.2050000429153442,-0.8299997448921204,-0.7177030444145203,0.0,0.0,0.0
1759839570.0538764,0,-1.2050000429153442,-0.8299997448921204,-0.7177029992295161,0.0,True,0.01044607162475586,-1.2050000429153442,-0.8299997448921204,-0.7177030444145203,0.0,0.0,0.0
1759839570.0646896,0,-1.2050000429153442,-0.8299997448921204,-0.7177030009618441,0.0,True,0.010813236236572266,-1.2050000429153442,-0.8299997448921204,-0.7177030444145203,0.0,0.0,0.0
1759839570.0805752,0,-1.2050000429153442,-0.8299997448921204,-0.7177029981135234,0.0,True,0.015885591506958008,-1.2050000429153442,-0.8299997448921204,-0.7177030444145203,0.0,0.0,0.0
1759839570.0911002,0,-1.2050000429153442,-0.8299997448921204,-0.7177030010278571,0.0,True,0.010524988174438477,-1.2050000429153442,-0.8299997448921204,-0.7177030444145203,0.0,0.0,0.0
1759839570.101706,0,-1.2050000429153442,-0.8299997448921204,-0.7177030036962098,0.0,True,0.010605812072753906,-1.2050000429153442,-0.8299997448921204,-0.7177030444145203,0.0,0.0,0.0
1759839570.1123059,0,-1.2050000429153442,-0.8299997448921204,-0.7177030059064222,0.0,True,0.010599851608276367,-1.2050000429153442,-0.8299997448921204,-0.7177030444145203,0.0,0.0,0.0
1759839570.123404,0,-1.2050000429153442,-0.8299997448921204,-0.7177030073836743,0.0,True,0.011098146438598633,-1.2050000429153442,-0.8299997448921204,-0.7177030444145203,0.0,0.0,0.0
1759839570.1345973,0,-1.2050000429153442,-0.8299997448921204,-0.7177030086474794,0.0,True,0.011193275451660156,-1.2050000429153442,-0.8299997448921204,-0.7177030444145203,0.0,0.0,0.0
1759839570.1455743,0,-1.2050000429153442,-0.8299997448921204,-0.7177030100066855,0.0,True,0.010977029800415039,-1.2050000429153442,-0.8299997448921204,-0.7177030444145203,0.0,0.0,0.0
1759839570.1555758,0,-1.2050000429153442,-0.8299997448921204,-0.717703011945936,0.0,True,0.010001420974731445,-1.2050000429153442,-0.8299997448921204,-0.7177030444145203,0.0,0.0,0.0
1759839570.1663094,0,-1.2050000429153442,-0.8299997448921204,-0.7177030131116702,0.0,True,0.010733604431152344,-1.2050000429153442,-0.8299997448921204,-0.7177030444145203,0.0,0.0,0.0
1759839570.1771963,0,-1.2050000429153442,-0.8299997448921204,-0.7177030140616019,0.0,True,0.010886907577514648,-1.2050000429153442,-0.8299997448921204,-0.7177030444145203,0.0,0.0,0.0
1759839570.1875546,0,-1.2050000429153442,-0.8299997448921204,-0.7177030153183281,0.0,True,0.010358333587646484,-1.2050000429153442,-0.8299997448921204,-0.7177030444145203,0.0,0.0,0.0
1759839570.1987376,0,-1.2050000429153442,-0.8299997448921204,-0.7177030159635365,0.0,True,0.011183023452758789,-1.2050000429153442,-0.8299997448921204,-0.7177030444145203,0.0,0.0,0.0
1759839570.208954,0,-1.2050000429153442,-0.8299997448921204,-0.7177030172134149,0.0,True,0.010216474533081055,-1.2050000429153442,-0.8299997448921204,-0.7177030444145203,0.0,0.0,0.0
1759839570.2190201,0,-1.2050000429153442,-0.8299997448921204,-0.7177030184367208,0.0,True,0.010066032409667969,-1.2050000429153442,-0.8299997448921204,-0.7177030444145203,0.0,0.0,0.0
1759839570.2299552,0,-1.2050000429153442,-0.8299997448921204,-0.7177030190261693,0.0,True,0.010935068130493164,-1.2050000429153442,-0.8299997448921204,-0.7177030444145203,0.0,0.0,0.0
1759839570.2403622,0,-1.2050000429153442,-0.8299997448921204,-0.7177030199168364,0.0,True,0.010406970977783203,-1.2050000429153442,-0.8299997448921204,-0.7177030444145203,0.0,0.0,0.0
1759839570.250815,0,-1.2050000429153442,-0.8299997448921204,-0.7177030207450699,0.0,True,0.010452747344970703,-1.2050000429153442,-0.8299997448921204,-0.7177030444145203,0.0,0.0,0.0
1759839570.2619443,0,-1.2050000429153442,-0.8299997448921204,-0.7177030211882229,0.0,True,0.011129379272460938,-1.2050000429153442,-0.8299997448921204,-0.7177030444145203,0.0,0.0,0.0
1759839570.2724102,0,-1.2050000429153442,-0.8299997448921204,-0.7177030220175453,0.0,True,0.010465860366821289,-1.2050000429153442,-0.8299997448921204,-0.7177030444145203,0.0,0.0,0.0
1759839570.2827568,0,-1.2050000429153442,-0.8299997448921204,-0.7177030228722696,0.0,True,0.010346651077270508,-1.2050000429153442,-0.8299997448921204,-0.7177030444145203,0.0,0.0,0.0
1759839570.2932582,0,-1.2050000429153442,-0.8299997448921204,-0.7177030235879087,0.0,True,0.010501384735107422,-1.2050000429153442,-0.8299997448921204,-0.7177030444145203,0.0,0.0,0.0
1759839570.304682,0,-1.2050000429153442,-0.8299997448921204,-0.7177030238594391,0.0,True,0.011423826217651367,-1.2050000429153442,-0.8299997448921204,-0.7177030444145203,0.0,0.0,0.0
1759839570.3148928,0,-1.2050000429153442,-0.8299997448921204,-0.7177030247428338,0.0,True,0.010210752487182617,-1.2050000429153442,-0.8299997448921204,-0.7177030444145203,0.0,0.0,0.0
1759839570.3264654,0,-1.2050000429153442,-0.8299997448921204,-0.7177030250050596,0.0,True,0.011572599411010742,-1.2050000429153442,-0.8299997448921204,-0.7177030444145203,0.0,0.0,0.0
1759839570.3364675,0,-1.2050000429153442,-0.8299997448921204,-0.717703025972872,0.0,True,0.01000213623046875,-1.2050000429153442,-0.8299997448921204,-0.7177030444145203,0.0,0.0,0.0
1759839570.3477638,0,-1.2050000429153442,-0.8299997448921204,-0.7177030263472268,0.0,True,0.011296272277832031,-1.2050000429153442,-0.8299997448921204,-0.7177030444145203,0.0,0.0,0.0
1759839570.3592548,0,-1.2050000429153442,-0.8299997448921204,-0.7177030266819919,0.0,True,0.011491060256958008,-1.2050000429153442,-0.8299997448921204,-0.7177030444145203,0.0,0.0,0.0
1759839570.3697944,0,-1.2050000429153442,-0.8299997448921204,-0.717703027433302,0.0,True,0.010539531707763672,-1.2050000429153442,-0.8299997448921204,-0.7177030444145203,0.0,0.0,0.0
1759839570.3798442,0,-1.2050000429153442,-0.8299997448921204,-0.7177030283047614,0.0,True,0.010049819946289062,-1.2050000429153442,-0.8299997448921204,-0.7177030444145203,0.0,0.0,0.0
1759839570.3898494,0,-1.2050000429153442,-0.8299997448921204,-0.7177030290724709,0.0,True,0.01000523567199707,-1.2050000429153442,-0.8299997448921204,-0.7177030444145203,0.0,0.0,0.0
1759839570.4005723,0,-1.2050000429153442,-0.8299997448921204,-0.7177030294987023,0.0,True,0.010722875595092773,-1.2050000429153442,-0.8299997448921204,-0.7177030444145203,0.0,0.0,0.0
1759839570.4120114,0,-1.2050000429153442,-0.8299997448921204,-0.7177030296894316,0.0,True,0.011439085006713867,-1.2050000429153442,-0.8299997448921204,-0.7177030444145203,0.0,0.0,0.0
1759839570.42233,0,-1.2050000429153442,-0.8299997448921204,-0.7177030302975211,0.0,True,0.010318517684936523,-1.2050000429153442,-0.8299997448921204,-0.7177030444145203,0.0,0.0,0.0
1759839570.4333434,0,-1.2050000429153442,-0.8299997448921204,-0.7177030306663976,0.0,True,0.011013507843017578,-1.2050000429153442,-0.8299997448921204,-0.7177030444145203,0.0,0.0,0.0
1759839570.443863,0,-1.2050000429153442,-0.8299997448921204,-0.7177030311827259,0.0,True,0.01051950454711914,-1.2050000429153442,-0.8299997448921204,-0.7177030444145203,0.0,0.0,0.0
1759839570.454926,0,-1.2050000429153442,-0.8299997448921204,-0.7177030315225039,0.0,True,0.011063098907470703,-1.2050000429153442,-0.8299997448921204,-0.7177030444145203,0.0,0.0,0.0
1759839570.465996,0,-1.2050000429153442,-0.8299997448921204,-0.7177030318730573,0.0,True,0.011070013046264648,-1.2050000429153442,-0.8299997448921204,-0.7177030444145203,0.0,0.0,0.0
1759839570.4768584,0,-1.2050000429153442,-0.8299997448921204,-0.7177030322934996,0.0,True,0.010862350463867188,-1.2050000429153442,-0.8299997448921204,-0.7177030444145203,0.0,0.0,0.0
1759839570.4887338,0,-1.2050000429153442,-0.8299997448921204,-0.7177030324569955,0.0,True,0.011875391006469727,-1.2050000429153442,-0.8299997448921204,-0.7177030444145203,0.0,0.0,0.0
1759839570.4988005,0,-1.2050000429153442,-0.8299997448921204,-0.7177030331142493,0.0,True,0.010066747665405273,-1.2050000429153442,-0.8299997448921204,-0.7177030444145203,0.0,0.0,0.0
1759839570.5103421,0,-1.2050000429153442,-0.8299997448921204,-0.7177030333592391,0.0,True,0.011541604995727539,-1.2050000429153442,-0.8299997448921204,-0.7177030444145203,0.0,0.0,0.0
1759839570.5207858,0,-1.2050000429153442,-0.8299997448921204,-0.717703033864046,0.0,True,0.010443687438964844,-1.2050000429153442,-0.8299997448921204,-0.7177030444145203,0.0,0.0,0.0
1759839570.5309653,0,-1.2050000429153442,-0.8299997448921204,-0.7177030343829074,0.0,True,0.010179519653320312,-1.2050000429153442,-0.8299997448921204,-0.7177030444145203,0.0,0.0,0.0
1759839570.542468,0,-1.2050000429153442,-0.8299997448921204,-0.7177030345585571,0.0,True,0.011502742767333984,-1.2050000429153442,-0.8299997448921204,-0.7177030444145203,0.0,0.0,0.0
1759839570.5526533,0,-1.2050000429153442,-0.8299997448921204,-0.7177030350263323,0.0,True,0.01018524169921875,-1.2050000429153442,-0.8299997448921204,-0.7177030444145203,0.0,0.0,0.0
1759839570.5635464,0,-1.2050000429153442,-0.8299997448921204,-0.7177030353138925,0.0,True,0.010893106460571289,-1.2050000429153442,-0.8299997448921204,-0.7177030444145203,0.0,0.0,0.0
1759839570.5743349,0,-1.2050000429153442,-0.8299997448921204,-0.7177030356105334,0.0,True,0.010788440704345703,-1.2050000429153442,-0.8299997448921204,-0.7177030444145203,0.0,0.0,0.0
1759839570.585692,0,-1.2050000429153442,-0.8299997448921204,-0.7177030357980492,0.0,True,0.01135706901550293,-1.2050000429153442,-0.8299997448921204,-0.7177030444145203,0.0,0.0,0.0
1759839570.5966084,0,-1.2050000429153442,-0.8299997448921204,-0.7177030360865508,0.0,True,0.010916471481323242,-1.2050000429153442,-0.8299997448921204,-0.7177030444145203,0.0,0.0,0.0
1759839570.60685,0,-1.2050000429153442,-0.8299997448921204,-0.717703036487146,0.0,True,0.010241508483886719,-1.2050000429153442,-0.8299997448921204,-0.7177030444145203,0.0,0.0,0.0
1759839570.6183705,0,-1.2050000429153442,-0.8299997448921204,-0.7177030366341732,0.0,True,0.011520624160766602,-1.2050000429153442,-0.8299997448921204,-0.7177030444145203,0.0,0.0,0.0
1759839570.629131,0,-1.2050000429153442,-0.8299997448921204,-0.7177030369219253,0.0,True,0.01076054573059082,-1.2050000429153442,-0.8299997448921204,-0.7177030444145203,0.0,0.0,0.0
1759839570.6402266,0,-1.2050000429153442,-0.8299997448921204,-0.7177030371502173,0.0,True,0.011095523834228516,-1.2050000429153442,-0.8299997448921204,-0.7177030444145203,0.0,0.0,0.0
1759839570.6504595,0,-1.2050000429153442,-0.8299997448921204,-0.7177030375037674,0.0,True,0.010232925415039062,-1.2050000429153442,-0.8299997448921204,-0.7177030444145203,0.0,0.0,0.0
1759839570.661896,0,-1.2050000429153442,-0.8299997448921204,-0.7177030376474729,0.0,True,0.01143646240234375,-1.2050000429153442,-0.8299997448921204,-0.7177030444145203,0.0,0.0,0.0
1759839570.6729207,0,-1.2050000429153442,-0.8299997448921204,-0.7177030378611402,0.0,True,0.011024713516235352,-1.2050000429153442,-0.8299997448921204,-0.7177030444145203,0.0,0.0,0.0
1759839570.6837804,0,-1.2050000429153442,-0.8299997448921204,-0.7177030380995753,0.0,True,0.01085972785949707,-1.2050000429153442,-0.8299997448921204,-0.7177030444145203,0.0,0.0,0.0
1759839570.6941411,0,-1.2050000429153442,-0.8299997448921204,-0.7177030383910825,0.0,True,0.0103607177734375,-1.2050000429153442,-0.8299997448921204,-0.7177030444145203,0.0,0.0,0.0
1759839570.7049751,0,-1.2050000429153442,-0.8299997448921204,-0.7177030385927647,0.0,True,0.010833978652954102,-1.2050000429153442,-0.8299997448921204,-0.7177030444145203,0.0,0.0,0.0
1759839570.715825,0,-1.2050000429153442,-0.8299997448921204,-0.7177030387815293,0.0,True,0.010849952697753906,-1.2050000429153442,-0.8299997448921204,-0.7177030444145203,0.0,0.0,0.0
1759839570.7272644,0,-1.2050000429153442,-0.8299997448921204,-0.717703038898053,0.0,True,0.011439323425292969,-1.2050000429153442,-0.8299997448921204,-0.7177030444145203,0.0,0.0,0.0
1759839570.737471,0,-1.2050000429153442,-0.8299997448921204,-0.7177030391685157,0.0,True,0.01020669937133789,-1.2050000429153442,-0.8299997448921204,-0.7177030444145203,0.0,0.0,0.0
1759839570.7476404,0,-1.2050000429153442,-0.8299997448921204,-0.717703039415996,0.0,True,0.010169267654418945,-1.2050000429153442,-0.8299997448921204,-0.7177030444145203,0.0,0.0,0.0
1759839570.7588534,0,-1.2050000429153442,-0.8299997448921204,-0.7177030395219433,0.0,True,0.011213064193725586,-1.2050000429153442,-0.8299997448921204,-0.7177030444145203,0.0,0.0,0.0
1759839570.7696924,0,-1.2050000429153442,-0.8299997448921204,-0.7177030396738573,0.0,True,0.010838985443115234,-1.2050000429153442,-0.8299997448921204,-0.7177030444145203,0.0,0.0,0.0
1759839570.7810967,0,-1.2050000429153442,-0.8299997448921204,-0.7177030397724806,0.0,True,0.011404275894165039,-1.2050000429153442,-0.8299997448921204,-0.7177030444145203,0.0,0.0,0.0
1759839570.7916634,0,-1.2050000429153442,-0.8299997448921204,-0.7177030399639399,0.0,True,0.01056671142578125,-1.2050000429153442,-0.8299997448921204,-0.7177030444145203,0.0,0.0,0.0
1759839570.8017864,0,-1.2050000429153442,-0.8299997448921204,-0.7177030401839204,0.0,True,0.010123014450073242,-1.2050000429153442,-0.8299997448921204,-0.7177030444145203,0.0,0.0,0.0
1759839570.8123329,0,-1.2050000429153442,-0.8299997448921204,-0.7177030403384634,0.0,True,0.010546445846557617,-1.2050000429153442,-0.8299997448921204,-0.7177030444145203,0.0,0.0,0.0
1759839570.823394,0,-1.2050000429153442,-0.8299997448921204,-0.7177030404359819,0.0,True,0.01106119155883789,-1.2050000429153442,-0.8299997448921204,-0.7177030444145203,0.0,0.0,0.0
1759839570.834625,0,-1.2050000429153442,-0.8299997448921204,-0.7177030405255724,0.0,True,0.011230945587158203,-1.2050000429153442,-0.8299997448921204,-0.7177030444145203,0.0,0.0,0.0
1759839570.8456583,0,-1.2050000429153442,-0.8299997448921204,-0.7177030406420037,0.0,True,0.011033296585083008,-1.2050000429153442,-0.8299997448921204,-0.7177030444145203,0.0,0.0,0.0
1759839570.8569722,0,-1.2050000429153442,-0.8299997448921204,-0.7177030407401208,0.0,True,0.011313915252685547,-1.2050000429153442,-0.8299997448921204,-0.7177030444145203,0.0,0.0,0.0
1759839570.8683019,0,-1.2050000429153442,-0.8299997448921204,-0.7177030408435066,0.0,True,0.01132965087890625,-1.2050000429153442,-0.8299997448921204,-0.7177030444145203,0.0,0.0,0.0
1759839570.878601,0,-1.2050000429153442,-0.8299997448921204,-0.7177030410251248,0.0,True,0.010299205780029297,-1.2050000429153442,-0.8299997448921204,-0.7177030444145203,0.0,0.0,0.0
1759839570.8887746,0,-1.2050000429153442,-0.8299997448921204,-0.7177030411950227,0.0,True,0.010173559188842773,-1.2050000429153442,-0.8299997448921204,-0.7177030444145203,0.0,0.0,0.0
1759839570.9031615,0,-1.2050000429153442,-0.8299997448921204,-0.717703041062741,0.0,True,0.014386892318725586,-1.2050000429153442,-0.8299997448921204,-0.7177030444145203,0.0,0.0,0.0
1759839570.9145582,0,-1.2050000429153442,-0.8299997448921204,-0.7177030411901573,0.0,True,0.011396646499633789,-1.2050000429153442,-0.8299997448921204,-0.7177030444145203,0.0,0.0,0.0
1759839570.9254277,0,-1.2050000429153442,-0.8299997448921204,-0.7177030413585186,0.0,True,0.010869503021240234,-1.2050000429153442,-0.8299997448921204,-0.7177030444145203,0.0,0.0,0.0
1759839570.9364884,0,-1.2050000429153442,-0.8299997448921204,-0.7177030414960726,0.0,True,0.011060714721679688,-1.2050000429153442,-0.8299997448921204,-0.7177030444145203,0.0,0.0,0.0
1759839570.9472234,0,-1.2050000429153442,-0.8299997448921204,-0.7177030416371082,0.0,True,0.010735034942626953,-1.2050000429153442,-0.8299997448921204,-0.7177030444145203,0.0,0.0,0.0
1759839570.9573534,0,-1.2050000429153442,-0.8299997448921204,-0.7177030417947847,0.0,True,0.010129928588867188,-1.2050000429153442,-0.8299997448921204,-0.7177030444145203,0.0,0.0,0.0
1759839570.9676013,0,-1.2050000429153442,-0.8299997448921204,-0.7177030419220998,0.0,True,0.010247945785522461,-1.2050000429153442,-0.8299997448921204,-0.7177030444145203,0.0,0.0,0.0
1759839570.9781797,0,-1.2050000429153442,-0.8299997448921204,-0.7177030420139694,0.0,True,0.010578393936157227,-1.2050000429153442,-0.8299997448921204,-0.7177030444145203,0.0,0.0,0.0
1759839570.9881878,0,-1.2050000429153442,-0.8299997448921204,-0.7177030421263879,0.0,True,0.010008096694946289,-1.2050000429153442,-0.8299997448921204,-0.7177030444145203,0.0,0.0,0.0
1759839570.9989915,0,-1.2050000429153442,-0.8299997448921204,-0.7177030421868444,0.0,True,0.010803699493408203,-1.2050000429153442,-0.8299997448921204,-0.7177030444145203,0.0,0.0,0.0
1759839571.0099986,0,-1.2050000429153442,-0.8299997448921204,-0.7177030422373196,0.0,True,0.011007070541381836,-1.2050000429153442,-0.8299997448921204,-0.7177030444145203,0.0,0.0,0.0
1759839571.020444,0,-1.2050000429153442,-0.8299997448921204,-0.7177030423182327,0.0,True,0.010445356369018555,-1.2050000429153442,-0.8299997448921204,-0.7177030444145203,0.0,0.0,0.0
1759839571.0314302,0,-1.2050000429153442,-0.8299997448921204,-0.7177030423715607,0.0,True,0.010986328125,-1.2050000429153442,-0.8299997448921204,-0.7177030444145203,0.0,0.0,0.0
1759839571.0426497,0,-1.2050000429153442,-0.8299997448921204,-0.7177030424169786,0.0,True,0.011219501495361328,-1.2050000429153442,-0.8299997448921204,-0.7177030444145203,0.0,0.0,0.0
1759839571.0529416,0,-1.2050000429153442,-0.8299997448921204,-0.7177030425058071,0.0,True,0.010291814804077148,-1.2050000429153442,-0.8299997448921204,-0.7177030444145203,0.0,0.0,0.0
1759839571.0640686,0,-1.2050000429153442,-0.8299997448921204,-0.7177030425541595,0.0,True,0.011126995086669922,-1.2050000429153442,-0.8299997448921204,-0.7177030444145203,0.0,0.0,0.0
1759839571.0751967,0,-1.2050000429153442,-0.8299997448921204,-0.7177030426037874,0.0,True,0.01112818717956543,-1.2050000429153442,-0.8299997448921204,-0.7177030444145203,0.0,0.0,0.0
1759839571.0864544,0,-1.2050000429153442,-0.8299997448921204,-0.7177030426515323,0.0,True,0.011257648468017578,-1.2050000429153442,-0.8299997448921204,-0.7177030444145203,0.0,0.0,0.0
1759839571.1035318,0,-1.2050000429153442,-0.8299997448921204,-0.71770304250024,0.0,True,0.01707744598388672,-1.2050000429153442,-0.8299997448921204,-0.7177030444145203,0.0,0.0,0.0
1759839571.1136296,0,-1.2050000429153442,-0.8299997448921204,-0.7177030426502995,0.0,True,0.010097742080688477,-1.2050000429153442,-0.8299997448921204,-0.7177030444145203,0.0,0.0,0.0
1759839571.1236396,0,-1.2050000429153442,-0.8299997448921204,-0.7177030427893492,0.0,True,0.010010004043579102,-1.2050000429153442,-0.8299997448921204,-0.7177030444145203,0.0,0.0,0.0
1759839571.1337314,0,-1.2050000429153442,-0.8299997448921204,-0.7177030428968436,0.0,True,0.010091781616210938,-1.2050000429153442,-0.8299997448921204,-0.7177030444145203,0.0,0.0,0.0
1759839571.1439059,0,-1.2050000429153442,-0.8299997448921204,-0.7177030429805598,0.0,True,0.01017451286315918,-1.2050000429153442,-0.8299997448921204,-0.7177030444145203,0.0,0.0,0.0
1759839571.1551385,0,-1.2050000429153442,-0.8299997448921204,-0.7177030430190463,0.0,True,0.011232614517211914,-1.2050000429153442,-0.8299997448921204,-0.7177030444145203,0.0,0.0,0.0
1759839571.1656756,0,-1.2050000429153442,-0.8299997448921204,-0.7177030430766855,0.0,True,0.010537147521972656,-1.2050000429153442,-0.8299997448921204,-0.7177030444145203,0.0,0.0,0.0
1759839571.176745,0,-1.2050000429153442,-0.8299997448921204,-0.7177030431155274,0.0,True,0.011069297790527344,-1.2050000429153442,-0.8299997448921204,-0.7177030444145203,0.0,0.0,0.0
1759839571.1871634,0,-1.2050000429153442,-0.8299997448921204,-0.7177030431712836,0.0,True,0.010418415069580078,-1.2050000429153442,-0.8299997448921204,-0.7177030444145203,0.0,0.0,0.0
1759839571.1982148,0,-1.2050000429153442,-0.8299997448921204,-0.7177030432060398,0.0,True,0.011051416397094727,-1.2050000429153442,-0.8299997448921204,-0.7177030444145203,0.0,0.0,0.0
1759839571.2093697,0,-1.2050000429153442,-0.8299997448921204,-0.7177030432381848,0.0,True,0.011154890060424805,-1.2050000429153442,-0.8299997448921204,-0.7177030444145203,0.0,0.0,0.0
1759839571.2196054,0,-1.2050000429153442,-0.8299997448921204,-0.7177030432938718,0.0,True,0.010235786437988281,-1.2050000429153442,-0.8299997448921204,-0.7177030444145203,0.0,0.0,0.0
1759839571.2302961,0,-1.2050000429153442,-0.8299997448921204,-0.7177030433333318,0.0,True,0.010690689086914062,-1.2050000429153442,-0.8299997448921204,-0.7177030444145203,0.0,0.0,0.0
1759839571.240868,0,-1.2050000429153442,-0.8299997448921204,-0.7177030433725662,0.0,True,0.010571956634521484,-1.2050000429153442,-0.8299997448921204,-0.7177030444145203,0.0,0.0,0.0
1759839571.2513068,0,-1.2050000429153442,-0.8299997448921204,-0.7177030434122891,0.0,True,0.010438680648803711,-1.2050000429153442,-0.8299997448921204,-0.7177030444145203,0.0,0.0,0.0
1759839571.2616374,0,-1.2050000429153442,-0.8299997448921204,-0.7177030434512623,0.0,True,0.010330677032470703,-1.2050000429153442,-0.8299997448921204,-0.7177030444145203,0.0,0.0,0.0
1759839571.2721798,0,-1.2050000429153442,-0.8299997448921204,-0.7177030434826133,0.0,True,0.01054239273071289,-1.2050000429153442,-0.8299997448921204,-0.7177030444145203,0.0,0.0,0.0
1759839571.2834153,0,-1.2050000429153442,-0.8299997448921204,-0.7177030434988865,0.0,True,0.011235475540161133,-1.2050000429153442,-0.8299997448921204,-0.7177030444145203,0.0,0.0,0.0
1759839571.2937708,0,-1.2050000429153442,-0.8299997448921204,-0.7177030435350957,0.0,True,0.010355472564697266,-1.2050000429153442,-0.8299997448921204,-0.7177030444145203,0.0,0.0,0.0
1759839571.3044255,0,-1.2050000429153442,-0.8299997448921204,-0.7177030435638194,0.0,True,0.010654687881469727,-1.2050000429153442,-0.8299997448921204,-0.7177030444145203,0.0,0.0,0.0
1759839571.3158348,0,-1.2050000429153442,-0.8299997448921204,-0.7177030435779113,0.0,True,0.011409282684326172,-1.2050000429153442,-0.8299997448921204,-0.7177030444145203,0.0,0.0,0.0
1759839571.3258448,0,-1.2050000429153442,-0.8299997448921204,-0.7177030436193341,0.0,True,0.010010004043579102,-1.2050000429153442,-0.8299997448921204,-0.7177030444145203,0.0,0.0,0.0
1759839571.33609,0,-1.2050000429153442,-0.8299997448921204,-0.7177030436526763,0.0,True,0.010245323181152344,-1.2050000429153442,-0.8299997448921204,-0.7177030444145203,0.0,0.0,0.0
1759839571.3462827,0,-1.2050000429153442,-0.8299997448921204,-0.717703043683029,0.0,True,0.010192632675170898,-1.2050000429153442,-0.8299997448921204,-0.7177030444145203,0.0,0.0,0.0
1759839571.3566473,0,-1.2050000429153442,-0.8299997448921204,-0.7177030437077292,0.0,True,0.010364532470703125,-1.2050000429153442,-0.8299997448921204,-0.7177030444145203,0.0,0.0,0.0
1759839571.3676147,0,-1.2050000429153442,-0.8299997448921204,-0.7177030437218264,0.0,True,0.010967493057250977,-1.2050000429153442,-0.8299997448921204,-0.7177030444145203,0.0,0.0,0.0
1759839571.3790815,0,-1.2050000429153442,-0.8299997448921204,-0.7177030437304488,0.0,True,0.011466741561889648,-1.2050000429153442,-0.8299997448921204,-0.7177030444145203,0.0,0.0,0.0
1759839571.3902304,0,-1.2050000429153442,-0.8299997448921204,-0.7177030437476297,0.0,True,0.011148929595947266,-1.2050000429153442,-0.8299997448921204,-0.7177030444145203,0.0,0.0,0.0
1759839571.400501,0,-1.2050000429153442,-0.8299997448921204,-0.7177030437785934,0.0,True,0.01027059555053711,-1.2050000429153442,-0.8299997448921204,-0.7177030444145203,0.0,0.0,0.0
1759839571.4106853,0,-1.2050000429153442,-0.8299997448921204,-0.7177030438077594,0.0,True,0.010184288024902344,-1.2050000429153442,-0.8299997448921204,-0.7177030444145203,0.0,0.0,0.0
1759839571.4218378,0,-1.2050000429153442,-0.8299997448921204,-0.717703043821027,0.0,True,0.011152505874633789,-1.2050000429153442,-0.8299997448921204,-0.7177030444145203,0.0,0.0,0.0
1759839571.432052,0,-1.2050000429153442,-0.8299997448921204,-0.7177030438467433,0.0,True,0.010214090347290039,-1.2050000429153442,-0.8299997448921204,-0.7177030444145203,0.0,0.0,0.0
1759839571.4430232,0,-1.2050000429153442,-0.8299997448921204,-0.7177030438613947,0.0,True,0.010971307754516602,-1.2050000429153442,-0.8299997448921204,-0.7177030444145203,0.0,0.0,0.0
1759839571.4546964,0,-1.2050000429153442,-0.8299997448921204,-0.7177030438683172,0.0,True,0.011673212051391602,-1.2050000429153442,-0.8299997448921204,-0.7177030444145203,0.0,0.0,0.0
1759839571.4649553,0,-1.2050000429153442,-0.8299997448921204,-0.7177030438940637,0.0,True,0.010258913040161133,-1.2050000429153442,-0.8299997448921204,-0.7177030444145203,0.0,0.0,0.0
1759839571.4760942,0,-1.2050000429153442,-0.8299997448921204,-0.7177030439083172,0.0,True,0.011138916015625,-1.2050000429153442,-0.8299997448921204,-0.7177030444145203,0.0,0.0,0.0
1759839571.4871798,0,-1.2050000429153442,-0.8299997448921204,-0.7177030439231711,0.0,True,0.01108551025390625,-1.2050000429153442,-0.8299997448921204,-0.7177030444145203,0.0,0.0,0.0
1759839571.4985611,0,-1.2050000429153442,-0.8299997448921204,-0.7177030439354724,0.0,True,0.011381387710571289,-1.2050000429153442,-0.8299997448921204,-0.7177030444145203,0.0,0.0,0.0
1759839571.5090463,0,-1.2050000429153442,-0.8299997448921204,-0.7177030439573748,0.0,True,0.010485172271728516,-1.2050000429153442,-0.8299997448921204,-0.7177030444145203,0.0,0.0,0.0
1759839571.5195897,0,-1.2050000429153442,-0.8299997448921204,-0.7177030439768277,0.0,True,0.010543346405029297,-1.2050000429153442,-0.8299997448921204,-0.7177030444145203,0.0,0.0,0.0
1759839571.5296926,0,-1.2050000429153442,-0.8299997448921204,-0.7177030439982275,0.0,True,0.010102987289428711,-1.2050000429153442,-0.8299997448921204,-0.7177030444145203,0.0,0.0,0.0
