timestamp,observer_vehicle_id,vehicle_0_x,vehicle_0_y,vehicle_0_theta,vehicle_0_velocity,vehicle_1_x,vehicle_1_y,vehicle_1_theta,vehicle_1_velocity
1759825537.134276,0,-1.205,-0.83,-0.7801621756414646,0.0,0.0,0.0,0.0,0.0
1759825537.1454875,0,-1.205,-0.83,-0.7801621756414646,0.0,0.0,0.0,0.0,0.0
1759825537.1567867,0,-1.205,-0.83,-0.7801621756414646,0.0,0.0,0.0,0.0,0.0
1759825537.1675289,0,-1.205,-0.83,-0.7801621756414646,0.0,0.0,0.0,0.0,0.0
1759825537.1782875,0,-1.205,-0.83,-0.7801621756414646,0.0,0.0,0.0,0.0,0.0
1759825537.1894155,0,-1.205,-0.83,-0.7801621756414646,0.0,0.0,0.0,0.0,0.0
1759825537.2009845,0,-1.205,-0.83,-0.7801621756414646,0.0,0.0,0.0,0.0,0.0
1759825537.2117562,0,-1.205,-0.83,-0.7801621756414646,0.0,0.0,0.0,0.0,0.0
1759825537.2222667,0,-1.205,-0.83,-0.7801621756414646,0.0,0.0,0.0,0.0,0.0
1759825537.2326138,0,-1.205,-0.83,-0.7801621756414646,0.0,0.0,0.0,0.0,0.0
1759825537.2426436,0,-1.205,-0.83,-0.7801621756414646,0.0,0.0,0.0,0.0,0.0
1759825537.2537649,0,-1.205,-0.83,-0.7801621756414646,0.0,0.0,0.0,0.0,0.0
1759825537.265131,0,-1.205,-0.83,-0.7801621756414646,0.0,0.0,0.0,0.0,0.0
1759825537.27591,0,-1.205,-0.83,-0.7801621756414646,0.0,0.0,0.0,0.0,0.0
1759825537.2866907,0,-1.205,-0.83,-0.7801621756414646,0.0,0.0,0.0,0.0,0.0
1759825537.2977638,0,-1.205,-0.83,-0.7801621756414646,0.0,0.0,0.0,0.0,0.0
1759825537.3082511,0,-1.205,-0.83,-0.7801621756414646,0.0,0.0,0.0,0.0,0.0
1759825537.3188329,0,-1.205,-0.83,-0.7801621756414646,0.0,0.0,0.0,0.0,0.0
1759825537.3327615,0,-1.2049999243418377,-0.8299994514783223,-0.7229992969319721,0.0,0.0,0.0,0.0,0.0
1759825537.344266,0,-1.2049999239185727,-0.8299994484096517,-0.7181127321910061,0.0,0.0,0.0,0.0,0.0
1759825537.3546011,0,-1.2049999237857767,-0.8299994474468809,-0.7176568661996541,0.0,0.0,0.0,0.0,0.0
1759825537.365486,0,-1.2049999237364264,-0.829999447089092,-0.7175960024785367,0.0,0.0,0.0,0.0,0.0
1759825537.3770018,0,-1.2049999237176512,-0.8299994469529718,-0.7175871600832959,0.0,0.0,0.0,0.0,0.0
1759825537.387857,0,-1.2049999237104838,-0.8299994469010086,-0.7175959177635249,0.0,0.0,0.0,0.0,0.0
1759825537.3990593,0,-1.2049999237077464,-0.8299994468811621,-0.7176075883112158,0.0,0.0,0.0,0.0,0.0
1759825537.409812,0,-1.2049999237067008,-0.8299994468735815,-0.7176201660209554,0.0,0.0,0.0,0.0,0.0
1759825537.420671,0,-1.2049999237063016,-0.829999446870686,-0.7176308614763744,0.0,0.0,0.0,0.0,0.0
1759825537.4312017,0,-1.204999923706149,-0.82999944686958,-0.7176402042583021,0.0,0.0,0.0,0.0,0.0
1759825537.442072,0,-1.2049999237060907,-0.8299994468691576,-0.7176474518870464,0.0,0.0,0.0,0.0,0.0
1759825537.4524083,0,-1.2049999237060685,-0.8299994468689962,-0.7176540048318678,0.0,0.0,0.0,0.0,0.0
1759825537.4629126,0,-1.20499992370606,-0.8299994468689346,-0.7176591839180091,0.0,-0.34278426667552253,-0.06914954447076979,-0.14179672031239365,0.0
1759825537.4730258,0,-1.2049999237060567,-0.829999446868911,-0.717663774171827,0.0,-0.6150286215773549,-0.12406913955247892,-0.25441378124998,0.0
1759825537.4839337,0,-1.2049999237060554,-0.829999446868902,-0.7176669833138902,0.0,-0.8315929598999454,-0.16775645778577566,-0.34399815222647834,0.0
1759825537.4947708,0,-1.204999923706055,-0.8299994468688986,-0.7176698817542864,0.0,-1.0043230694875058,-0.20260113869895263,-0.4154499819042416,0.0
1759825537.5056844,0,-1.2049999237060547,-0.8299994468688973,-0.7176724291798617,0.0,-1.1424325696445197,-0.230461836961348,-0.4725805916494845,0.0
1759825537.5164201,0,-1.2049999237060547,-0.8299994468688968,-0.7176748119567654,0.0,-1.2531648584928863,-0.2527997563948511,-0.5183862977971531,0.0
1759825537.551847,0,-1.2049999237060547,-0.8299994468688966,-0.7176664346381845,0.0,-1.3397907712153958,-0.2702747194735866,-0.554220119568637,0.0
1759825537.562729,0,-1.2049999237060547,-0.8299994468688965,-0.7176731388529163,0.0,-1.4099826662242514,-0.28443446377129383,-0.5832558177390815,0.0
1759825537.573017,0,-1.2049999237060547,-0.8299994468688965,-0.7176785342801715,0.0,-1.4746231873619777,-0.29747433469179346,-0.6099951251918646,0.0
1759825537.5831366,0,-1.2049999237060547,-0.8299994468688965,-0.7176822593897452,0.0,-1.5258808028054516,-0.3078144847603766,-0.6311984372090947,0.0
1759825537.593597,0,-1.2049999237060547,-0.8299994468688965,-0.7176847567086462,0.0,-1.5666103837437115,-0.31603082442987496,-0.6480467046420054,0.0
1759825537.6049898,0,-1.2049999237060547,-0.8299994468688965,-0.7176863082093803,0.0,-1.599023487860499,-0.322569489130846,-0.6614547641876765,0.0
1759825537.6159394,0,-1.2049999237060547,-0.8299994468688965,-0.7176876609515794,0.0,-1.6248996570863885,-0.3277894641663764,-0.6721587441750452,0.0
1759825537.62798,0,-1.2049999237060547,-0.8299994468688965,-0.7176884709899642,0.0,-1.6455864872669324,-0.33196259876617085,-0.6807160933839492,0.0
1759825537.638226,0,-1.2049999237060547,-0.8299994468688965,-0.717689663479387,0.0,-1.662203228122198,-0.33531467811296917,-0.6875898025492183,0.0
1759825537.649228,0,-1.2049999237060547,-0.8299994468688965,-0.7176904611869848,0.0,-1.6755717065369626,-0.3380114885635006,-0.6931198299719035,0.0
1759825537.6601465,0,-1.2049999237060547,-0.8299994468688965,-0.7176911585497834,0.0,-1.6863554113532235,-0.34018687509154555,-0.6975806355701084,0.0
1759825537.6713514,0,-1.2049999237060547,-0.8299994468688965,-0.7176917075152645,0.0,-1.6950733212385587,-0.3419455307706838,-0.701186900938436,0.0
1759825537.6815603,0,-1.2049999237060547,-0.8299994468688965,-0.7176924294378484,0.0,-1.7021473177451854,-0.34337256136565586,-0.7041131423142997,0.0
1759825537.6915708,0,-1.2049999237060547,-0.8299994468688965,-0.7176930886096464,0.0,-1.7086912227671,-0.34469265710900493,-0.7068201051488036,0.0
1759825537.7023325,0,-1.2049999237060547,-0.8299994468688965,-0.7176934882758736,0.0,-1.7138750263863365,-0.3457383808884905,-0.7089644461335288,0.0
1759825537.7129042,0,-1.2049999237060547,-0.8299994468688965,-0.7176938911512992,0.0,-1.717992763750586,-0.3465690481351225,-0.710667796345664,0.0
1759825537.7231429,0,-1.2049999237060547,-0.8299994468688965,-0.7176943287641642,0.0,-1.7212730348332617,-0.34723077410436715,-0.7120247188373817,0.0
1759825537.7342591,0,-1.2049999237060547,-0.8299994468688965,-0.7176945628605615,0.0,-1.7238901055358742,-0.34775871329098323,-0.7131073007366479,0.0
1759825537.7456064,0,-1.2049999237060547,-0.8299994468688965,-0.71769476809102,0.0,-1.7259830140221588,-0.34818091373165455,-0.713973056805756,0.0
1759825537.7562284,0,-1.2049999237060547,-0.8299994468688965,-0.7176951230409827,0.0,-1.7276625001510257,-0.34851971487291594,-0.7146677958822987,0.0
1759825537.766704,0,-1.2049999237060547,-0.8299994468688965,-0.7176954823530011,0.0,-1.7290137959579341,-0.3487923104923101,-0.7152267751944177,0.0
1759825537.7774458,0,-1.2049999237060547,-0.8299994468688965,-0.7176957665067576,0.0,-1.7301033731479765,-0.34901210986375697,-0.715677491540222,0.0
1759825537.78745,0,-1.2049999237060547,-0.8299994468688965,-0.7176961440326329,0.0,-1.7309848342603602,-0.34918992617656847,-0.7160421182368644,0.0
1759825537.7979329,0,-1.2049999237060547,-0.8299994468688965,-0.7176964067038867,0.0,-1.7316992024885882,-0.3493340350005978,-0.7163376250080489,0.0
1759825537.8092535,0,-1.2049999237060547,-0.8299994468688965,-0.7176965317968751,0.0,-1.7322789991362608,-0.3494509968275249,-0.7165774646713025,0.0
1759825537.8199909,0,-1.2049999237060547,-0.8299994468688965,-0.717696759483827,0.0,-1.73281648835387,-0.3495594240167774,-0.7167998033713816,0.0
1759825537.8313131,0,-1.2049999237060547,-0.8299994468688965,-0.717696911859532,0.0,-1.7332428614358957,-0.3496454358535593,-0.7169761775826227,0.0
1759825537.842155,0,-1.2049999237060547,-0.8299994468688965,-0.7176971391613876,0.0,-1.7335821672768923,-0.34971388369852235,-0.7171165354114775,0.0
1759825537.8528273,0,-1.2049999237060547,-0.8299994468688965,-0.7176973814252925,0.0,-1.733852926886476,-0.34976850377734153,-0.7172285382901522,0.0
1759825537.863619,0,-1.2049999237060547,-0.8299994468688965,-0.717697592927312,0.0,-1.7340695049782466,-0.34981219387004486,-0.7173181283504032,0.0
1759825537.8749535,0,-1.2049999237060547,-0.8299994468688965,-0.7176977327660907,0.0,-1.7342430822616997,-0.3498472094505371,-0.7173899306234569,0.0
1759825537.8858845,0,-1.2049999237060547,-0.8299994468688965,-0.7176979255421045,0.0,-1.734382625617858,-0.3498753593992085,-0.7174476543645042,0.0
1759825537.896909,0,-1.2049999237060547,-0.8299994468688965,-0.7176981047676669,0.0,-1.734495082338181,-0.34989804518656514,-0.7174941734018963,0.0
1759825537.907709,0,-1.2049999237060547,-0.8299994468688965,-0.7176983012058002,0.0,-1.7345859645400654,-0.34991637876681303,-0.7175317678874511,0.0
1759825537.9186182,0,-1.2049999237060547,-0.8299994468688965,-0.7176984752276585,0.0,-1.7346595855447515,-0.3499312302621483,-0.7175622220769384,0.0
1759825537.9600625,0,-1.2049999237060547,-0.8299994468688965,-0.7176961161225321,0.0,-1.7347248495303802,-0.34994439590396825,-0.7175892192877685,0.0
1759825537.9709852,0,-1.2049999237060547,-0.8299994468688965,-0.7176971191870258,0.0,-1.734777000576118,-0.34995491628488135,-0.7176107921776743,0.0
1759825537.9816902,0,-1.2049999237060547,-0.8299994468688965,-0.7176980228340426,0.0,-1.7348187901390433,-0.3499633464537101,-0.7176280789190513,0.0
1759825537.9922357,0,-1.2049999237060547,-0.8299994468688965,-0.7176986814553103,0.0,-1.7348523667197582,-0.34997011982543985,-0.7176419682642972,0.0
1759825538.0026646,0,-1.2049999237060547,-0.8299994468688965,-0.7176991644348831,0.0,-1.734879414388294,-0.34997557612591823,-0.7176531568486731,0.0
1759825538.0136273,0,-1.2049999237060547,-0.8299994468688965,-0.7176994876034861,0.0,-1.7349012427540238,-0.3499799795413999,-0.7176621864074106,0.0
1759825538.0241764,0,-1.2049999237060547,-0.8299994468688965,-0.7176997613763874,0.0,-1.7349189118356632,-0.3499835439084534,-0.717669495429647,0.0
1759825538.0353272,0,-1.2049999237060547,-0.8299994468688965,-0.7176999417441348,0.0,-1.7349332392520307,-0.34998643416454617,-0.7176754221329674,0.0
1759825538.046044,0,-1.2049999237060547,-0.8299994468688965,-0.7177001164674888,0.0,-1.7349448924882795,-0.34998878496082403,-0.7176802426304106,0.0
1759825538.056977,0,-1.2049999237060547,-0.8299994468688965,-0.7177002518838727,0.0,-1.7349557621511398,-0.34999097768758664,-0.7176847389935589,0.0
1759825538.0676951,0,-1.2049999237060547,-0.8299994468688965,-0.7177003812791263,0.0,-1.7349643935274928,-0.3499927188869385,-0.7176883094633197,0.0
1759825538.0790145,0,-1.2049999237060547,-0.8299994468688965,-0.7177004630750172,0.0,-1.7349712607139551,-0.3499941041979397,-0.7176911501553024,0.0
1759825538.0897362,0,-1.2049999237060547,-0.8299994468688965,-0.7177005725174546,0.0,-1.734976742345776,-0.3499952100023194,-0.7176934176964055,0.0
1759825538.100603,0,-1.2049999237060547,-0.8299994468688965,-0.7177006652538811,0.0,-1.7349811283715884,-0.34999609479113974,-0.7176952320272715,0.0
1759825538.1113505,0,-1.2049999237060547,-0.8299994468688965,-0.717700756270526,0.0,-1.7349846471756631,-0.34999680463614286,-0.7176966876217248,0.0
1759825538.1219852,0,-1.2049999237060547,-0.8299994468688965,-0.7177008453693006,0.0,-1.7349874776756176,-0.3499973756302097,-0.7176978584911298,0.0
1759825538.1415892,0,-1.2049999237060547,-0.8299994468688965,-0.717700532098462,0.0,-1.734989737667022,-0.34999783153612873,-0.7176987933630018,0.0
1759825538.152254,0,-1.2049999237060547,-0.8299994468688965,-0.7177007178446182,0.0,-1.7349915683274502,-0.34999820083351774,-0.717699550637095,0.0
1759825538.1630943,0,-1.2049999237060547,-0.8299994468688965,-0.7177008882996851,0.0,-1.7349930545663916,-0.3499985006510875,-0.7177001654372127,0.0
1759825538.17371,0,-1.2049999237060547,-0.8299994468688965,-0.717701034428897,0.0,-1.7349944429933677,-0.3499987807371424,-0.7177007397762671,0.0
1759825538.184702,0,-1.2049999237060547,-0.8299994468688965,-0.717701138493668,0.0,-1.7349955421895593,-0.3499990024769459,-0.7177011944716253,0.0
1759825538.1956658,0,-1.2049999237060547,-0.8299994468688965,-0.7177012273476251,0.0,-1.7349964147126211,-0.3499991784901942,-0.7177015554009928,0.0
1759825538.206702,0,-1.2049999237060547,-0.8299994468688965,-0.7177013026686563,0.0,-1.7349971090587013,-0.3499993185599693,-0.7177018426253684,0.0
1759825538.2179382,0,-1.2049999237060547,-0.8299994468688965,-0.7177013638140011,0.0,-1.7349976629395958,-0.34999943029383596,-0.7177020717446772,0.0
1759825538.2290065,0,-1.2049999237060547,-0.8299994468688965,-0.7177014272230267,0.0,-1.7349981060187796,-0.34999951967577875,-0.7177022550295629,0.0
1759825538.239687,0,-1.2049999237060547,-0.8299994468688965,-0.7177014991118966,0.0,-1.734998461530142,-0.34999959139274817,-0.7177024020909951,0.0
1759825538.250406,0,-1.2049999237060547,-0.8299994468688965,-0.7177015623814711,0.0,-1.7349987474813233,-0.3499996490774083,-0.7177025203780452,0.0
1759825538.261511,0,-1.2049999237060547,-0.8299994468688965,-0.7177016077894437,0.0,-1.7349989779595514,-0.3499996955715623,-0.7177026157180593,0.0
1759825538.2727292,0,-1.2049999237060547,-0.8299994468688965,-0.7177016487031089,0.0,-1.7349991641808102,-0.34999973313780003,-0.7177026927506607,0.0
1759825538.283225,0,-1.2049999237060547,-0.8299994468688965,-0.7177017105409078,0.0,-1.7349993336801484,-0.3499997673307405,-0.717702762866044,0.0
1759825538.2937546,0,-1.2049999237060547,-0.8299994468688965,-0.7177017657024294,0.0,-1.734999467951068,-0.34999979441708556,-0.71770281840878,0.0
1759825538.3041222,0,-1.2049999237060547,-0.8299994468688965,-0.7177018193679814,0.0,-1.7349995746006883,-0.34999981593141216,-0.7177028625256426,0.0
1759825538.3155055,0,-1.2049999237060547,-0.8299994468688965,-0.717701841470209,0.0,-1.7349996594309898,-0.34999983304414833,-0.7177028976166888,0.0
1759825538.3262813,0,-1.2049999237060547,-0.8299994468688965,-0.7177018817742677,0.0,-1.734999727130532,-0.34999984670111267,-0.717702925621396,0.0
1759825538.337623,0,-1.2049999237060547,-0.8299994468688965,-0.7177019081136714,0.0,-1.734999781263591,-0.34999985762132324,-0.7177029480141689,0.0
1759825538.3484077,0,-1.2049999237060547,-0.8299994468688965,-0.7177019496066066,0.0,-1.7349998246897815,-0.3499998663816474,-0.7177029659779204,0.0
1759825538.358502,0,-1.2049999237060547,-0.8299994468688965,-0.7177020048479896,0.0,-1.7349998596409042,-0.34999987343230415,-0.717702980435861,0.0
1759825538.3694763,0,-1.2049999237060547,-0.8299994468688965,-0.717702034000105,0.0,-1.7349998878101407,-0.34999987911485747,-0.7177029920883949,0.0
1759825538.3798342,0,-1.2049999237060547,-0.8299994468688965,-0.7177020751994867,0.0,-1.7349999105868263,-0.34999988370957663,-0.7177030015102374,0.0
1759825538.390088,0,-1.2049999237060547,-0.8299994468688965,-0.7177021152148093,0.0,-1.7349999290496385,-0.34999988743406213,-0.7177030091475955,0.0
1759825538.4010637,0,-1.2049999237060547,-0.8299994468688965,-0.7177021369561256,0.0,-1.7349999459641154,-0.3499998908462035,-0.7177030161444667,0.0
1759825538.4118376,0,-1.2049999237060547,-0.8299994468688965,-0.7177021634436151,0.0,-1.7349999593755419,-0.34999989355167777,-0.7177030216922603,0.0
1759825538.423232,0,-1.2049999237060547,-0.8299994468688965,-0.7177021789863076,0.0,-1.734999970029894,-0.3499998957009701,-0.7177030260995576,0.0
1759825538.4337206,0,-1.2049999237060547,-0.8299994468688965,-0.7177022138238538,0.0,-1.7349999785248105,-0.34999989741464155,-0.7177030296135791,0.0
1759825538.4444234,0,-1.2049999237060547,-0.8299994468688965,-0.7177022430138784,0.0,-1.7349999853132498,-0.34999989878406695,-0.7177030324216964,0.0
1759825538.4556515,0,-1.2049999237060547,-0.8299994468688965,-0.7177022617711195,0.0,-1.7349999907486438,-0.34999989988054386,-0.7177030346701107,0.0
1759825538.4659882,0,-1.2049999237060547,-0.8299994468688965,-0.7177022961658555,0.0,-1.7349999951163113,-0.3499999007616293,-0.7177030364768474,0.0
1759825538.4769719,0,-1.2049999237060547,-0.8299994468688965,-0.7177023176630452,0.0,-1.7349999986320053,-0.3499999014708469,-0.7177030379311553,0.0
1759825538.488317,0,-1.2049999237060547,-0.8299994468688965,-0.7177023334934951,0.0,-1.7350000014680054,-0.3499999020429505,-0.7177030391042999,0.0
1759825538.4993238,0,-1.2049999237060547,-0.8299994468688965,-0.7177023561911522,0.0,-1.7350000040155884,-0.349999902556872,-0.7177030401581374,0.0
1759825538.510718,0,-1.2049999237060547,-0.8299994468688965,-0.7177023736755519,0.0,-1.7350000060341437,-0.34999990296407324,-0.7177030409931363,0.0
1759825538.5222256,0,-1.2049999237060547,-0.8299994468688965,-0.7177023908563882,0.0,-1.7350000076376717,-0.34999990328755143,-0.7177030416564545,0.0
1759825538.5363848,0,-1.2049999237060547,-0.8299994468688965,-0.7177023757964882,0.0,-1.7350000089114357,-0.34999990354450666,-0.7177030421833619,0.0
1759825538.5428417,0,-1.2049999237060547,-0.8299994468688965,-0.7177024674915877,0.0,-1.7350000099348917,-0.34999990375096746,-0.7177030426067265,0.0
1759825538.5536747,0,-1.2049999237060547,-0.8299994468688965,-0.7177024875376254,0.0,-1.7350000107546775,-0.34999990391634206,-0.7177030429458404,0.0
1759825538.564338,0,-1.2049999237060547,-0.8299994468688965,-0.7177025046294361,0.0,-1.7350000114131123,-0.3499999040491675,-0.7177030432182097,0.0
1759825538.575221,0,-1.2049999237060547,-0.8299994468688965,-0.7177025188334945,0.0,-1.7350000119431443,-0.3499999041560904,-0.7177030434374636,0.0
1759825538.5862608,0,-1.2049999237060547,-0.8299994468688965,-0.7177025318164709,0.0,-1.7350000124106018,-0.34999990425039007,-0.7177030436308327,0.0
1759825538.5965748,0,-1.2049999237060547,-0.8299994468688965,-0.7177025533960908,0.0,-1.7350000127816367,-0.3499999043252386,-0.7177030437843157,0.0
1759825538.6068416,0,-1.2049999237060547,-0.8299994468688965,-0.7177025737592508,0.0,-1.7350000130768772,-0.34999990438479717,-0.7177030439064455,0.0
1759825538.6179397,0,-1.2049999237060547,-0.8299994468688965,-0.7177025837892543,0.0,-1.7350000133121757,-0.3499999044322637,-0.7177030440037794,0.0
1759825538.6282098,0,-1.2049999237060547,-0.8299994468688965,-0.7177026025858595,0.0,-1.7350000135003576,-0.34999990447022544,-0.7177030440816231,0.0
1759825538.6390784,0,-1.2049999237060547,-0.8299994468688965,-0.7177026145345254,0.0,-1.7350000136511259,-0.3499999045006398,-0.7177030441439902,0.0
1759825538.649703,0,-1.2049999237060547,-0.8299994468688965,-0.7177026287291124,0.0,-1.7350000137722585,-0.34999990452507573,-0.7177030441940982,0.0
1759825538.6599998,0,-1.2049999237060547,-0.8299994468688965,-0.717702645423163,0.0,-1.7350000138698576,-0.3499999045447643,-0.7177030442344714,0.0
1759825538.670164,0,-1.2049999237060547,-0.8299994468688965,-0.7177026618538845,0.0,-1.7350000139486952,-0.3499999045606682,-0.7177030442670835,0.0
1759825538.6803014,0,-1.2049999237060547,-0.8299994468688965,-0.7177026768479635,0.0,-1.7350000140195379,-0.3499999045749592,-0.7177030442963883,0.0
1759825538.690607,0,-1.2049999237060547,-0.8299994468688965,-0.7177026890774556,0.0,-1.735000014075711,-0.349999904586291,-0.717703044319625,0.0
1759825538.7011309,0,-1.2049999237060547,-0.8299994468688965,-0.7177026989170976,0.0,-1.7350000141203519,-0.3499999045952964,-0.7177030443380912,0.0
1759825538.711409,0,-1.2049999237060547,-0.8299994468688965,-0.7177027105968037,0.0,-1.7350000141559263,-0.34999990460247277,-0.7177030443528069,0.0
1759825538.7223437,0,-1.2049999237060547,-0.8299994468688965,-0.717702717090118,0.0,-1.735000014184325,-0.3499999046082016,-0.7177030443645542,0.0
1759825538.7563107,0,-1.2049999237060547,-0.8299994468688965,-0.717702576462802,0.0,-1.7350000142064972,-0.34999990461267433,-0.717703044373726,0.0
1759825538.7592595,0,-1.2049999237060547,-0.8299994468688965,-0.7177026784937404,0.0,-1.7350000142245412,-0.34999990461631436,-0.7177030443811901,0.0
1759825538.7695296,0,-1.2049999237060547,-0.8299994468688965,-0.7177027187956533,0.0,-1.7350000142391182,-0.349999904619255,-0.7177030443872202,0.0
1759825538.7806563,0,-1.2049999237060547,-0.8299994468688965,-0.7177027411944898,0.0,-1.7350000142522146,-0.3499999046218969,-0.7177030443926377,0.0
1759825538.7920566,0,-1.2049999237060547,-0.8299994468688965,-0.7177027571764754,0.0,-1.7350000142625914,-0.3499999046239902,-0.7177030443969301,0.0
1759825538.8023171,0,-1.2049999237060547,-0.8299994468688965,-0.7177027768431223,0.0,-1.7350000142708455,-0.3499999046256553,-0.7177030444003445,0.0
1759825538.8125546,0,-1.2049999237060547,-0.8299994468688965,-0.7177027931899058,0.0,-1.7350000142774273,-0.34999990462698305,-0.7177030444030671,0.0
1759825538.8233309,0,-1.2049999237060547,-0.8299994468688965,-0.7177028038712656,0.0,-1.7350000142826854,-0.34999990462804376,-0.7177030444052421,0.0
1759825538.833909,0,-1.2049999237060547,-0.8299994468688965,-0.717702814161381,0.0,-1.7350000142868973,-0.34999990462889347,-0.7177030444069845,0.0
1759825538.8442824,0,-1.2049999237060547,-0.8299994468688965,-0.7177028243371719,0.0,-1.7350000142902804,-0.3499999046295759,-0.7177030444083841,0.0
1759825538.8549852,0,-1.2049999237060547,-0.8299994468688965,-0.7177028318511418,0.0,-1.7350000142930035,-0.34999990463012526,-0.7177030444095105,0.0
1759825538.8653197,0,-1.2049999237060547,-0.8299994468688965,-0.7177028404889505,0.0,-1.7350000142954178,-0.3499999046306123,-0.7177030444105091,0.0
1759825538.8760617,0,-1.2049999237060547,-0.8299994468688965,-0.7177028466104112,0.0,-1.73500001429733,-0.34999990463099806,-0.7177030444113002,0.0
1759825538.887254,0,-1.2049999237060547,-0.8299994468688965,-0.7177028506817535,0.0,-1.7350000142988478,-0.3499999046313042,-0.7177030444119279,0.0
1759825538.898033,0,-1.2049999237060547,-0.8299994468688965,-0.7177028569190647,0.0,-1.735000014300056,-0.34999990463154795,-0.7177030444124277,0.0
1759825538.9088016,0,-1.2049999237060547,-0.8299994468688965,-0.7177028631607172,0.0,-1.7350000143010202,-0.34999990463174246,-0.7177030444128267,0.0
1759825538.919904,0,-1.2049999237060547,-0.8299994468688965,-0.7177028679431992,0.0,-1.7350000143017918,-0.3499999046318981,-0.7177030444131458,0.0
1759825538.9304435,0,-1.2049999237060547,-0.8299994468688965,-0.7177028749188565,0.0,-1.7350000143024111,-0.34999990463202296,-0.7177030444134019,0.0
1759825538.9411647,0,-1.2049999237060547,-0.8299994468688965,-0.7177028808015038,0.0,-1.7350000143029092,-0.34999990463212344,-0.7177030444136079,0.0
1759825538.9515412,0,-1.2049999237060547,-0.8299994468688965,-0.717702887511475,0.0,-1.7350000143033109,-0.3499999046322045,-0.7177030444137741,0.0
1759825538.9617226,0,-1.2049999237060547,-0.8299994468688965,-0.7177028942636738,0.0,-1.735000014303671,-0.34999990463227715,-0.7177030444139231,0.0
1759825538.9723835,0,-1.2049999237060547,-0.8299994468688965,-0.717702898750174,0.0,-1.7350000143039561,-0.3499999046323347,-0.7177030444140411,0.0
1759825538.98274,0,-1.2049999237060547,-0.8299994468688965,-0.7177029040137572,0.0,-1.7350000143041826,-0.3499999046323804,-0.7177030444141348,0.0
1759825538.9933033,0,-1.2049999237060547,-0.8299994468688965,-0.7177029083512529,0.0,-1.735000014304363,-0.34999990463241676,-0.7177030444142093,0.0
1759825539.0038345,0,-1.2049999237060547,-0.8299994468688965,-0.7177029126465779,0.0,-1.7350000143045068,-0.34999990463244574,-0.7177030444142688,0.0
1759825539.0140216,0,-1.2049999237060547,-0.8299994468688965,-0.7177029177883192,0.0,-1.7350000143046218,-0.34999990463246894,-0.7177030444143164,0.0
1759825539.0253534,0,-1.2049999237060547,-0.8299994468688965,-0.7177029194324458,0.0,-1.735000014304714,-0.34999990463248754,-0.7177030444143546,0.0
1759825539.0358322,0,-1.2049999237060547,-0.8299994468688965,-0.7177029238443353,0.0,-1.7350000143047881,-0.3499999046325025,-0.7177030444143853,0.0
1759825539.0468524,0,-1.2049999237060547,-0.8299994468688965,-0.7177029268042183,0.0,-1.7350000143048478,-0.34999990463251457,-0.71770304441441,0.0
1759825539.0577745,0,-1.2049999237060547,-0.8299994468688965,-0.7177029301605451,0.0,-1.735000014304901,-0.3499999046325253,-0.7177030444144319,0.0
1759825539.0683935,0,-1.2049999237060547,-0.8299994468688965,-0.7177029343288961,0.0,-1.7350000143049429,-0.3499999046325338,-0.7177030444144493,0.0
1759825539.0798657,0,-1.2049999237060547,-0.8299994468688965,-0.7177029363639207,0.0,-1.7350000143049762,-0.3499999046325405,-0.7177030444144631,0.0
1759825539.0901697,0,-1.2049999237060547,-0.8299994468688965,-0.7177029413242444,0.0,-1.7350000143050028,-0.3499999046325458,-0.7177030444144741,0.0
1759825539.1006393,0,-1.2049999237060547,-0.8299994468688965,-0.7177029455148265,0.0,-1.7350000143050242,-0.34999990463255015,-0.717703044414483,0.0
1759825539.1121278,0,-1.2049999237060547,-0.8299994468688965,-0.7177029472045575,0.0,-1.7350000143050412,-0.3499999046325536,-0.7177030444144901,0.0
1759825539.1231914,0,-1.2049999237060547,-0.8299994468688965,-0.7177029500778893,0.0,-1.7350000143050548,-0.34999990463255637,-0.7177030444144956,0.0
1759825539.157351,0,-1.2049999237060547,-0.8299994468688965,-0.7177029122831602,0.0,-1.7350000143050655,-0.34999990463255853,-0.7177030444145001,0.0
1759825539.1621892,0,-1.2049999237060547,-0.8299994468688965,-0.717702938298105,0.0,-1.7350000143050741,-0.3499999046325603,-0.7177030444145036,0.0
1759825539.1731403,0,-1.2049999237060547,-0.8299994468688965,-0.7177029499490253,0.0,-1.7351061945056803,-0.3499108071736443,-0.718160882051667,0.002074021862550252
1759825539.1831956,0,-1.2049999237060547,-0.8299994468688965,-0.7177029594497313,0.0,-1.7351530800636057,-0.3498960311510603,-0.7186049675176303,0.0038518004699797355
1759825539.1939101,0,-1.2049999237060547,-0.8299994468688965,-0.7177029656370131,0.0,-1.735187569259863,-0.3499039235044199,-0.7189636659628839,0.00527798764850085
1759825539.2051826,0,-1.2049999237060547,-0.8299994468688965,-0.7177029696584504,0.0,-1.7352126356629798,-0.34992639091149746,-0.7192554241842206,0.006427797374726238
1759825539.2165384,0,-1.2049999237060547,-0.8299994468688965,-0.7177029729433286,0.0,-1.735230552997782,-0.3499577854022924,-0.7194945890968479,0.007360137350541783
1759825539.2266042,0,-1.2049999237060547,-0.8299994468688965,-0.7177029776387602,0.0,-1.7352431290180472,-0.3499941199908157,-0.7196918950484892,0.008120385541673504
1759825539.2375777,0,-1.2049999237060547,-0.8299994468688965,-0.7177029803556891,0.0,-1.735251576675676,-0.3500328595246104,-0.7198564338643006,0.008744834880901244
1759825539.2488256,0,-1.2049999237060547,-0.8299994468688965,-0.7177029823838001,0.0,-1.7352568541971094,-0.3500723068258692,-0.7199951960120667,0.009261931241278117
1759825539.2588646,0,-1.2049999237060547,-0.8299994468688965,-0.7177029858436441,0.0,-1.7352597850629043,-0.35011123133809097,-0.7201130443604559,0.009692880968254294
1759825539.2691455,0,-1.2049999237060547,-0.8299994468688965,-0.7177029885382034,0.0,-1.7352609008200932,-0.35014899494126206,-0.7202144005067154,0.010055435262916294
1759825539.2801595,0,-1.2049999237060547,-0.8299994468688965,-0.7177029900011185,0.0,-1.7352752128482938,-0.3501689567359067,-0.720266137006923,0.010325397769076027
1759825539.2906954,0,-1.2049999237060547,-0.8299994468688965,-0.7177029919939493,0.0,-1.7352856705681625,-0.35018926004173834,-0.7203129741600587,0.010553348940143953
1759825539.301805,0,-1.2049999237060547,-0.8299994468688965,-0.7177029932531411,0.0,-1.735293088972036,-0.3502095576341707,-0.7203563717891889,0.010749187419345552
1759825539.3133574,0,-1.2049999237060547,-0.8299994468688965,-0.7177029941096897,0.0,-1.7352981020643679,-0.3502296645261827,-0.7203974261955357,0.010920569946031211
1759825539.324462,0,-1.2049999237060547,-0.8299994468688965,-0.7177029956414493,0.0,-1.7353012513504555,-0.35024938830122204,-0.7204365419448711,0.011072478633987777
1759825539.3345492,0,-1.2049999237060547,-0.8299994468688965,-0.717702998210143,0.0,-1.7353029897217485,-0.35026853320605095,-0.7204737146225657,0.011208061420095877
1759825539.3538654,0,-1.2049999237060547,-0.8299994468688965,-0.7177029918727715,0.0,-1.735303042824931,-0.35028852555121154,-0.7205145018965751,0.011342473541004015
1759825539.357604,0,-1.2049999237060547,-0.8299994468688965,-0.7177030018895749,0.0,-1.7353026772657154,-0.35030690789763425,-0.7205499083280082,0.01145709381720233
1759825539.3683307,0,-1.2049999237060547,-0.8299994468688965,-0.717703003768289,0.0,-1.735301563359435,-0.35032491399198723,-0.720584893774339,0.011564787929242041
1759825539.37947,0,-1.2049999237060547,-0.8299994468688965,-0.7177030046334316,0.0,-1.735299813175178,-0.3503426858014916,-0.7206199195727764,0.011667823465052036
1759825539.3901284,0,-1.2049999237060547,-0.8299994468688965,-0.7177030059529059,0.0,-1.7360546158743277,-0.3497331042746308,-0.7199484515710999,0.016050764576182215
1759825539.4007082,0,-1.2049999237060547,-0.8299994468688965,-0.7177030073087973,0.0,-1.7369338131600787,-0.3490952393136459,-0.7191784478711221,0.023555428455188345
1759825539.4108145,0,-1.2049999237060547,-0.8299994468688965,-0.7177030089554322,0.0,-1.737617158033031,-0.34867469868107964,-0.7185758551213162,0.02953100111817249
1759825539.4222128,0,-1.2049999237060547,-0.8299994468688965,-0.7177030094539951,0.0,-1.7381462014536957,-0.3484122309363942,-0.7181072037567002,0.03429707088708126
1759825539.4335668,0,-1.2049999237060547,-0.8299994468688965,-0.7177030101144304,0.0,-1.738554867978378,-0.3482630206709025,-0.7177442272372133,0.0381109131760826
1759825539.4437134,0,-1.2049999237060547,-0.8299994468688965,-0.7177030117653693,0.0,-1.7388705130451465,-0.3481932946825547,-0.7174633866932618,0.0411758617384403
1759825539.454282,0,-1.2049999237060547,-0.8299994468688965,-0.7177030129683644,0.0,-1.739112678534333,-0.3481801475039263,-0.7172484526798134,0.04364596861594825
1759825539.4650195,0,-1.2049999237060547,-0.8299994468688965,-0.7177030139554681,0.0,-1.7392968426832325,-0.3482067494577013,-0.717086324648661,0.04564332511464406
1759825539.4764597,0,-1.2049999237060547,-0.8299994468688965,-0.7177030144684959,0.0,-1.7394346316869413,-0.3482615268239314,-0.7169673054598832,0.04726381124726004
1759825539.487166,0,-1.2049999237060547,-0.8299994468688965,-0.7177030155479045,0.0,-1.7397810186219826,-0.3481043523321431,-0.7165619227239622,0.049058044248011426
1759825539.4986215,0,-1.2049999237060547,-0.8299994468688965,-0.7177030161585076,0.0,-1.7400475094208485,-0.3480087575774117,-0.7162490326453822,0.050494456058752725
1759825539.5097437,0,-1.2049999237060547,-0.8299994468688965,-0.7177030170334184,0.0,-1.74025188491546,-0.34795802802012865,-0.7160085332949504,0.05165053087505189
1759825539.5210059,0,-1.2049999237060547,-0.8299994468688965,-0.7177030178492387,0.0,-1.7404075307221718,-0.34794035055420297,-0.7158253021555544,0.05258639165204395
1759825539.5324032,0,-1.2049999237060547,-0.8299994468688965,-0.7177030186076649,0.0,-1.740524821835242,-0.3479470703404469,-0.7156875424623097,0.05334898656831884
1759825539.5426252,0,-1.2049999237060547,-0.8299994468688965,-0.7177030199928058,0.0,-1.740612594346589,-0.3479705884480348,-0.715584880633458,0.05397417784497976
1759825539.5735707,0,-1.2049999237060547,-0.8299994468688965,-0.717703011569217,0.0,-1.740664945663969,-0.348026693305918,-0.7155281463220607,0.054507052231081814
1759825539.5841744,0,-1.2049999237060547,-0.8299994468688965,-0.717703015381149,0.0,-1.7407009114122585,-0.34808887544164563,-0.7154907122758385,0.05495308568659377
1759825539.5954478,0,-1.2049999237060547,-0.8299994468688965,-0.7177030186074802,0.0,-1.7407233632586356,-0.3481560581202293,-0.7154694925956844,0.05533055056565153
1759825539.605545,0,-1.2049999237060547,-0.8299994468688965,-0.7177030214998421,0.0,-1.7416065835760204,-0.3474198346575407,-0.7146925663908731,0.055973282141494385
1759825539.6162393,0,-1.2049999237060547,-0.8299994468688965,-0.7177030234409756,0.0,-1.7427893206760663,-0.3464481926361702,-0.7137180952939381,0.05699488671828741
1759825539.6275725,0,-1.2049999237060547,-0.8299994468688965,-0.7177030246859495,0.0,-1.7437172444219635,-0.3457011610582377,-0.7129558704464731,0.05782146107337699
1759825539.6391754,0,-1.2049999237060547,-0.8299994468688965,-0.7177030256069425,0.0,-1.7444445891190945,-0.34512981168370377,-0.7123612196678942,0.05849522211697915
1759825539.6503508,0,-1.2049999237060547,-0.8299994468688965,-0.7177030265654629,0.0,-1.7450146256424555,-0.3446950935322073,-0.7118981878591625,0.05904861666208957
1759825539.6615136,0,-1.2049999237060547,-0.8299994468688965,-0.7177030274086462,0.0,-1.7454603627507823,-0.34436763650463614,-0.711539447627628,0.059507188193244936
1759825539.6726308,0,-1.2049999237060547,-0.8299994468688965,-0.7177030281651966,0.0,-1.7458076294115907,-0.34412462666407156,-0.711263567435428,0.059890910106533114
1759825539.6840866,0,-1.2049999237060547,-0.8299994468688965,-0.717703028734288,0.0,-1.7460761915190202,-0.34394896407133563,-0.7110542602534335,0.060215869362364095
1759825539.6943235,0,-1.2049999237060547,-0.8299994468688965,-0.7177030296427063,0.0,-1.7462833679230918,-0.3438248780358543,-0.7108966467253646,0.06049304735544723
1759825539.7055764,0,-1.2049999237060547,-0.8299994468688965,-0.7177030301220775,0.0,-1.7467875185757498,-0.34339146476373206,-0.7103654195325274,0.0607628090910823
1759825539.7168462,0,-1.2049999237060547,-0.8299994468688965,-0.7177030305632339,0.0,-1.7471801357314862,-0.3430625910064137,-0.7099522139221713,0.06099321346826823
1759825539.7282617,0,-1.2049999237060547,-0.8299994468688965,-0.7177030309612215,0.0,-1.7474850229166736,-0.34281600781227034,-0.7096320473726957,0.06119324785102886
1759825539.7386746,0,-1.2049999237060547,-0.8299994468688965,-0.717703031633004,0.0,-1.747721663337736,-0.3426329245945459,-0.7093842855104497,0.061368428950783836
1759825539.7674506,0,-1.2049999237060547,-0.8299994468688965,-0.7177030277413046,0.0,-1.7478895398025673,-0.34252419123943606,-0.7092119146438598,0.06154906921638396
1759825539.7785206,0,-1.2049999237060547,-0.8299994468688965,-0.717703029445456,0.0,-1.7480173875153169,-0.342451666698206,-0.7090818617942983,0.06171166132666986
1759825539.7900732,0,-1.2049999237060547,-0.8299994468688965,-0.7177030309466533,0.0,-1.74818495414476,-0.3422854654153678,-0.708897363023541,0.06172371387468874
1759825539.8013186,0,-1.2049999237060547,-0.8299994468688965,-0.7177030321639215,0.0,-1.7484018326055286,-0.34208841064392315,-0.7085801327322501,0.061762674211744945
1759825539.8116894,0,-1.2049999237060547,-0.8299994468688965,-0.7177030332827119,0.0,-1.7485685687401715,-0.34194296981822475,-0.7083340175564613,0.061808762366846515
1759825539.8229957,0,-1.2049999237060547,-0.8299994468688965,-0.7177030339651171,0.0,-1.7486952217586835,-0.3418395618155687,-0.7081446747087806,0.06186210777871023
1759825539.8343866,0,-1.2049999237060547,-0.8299994468688965,-0.717703034498463,0.0,-1.7487901897847953,-0.34176971405141593,-0.7080002184114588,0.06192165652392263
1759825539.8459895,0,-1.2049999237060547,-0.8299994468688965,-0.7177030349175233,0.0,-1.7488599338207542,-0.34172696105632144,-0.7078914714704342,0.061986791670961015
1759825539.8570218,0,-1.2049999237060547,-0.8299994468688965,-0.7177030353970811,0.0,-1.7489099464445264,-0.3417053700100696,-0.7078107269017446,0.06205590860691212
1759825539.86838,0,-1.2049999237060547,-0.8299994468688965,-0.7177030357616729,0.0,-1.7489440035683714,-0.34170128323029514,-0.7077525661928095,0.06212904661551816
1759825539.8796186,0,-1.2049999237060547,-0.8299994468688965,-0.7177030361115477,0.0,-1.748965314210988,-0.3417113439182877,-0.7077124396915324,0.062205609060265246
1759825539.8909535,0,-1.2049999237060547,-0.8299994468688965,-0.7177030364172854,0.0,-1.748976277073015,-0.34173315117200703,-0.7076869102937329,0.06228545611312184
1759825539.9009652,0,-1.2049999237060547,-0.8299994468688965,-0.7177030369093682,0.0,-1.7508059803301361,-0.3401504060933172,-0.7061979773723751,0.06149541294448759
1759825539.9115694,0,-1.2049999237060547,-0.8299994468688965,-0.7177030372353279,0.0,-1.7522477473163556,-0.3389002073848325,-0.7050277956283608,0.060884296805136344
1759825539.9225726,0,-1.2049999237060547,-0.8299994468688965,-0.7177030374575644,0.0,-1.7533836300600278,-0.33791455387129893,-0.7041092135479001,0.06041495114314894
1759825539.9335046,0,-1.2049999237060547,-0.8299994468688965,-0.7177030376802378,0.0,-1.7542786547884746,-0.3371388367914524,-0.703388849285779,0.06005744709993866
1759825539.9437842,0,-1.2049999237060547,-0.8299994468688965,-0.717703037986194,0.0,-1.7549844916316142,-0.3365289739882965,-0.7028240892627212,0.05978738341829144
1759825539.9765208,0,-1.2049999237060547,-0.8299994468688965,-0.7177030354516631,0.0,-1.7555042634344211,-0.3360964787909179,-0.70241939787439,0.0596274297790164
1759825539.9872308,0,-1.2049999237060547,-0.8299994468688965,-0.7177030364852683,0.0,-1.7559129572737757,-0.33576142534126047,-0.7021051509171241,0.05951565090535795
1759825539.9973059,0,-1.2049999237060547,-0.8299994468688965,-0.7177030375181861,0.0,-1.7562335171753112,-0.3355039794807398,-0.7018625474722175,0.059441661907073416
1759825540.0087547,0,-1.2049999237060547,-0.8299994468688965,-0.7177030381364968,0.0,-1.7566362199115755,-0.33510726577712135,-0.7015151531694922,0.059323895907117834
1759825540.0200412,0,-1.2049999237060547,-0.8299994468688965,-0.717703038618069,0.0,-1.7572673784355632,-0.3345327863506359,-0.7008773740248742,0.05923285759352193
1759825540.0313954,0,-1.2049999237060547,-0.8299994468688965,-0.7177030389924575,0.0,-1.7577608359785004,-0.3340881342844717,-0.7003791651407466,0.059178700109993904
1759825540.042034,0,-1.2049999237060547,-0.8299994468688965,-0.7177030393673648,0.0,-1.7581467642197863,-0.3337451248596034,-0.6999899810917011,0.059152731445471944
1759825540.0530841,0,-1.2049999237060547,-0.8299994468688965,-0.7177030396339692,0.0,-1.758447387666597,-0.33348346989387945,-0.6996873930581563,0.05915003848362713
1759825540.0639026,0,-1.2049999237060547,-0.8299994468688965,-0.7177030398783373,0.0,-1.758680706029559,-0.33328633104434485,-0.6994531702055817,0.059165747678993456
1759825540.0752175,0,-1.2049999237060547,-0.8299994468688965,-0.7177030400440891,0.0,-1.7588601383086226,-0.3331414816199183,-0.6992737689866971,0.05919724937668909
1759825540.086419,0,-1.2049999237060547,-0.8299994468688965,-0.7177030402058372,0.0,-1.7589967486203972,-0.3330384823252526,-0.6991379652896672,0.059241528284185156
1759825540.097338,0,-1.2049999237060547,-0.8299994468688965,-0.7177030403807549,0.0,-1.7590993494910914,-0.332968891592916,-0.6990367999099886,0.05929593639969914
1759825540.1081088,0,-1.2049999237060547,-0.8299994468688965,-0.717703040551651,0.0,-1.7600736387120428,-0.33211671317275143,-0.6981234466214591,0.059110553391099156
1759825540.1187558,0,-1.2049999237060547,-0.8299994468688965,-0.7177030407144507,0.0,-1.761411074600004,-0.3309716755931413,-0.6969308052412625,0.058911146799083006
1759825540.129397,0,-1.2049999237060547,-0.8299994468688965,-0.7177030408603713,0.0,-1.7624625891683794,-0.33007395397733774,-0.6959945872054937,0.05876983688162132
1759825540.1405005,0,-1.2049999237060547,-0.8299994468688965,-0.7174085457102097,0.005235987755982988,-1.7632885023199045,-0.3293725608518777,-0.6952609639832966,0.05867534392011041
1759825540.1581187,0,-1.2049882708835702,-0.8300108654558827,-0.7174020141146865,0.005368375038499417,-1.7639263840308252,-0.3288391084102941,-0.6946976381690305,0.058629239646768465
1759825540.1686757,0,-1.204984231142461,-0.8300143861817675,-0.7173989191236108,0.005368375038499417,-1.7644274244498588,-0.3284251885120214,-0.694257089030776,0.05860983841907229
1759825540.1798365,0,-1.2049826650928215,-0.8300157510626892,-0.7174052409087289,0.005368375038499417,-1.7648189524511746,-0.3281077688962106,-0.693915023430306,0.05861301779103321
1759825540.1913247,0,-1.2049820544448153,-0.8300162832867807,-0.7174030541459127,0.005368375038499417,-1.7651228960414707,-0.3278681664516008,-0.6936518826890812,0.05863511196530216
1759825540.2027633,0,-1.204981823086831,-0.8300164849288755,-0.7173769751158108,0.005368375038499417,-1.7653569878030972,-0.32769101872110284,-0.6934517643784,0.05867263217471706
1759825540.2137442,0,-1.204981752153556,-0.8300165467258087,-0.7173724067093191,0.005368375038499417,-1.7655356524763153,-0.3275635560060719,-0.693301640274798,0.05872214367165466
1759825540.2251673,0,-1.2046253634084099,-0.8297772956468316,-0.7171267037989815,0.005980292951357804,-1.7660650192479976,-0.32707994179968086,-0.6926908297624929,0.05869766438736265
1759825540.2365222,0,-1.20462535063997,-0.8297773067761273,-0.7171118095962343,0.005980292951357804,-1.7664774941817167,-0.32670793723685754,-0.6922133482247005,0.05869729572247326
1759825540.2476218,0,-1.204625354517072,-0.8297773033844407,-0.717124791072945,0.005980292951357804,-1.7667983911102234,-0.3264237547616101,-0.6918404076525768,0.05871583562734044
1759825540.2580874,0,-1.2046253777325904,-0.8297772831144707,-0.7171276931760885,0.005980292951357804,-1.7670476592952844,-0.32620837998273,-0.691549326767077,0.058748592639221525
1759825540.2693424,0,-1.2046253595358456,-0.8297772989988851,-0.7171410776736147,0.005980292951357804,-1.767239578925723,-0.32604882439828264,-0.6913237628593987,0.05879430454927267
1759825540.279386,0,-1.2046253941174907,-0.8297772688086926,-0.7171193574295874,0.005980292951357804,-1.7673869745714026,-0.32593235422609806,-0.6911491690852164,0.058848621750126714
1759825540.2907135,0,-1.2046253633093218,-0.8297772957037854,-0.7171171335877732,0.005980292951357804,-1.767497899127522,-0.32585206259930777,-0.6910162413089873,0.05891235475804748
1759825540.30213,0,-1.204625348492777,-0.8297773086385173,-0.7171173601180173,0.005980292951357804,-1.7675796253207265,-0.32580105622099537,-0.6909166596441795,0.05898418754402253
1759825540.3135457,0,-1.2046253428578801,-0.8297773135577345,-0.717120395718787,0.005980292951357804,-1.7676379317319864,-0.32577380042332665,-0.6908438129098812,0.05906295161430446
1759825540.324124,0,-1.2046253694126976,-0.8297772903754419,-0.7171341765793087,0.005980292951357804,-1.7676779626634676,-0.3257649262883944,-0.6907918770269463,0.05914626067966536
1759825540.3352308,0,-1.2046832253579378,-0.829832054957147,-0.7171374759245115,0.006493188226910106,-1.769156796853783,-0.3245200791639942,-0.6893876267340018,0.059197983586931714
1759825540.3464885,0,-1.2046832171392872,-0.8298320621319953,-0.7171447576980353,0.006493188226910106,-1.7703195324084033,-0.3235460895261812,-0.6882832882633474,0.05925796745498824
1759825540.356631,0,-1.2011146917969198,-0.8332885527694308,-0.7143919934059771,0.04198838485397684,-1.771235975414822,-0.3227831374967199,-0.6874127700561711,0.059323015994995676
1759825540.3676302,0,-1.1997727671349585,-0.8344451042547482,-0.7122275829327193,0.04198838485397684,-1.7719565572110858,-0.3221889227913123,-0.6867284857977665,0.059393832316972116
1759825540.3788373,0,-1.199257247849832,-0.8348881405890838,-0.7106701031055541,0.04198838485397684,-1.7725220165155455,-0.3217288830859424,-0.686191883528107,0.05946996598970101
1759825540.3892896,0,-1.19906754536829,-0.8350502520479488,-0.709537489223644,0.04198838485397684,-1.772965619299667,-0.32137422595958287,-0.6857713509060333,0.059549468334794395
1759825540.3998704,0,-1.1989933442820413,-0.8351130170742441,-0.7087051036531564,0.04198838485397684,-1.7733120791540309,-0.32110395973458045,-0.6854434679568936,0.05963225754056217
1759825540.4110029,0,-1.1989589940689882,-0.8351416550822064,-0.7080803042968958,0.04198838485397684,-1.7735803225602635,-0.3209022268422298,-0.6851903252549677,0.05971902424009905
1759825540.422234,0,-1.1989446302806712,-0.8351533053907843,-0.7076464798013685,0.04198838485397684,-1.7739074204046643,-0.32059517729063214,-0.684871073357147,0.06013762298542502
1759825540.4328163,0,-1.198867573005201,-0.8353175359943747,-0.7071853875353598,0.043125335824402075,-1.7744224364727212,-0.3201500349275613,-0.6842452424680352,0.0605434093379265
1759825540.443755,0,-1.1988641817328374,-0.8353200692192497,-0.7069336630970214,0.043125335824402075,-1.7748229628167635,-0.3198124416240419,-0.6837546251373059,0.060888879839384534
1759825540.4544718,0,-1.1988651060581241,-0.8353190229132226,-0.7067993524341043,0.043125335824402075,-1.775133816132786,-0.31955882274163905,-0.6833701463079669,0.06118704553073179
1759825540.465348,0,-1.198863755881147,-0.8353199898011623,-0.7066614469685658,0.043125335824402075,-1.7753738908907468,-0.3193714683557674,-0.6830695593658839,0.0614487373439362
1759825540.4755497,0,-1.1988701950822227,-0.8353143824994007,-0.7066342802393982,0.043125335824402075,-1.7755586249198942,-0.31923556571655043,-0.6828347901786416,0.06168079564959314
1759825540.4869897,0,-1.1988597986171956,-0.8353231490084537,-0.7065507880297127,0.043125335824402075,-1.7756984571120398,-0.3191420212255181,-0.6826532639541333,0.061892359706215615
1759825540.497102,0,-1.1988695731973849,-0.8353147725852218,-0.70653413434021,0.043125335824402075,-1.7758036416123317,-0.31908057682973817,-0.6825131047308861,0.06208550287645063
1759825540.50838,0,-1.198861219741708,-0.8353218507311873,-0.7065366919267975,0.043125335824402075,-1.7758802570235876,-0.31904625642876444,-0.6824068484720177,0.06226692229609804
1759825540.5195296,0,-1.1988593539316716,-0.8353234182816419,-0.7065309495816314,0.043125335824402075,-1.7759340736547355,-0.31903364043242466,-0.6823276647092014,0.06243932494772888
1759825540.530793,0,-1.1988574620631378,-0.8353250191202105,-0.7065010845426123,0.043125335824402075,-1.7768152435093156,-0.3183030805045552,-0.681304429911107,0.06287257484746185
1759825540.541163,0,-1.198799520278391,-0.8354666964269516,-0.706345693809121,0.04405913394156097,-1.7780232492841872,-0.3173260949911811,-0.6799701486560202,0.0637057040573459
1759825540.5541847,0,-1.1893085920495683,-0.8437572278552424,-0.6949562440829833,0.10170416539382127,-1.7789668754356651,-0.3165760415895964,-0.678923742918531,0.06439459333402403
1759825540.5650585,0,-1.185784892043101,-0.846590847793141,-0.6859409456011547,0.10170416539382127,-1.7797070291836752,-0.31599899284202043,-0.6780994492624806,0.06496766229014697
1759825540.5758636,0,-1.184432357392435,-0.8476650093046787,-0.6793238449735322,0.10170416539382127,-1.7802867940158493,-0.31555781682391226,-0.6774506405573607,0.06544967088320326
1759825540.5867705,0,-1.183906813231008,-0.8480727317813301,-0.6745305469007111,0.10170416539382127,-1.7807395235738879,-0.3152239955314965,-0.6769411342818049,0.0658602872667925
1759825540.597261,0,-1.1837133883036068,-0.8482157640957149,-0.6710845396745623,0.10170416539382127,-1.7810920363130784,-0.3149744298095898,-0.6765417924650694,0.06621400572948523
1759825540.6073291,0,-1.1836483235584647,-0.8482586607040689,-0.6686551191564752,0.10170416539382127,-1.781365293187307,-0.31479112043386376,-0.6762297953081694,0.06652211014354076
1759825540.6182039,0,-1.183598556068197,-0.8482909416595925,-0.6668164154602815,0.10170416539382127,-1.7815742122729452,-0.31466199581783066,-0.6759887971884176,0.0667958922298558
1759825540.6295657,0,-1.183564160777366,-0.8483125610437188,-0.6654839094581374,0.10170416539382127,-1.7818557217956765,-0.3144089878507525,-0.6756745904943272,0.06840147501190495
1759825540.6403496,0,-1.1831816856830943,-0.8487136058176584,-0.6636139888439601,0.1036506481786366,-1.7823130666935862,-0.3140400115693892,-0.6749996805474,0.06989850238699487
1759825540.6517038,0,-1.1831655320501715,-0.848723322751512,-0.6629410709113787,0.1036506481786366,-1.7826645216065493,-0.31377552007621734,-0.6744696509922349,0.07112776010323489
1759825540.662104,0,-1.1831858280169023,-0.8487058395134023,-0.662559863232011,0.1036506481786366,-1.7829341375133656,-0.3135897165003951,-0.6740526414847813,0.07214508349079926
1759825540.6721513,0,-1.183203264011709,-0.8486912525539608,-0.6623449255378455,0.1036506481786366,-1.7831398320812972,-0.31346391707680765,-0.6737245941110156,0.07299499336418416
1759825540.682713,0,-1.1831951797052305,-0.8486966940657715,-0.6621472331081764,0.1036506481786366,-1.7832947167698634,-0.31338510519769075,-0.6734674461364725,0.07371473450749023
1759825540.6938753,0,-1.1831749493439179,-0.8487116907218197,-0.6619647604568133,0.1036506481786366,-1.7834089529833943,-0.31334351995724163,-0.6732670284427259,0.07433408291941133
1759825540.7051644,0,-1.1831635393502176,-0.8487200856836801,-0.6618717815645137,0.1036506481786366,-1.78349086997897,-0.31333114204130735,-0.6731118322946049,0.07487516089885012
1759825540.7153726,0,-1.1831897807941791,-0.8486998091074277,-0.6619018017035109,0.1036506481786366,-1.7835479515575552,-0.3133402541835665,-0.6729920076791543,0.075351324936292
1759825540.7265155,0,-1.183173377241809,-0.8487123891084848,-0.6619017878758154,0.1036506481786366,-1.7835844147968887,-0.31336755992739485,-0.6729011507534841,0.07577974353108136
1759825540.7378302,0,-1.1831622830366957,-0.8487209356017219,-0.6618798189977749,0.1036506481786366,-1.7836041635850683,-0.3134096373813367,-0.6728336879525121,0.07617163666110288
1759825540.7487314,0,-1.1831698065504466,-0.8487152624231903,-0.6619278663960914,0.1036506481786366,-1.7845845805752605,-0.3126080338136958,-0.6711673095732995,0.07542065367421107
1759825540.7714326,0,-1.1695386429797314,-0.8588829292433885,-0.6423006593514885,0.13585594719768185,-1.7859221517211352,-0.31153566842681013,-0.6691444768342704,0.07440583431302508
1759825540.781571,0,-1.1649423588681926,-0.8621118818541937,-0.6289495629254234,0.13585594719768185,-1.786977880409784,-0.31068427513351776,-0.6675455044773428,0.07363590918506893
1759825540.7922833,0,-1.1631493085991929,-0.8633469071735135,-0.6191045422812843,0.13585594719768185,-1.7878098376468166,-0.3100114877246603,-0.6662829814164966,0.07306271219290016
1759825540.8029983,0,-1.1624534473972605,-0.8638083178759449,-0.6120718723000351,0.13585594719768185,-1.7884646735542384,-0.30948228865686495,-0.6652867313895353,0.0726459249592537
1759825540.813773,0,-1.1621775761066355,-0.8639786524264745,-0.6070154674781789,0.13585594719768185,-1.788978809398784,-0.3090689736647939,-0.6645019247364784,0.07235424252145754
1759825540.825042,0,-1.162047138239555,-0.8640513207794164,-0.6032865973880253,0.13585594719768185,-1.7893801856076321,-0.308750306191758,-0.6638863983821905,0.07216497104578917
1759825540.8354762,0,-1.162026375882408,-0.8640532278113923,-0.6008128325834943,0.13585594719768185,-1.7896927454136677,-0.3085068781517913,-0.6634042589237367,0.07205466612101
1759825540.846219,0,-1.1612904779161155,-0.8646831057369447,-0.597063022603679,0.13780432481214702,-1.790344288668843,-0.30793146840604196,-0.6622310964654347,0.0736684523343798
1759825540.8565218,0,-1.1612973533315194,-0.8646721136110889,-0.595873938989932,0.13780432481214702,-1.79084894935415,-0.30750289638827316,-0.6613073251652201,0.07500508810901335
1759825540.8676097,0,-1.1612675386531148,-0.8646870541069663,-0.594904813914459,0.13780432481214702,-1.7912379029317211,-0.3071888640335965,-0.6605807632443784,0.07612857862309297
1759825540.8781414,0,-1.1612773524378124,-0.8646773988894224,-0.5943347956176863,0.13780432481214702,-1.7915368333187351,-0.3069626327803237,-0.66000874654738,0.07708316583307778
1759825540.8882272,0,-1.1612983475817775,-0.864661660536588,-0.5940848709816811,0.13780432481214702,-1.7917654466096486,-0.3068039558515474,-0.6595583374272481,0.07790349792153223
1759825540.8992188,0,-1.1612700953903674,-0.8646788462485271,-0.5937600332411114,0.13780432481214702,-1.7919377386924513,-0.30669926016855464,-0.6592053344587846,0.07862322796064489
1759825540.910212,0,-1.1612590260258717,-0.8646852160337095,-0.5935871164317805,0.13780432481214702,-1.7920654932161526,-0.3066368924947447,-0.6589296750330524,0.07926464862198236
1759825540.9202402,0,-1.1612931397884323,-0.8646625981430967,-0.5936651312148135,0.13780432481214702,-1.7921587485882116,-0.3066065435098034,-0.6587147025192964,0.07984017243677033
1759825540.9307275,0,-1.1612880495388012,-0.8646659751638684,-0.5936808202876168,0.13780432481214702,-1.7922240971018428,-0.30660217761016906,-0.6585487034548029,0.0803668303641619
1759825540.9419422,0,-1.1612572933564596,-0.8646861941701462,-0.5936084216319125,0.13780432481214702,-1.7923497869464065,-0.30648320349987446,-0.6583378030361886,0.08032253483327957
1759825540.9620218,0,-1.1484353461678198,-0.8726624586516657,-0.574339842188966,0.12770041185560582,-1.7925419454397549,-0.3063276571757339,-0.6578137237665196,0.08047454048724939
1759825540.9655883,0,-1.1443228944737114,-0.8751562790247649,-0.5634683737198808,0.12770041185560582,-1.792692827107153,-0.3062083350707065,-0.6573942926640644,0.08061672242137795
1759825540.975885,0,-1.1424954686883984,-0.876249311181948,-0.5541984358265605,0.12770041185560582,-1.7928057009214362,-0.30612690139959253,-0.6570628468053481,0.0807887109325719
1759825540.987036,0,-1.1417572360505117,-0.8766757026663413,-0.5473170377337858,0.12770041185560582,-1.7928878069969614,-0.3060771593009277,-0.6568014403391188,0.08099022337812671
1759825540.9980845,0,-1.14147271674338,-0.8768289429757535,-0.5423782106593878,0.12770041185560582,-1.7929455022417025,-0.30605302798405787,-0.6565954080214508,0.0812159116707008
1759825541.0092504,0,-1.1413551787729648,-0.8768846928511618,-0.5388495134268524,0.12770041185560582,-1.7929835926446192,-0.3060499867023292,-0.6564333889270999,0.08146285394020372
1759825541.0200589,0,-1.141320505371499,-0.8768946593300612,-0.5363936231949962,0.12770041185560582,-1.793006172077392,-0.30606386119510653,-0.6563062450140218,0.0817261146748362
1759825541.030282,0,-1.1413271097896411,-0.8768836296872103,-0.5348197515674973,0.12770041185560582,-1.7930166182886453,-0.306091018336222,-0.6562067162924243,0.08200041573555378
1759825541.0409665,0,-1.141310983879454,-0.8768875088863246,-0.533620306686011,0.12770041185560582,-1.7930168712467147,-0.30612987772872086,-0.6561295245922718,0.08228755614295591
1759825541.0511599,0,-1.140472517409992,-0.877533691417515,-0.5304675297754295,0.12871879569882771,-1.7949025352707113,-0.3046859102320597,-0.6512878384164162,0.0832940919548483
1759825541.0618322,0,-1.1404583136361934,-0.8775392458066171,-0.5299067432556348,0.12871879569882771,-1.79637836943798,-0.30356292953582187,-0.6474697173672683,0.08416129847613006
1759825541.0718405,0,-1.1404774593931464,-0.8775270125865939,-0.5296868842861907,0.12871879569882771,-1.7975347889414193,-0.3026903730506485,-0.6444529258169782,0.08491659125956724
1759825541.082874,0,-1.1404461531886663,-0.8775436309226858,-0.5293958727832415,0.12871879569882771,-1.7984379174166203,-0.30201770548174217,-0.642073725491809,0.0855909316254858
1759825541.0938945,0,-1.1404345732358954,-0.8775495317676153,-0.5292747762111871,0.12851481145008828,-1.7991417553818143,-0.3015029491894851,-0.6401981828055257,0.08620288095124072
1759825541.1047022,0,-1.140438161360271,-0.8775473350964739,-0.5292983535087789,0.12821612942975902,-1.7996886908602103,-0.3011129665542865,-0.638720825815058,0.08676576055026097
1759825541.1153214,0,-1.1404466932306114,-0.8775426377068093,-0.5293638864762255,0.1284495749100847,-1.8001116969106288,-0.3008219386644972,-0.6375592702125157,0.08729009833906841
1759825541.126563,0,-1.1404268055828517,-0.877554101268165,-0.5294025852896316,0.12815510539244301,-1.80043521433817,-0.3006112601433609,-0.6366517283936879,0.08778930015631928
1759825541.1377938,0,-1.1404197801766964,-0.8775584126199079,-0.5294995024300099,0.12793645964689146,-1.8006794802128903,-0.3004650887809591,-0.635947139707707,0.08827018492436044
1759825541.148475,0,-1.1397271765075632,-0.8780979005423585,-0.5275798870238939,0.12936501027233302,-1.8013404775793234,-0.2999302605051705,-0.6339157344405681,0.08814825190268674
1759825541.169886,0,-1.1249100464705575,-0.8859587915447309,-0.507252735579125,0.14379546934033635,-1.8018387031567027,-0.2995369796586978,-0.6323454042004565,0.08819079235881559
1759825541.1814106,0,-1.119684309698635,-0.888636726455711,-0.4926975520741965,0.14480184444734215,-1.8022234840830775,-0.2992387646065115,-0.6311072197137336,0.08830074827707836
1759825541.1922266,0,-1.1177054797339332,-0.8896248901167225,-0.48247833051818956,0.14425539548552815,-1.802519653112196,-0.29901561995657316,-0.6301296452999711,0.08846091810111303
1759825541.2033186,0,-1.1169281372170832,-0.8899950535691868,-0.4751114935950273,0.14396711445437468,-1.802745315813912,-0.2988534064921557,-0.6293591859597246,0.08866422088904716
1759825541.214437,0,-1.1166233242773949,-0.8901273467429908,-0.46982845327790773,0.1439701296692113,-1.8029149159778841,-0.29874054360199875,-0.6287533260470073,0.08890358236830168
1759825541.2255738,0,-1.1165013654216702,-0.8901713967791127,-0.4660840015938004,0.14385626693274817,-1.8030397664684195,-0.2986678479530944,-0.6282786574550011,0.08917345477719724
1759825541.2363698,0,-1.1164666662305884,-0.8901764025359964,-0.46358045776433676,0.14322374613471156,-1.8031291152072009,-0.2986274758099854,-0.6279082919246032,0.08946710571957522
1759825541.2472942,0,-1.1164455444309107,-0.8901777533856429,-0.46180026334080115,0.14286873747323345,-1.804129948021161,-0.29787001686430503,-0.6244132276759707,0.08911407777438786
1759825541.2583826,0,-1.1153627458069981,-0.8908782716910005,-0.45747129624112964,0.14395829136453692,-1.8054846130018876,-0.29686887278449925,-0.6199151415598926,0.08897723086389463
1759825541.2685976,0,-1.115394085688549,-0.8908594537543518,-0.4567827661717743,0.14417056245997223,-1.8065437463580352,-0.2960837200640659,-0.6163661786432636,0.08893476384032799
1759825541.2798758,0,-1.115358278786549,-0.8908732345013513,-0.4561114201678271,0.1443689566862984,-1.8073688246429758,-0.29547287092328306,-0.6135704130814582,0.0889748988935034
1759825541.2906554,0,-1.1153663924261064,-0.8908676959164463,-0.4558633877681965,0.14387729185808987,-1.8080109290466373,-0.2950000007164633,-0.6113658553742106,0.08907840969359586
1759825541.3020914,0,-1.1153401514208416,-0.8908787380420365,-0.45558059575852683,0.14396929238087275,-1.8085075764928324,-0.2946389141616525,-0.6096318440808851,0.08923786267980184
1759825541.3128047,0,-1.115362242816375,-0.8908681116066752,-0.4556658337877699,0.1432697285248085,-1.808890396186508,-0.2943662324025469,-0.6082677892516888,0.0894385123200112
1759825541.3238168,0,-1.1153575315734012,-0.8908703323684738,-0.45568852941751775,0.14330731324506238,-1.809182363179894,-0.2941654276343645,-0.6071992563595023,0.089675454185276
1759825541.3348587,0,-1.1153545844170338,-0.8908720138311522,-0.45578631037544604,0.14309473701614212,-1.8094019063068802,-0.2940229100794983,-0.6063665911434731,0.08994317181971126
1759825541.3462396,0,-1.115338543738511,-0.8908798050030919,-0.4558008871814225,0.14357400219277447,-1.8096994634577015,-0.2937598519670637,-0.6054055362354325,0.0895999882163486
1759825541.3695822,0,-1.098118766487849,-0.8985697159087682,-0.4332977594585918,0.15208069792936757,-1.8101835387863499,-0.2933805367832801,-0.6033591323252545,0.08948390639879288
1759825541.3797374,0,-1.0925039473542513,-0.9009440939898347,-0.420365601283848,0.15136407420663886,-1.8105583486638381,-0.2930884864975006,-0.6017374776619157,0.08945834892672995
1759825541.3908434,0,-1.0903028980257286,-0.9018514884679764,-0.410872279155578,0.15114722930997834,-1.8108457067963777,-0.2928683949087666,-0.6004540150334537,0.08951203588427387
1759825541.4022315,0,-1.0894406063041837,-0.9021895496460685,-0.40399180683991637,0.15135130966793348,-1.8110635163276942,-0.2927070039641534,-0.5994388181250191,0.08963190262287107
1759825541.4123883,0,-1.08916501654011,-0.9022853219925732,-0.39939115067500064,0.15167335972323004,-1.811227453632547,-0.2925914641246087,-0.5986339656735483,0.08979766854493093
1759825541.4233177,0,-1.089018864091056,-0.9023300027262974,-0.39605401996592743,0.1507671387220137,-1.8113475497161706,-0.2925145233392715,-0.5979982193456276,0.09000663636546548
1759825541.4336524,0,-1.0889890954399426,-0.9023311398931108,-0.3937697972443378,0.15093843906534324,-1.8114331471638627,-0.2924683908265626,-0.597496465218464,0.09024767269250557
1759825541.4451883,0,-1.0889177084693449,-0.9023504093763198,-0.39186553252817186,0.15137152032857926,-1.8114897165300778,-0.292449452875538,-0.5971040347199176,0.09052413486270809
1759825541.4563746,0,-1.0889060932122416,-0.9023489105503755,-0.39077280063366787,0.15033169332537186,-1.8115231432475438,-0.29245263640460467,-0.5967988003520784,0.09082847384815065
