timestamp,vehicle_id,x,y,theta,velocity,gps_available,dt,gps_x,gps_y,gps_theta,gps_velocity,control_steering,control_acceleration
1759825537.134276,0,-1.205,-0.83,-0.7801621756414647,0.0,False,0.01,nan,nan,nan,nan,0.0,0.0
1759825537.1454875,0,-1.205,-0.83,-0.7801621756414647,0.0,False,0.011211633682250977,nan,nan,nan,nan,0.0,0.0
1759825537.1567867,0,-1.205,-0.83,-0.7801621756414647,0.0,False,0.01129913330078125,nan,nan,nan,nan,0.0,0.0
1759825537.1675289,0,-1.205,-0.83,-0.7801621756414647,0.0,False,0.0107421875,nan,nan,nan,nan,0.0,0.0
1759825537.1782875,0,-1.205,-0.83,-0.7801621756414647,0.0,False,0.010758638381958008,nan,nan,nan,nan,0.0,0.0
1759825537.1894155,0,-1.205,-0.83,-0.7801621756414647,0.0,False,0.011127948760986328,nan,nan,nan,nan,0.0,0.0
1759825537.2009845,0,-1.205,-0.83,-0.7801621756414647,0.0,False,0.011569023132324219,nan,nan,nan,nan,0.0,0.0
1759825537.2117562,0,-1.205,-0.83,-0.7801621756414647,0.0,False,0.010771751403808594,nan,nan,nan,nan,0.0,0.0
1759825537.2222667,0,-1.205,-0.83,-0.7801621756414647,0.0,False,0.010510444641113281,nan,nan,nan,nan,0.0,0.0
1759825537.2326138,0,-1.205,-0.83,-0.7801621756414647,0.0,False,0.010347127914428711,nan,nan,nan,nan,0.0,0.0
1759825537.2426436,0,-1.205,-0.83,-0.7801621756414647,0.0,False,0.010029792785644531,nan,nan,nan,nan,0.0,0.0
1759825537.2537649,0,-1.205,-0.83,-0.7801621756414647,0.0,False,0.011121273040771484,nan,nan,nan,nan,0.0,0.0
1759825537.265131,0,-1.205,-0.83,-0.7801621756414647,0.0,False,0.011366128921508789,nan,nan,nan,nan,0.0,0.0
1759825537.27591,0,-1.205,-0.83,-0.7801621756414647,0.0,False,0.01077890396118164,nan,nan,nan,nan,0.0,0.0
1759825537.2866907,0,-1.205,-0.83,-0.7801621756414647,0.0,False,0.010780811309814453,nan,nan,nan,nan,0.0,0.0
1759825537.2977638,0,-1.205,-0.83,-0.7801621756414647,0.0,False,0.011073112487792969,nan,nan,nan,nan,0.0,0.0
1759825537.3082511,0,-1.205,-0.83,-0.7801621756414647,0.0,False,0.01048731803894043,nan,nan,nan,nan,0.0,0.0
1759825537.3188329,0,-1.205,-0.83,-0.7801621756414647,0.0,False,0.010581731796264648,nan,nan,nan,nan,0.0,0.0
1759825537.3327615,0,-1.2049999243418377,-0.8299994514783223,-0.7229992969319721,0.0,True,0.013928651809692383,-1.2049999237060547,-0.8299994468688965,-0.7177030444145203,0.0,0.0,0.0
1759825537.344266,0,-1.2049999239185727,-0.8299994484096517,-0.7181127321910061,0.0,True,0.011504411697387695,-1.2049999237060547,-0.8299994468688965,-0.7177030444145203,0.0,0.0,0.0
1759825537.3546011,0,-1.2049999237857767,-0.8299994474468809,-0.7176568661996541,0.0,True,0.010335206985473633,-1.2049999237060547,-0.8299994468688965,-0.7177030444145203,0.0,0.0,0.0
1759825537.365486,0,-1.2049999237364264,-0.829999447089092,-0.7175960024785368,0.0,True,0.010884761810302734,-1.2049999237060547,-0.8299994468688965,-0.7177030444145203,0.0,0.0,0.0
1759825537.3770018,0,-1.2049999237176512,-0.8299994469529718,-0.7175871600832959,0.0,True,0.01151585578918457,-1.2049999237060547,-0.8299994468688965,-0.7177030444145203,0.0,0.0,0.0
1759825537.387857,0,-1.2049999237104838,-0.8299994469010086,-0.7175959177635249,0.0,True,0.01085519790649414,-1.2049999237060547,-0.8299994468688965,-0.7177030444145203,0.0,0.0,0.0
1759825537.3990593,0,-1.2049999237077464,-0.8299994468811621,-0.7176075883112158,0.0,True,0.011202335357666016,-1.2049999237060547,-0.8299994468688965,-0.7177030444145203,0.0,0.0,0.0
1759825537.409812,0,-1.2049999237067008,-0.8299994468735815,-0.7176201660209554,0.0,True,0.010752677917480469,-1.2049999237060547,-0.8299994468688965,-0.7177030444145203,0.0,0.0,0.0
1759825537.420671,0,-1.2049999237063016,-0.829999446870686,-0.7176308614763744,0.0,True,0.010859012603759766,-1.2049999237060547,-0.8299994468688965,-0.7177030444145203,0.0,0.0,0.0
1759825537.4312017,0,-1.204999923706149,-0.82999944686958,-0.7176402042583021,0.0,True,0.010530710220336914,-1.2049999237060547,-0.8299994468688965,-0.7177030444145203,0.0,0.0,0.0
1759825537.442072,0,-1.2049999237060907,-0.8299994468691576,-0.7176474518870464,0.0,True,0.010870218276977539,-1.2049999237060547,-0.8299994468688965,-0.7177030444145203,0.0,0.0,0.0
1759825537.4524083,0,-1.2049999237060685,-0.8299994468689962,-0.7176540048318678,0.0,True,0.01033639907836914,-1.2049999237060547,-0.8299994468688965,-0.7177030444145203,0.0,0.0,0.0
1759825537.4629126,0,-1.20499992370606,-0.8299994468689346,-0.7176591839180091,0.0,True,0.01050424575805664,-1.2049999237060547,-0.8299994468688965,-0.7177030444145203,0.0,0.0,0.0
1759825537.4730258,0,-1.2049999237060567,-0.829999446868911,-0.717663774171827,0.0,True,0.010113239288330078,-1.2049999237060547,-0.8299994468688965,-0.7177030444145203,0.0,0.0,0.0
1759825537.4839337,0,-1.2049999237060554,-0.829999446868902,-0.7176669833138902,0.0,True,0.010907888412475586,-1.2049999237060547,-0.8299994468688965,-0.7177030444145203,0.0,0.0,0.0
1759825537.4947708,0,-1.204999923706055,-0.8299994468688986,-0.7176698817542864,0.0,True,0.010837078094482422,-1.2049999237060547,-0.8299994468688965,-0.7177030444145203,0.0,0.0,0.0
1759825537.5056844,0,-1.2049999237060547,-0.8299994468688973,-0.7176724291798617,0.0,True,0.010913610458374023,-1.2049999237060547,-0.8299994468688965,-0.7177030444145203,0.0,0.0,0.0
1759825537.5164201,0,-1.2049999237060547,-0.8299994468688968,-0.7176748119567655,0.0,True,0.010735750198364258,-1.2049999237060547,-0.8299994468688965,-0.7177030444145203,0.0,0.0,0.0
1759825537.551847,0,-1.2049999237060547,-0.8299994468688966,-0.7176664346381845,0.0,True,0.03542685508728027,-1.2049999237060547,-0.8299994468688965,-0.7177030444145203,0.0,0.0,0.0
1759825537.562729,0,-1.2049999237060547,-0.8299994468688965,-0.7176731388529163,0.0,True,0.010881900787353516,-1.2049999237060547,-0.8299994468688965,-0.7177030444145203,0.0,0.0,0.0
1759825537.573017,0,-1.2049999237060547,-0.8299994468688965,-0.7176785342801715,0.0,True,0.010288000106811523,-1.2049999237060547,-0.8299994468688965,-0.7177030444145203,0.0,0.0,0.0
1759825537.5831366,0,-1.2049999237060547,-0.8299994468688965,-0.7176822593897452,0.0,True,0.01011967658996582,-1.2049999237060547,-0.8299994468688965,-0.7177030444145203,0.0,0.0,0.0
1759825537.593597,0,-1.2049999237060547,-0.8299994468688965,-0.7176847567086462,0.0,True,0.010460376739501953,-1.2049999237060547,-0.8299994468688965,-0.7177030444145203,0.0,0.0,0.0
1759825537.6049898,0,-1.2049999237060547,-0.8299994468688965,-0.7176863082093803,0.0,True,0.011392831802368164,-1.2049999237060547,-0.8299994468688965,-0.7177030444145203,0.0,0.0,0.0
1759825537.6159394,0,-1.2049999237060547,-0.8299994468688965,-0.7176876609515794,0.0,True,0.01094961166381836,-1.2049999237060547,-0.8299994468688965,-0.7177030444145203,0.0,0.0,0.0
1759825537.62798,0,-1.2049999237060547,-0.8299994468688965,-0.7176884709899642,0.0,True,0.01204061508178711,-1.2049999237060547,-0.8299994468688965,-0.7177030444145203,0.0,0.0,0.0
1759825537.638226,0,-1.2049999237060547,-0.8299994468688965,-0.717689663479387,0.0,True,0.010246038436889648,-1.2049999237060547,-0.8299994468688965,-0.7177030444145203,0.0,0.0,0.0
1759825537.649228,0,-1.2049999237060547,-0.8299994468688965,-0.7176904611869848,0.0,True,0.011002063751220703,-1.2049999237060547,-0.8299994468688965,-0.7177030444145203,0.0,0.0,0.0
1759825537.6601465,0,-1.2049999237060547,-0.8299994468688965,-0.7176911585497834,0.0,True,0.010918378829956055,-1.2049999237060547,-0.8299994468688965,-0.7177030444145203,0.0,0.0,0.0
1759825537.6713514,0,-1.2049999237060547,-0.8299994468688965,-0.7176917075152645,0.0,True,0.011204957962036133,-1.2049999237060547,-0.8299994468688965,-0.7177030444145203,0.0,0.0,0.0
1759825537.6815603,0,-1.2049999237060547,-0.8299994468688965,-0.7176924294378484,0.0,True,0.010208845138549805,-1.2049999237060547,-0.8299994468688965,-0.7177030444145203,0.0,0.0,0.0
1759825537.6915708,0,-1.2049999237060547,-0.8299994468688965,-0.7176930886096464,0.0,True,0.010010480880737305,-1.2049999237060547,-0.8299994468688965,-0.7177030444145203,0.0,0.0,0.0
1759825537.7023325,0,-1.2049999237060547,-0.8299994468688965,-0.7176934882758736,0.0,True,0.010761737823486328,-1.2049999237060547,-0.8299994468688965,-0.7177030444145203,0.0,0.0,0.0
1759825537.7129042,0,-1.2049999237060547,-0.8299994468688965,-0.7176938911512991,0.0,True,0.010571718215942383,-1.2049999237060547,-0.8299994468688965,-0.7177030444145203,0.0,0.0,0.0
1759825537.7231429,0,-1.2049999237060547,-0.8299994468688965,-0.7176943287641642,0.0,True,0.0102386474609375,-1.2049999237060547,-0.8299994468688965,-0.7177030444145203,0.0,0.0,0.0
1759825537.7342591,0,-1.2049999237060547,-0.8299994468688965,-0.7176945628605615,0.0,True,0.011116266250610352,-1.2049999237060547,-0.8299994468688965,-0.7177030444145203,0.0,0.0,0.0
1759825537.7456064,0,-1.2049999237060547,-0.8299994468688965,-0.71769476809102,0.0,True,0.011347293853759766,-1.2049999237060547,-0.8299994468688965,-0.7177030444145203,0.0,0.0,0.0
1759825537.7562284,0,-1.2049999237060547,-0.8299994468688965,-0.7176951230409827,0.0,True,0.010622024536132812,-1.2049999237060547,-0.8299994468688965,-0.7177030444145203,0.0,0.0,0.0
1759825537.766704,0,-1.2049999237060547,-0.8299994468688965,-0.7176954823530011,0.0,True,0.010475635528564453,-1.2049999237060547,-0.8299994468688965,-0.7177030444145203,0.0,0.0,0.0
1759825537.7774458,0,-1.2049999237060547,-0.8299994468688965,-0.7176957665067576,0.0,True,0.010741710662841797,-1.2049999237060547,-0.8299994468688965,-0.7177030444145203,0.0,0.0,0.0
1759825537.78745,0,-1.2049999237060547,-0.8299994468688965,-0.717696144032633,0.0,True,0.010004281997680664,-1.2049999237060547,-0.8299994468688965,-0.7177030444145203,0.0,0.0,0.0
1759825537.7979329,0,-1.2049999237060547,-0.8299994468688965,-0.7176964067038867,0.0,True,0.0104827880859375,-1.2049999237060547,-0.8299994468688965,-0.7177030444145203,0.0,0.0,0.0
1759825537.8092535,0,-1.2049999237060547,-0.8299994468688965,-0.7176965317968751,0.0,True,0.01132059097290039,-1.2049999237060547,-0.8299994468688965,-0.7177030444145203,0.0,0.0,0.0
1759825537.8199909,0,-1.2049999237060547,-0.8299994468688965,-0.717696759483827,0.0,True,0.010737419128417969,-1.2049999237060547,-0.8299994468688965,-0.7177030444145203,0.0,0.0,0.0
1759825537.8313131,0,-1.2049999237060547,-0.8299994468688965,-0.717696911859532,0.0,True,0.011322259902954102,-1.2049999237060547,-0.8299994468688965,-0.7177030444145203,0.0,0.0,0.0
1759825537.842155,0,-1.2049999237060547,-0.8299994468688965,-0.7176971391613876,0.0,True,0.010841846466064453,-1.2049999237060547,-0.8299994468688965,-0.7177030444145203,0.0,0.0,0.0
1759825537.8528273,0,-1.2049999237060547,-0.8299994468688965,-0.7176973814252925,0.0,True,0.010672330856323242,-1.2049999237060547,-0.8299994468688965,-0.7177030444145203,0.0,0.0,0.0
1759825537.863619,0,-1.2049999237060547,-0.8299994468688965,-0.717697592927312,0.0,True,0.010791778564453125,-1.2049999237060547,-0.8299994468688965,-0.7177030444145203,0.0,0.0,0.0
1759825537.8749535,0,-1.2049999237060547,-0.8299994468688965,-0.7176977327660907,0.0,True,0.011334419250488281,-1.2049999237060547,-0.8299994468688965,-0.7177030444145203,0.0,0.0,0.0
1759825537.8858845,0,-1.2049999237060547,-0.8299994468688965,-0.7176979255421045,0.0,True,0.010931015014648438,-1.2049999237060547,-0.8299994468688965,-0.7177030444145203,0.0,0.0,0.0
1759825537.896909,0,-1.2049999237060547,-0.8299994468688965,-0.7176981047676669,0.0,True,0.01102447509765625,-1.2049999237060547,-0.8299994468688965,-0.7177030444145203,0.0,0.0,0.0
1759825537.907709,0,-1.2049999237060547,-0.8299994468688965,-0.7176983012058002,0.0,True,0.010799884796142578,-1.2049999237060547,-0.8299994468688965,-0.7177030444145203,0.0,0.0,0.0
1759825537.9186182,0,-1.2049999237060547,-0.8299994468688965,-0.7176984752276585,0.0,True,0.010909318923950195,-1.2049999237060547,-0.8299994468688965,-0.7177030444145203,0.0,0.0,0.0
1759825537.9600625,0,-1.2049999237060547,-0.8299994468688965,-0.7176961161225321,0.0,True,0.04144430160522461,-1.2049999237060547,-0.8299994468688965,-0.7177030444145203,0.0,0.0,0.0
1759825537.9709852,0,-1.2049999237060547,-0.8299994468688965,-0.7176971191870258,0.0,True,0.010922670364379883,-1.2049999237060547,-0.8299994468688965,-0.7177030444145203,0.0,0.0,0.0
1759825537.9816902,0,-1.2049999237060547,-0.8299994468688965,-0.7176980228340426,0.0,True,0.010704994201660156,-1.2049999237060547,-0.8299994468688965,-0.7177030444145203,0.0,0.0,0.0
1759825537.9922357,0,-1.2049999237060547,-0.8299994468688965,-0.7176986814553103,0.0,True,0.010545492172241211,-1.2049999237060547,-0.8299994468688965,-0.7177030444145203,0.0,0.0,0.0
1759825538.0026646,0,-1.2049999237060547,-0.8299994468688965,-0.7176991644348831,0.0,True,0.010428905487060547,-1.2049999237060547,-0.8299994468688965,-0.7177030444145203,0.0,0.0,0.0
1759825538.0136273,0,-1.2049999237060547,-0.8299994468688965,-0.7176994876034861,0.0,True,0.010962724685668945,-1.2049999237060547,-0.8299994468688965,-0.7177030444145203,0.0,0.0,0.0
1759825538.0241764,0,-1.2049999237060547,-0.8299994468688965,-0.7176997613763874,0.0,True,0.010549068450927734,-1.2049999237060547,-0.8299994468688965,-0.7177030444145203,0.0,0.0,0.0
1759825538.0353272,0,-1.2049999237060547,-0.8299994468688965,-0.7176999417441348,0.0,True,0.011150836944580078,-1.2049999237060547,-0.8299994468688965,-0.7177030444145203,0.0,0.0,0.0
1759825538.046044,0,-1.2049999237060547,-0.8299994468688965,-0.7177001164674888,0.0,True,0.010716915130615234,-1.2049999237060547,-0.8299994468688965,-0.7177030444145203,0.0,0.0,0.0
1759825538.056977,0,-1.2049999237060547,-0.8299994468688965,-0.7177002518838727,0.0,True,0.01093292236328125,-1.2049999237060547,-0.8299994468688965,-0.7177030444145203,0.0,0.0,0.0
1759825538.0676951,0,-1.2049999237060547,-0.8299994468688965,-0.7177003812791263,0.0,True,0.010718107223510742,-1.2049999237060547,-0.8299994468688965,-0.7177030444145203,0.0,0.0,0.0
1759825538.0790145,0,-1.2049999237060547,-0.8299994468688965,-0.7177004630750172,0.0,True,0.011319398880004883,-1.2049999237060547,-0.8299994468688965,-0.7177030444145203,0.0,0.0,0.0
1759825538.0897362,0,-1.2049999237060547,-0.8299994468688965,-0.7177005725174546,0.0,True,0.010721683502197266,-1.2049999237060547,-0.8299994468688965,-0.7177030444145203,0.0,0.0,0.0
1759825538.100603,0,-1.2049999237060547,-0.8299994468688965,-0.7177006652538811,0.0,True,0.010866880416870117,-1.2049999237060547,-0.8299994468688965,-0.7177030444145203,0.0,0.0,0.0
1759825538.1113505,0,-1.2049999237060547,-0.8299994468688965,-0.717700756270526,0.0,True,0.010747432708740234,-1.2049999237060547,-0.8299994468688965,-0.7177030444145203,0.0,0.0,0.0
1759825538.1219852,0,-1.2049999237060547,-0.8299994468688965,-0.7177008453693006,0.0,True,0.010634660720825195,-1.2049999237060547,-0.8299994468688965,-0.7177030444145203,0.0,0.0,0.0
1759825538.1415892,0,-1.2049999237060547,-0.8299994468688965,-0.717700532098462,0.0,True,0.019603967666625977,-1.2049999237060547,-0.8299994468688965,-0.7177030444145203,0.0,0.0,0.0
1759825538.152254,0,-1.2049999237060547,-0.8299994468688965,-0.7177007178446182,0.0,True,0.010664939880371094,-1.2049999237060547,-0.8299994468688965,-0.7177030444145203,0.0,0.0,0.0
1759825538.1630943,0,-1.2049999237060547,-0.8299994468688965,-0.7177008882996851,0.0,True,0.010840177536010742,-1.2049999237060547,-0.8299994468688965,-0.7177030444145203,0.0,0.0,0.0
1759825538.17371,0,-1.2049999237060547,-0.8299994468688965,-0.717701034428897,0.0,True,0.010615825653076172,-1.2049999237060547,-0.8299994468688965,-0.7177030444145203,0.0,0.0,0.0
1759825538.184702,0,-1.2049999237060547,-0.8299994468688965,-0.717701138493668,0.0,True,0.010991811752319336,-1.2049999237060547,-0.8299994468688965,-0.7177030444145203,0.0,0.0,0.0
1759825538.1956658,0,-1.2049999237060547,-0.8299994468688965,-0.7177012273476251,0.0,True,0.010963916778564453,-1.2049999237060547,-0.8299994468688965,-0.7177030444145203,0.0,0.0,0.0
1759825538.206702,0,-1.2049999237060547,-0.8299994468688965,-0.7177013026686563,0.0,True,0.011036157608032227,-1.2049999237060547,-0.8299994468688965,-0.7177030444145203,0.0,0.0,0.0
1759825538.2179382,0,-1.2049999237060547,-0.8299994468688965,-0.7177013638140011,0.0,True,0.011236190795898438,-1.2049999237060547,-0.8299994468688965,-0.7177030444145203,0.0,0.0,0.0
1759825538.2290065,0,-1.2049999237060547,-0.8299994468688965,-0.7177014272230267,0.0,True,0.011068344116210938,-1.2049999237060547,-0.8299994468688965,-0.7177030444145203,0.0,0.0,0.0
1759825538.239687,0,-1.2049999237060547,-0.8299994468688965,-0.7177014991118966,0.0,True,0.010680437088012695,-1.2049999237060547,-0.8299994468688965,-0.7177030444145203,0.0,0.0,0.0
1759825538.250406,0,-1.2049999237060547,-0.8299994468688965,-0.7177015623814711,0.0,True,0.010719060897827148,-1.2049999237060547,-0.8299994468688965,-0.7177030444145203,0.0,0.0,0.0
1759825538.261511,0,-1.2049999237060547,-0.8299994468688965,-0.7177016077894436,0.0,True,0.011105060577392578,-1.2049999237060547,-0.8299994468688965,-0.7177030444145203,0.0,0.0,0.0
1759825538.2727292,0,-1.2049999237060547,-0.8299994468688965,-0.7177016487031089,0.0,True,0.011218070983886719,-1.2049999237060547,-0.8299994468688965,-0.7177030444145203,0.0,0.0,0.0
1759825538.283225,0,-1.2049999237060547,-0.8299994468688965,-0.7177017105409078,0.0,True,0.010495901107788086,-1.2049999237060547,-0.8299994468688965,-0.7177030444145203,0.0,0.0,0.0
1759825538.2937546,0,-1.2049999237060547,-0.8299994468688965,-0.7177017657024294,0.0,True,0.010529518127441406,-1.2049999237060547,-0.8299994468688965,-0.7177030444145203,0.0,0.0,0.0
1759825538.3041222,0,-1.2049999237060547,-0.8299994468688965,-0.7177018193679814,0.0,True,0.010367631912231445,-1.2049999237060547,-0.8299994468688965,-0.7177030444145203,0.0,0.0,0.0
1759825538.3155055,0,-1.2049999237060547,-0.8299994468688965,-0.717701841470209,0.0,True,0.011383295059204102,-1.2049999237060547,-0.8299994468688965,-0.7177030444145203,0.0,0.0,0.0
1759825538.3262813,0,-1.2049999237060547,-0.8299994468688965,-0.7177018817742677,0.0,True,0.01077580451965332,-1.2049999237060547,-0.8299994468688965,-0.7177030444145203,0.0,0.0,0.0
1759825538.337623,0,-1.2049999237060547,-0.8299994468688965,-0.7177019081136713,0.0,True,0.011341571807861328,-1.2049999237060547,-0.8299994468688965,-0.7177030444145203,0.0,0.0,0.0
1759825538.3484077,0,-1.2049999237060547,-0.8299994468688965,-0.7177019496066066,0.0,True,0.01078486442565918,-1.2049999237060547,-0.8299994468688965,-0.7177030444145203,0.0,0.0,0.0
1759825538.358502,0,-1.2049999237060547,-0.8299994468688965,-0.7177020048479896,0.0,True,0.010094165802001953,-1.2049999237060547,-0.8299994468688965,-0.7177030444145203,0.0,0.0,0.0
1759825538.3694763,0,-1.2049999237060547,-0.8299994468688965,-0.717702034000105,0.0,True,0.010974407196044922,-1.2049999237060547,-0.8299994468688965,-0.7177030444145203,0.0,0.0,0.0
1759825538.3798342,0,-1.2049999237060547,-0.8299994468688965,-0.7177020751994867,0.0,True,0.010357856750488281,-1.2049999237060547,-0.8299994468688965,-0.7177030444145203,0.0,0.0,0.0
1759825538.390088,0,-1.2049999237060547,-0.8299994468688965,-0.7177021152148093,0.0,True,0.01025390625,-1.2049999237060547,-0.8299994468688965,-0.7177030444145203,0.0,0.0,0.0
1759825538.4010637,0,-1.2049999237060547,-0.8299994468688965,-0.7177021369561256,0.0,True,0.01097559928894043,-1.2049999237060547,-0.8299994468688965,-0.7177030444145203,0.0,0.0,0.0
1759825538.4118376,0,-1.2049999237060547,-0.8299994468688965,-0.7177021634436151,0.0,True,0.010773897171020508,-1.2049999237060547,-0.8299994468688965,-0.7177030444145203,0.0,0.0,0.0
1759825538.423232,0,-1.2049999237060547,-0.8299994468688965,-0.7177021789863076,0.0,True,0.011394500732421875,-1.2049999237060547,-0.8299994468688965,-0.7177030444145203,0.0,0.0,0.0
1759825538.4337206,0,-1.2049999237060547,-0.8299994468688965,-0.7177022138238538,0.0,True,0.010488510131835938,-1.2049999237060547,-0.8299994468688965,-0.7177030444145203,0.0,0.0,0.0
1759825538.4444234,0,-1.2049999237060547,-0.8299994468688965,-0.7177022430138784,0.0,True,0.010702848434448242,-1.2049999237060547,-0.8299994468688965,-0.7177030444145203,0.0,0.0,0.0
1759825538.4556515,0,-1.2049999237060547,-0.8299994468688965,-0.7177022617711195,0.0,True,0.011228084564208984,-1.2049999237060547,-0.8299994468688965,-0.7177030444145203,0.0,0.0,0.0
1759825538.4659882,0,-1.2049999237060547,-0.8299994468688965,-0.7177022961658555,0.0,True,0.010336637496948242,-1.2049999237060547,-0.8299994468688965,-0.7177030444145203,0.0,0.0,0.0
1759825538.4769719,0,-1.2049999237060547,-0.8299994468688965,-0.7177023176630453,0.0,True,0.010983705520629883,-1.2049999237060547,-0.8299994468688965,-0.7177030444145203,0.0,0.0,0.0
1759825538.488317,0,-1.2049999237060547,-0.8299994468688965,-0.7177023334934951,0.0,True,0.011345148086547852,-1.2049999237060547,-0.8299994468688965,-0.7177030444145203,0.0,0.0,0.0
1759825538.4993238,0,-1.2049999237060547,-0.8299994468688965,-0.7177023561911522,0.0,True,0.011006832122802734,-1.2049999237060547,-0.8299994468688965,-0.7177030444145203,0.0,0.0,0.0
1759825538.510718,0,-1.2049999237060547,-0.8299994468688965,-0.7177023736755519,0.0,True,0.011394262313842773,-1.2049999237060547,-0.8299994468688965,-0.7177030444145203,0.0,0.0,0.0
1759825538.5222256,0,-1.2049999237060547,-0.8299994468688965,-0.7177023908563882,0.0,True,0.011507511138916016,-1.2049999237060547,-0.8299994468688965,-0.7177030444145203,0.0,0.0,0.0
1759825538.5363848,0,-1.2049999237060547,-0.8299994468688965,-0.7177023757964882,0.0,True,0.014159202575683594,-1.2049999237060547,-0.8299994468688965,-0.7177030444145203,0.0,0.0,0.0
1759825538.5428417,0,-1.2049999237060547,-0.8299994468688965,-0.7177024674915877,0.0,True,0.006456851959228516,-1.2049999237060547,-0.8299994468688965,-0.7177030444145203,0.0,0.0,0.0
1759825538.5536747,0,-1.2049999237060547,-0.8299994468688965,-0.7177024875376254,0.0,True,0.010833024978637695,-1.2049999237060547,-0.8299994468688965,-0.7177030444145203,0.0,0.0,0.0
1759825538.564338,0,-1.2049999237060547,-0.8299994468688965,-0.7177025046294361,0.0,True,0.010663270950317383,-1.2049999237060547,-0.8299994468688965,-0.7177030444145203,0.0,0.0,0.0
1759825538.575221,0,-1.2049999237060547,-0.8299994468688965,-0.7177025188334945,0.0,True,0.010883092880249023,-1.2049999237060547,-0.8299994468688965,-0.7177030444145203,0.0,0.0,0.0
1759825538.5862608,0,-1.2049999237060547,-0.8299994468688965,-0.7177025318164709,0.0,True,0.01103973388671875,-1.2049999237060547,-0.8299994468688965,-0.7177030444145203,0.0,0.0,0.0
1759825538.5965748,0,-1.2049999237060547,-0.8299994468688965,-0.7177025533960908,0.0,True,0.010313987731933594,-1.2049999237060547,-0.8299994468688965,-0.7177030444145203,0.0,0.0,0.0
1759825538.6068416,0,-1.2049999237060547,-0.8299994468688965,-0.7177025737592508,0.0,True,0.010266780853271484,-1.2049999237060547,-0.8299994468688965,-0.7177030444145203,0.0,0.0,0.0
1759825538.6179397,0,-1.2049999237060547,-0.8299994468688965,-0.7177025837892543,0.0,True,0.011098146438598633,-1.2049999237060547,-0.8299994468688965,-0.7177030444145203,0.0,0.0,0.0
1759825538.6282098,0,-1.2049999237060547,-0.8299994468688965,-0.7177026025858595,0.0,True,0.010270118713378906,-1.2049999237060547,-0.8299994468688965,-0.7177030444145203,0.0,0.0,0.0
1759825538.6390784,0,-1.2049999237060547,-0.8299994468688965,-0.7177026145345256,0.0,True,0.010868549346923828,-1.2049999237060547,-0.8299994468688965,-0.7177030444145203,0.0,0.0,0.0
1759825538.649703,0,-1.2049999237060547,-0.8299994468688965,-0.7177026287291124,0.0,True,0.01062464714050293,-1.2049999237060547,-0.8299994468688965,-0.7177030444145203,0.0,0.0,0.0
1759825538.6599998,0,-1.2049999237060547,-0.8299994468688965,-0.717702645423163,0.0,True,0.010296821594238281,-1.2049999237060547,-0.8299994468688965,-0.7177030444145203,0.0,0.0,0.0
1759825538.670164,0,-1.2049999237060547,-0.8299994468688965,-0.7177026618538846,0.0,True,0.010164260864257812,-1.2049999237060547,-0.8299994468688965,-0.7177030444145203,0.0,0.0,0.0
1759825538.6803014,0,-1.2049999237060547,-0.8299994468688965,-0.7177026768479635,0.0,True,0.010137319564819336,-1.2049999237060547,-0.8299994468688965,-0.7177030444145203,0.0,0.0,0.0
1759825538.690607,0,-1.2049999237060547,-0.8299994468688965,-0.7177026890774556,0.0,True,0.010305643081665039,-1.2049999237060547,-0.8299994468688965,-0.7177030444145203,0.0,0.0,0.0
1759825538.7011309,0,-1.2049999237060547,-0.8299994468688965,-0.7177026989170976,0.0,True,0.010523796081542969,-1.2049999237060547,-0.8299994468688965,-0.7177030444145203,0.0,0.0,0.0
1759825538.711409,0,-1.2049999237060547,-0.8299994468688965,-0.7177027105968037,0.0,True,0.01027822494506836,-1.2049999237060547,-0.8299994468688965,-0.7177030444145203,0.0,0.0,0.0
1759825538.7223437,0,-1.2049999237060547,-0.8299994468688965,-0.717702717090118,0.0,True,0.010934591293334961,-1.2049999237060547,-0.8299994468688965,-0.7177030444145203,0.0,0.0,0.0
1759825538.7563107,0,-1.2049999237060547,-0.8299994468688965,-0.717702576462802,0.0,True,0.033967018127441406,-1.2049999237060547,-0.8299994468688965,-0.7177030444145203,0.0,0.0,0.0
1759825538.7592595,0,-1.2049999237060547,-0.8299994468688965,-0.7177026784937404,0.0,True,0.002948760986328125,-1.2049999237060547,-0.8299994468688965,-0.7177030444145203,0.0,0.0,0.0
1759825538.7695296,0,-1.2049999237060547,-0.8299994468688965,-0.7177027187956533,0.0,True,0.010270118713378906,-1.2049999237060547,-0.8299994468688965,-0.7177030444145203,0.0,0.0,0.0
1759825538.7806563,0,-1.2049999237060547,-0.8299994468688965,-0.7177027411944898,0.0,True,0.01112675666809082,-1.2049999237060547,-0.8299994468688965,-0.7177030444145203,0.0,0.0,0.0
1759825538.7920566,0,-1.2049999237060547,-0.8299994468688965,-0.7177027571764754,0.0,True,0.011400222778320312,-1.2049999237060547,-0.8299994468688965,-0.7177030444145203,0.0,0.0,0.0
1759825538.8023171,0,-1.2049999237060547,-0.8299994468688965,-0.7177027768431223,0.0,True,0.010260581970214844,-1.2049999237060547,-0.8299994468688965,-0.7177030444145203,0.0,0.0,0.0
1759825538.8125546,0,-1.2049999237060547,-0.8299994468688965,-0.7177027931899058,0.0,True,0.010237455368041992,-1.2049999237060547,-0.8299994468688965,-0.7177030444145203,0.0,0.0,0.0
1759825538.8233309,0,-1.2049999237060547,-0.8299994468688965,-0.7177028038712656,0.0,True,0.010776281356811523,-1.2049999237060547,-0.8299994468688965,-0.7177030444145203,0.0,0.0,0.0
1759825538.833909,0,-1.2049999237060547,-0.8299994468688965,-0.717702814161381,0.0,True,0.010578155517578125,-1.2049999237060547,-0.8299994468688965,-0.7177030444145203,0.0,0.0,0.0
1759825538.8442824,0,-1.2049999237060547,-0.8299994468688965,-0.7177028243371719,0.0,True,0.010373353958129883,-1.2049999237060547,-0.8299994468688965,-0.7177030444145203,0.0,0.0,0.0
1759825538.8549852,0,-1.2049999237060547,-0.8299994468688965,-0.7177028318511418,0.0,True,0.010702848434448242,-1.2049999237060547,-0.8299994468688965,-0.7177030444145203,0.0,0.0,0.0
1759825538.8653197,0,-1.2049999237060547,-0.8299994468688965,-0.7177028404889505,0.0,True,0.010334491729736328,-1.2049999237060547,-0.8299994468688965,-0.7177030444145203,0.0,0.0,0.0
1759825538.8760617,0,-1.2049999237060547,-0.8299994468688965,-0.7177028466104112,0.0,True,0.010741949081420898,-1.2049999237060547,-0.8299994468688965,-0.7177030444145203,0.0,0.0,0.0
1759825538.887254,0,-1.2049999237060547,-0.8299994468688965,-0.7177028506817535,0.0,True,0.01119232177734375,-1.2049999237060547,-0.8299994468688965,-0.7177030444145203,0.0,0.0,0.0
1759825538.898033,0,-1.2049999237060547,-0.8299994468688965,-0.7177028569190647,0.0,True,0.01077890396118164,-1.2049999237060547,-0.8299994468688965,-0.7177030444145203,0.0,0.0,0.0
1759825538.9088016,0,-1.2049999237060547,-0.8299994468688965,-0.7177028631607172,0.0,True,0.010768651962280273,-1.2049999237060547,-0.8299994468688965,-0.7177030444145203,0.0,0.0,0.0
1759825538.919904,0,-1.2049999237060547,-0.8299994468688965,-0.7177028679431992,0.0,True,0.011102437973022461,-1.2049999237060547,-0.8299994468688965,-0.7177030444145203,0.0,0.0,0.0
1759825538.9304435,0,-1.2049999237060547,-0.8299994468688965,-0.7177028749188565,0.0,True,0.010539531707763672,-1.2049999237060547,-0.8299994468688965,-0.7177030444145203,0.0,0.0,0.0
1759825538.9411647,0,-1.2049999237060547,-0.8299994468688965,-0.7177028808015038,0.0,True,0.010721206665039062,-1.2049999237060547,-0.8299994468688965,-0.7177030444145203,0.0,0.0,0.0
1759825538.9515412,0,-1.2049999237060547,-0.8299994468688965,-0.717702887511475,0.0,True,0.010376453399658203,-1.2049999237060547,-0.8299994468688965,-0.7177030444145203,0.0,0.0,0.0
1759825538.9617226,0,-1.2049999237060547,-0.8299994468688965,-0.7177028942636738,0.0,True,0.010181427001953125,-1.2049999237060547,-0.8299994468688965,-0.7177030444145203,0.0,0.0,0.0
1759825538.9723835,0,-1.2049999237060547,-0.8299994468688965,-0.7177028987501739,0.0,True,0.010660886764526367,-1.2049999237060547,-0.8299994468688965,-0.7177030444145203,0.0,0.0,0.0
1759825538.98274,0,-1.2049999237060547,-0.8299994468688965,-0.7177029040137572,0.0,True,0.010356426239013672,-1.2049999237060547,-0.8299994468688965,-0.7177030444145203,0.0,0.0,0.0
1759825538.9933033,0,-1.2049999237060547,-0.8299994468688965,-0.7177029083512529,0.0,True,0.010563373565673828,-1.2049999237060547,-0.8299994468688965,-0.7177030444145203,0.0,0.0,0.0
1759825539.0038345,0,-1.2049999237060547,-0.8299994468688965,-0.7177029126465779,0.0,True,0.010531187057495117,-1.2049999237060547,-0.8299994468688965,-0.7177030444145203,0.0,0.0,0.0
1759825539.0140216,0,-1.2049999237060547,-0.8299994468688965,-0.7177029177883192,0.0,True,0.010187149047851562,-1.2049999237060547,-0.8299994468688965,-0.7177030444145203,0.0,0.0,0.0
1759825539.0253534,0,-1.2049999237060547,-0.8299994468688965,-0.7177029194324458,0.0,True,0.011331796646118164,-1.2049999237060547,-0.8299994468688965,-0.7177030444145203,0.0,0.0,0.0
1759825539.0358322,0,-1.2049999237060547,-0.8299994468688965,-0.7177029238443353,0.0,True,0.010478734970092773,-1.2049999237060547,-0.8299994468688965,-0.7177030444145203,0.0,0.0,0.0
1759825539.0468524,0,-1.2049999237060547,-0.8299994468688965,-0.7177029268042183,0.0,True,0.011020183563232422,-1.2049999237060547,-0.8299994468688965,-0.7177030444145203,0.0,0.0,0.0
1759825539.0577745,0,-1.2049999237060547,-0.8299994468688965,-0.7177029301605451,0.0,True,0.01092219352722168,-1.2049999237060547,-0.8299994468688965,-0.7177030444145203,0.0,0.0,0.0
1759825539.0683935,0,-1.2049999237060547,-0.8299994468688965,-0.7177029343288961,0.0,True,0.010618925094604492,-1.2049999237060547,-0.8299994468688965,-0.7177030444145203,0.0,0.0,0.0
1759825539.0798657,0,-1.2049999237060547,-0.8299994468688965,-0.7177029363639207,0.0,True,0.011472225189208984,-1.2049999237060547,-0.8299994468688965,-0.7177030444145203,0.0,0.0,0.0
1759825539.0901697,0,-1.2049999237060547,-0.8299994468688965,-0.7177029413242444,0.0,True,0.010303974151611328,-1.2049999237060547,-0.8299994468688965,-0.7177030444145203,0.0,0.0,0.0
1759825539.1006393,0,-1.2049999237060547,-0.8299994468688965,-0.7177029455148265,0.0,True,0.010469675064086914,-1.2049999237060547,-0.8299994468688965,-0.7177030444145203,0.0,0.0,0.0
1759825539.1121278,0,-1.2049999237060547,-0.8299994468688965,-0.7177029472045575,0.0,True,0.01148843765258789,-1.2049999237060547,-0.8299994468688965,-0.7177030444145203,0.0,0.0,0.0
1759825539.1231914,0,-1.2049999237060547,-0.8299994468688965,-0.7177029500778893,0.0,True,0.011063575744628906,-1.2049999237060547,-0.8299994468688965,-0.7177030444145203,0.0,0.0,0.0
1759825539.157351,0,-1.2049999237060547,-0.8299994468688965,-0.7177029122831602,0.0,True,0.03415966033935547,-1.2049999237060547,-0.8299994468688965,-0.7177030444145203,0.0,0,0
1759825539.1621892,0,-1.2049999237060547,-0.8299994468688965,-0.717702938298105,0.0,True,0.004838228225708008,-1.2049999237060547,-0.8299994468688965,-0.7177030444145203,0.0,0,0
1759825539.1731403,0,-1.2049999237060547,-0.8299994468688965,-0.7177029499490253,0.0,True,0.010951042175292969,-1.2049999237060547,-0.8299994468688965,-0.7177030444145203,0.0,0,0
1759825539.1831956,0,-1.2049999237060547,-0.8299994468688965,-0.7177029594497313,0.0,True,0.010055303573608398,-1.2049999237060547,-0.8299994468688965,-0.7177030444145203,0.0,0,0
1759825539.1939101,0,-1.2049999237060547,-0.8299994468688965,-0.7177029656370131,0.0,True,0.010714530944824219,-1.2049999237060547,-0.8299994468688965,-0.7177030444145203,0.0,0,0
1759825539.2051826,0,-1.2049999237060547,-0.8299994468688965,-0.7177029696584505,0.0,True,0.011272430419921875,-1.2049999237060547,-0.8299994468688965,-0.7177030444145203,0.0,0,0
1759825539.2165384,0,-1.2049999237060547,-0.8299994468688965,-0.7177029729433286,0.0,True,0.011355876922607422,-1.2049999237060547,-0.8299994468688965,-0.7177030444145203,0.0,0,0
1759825539.2266042,0,-1.2049999237060547,-0.8299994468688965,-0.7177029776387602,0.0,True,0.010065793991088867,-1.2049999237060547,-0.8299994468688965,-0.7177030444145203,0.0,0,0
1759825539.2375777,0,-1.2049999237060547,-0.8299994468688965,-0.7177029803556891,0.0,True,0.010973453521728516,-1.2049999237060547,-0.8299994468688965,-0.7177030444145203,0.0,0,0
1759825539.2488256,0,-1.2049999237060547,-0.8299994468688965,-0.7177029823838001,0.0,True,0.011247873306274414,-1.2049999237060547,-0.8299994468688965,-0.7177030444145203,0.0,0,0
1759825539.2588646,0,-1.2049999237060547,-0.8299994468688965,-0.7177029858436441,0.0,True,0.010039091110229492,-1.2049999237060547,-0.8299994468688965,-0.7177030444145203,0.0,0,0
1759825539.2691455,0,-1.2049999237060547,-0.8299994468688965,-0.7177029885382034,0.0,True,0.010280847549438477,-1.2049999237060547,-0.8299994468688965,-0.7177030444145203,0.0,0,0
1759825539.2801595,0,-1.2049999237060547,-0.8299994468688965,-0.7177029900011185,0.0,True,0.011013984680175781,-1.2049999237060547,-0.8299994468688965,-0.7177030444145203,0.0,0,0
1759825539.2906954,0,-1.2049999237060547,-0.8299994468688965,-0.7177029919939493,0.0,True,0.010535955429077148,-1.2049999237060547,-0.8299994468688965,-0.7177030444145203,0.0,0,0
1759825539.301805,0,-1.2049999237060547,-0.8299994468688965,-0.7177029932531411,0.0,True,0.011109590530395508,-1.2049999237060547,-0.8299994468688965,-0.7177030444145203,0.0,0,0
1759825539.3133574,0,-1.2049999237060547,-0.8299994468688965,-0.7177029941096897,0.0,True,0.01155233383178711,-1.2049999237060547,-0.8299994468688965,-0.7177030444145203,0.0,0,0
1759825539.324462,0,-1.2049999237060547,-0.8299994468688965,-0.7177029956414493,0.0,True,0.011104583740234375,-1.2049999237060547,-0.8299994468688965,-0.7177030444145203,0.0,0,0
1759825539.3345492,0,-1.2049999237060547,-0.8299994468688965,-0.717702998210143,0.0,True,0.010087251663208008,-1.2049999237060547,-0.8299994468688965,-0.7177030444145203,0.0,0,0
1759825539.3538654,0,-1.2049999237060547,-0.8299994468688965,-0.7177029918727715,0.0,True,0.01931619644165039,-1.2049999237060547,-0.8299994468688965,-0.7177030444145203,0.0,0,0
1759825539.357604,0,-1.2049999237060547,-0.8299994468688965,-0.7177030018895749,0.0,True,0.0037386417388916016,-1.2049999237060547,-0.8299994468688965,-0.7177030444145203,0.0,0,0
1759825539.3683307,0,-1.2049999237060547,-0.8299994468688965,-0.717703003768289,0.0,True,0.010726690292358398,-1.2049999237060547,-0.8299994468688965,-0.7177030444145203,0.0,0,0
1759825539.37947,0,-1.2049999237060547,-0.8299994468688965,-0.7177030046334316,0.0,True,0.011139392852783203,-1.2049999237060547,-0.8299994468688965,-0.7177030444145203,0.0,0,0
1759825539.3901284,0,-1.2049999237060547,-0.8299994468688965,-0.7177030059529059,0.0,True,0.01065826416015625,-1.2049999237060547,-0.8299994468688965,-0.7177030444145203,0.0,0,0
1759825539.4007082,0,-1.2049999237060547,-0.8299994468688965,-0.7177030073087973,0.0,True,0.010579824447631836,-1.2049999237060547,-0.8299994468688965,-0.7177030444145203,0.0,0,0
1759825539.4108145,0,-1.2049999237060547,-0.8299994468688965,-0.7177030089554322,0.0,True,0.010106325149536133,-1.2049999237060547,-0.8299994468688965,-0.7177030444145203,0.0,0,0
1759825539.4222128,0,-1.2049999237060547,-0.8299994468688965,-0.7177030094539951,0.0,True,0.0113983154296875,-1.2049999237060547,-0.8299994468688965,-0.7177030444145203,0.0,0,0
1759825539.4335668,0,-1.2049999237060547,-0.8299994468688965,-0.7177030101144304,0.0,True,0.01135396957397461,-1.2049999237060547,-0.8299994468688965,-0.7177030444145203,0.0,0,0
1759825539.4437134,0,-1.2049999237060547,-0.8299994468688965,-0.7177030117653693,0.0,True,0.010146617889404297,-1.2049999237060547,-0.8299994468688965,-0.7177030444145203,0.0,0,0
1759825539.454282,0,-1.2049999237060547,-0.8299994468688965,-0.7177030129683644,0.0,True,0.010568618774414062,-1.2049999237060547,-0.8299994468688965,-0.7177030444145203,0.0,0,0
1759825539.4650195,0,-1.2049999237060547,-0.8299994468688965,-0.7177030139554681,0.0,True,0.010737419128417969,-1.2049999237060547,-0.8299994468688965,-0.7177030444145203,0.0,0,0
1759825539.4764597,0,-1.2049999237060547,-0.8299994468688965,-0.7177030144684959,0.0,True,0.011440277099609375,-1.2049999237060547,-0.8299994468688965,-0.7177030444145203,0.0,0,0
1759825539.487166,0,-1.2049999237060547,-0.8299994468688965,-0.7177030155479045,0.0,True,0.010706186294555664,-1.2049999237060547,-0.8299994468688965,-0.7177030444145203,0.0,0,0
1759825539.4986215,0,-1.2049999237060547,-0.8299994468688965,-0.7177030161585076,0.0,True,0.011455535888671875,-1.2049999237060547,-0.8299994468688965,-0.7177030444145203,0.0,0,0
1759825539.5097437,0,-1.2049999237060547,-0.8299994468688965,-0.7177030170334184,0.0,True,0.01112222671508789,-1.2049999237060547,-0.8299994468688965,-0.7177030444145203,0.0,0,0
1759825539.5210059,0,-1.2049999237060547,-0.8299994468688965,-0.7177030178492387,0.0,True,0.011262178421020508,-1.2049999237060547,-0.8299994468688965,-0.7177030444145203,0.0,0,0
1759825539.5324032,0,-1.2049999237060547,-0.8299994468688965,-0.7177030186076649,0.0,True,0.011397361755371094,-1.2049999237060547,-0.8299994468688965,-0.7177030444145203,0.0,0,0
1759825539.5426252,0,-1.2049999237060547,-0.8299994468688965,-0.7177030199928058,0.0,True,0.01022195816040039,-1.2049999237060547,-0.8299994468688965,-0.7177030444145203,0.0,0,0
1759825539.5735707,0,-1.2049999237060547,-0.8299994468688965,-0.7177030115692169,0.0,True,0.030945539474487305,-1.2049999237060547,-0.8299994468688965,-0.7177030444145203,0.0,0,0
1759825539.5841744,0,-1.2049999237060547,-0.8299994468688965,-0.717703015381149,0.0,True,0.010603666305541992,-1.2049999237060547,-0.8299994468688965,-0.7177030444145203,0.0,0,0
1759825539.5954478,0,-1.2049999237060547,-0.8299994468688965,-0.7177030186074802,0.0,True,0.011273384094238281,-1.2049999237060547,-0.8299994468688965,-0.7177030444145203,0.0,0,0
1759825539.605545,0,-1.2049999237060547,-0.8299994468688965,-0.7177030214998421,0.0,True,0.010097265243530273,-1.2049999237060547,-0.8299994468688965,-0.7177030444145203,0.0,0,0
1759825539.6162393,0,-1.2049999237060547,-0.8299994468688965,-0.7177030234409756,0.0,True,0.010694265365600586,-1.2049999237060547,-0.8299994468688965,-0.7177030444145203,0.0,0,0
1759825539.6275725,0,-1.2049999237060547,-0.8299994468688965,-0.7177030246859495,0.0,True,0.011333227157592773,-1.2049999237060547,-0.8299994468688965,-0.7177030444145203,0.0,0,0
1759825539.6391754,0,-1.2049999237060547,-0.8299994468688965,-0.7177030256069425,0.0,True,0.01160287857055664,-1.2049999237060547,-0.8299994468688965,-0.7177030444145203,0.0,0,0
1759825539.6503508,0,-1.2049999237060547,-0.8299994468688965,-0.7177030265654629,0.0,True,0.011175394058227539,-1.2049999237060547,-0.8299994468688965,-0.7177030444145203,0.0,0,0
1759825539.6615136,0,-1.2049999237060547,-0.8299994468688965,-0.7177030274086462,0.0,True,0.011162757873535156,-1.2049999237060547,-0.8299994468688965,-0.7177030444145203,0.0,0,0
1759825539.6726308,0,-1.2049999237060547,-0.8299994468688965,-0.7177030281651966,0.0,True,0.011117219924926758,-1.2049999237060547,-0.8299994468688965,-0.7177030444145203,0.0,0,0
1759825539.6840866,0,-1.2049999237060547,-0.8299994468688965,-0.717703028734288,0.0,True,0.011455774307250977,-1.2049999237060547,-0.8299994468688965,-0.7177030444145203,0.0,0,0
1759825539.6943235,0,-1.2049999237060547,-0.8299994468688965,-0.7177030296427063,0.0,True,0.010236978530883789,-1.2049999237060547,-0.8299994468688965,-0.7177030444145203,0.0,0,0
1759825539.7055764,0,-1.2049999237060547,-0.8299994468688965,-0.7177030301220775,0.0,True,0.011252880096435547,-1.2049999237060547,-0.8299994468688965,-0.7177030444145203,0.0,0,0
1759825539.7168462,0,-1.2049999237060547,-0.8299994468688965,-0.7177030305632339,0.0,True,0.011269807815551758,-1.2049999237060547,-0.8299994468688965,-0.7177030444145203,0.0,0,0
1759825539.7282617,0,-1.2049999237060547,-0.8299994468688965,-0.7177030309612213,0.0,True,0.011415481567382812,-1.2049999237060547,-0.8299994468688965,-0.7177030444145203,0.0,0,0
1759825539.7386746,0,-1.2049999237060547,-0.8299994468688965,-0.717703031633004,0.0,True,0.010412931442260742,-1.2049999237060547,-0.8299994468688965,-0.7177030444145203,0.0,0,0
1759825539.7674506,0,-1.2049999237060547,-0.8299994468688965,-0.7177030277413046,0.0,True,0.028775930404663086,-1.2049999237060547,-0.8299994468688965,-0.7177030444145203,0.0,0,0
1759825539.7785206,0,-1.2049999237060547,-0.8299994468688965,-0.717703029445456,0.0,True,0.011070013046264648,-1.2049999237060547,-0.8299994468688965,-0.7177030444145203,0.0,0,0
1759825539.7900732,0,-1.2049999237060547,-0.8299994468688965,-0.7177030309466534,0.0,True,0.011552572250366211,-1.2049999237060547,-0.8299994468688965,-0.7177030444145203,0.0,0,0
1759825539.8013186,0,-1.2049999237060547,-0.8299994468688965,-0.7177030321639215,0.0,True,0.011245489120483398,-1.2049999237060547,-0.8299994468688965,-0.7177030444145203,0.0,0,0
1759825539.8116894,0,-1.2049999237060547,-0.8299994468688965,-0.7177030332827119,0.0,True,0.010370731353759766,-1.2049999237060547,-0.8299994468688965,-0.7177030444145203,0.0,0,0
1759825539.8229957,0,-1.2049999237060547,-0.8299994468688965,-0.7177030339651171,0.0,True,0.011306285858154297,-1.2049999237060547,-0.8299994468688965,-0.7177030444145203,0.0,0,0
1759825539.8343866,0,-1.2049999237060547,-0.8299994468688965,-0.717703034498463,0.0,True,0.011390924453735352,-1.2049999237060547,-0.8299994468688965,-0.7177030444145203,0.0,0,0
1759825539.8459895,0,-1.2049999237060547,-0.8299994468688965,-0.7177030349175233,0.0,True,0.01160287857055664,-1.2049999237060547,-0.8299994468688965,-0.7177030444145203,0.0,0,0
1759825539.8570218,0,-1.2049999237060547,-0.8299994468688965,-0.717703035397081,0.0,True,0.011032342910766602,-1.2049999237060547,-0.8299994468688965,-0.7177030444145203,0.0,0,0
1759825539.86838,0,-1.2049999237060547,-0.8299994468688965,-0.7177030357616729,0.0,True,0.011358261108398438,-1.2049999237060547,-0.8299994468688965,-0.7177030444145203,0.0,0,0
1759825539.8796186,0,-1.2049999237060547,-0.8299994468688965,-0.7177030361115477,0.0,True,0.011238574981689453,-1.2049999237060547,-0.8299994468688965,-0.7177030444145203,0.0,0,0
1759825539.8909535,0,-1.2049999237060547,-0.8299994468688965,-0.7177030364172854,0.0,True,0.011334896087646484,-1.2049999237060547,-0.8299994468688965,-0.7177030444145203,0.0,0,0
1759825539.9009652,0,-1.2049999237060547,-0.8299994468688965,-0.7177030369093682,0.0,True,0.010011672973632812,-1.2049999237060547,-0.8299994468688965,-0.7177030444145203,0.0,0,0
1759825539.9115694,0,-1.2049999237060547,-0.8299994468688965,-0.7177030372353279,0.0,True,0.010604143142700195,-1.2049999237060547,-0.8299994468688965,-0.7177030444145203,0.0,0,0
1759825539.9225726,0,-1.2049999237060547,-0.8299994468688965,-0.7177030374575644,0.0,True,0.011003255844116211,-1.2049999237060547,-0.8299994468688965,-0.7177030444145203,0.0,0,0
1759825539.9335046,0,-1.2049999237060547,-0.8299994468688965,-0.7177030376802378,0.0,True,0.010931968688964844,-1.2049999237060547,-0.8299994468688965,-0.7177030444145203,0.0,0,0
1759825539.9437842,0,-1.2049999237060547,-0.8299994468688965,-0.717703037986194,0.0,True,0.010279655456542969,-1.2049999237060547,-0.8299994468688965,-0.7177030444145203,0.0,0,0
1759825539.9765208,0,-1.2049999237060547,-0.8299994468688965,-0.7177030354516631,0.0,True,0.03273653984069824,-1.2049999237060547,-0.8299994468688965,-0.7177030444145203,0.0,0,0
1759825539.9872308,0,-1.2049999237060547,-0.8299994468688965,-0.7177030364852683,0.0,True,0.010710000991821289,-1.2049999237060547,-0.8299994468688965,-0.7177030444145203,0.0,0,0
1759825539.9973059,0,-1.2049999237060547,-0.8299994468688965,-0.7177030375181861,0.0,True,0.010075092315673828,-1.2049999237060547,-0.8299994468688965,-0.7177030444145203,0.0,0,0
1759825540.0087547,0,-1.2049999237060547,-0.8299994468688965,-0.7177030381364968,0.0,True,0.011448860168457031,-1.2049999237060547,-0.8299994468688965,-0.7177030444145203,0.0,0,0
1759825540.0200412,0,-1.2049999237060547,-0.8299994468688965,-0.717703038618069,0.0,True,0.011286497116088867,-1.2049999237060547,-0.8299994468688965,-0.7177030444145203,0.0,0,0
1759825540.0313954,0,-1.2049999237060547,-0.8299994468688965,-0.7177030389924575,0.0,True,0.011354207992553711,-1.2049999237060547,-0.8299994468688965,-0.7177030444145203,0.0,0,0
1759825540.042034,0,-1.2049999237060547,-0.8299994468688965,-0.7177030393673647,0.0,True,0.01063847541809082,-1.2049999237060547,-0.8299994468688965,-0.7177030444145203,0.0,0,0
1759825540.0530841,0,-1.2049999237060547,-0.8299994468688965,-0.7177030396339692,0.0,True,0.011050224304199219,-1.2049999237060547,-0.8299994468688965,-0.7177030444145203,0.0,0,0
1759825540.0639026,0,-1.2049999237060547,-0.8299994468688965,-0.7177030398783373,0.0,True,0.0108184814453125,-1.2049999237060547,-0.8299994468688965,-0.7177030444145203,0.0,0,0
1759825540.0752175,0,-1.2049999237060547,-0.8299994468688965,-0.7177030400440891,0.0,True,0.011314868927001953,-1.2049999237060547,-0.8299994468688965,-0.7177030444145203,0.0,0,0
1759825540.086419,0,-1.2049999237060547,-0.8299994468688965,-0.7177030402058371,0.0,True,0.011201620101928711,-1.2049999237060547,-0.8299994468688965,-0.7177030444145203,0.0,0,0
1759825540.097338,0,-1.2049999237060547,-0.8299994468688965,-0.7177030403807549,0.0,True,0.010918855667114258,-1.2049999237060547,-0.8299994468688965,-0.7177030444145203,0.0,0,0
1759825540.1081088,0,-1.2049999237060547,-0.8299994468688965,-0.7177030405516511,0.0,True,0.010770797729492188,-1.2049999237060547,-0.8299994468688965,-0.7177030444145203,0.0,0,0
1759825540.1187558,0,-1.2049999237060547,-0.8299994468688965,-0.7177030407144507,0.0,True,0.010647058486938477,-1.2049999237060547,-0.8299994468688965,-0.7177030444145203,0.0,0,0
1759825540.129397,0,-1.2049999237060547,-0.8299994468688965,-0.7177030408603713,0.0,True,0.010641098022460938,-1.2049999237060547,-0.8299994468688965,-0.7177030444145203,0.0,0,0
1759825540.1405005,0,-1.2049999237060547,-0.8299994468688965,-0.7177030409586642,0.0,True,0.011103630065917969,-1.2049999237060547,-0.8299994468688965,-0.7177030444145203,0.0,0.5235987755982988,0.02944952484544852
1759825540.1581187,0,-1.204988643313763,-0.8300092790409072,-0.7177018861237858,0.00013238728251642907,True,0.017618179321289062,-1.2049827575683594,-0.8300144076347351,-0.7177008986473083,0.00013238728251642907,0.5235987755982988,0.029987200909934494
1759825540.1686757,0,-1.2049846035733716,-0.830012799767192,-0.7177015940412943,0.00013238728251642907,True,0.010556936264038086,-1.2049827575683594,-0.8300144076347351,-0.7177008986473083,0.00013238728251642907,0.5235987755982988,0.03026749176835819
1759825540.1798365,0,-1.2049830375245898,-0.8300141646485918,-0.7177012449755171,0.00013238728251642907,True,0.011160850524902344,-1.2049827575683594,-0.8300144076347351,-0.7177008986473083,0.00013238728251642907,0.5235987755982988,0.029600406678825023
1759825540.1913247,0,-1.2049824268772258,-0.8300146968730413,-0.7177009836128292,0.00013238728251642907,True,0.011488199234008789,-1.2049827575683594,-0.8300144076347351,-0.7177008986473083,0.00013238728251642907,0.5235987755982988,0.029792946691649374
1759825540.2027633,0,-1.2049821955196844,-0.830014898515383,-0.7177008033570065,0.00013238728251642907,True,0.011438608169555664,-1.2049827575683594,-0.8300144076347351,-0.7177008986473083,0.00013238728251642907,0.5235987755982988,0.032382824119571614
1759825540.2137442,0,-1.2049821245866896,-0.8300149603124725,-0.7177006893097815,0.00013238728251642907,True,0.010980844497680664,-1.2049827575683594,-0.8300144076347351,-0.7177008986473083,0.00013238728251642907,0.5235987755982988,0.032828260046232155
1759825540.2251673,0,-1.2049820806452063,-0.830014998624792,-0.7177005825134,0.00013238728251642907,True,0.011423110961914062,-1.2049827575683594,-0.8300144076347351,-0.7177008986473083,0.00013238728251642907,0.5235987755982988,0.03282838105144292
1759825540.2365222,0,-1.2049820664585185,-0.8300150109911061,-0.7177005167164339,0.00013238728251642907,True,0.011354923248291016,-1.2049827575683594,-0.8300144076347351,-0.7177008986473083,0.00013238728251642907,0.5235987755982988,0.03431187959921093
1759825540.2476218,0,-1.204982070766681,-0.8300150072228151,-0.7177004784950363,0.00013238728251642907,True,0.011099576950073242,-1.2049827575683594,-0.8300144076347351,-0.7177008986473083,0.00013238728251642907,0.5235987755982988,0.033010292002352955
1759825540.2580874,0,-1.204982096561768,-0.8300149847006875,-0.7177004691178759,0.00013238728251642907,True,0.010465621948242188,-1.2049827575683594,-0.8300144076347351,-0.7177008986473083,0.00013238728251642907,0.5235987755982988,0.032719237743580064
1759825540.2693424,0,-1.2049820763434966,-0.8300150023503438,-0.7177004221127881,0.00013238728251642907,True,0.011255025863647461,-1.2049827575683594,-0.8300144076347351,-0.7177008986473083,0.00013238728251642907,0.5235987755982988,0.031376557533067305
1759825540.279386,0,-1.2049821147673712,-0.830014968805524,-0.7177004468330583,0.00013238728251642907,True,0.010043621063232422,-1.2049827575683594,-0.8300144076347351,-0.7177008986473083,0.00013238728251642907,0.5235987755982988,0.033550806760105516
1759825540.2907135,0,-1.2049820805364255,-0.8300149986892853,-0.7177003971348928,0.00013238728251642907,True,0.011327505111694336,-1.2049827575683594,-0.8300144076347351,-0.7177008986473083,0.00013238728251642907,0.5235987755982988,0.033768718106625566
1759825540.30213,0,-1.204982064073696,-0.8300150130612995,-0.71770038332604,0.00013238728251642907,True,0.011416435241699219,-1.2049827575683594,-0.8300144076347351,-0.7177008986473083,0.00013238728251642907,0.5235987755982988,0.033744822285469794
1759825540.3135457,0,-1.2049820578127344,-0.8300150185271283,-0.7177003784504663,0.00013238728251642907,True,0.011415719985961914,-1.2049827575683594,-0.8300144076347351,-0.7177008986473083,0.00013238728251642907,0.5235987755982988,0.03344082340685897
1759825540.324124,0,-1.2049820873178934,-0.8300149927688475,-0.717700405689909,0.00013238728251642907,True,0.010578393936157227,-1.2049827575683594,-0.8300144076347351,-0.7177008986473083,0.00013238728251642907,0.5235987755982988,0.03206518890454156
1759825540.3352308,0,-1.204982078461747,-0.83001500050035,-0.7177003910214683,0.00013238728251642907,True,0.011106729507446289,-1.2049827575683594,-0.8300144076347351,-0.7177008986473083,0.00013238728251642907,0.5235987755982988,0.03241048942449423
1759825540.3464885,0,-1.2049820693299722,-0.8300150084724632,-0.717700385555478,0.00013238728251642907,True,0.011257648468017578,-1.2049827575683594,-0.8300144076347351,-0.7177008986473083,0.00013238728251642907,0.5235987755982988,0.0316818201329947
1759825540.356631,0,-1.2011096938250954,-0.8333605467152738,-0.7146735450247874,0.03957149464592391,True,0.01014256477355957,-1.1989033222198486,-0.8352651000022888,-0.7067591547966003,0.03957149464592391,0.5235987755982988,0.034542601576650664
1759825540.3676302,0,-1.1996204986448538,-0.8346465700722793,-0.7122737380753961,0.03957149464592391,True,0.010999202728271484,-1.1989033222198486,-0.8352651000022888,-0.7067591547966003,0.03957149464592391,0.5235987755982988,0.03500102345721949
1759825540.3788373,0,-1.1990490432906442,-0.8351395464048034,-0.710510208269179,0.03957149464592391,True,0.011207103729248047,-1.1989033222198486,-0.8352651000022888,-0.7067591547966003,0.03957149464592391,0.5235987755982988,0.03203132361418601
1759825540.3892896,0,-1.1988392243079673,-0.8353201836089357,-0.7092465973684181,0.03957149464592391,True,0.0104522705078125,-1.1989033222198486,-0.8352651000022888,-0.7067591547966003,0.03957149464592391,0.5235987755982988,0.031567730736726154
1759825540.3998704,0,-1.1987574797022225,-0.8353902982134955,-0.708324391330434,0.03957149464592391,True,0.010580778121948242,-1.1989033222198486,-0.8352651000022888,-0.7067591547966003,0.03957149464592391,0.5235987755982988,0.0318077443669188
1759825540.4110029,0,-1.1987198300225839,-0.8354223961620885,-0.7076434893637042,0.03957149464592391,True,0.011132478713989258,-1.1989033222198486,-0.8352651000022888,-0.7067591547966003,0.03957149464592391,0.5235987755982988,0.033006502987294566
1759825540.422234,0,-1.1987042428861312,-0.83543554159005,-0.7071526723439163,0.03957149464592391,True,0.011231184005737305,-1.1989033222198486,-0.8352651000022888,-0.7067591547966003,0.03957149464592391,0.5235987755982988,0.03221542075911325
1759825540.4328163,0,-1.1987056924337849,-0.8354341269654424,-0.7068186753306591,0.03957149464592391,True,0.010582208633422852,-1.1989033222198486,-0.8352651000022888,-0.7067591547966003,0.03957149464592391,0.5235987755982988,0.029672984001364856
1759825540.443755,0,-1.1987021159739568,-0.8354370464020838,-0.7065687921523534,0.03957149464592391,True,0.010938644409179688,-1.1989033222198486,-0.8352651000022888,-0.7067591547966003,0.03957149464592391,0.5235987755982988,0.032355941787679886
1759825540.4544718,0,-1.1987032724706157,-0.8354359546591701,-0.7063999252179709,0.03957149464592391,True,0.010716915130615234,-1.1989033222198486,-0.8352651000022888,-0.7067591547966003,0.03957149464592391,0.5235987755982988,0.030588983984974318
1759825540.465348,0,-1.1987018659714386,-0.8354370802568597,-0.7062776981112702,0.03957149464592391,True,0.010876178741455078,-1.1989033222198486,-0.8352651000022888,-0.7067591547966003,0.03957149464592391,0.5235987755982988,0.03337909093576188
1759825540.4755497,0,-1.1987090709548396,-0.835430877466467,-0.7062120563571526,0.03957149464592391,True,0.010201692581176758,-1.1989033222198486,-0.8352651000022888,-0.7067591547966003,0.03957149464592391,0.5235987755982988,0.03018800598192303
1759825540.4869897,0,-1.1986975780141529,-0.8354406501676641,-0.7061354879008022,0.03957149464592391,True,0.011440038681030273,-1.1989033222198486,-0.8352651000022888,-0.7067591547966003,0.03957149464592391,0.5235987755982988,0.031646065878947735
1759825540.497102,0,-1.1987084474176022,-0.835431347827547,-0.7061240599230949,0.03957149464592391,True,0.010112285614013672,-1.1989033222198486,-0.8352651000022888,-0.7067591547966003,0.03957149464592391,0.5235987755982988,0.03228291683557307
1759825540.50838,0,-1.1986991945479608,-0.8354392281793722,-0.7060865505915608,0.03957149464592391,True,0.011277914047241211,-1.1989033222198486,-0.8352651000022888,-0.7067591547966003,0.03957149464592391,0.5235987755982988,0.02865131833874361
1759825540.5195296,0,-1.198697131350483,-0.8354409753383811,-0.7060736006904058,0.03957149464592391,True,0.01114964485168457,-1.1989033222198486,-0.8352651000022888,-0.7067591547966003,0.03957149464592391,0.5235987755982988,0.028060061751403163
1759825540.530793,0,-1.1986950341821654,-0.8354427567362445,-0.7060671968734944,0.03957149464592391,True,0.011263370513916016,-1.1989033222198486,-0.8352651000022888,-0.7067591547966003,0.03957149464592391,0.5235987755982988,0.03047022213128251
1759825540.541163,0,-1.1987045055482326,-0.8354346730878301,-0.7060887830822686,0.03957149464592391,True,0.010370016098022461,-1.1989033222198486,-0.8352651000022888,-0.7067591547966003,0.03957149464592391,0.5235987755982988,0.03130967317278444
1759825540.5541847,0,-1.1883451177939663,-0.8438619730203548,-0.6934081573772986,0.1036215295928798,True,0.013021707534790039,-1.1825776100158691,-0.8485296964645386,-0.6608673334121704,0.1036215295928798,0.5235987755982988,0.028998332339259168
1759825540.5650585,0,-1.1844494437649724,-0.847021674867158,-0.6834010596119313,0.1036215295928798,True,0.010873794555664062,-1.1825776100158691,-0.8485296964645386,-0.6608673334121704,0.1036215295928798,0.5235987755982988,0.029889381639056405
1759825540.5758636,0,-1.1829608654597306,-0.8482236078334564,-0.6760491143161005,0.1036215295928798,True,0.010805130004882812,-1.1825776100158691,-0.8485296964645386,-0.6608673334121704,0.1036215295928798,0.5235987755982988,0.029924367776547296
1759825540.5867705,0,-1.1823872074496942,-0.8486828390524923,-0.6707066068834244,0.1036215295928798,True,0.01090693473815918,-1.1825776100158691,-0.8485296964645386,-0.6608673334121704,0.1036215295928798,0.5235987755982988,0.02842850611781112
1759825540.597261,0,-1.1821795994230797,-0.8488462418857944,-0.6668903644281592,0.1036215295928798,True,0.01049041748046875,-1.1825776100158691,-0.8485296964645386,-0.6608673334121704,0.1036215295928798,0.5235987755982988,0.029567407758810726
1759825540.6073291,0,-1.1821124710439121,-0.8488971032271843,-0.6641838177439752,0.1036215295928798,True,0.010068178176879883,-1.1825776100158691,-0.8485296964645386,-0.6608673334121704,0.1036215295928798,0.5235987755982988,0.02892025799095555
1759825540.6182039,0,-1.1820610481501006,-0.8489353880309919,-0.6621488612887223,0.1036215295928798,True,0.010874748229980469,-1.1825776100158691,-0.8485296964645386,-0.6608673334121704,0.1036215295928798,0.5235987755982988,0.029644546637571677
1759825540.6295657,0,-1.1820256798810054,-0.8489611968472015,-0.6606497995911198,0.1036215295928798,True,0.011361837387084961,-1.1825776100158691,-0.8485296964645386,-0.6608673334121704,0.1036215295928798,0.5235987755982988,0.02797959406774606
1759825540.6403496,0,-1.1820298230422757,-0.848956493636481,-0.6596567692571966,0.1036215295928798,True,0.010783910751342773,-1.1825776100158691,-0.8485296964645386,-0.6608673334121704,0.1036215295928798,0.5235987755982988,0.0291860547801227
1759825540.6517038,0,-1.1820133210851331,-0.848968211470092,-0.6588988059268601,0.1036215295928798,True,0.011354207992553711,-1.1825776100158691,-0.8485296964645386,-0.6608673334121704,0.1036215295928798,0.5235987755982988,0.02826114830797639
1759825540.662104,0,-1.1820366651078795,-0.8489492915877781,-0.658483048970286,0.1036215295928798,True,0.010400056838989258,-1.1825776100158691,-0.8485296964645386,-0.6608673334121704,0.1036215295928798,0.5235987755982988,0.02896379015307255
1759825540.6721513,0,-1.1820565147862245,-0.8489333881082005,-0.6582332010425844,0.1036215295928798,True,0.010047435760498047,-1.1825776100158691,-0.8485296964645386,-0.6608673334121704,0.1036215295928798,0.5235987755982988,0.027971246076471615
1759825540.682713,0,-1.1820479407934394,-0.8489396953839707,-0.6580188512539653,0.1036215295928798,True,0.010561704635620117,-1.1825776100158691,-0.8485296964645386,-0.6608673334121704,0.1036215295928798,0.5235987755982988,0.028449008067672556
1759825540.6938753,0,-1.1820258120612546,-0.848956581836346,-0.6578354803742315,0.1036215295928798,True,0.011162281036376953,-1.1825776100158691,-0.8485296964645386,-0.6608673334121704,0.1036215295928798,0.5235987755982988,0.03019289402793817
1759825540.7051644,0,-1.1820133410702574,-0.8489660418859344,-0.6577269566016959,0.1036215295928798,True,0.011289119720458984,-1.1825776100158691,-0.8485296964645386,-0.6608673334121704,0.1036215295928798,0.5235987755982988,0.029723643729697616
1759825540.7153726,0,-1.1820423970321776,-0.8489434475965374,-0.6577800697173259,0.1036215295928798,True,0.0102081298828125,-1.1825776100158691,-0.8485296964645386,-0.6608673334121704,0.1036215295928798,0.5235987755982988,0.031501810236682116
1759825540.7265155,0,-1.182024238015251,-0.8489574683474745,-0.6577448255784368,0.1036215295928798,True,0.011142969131469727,-1.1825776100158691,-0.8485296964645386,-0.6608673334121704,0.1036215295928798,0.5235987755982988,0.02833122050620593
1759825540.7378302,0,-1.182011918826048,-0.8489669693821769,-0.6577407814213281,0.1036215295928798,True,0.011314630508422852,-1.1825776100158691,-0.8485296964645386,-0.6608673334121704,0.1036215295928798,0.5235987755982988,0.030164134170460072
