timestamp,observer_vehicle_id,vehicle_0_x,vehicle_0_y,vehicle_0_theta,vehicle_0_velocity,vehicle_1_x,vehicle_1_y,vehicle_1_theta,vehicle_1_velocity,vehicle_2_x,vehicle_2_y,vehicle_2_theta,vehicle_2_velocity
1759837279.9616058,1,0.0,0.0,0.0,0.0,-1.735,-0.35,-0.7801621756414646,0.0,0.0,0.0,0.0,0.0
1759837279.972695,1,0.0,0.0,0.0,0.0,-1.735,-0.35,-0.7801621756414646,0.0,0.0,0.0,0.0,0.0
1759837279.9840586,1,0.0,0.0,0.0,0.0,-1.735,-0.35,-0.7801621756414646,0.0,0.0,0.0,0.0,0.0
1759837279.9956021,1,0.0,0.0,0.0,0.0,-1.735,-0.35,-0.7801621756414646,0.0,0.0,0.0,0.0,0.0
1759837280.0069816,1,0.0,0.0,0.0,0.0,-1.735,-0.35,-0.7801621756414646,0.0,0.0,0.0,0.0,0.0
1759837280.0177643,1,0.0,0.0,0.0,0.0,-1.735,-0.35,-0.7801621756414646,0.0,0.0,0.0,0.0,0.0
1759837280.0291905,1,0.0,0.0,0.0,0.0,-1.735,-0.35,-0.7801621756414646,0.0,0.0,0.0,0.0,0.0
1759837280.0406706,1,0.0,0.0,0.0,0.0,-1.735,-0.35,-0.7801621756414646,0.0,0.0,0.0,0.0,0.0
1759837280.051725,1,0.0,0.0,0.0,0.0,-1.735,-0.35,-0.7801621756414646,0.0,0.0,0.0,0.0,0.0
1759837280.063099,1,0.0,0.0,0.0,0.0,-1.735,-0.35,-0.7801621756414646,0.0,0.0,0.0,0.0,0.0
1759837280.073979,1,0.0,0.0,0.0,0.0,-1.735,-0.35,-0.7801621756414646,0.0,0.0,0.0,0.0,0.0
1759837280.084537,1,0.0,0.0,0.0,0.0,-1.735,-0.35,-0.7801621756414646,0.0,0.0,0.0,0.0,0.0
1759837280.0957537,1,0.0,0.0,0.0,0.0,-1.735,-0.35,-0.7801621756414646,0.0,0.0,0.0,0.0,0.0
1759837280.1065598,1,0.0,0.0,0.0,0.0,-1.735,-0.35,-0.7801621756414646,0.0,0.0,0.0,0.0,0.0
1759837280.118096,1,0.0,0.0,0.0,0.0,-1.735,-0.35,-0.7801621756414646,0.0,0.0,0.0,0.0,0.0
1759837280.128201,1,0.0,0.0,0.0,0.0,-1.735,-0.35,-0.7801621756414646,0.0,0.0,0.0,0.0,0.0
1759837280.1389945,1,0.0,0.0,0.0,0.0,-1.735,-0.35,-0.7801621756414646,0.0,0.0,0.0,0.0,0.0
1759837280.1498334,1,0.0,0.0,0.0,0.0,-1.735,-0.35,-0.7801621756414646,0.0,0.0,0.0,0.0,0.0
1759837280.160723,1,0.0,0.0,0.0,0.0,-1.7350000141859054,-0.34999996453523635,-0.7229992833198722,0.0,0.0,0.0,0.0,0.0
1759837280.1722016,1,0.0,0.0,0.0,0.0,-1.7350000142652677,-0.34999996433683095,-0.7181126931689725,0.0,0.0,0.0,0.0,0.0
1759837280.1823354,1,0.0,0.0,0.0,0.0,-1.735000014290167,-0.34999996427458285,-0.7176576140486652,0.0,0.0,0.0,0.0,0.0
1759837280.1932306,1,0.0,0.0,0.0,0.0,-1.73500001429942,-0.3499999642514499,-0.7175959161541687,0.0,0.0,0.0,0.0,0.0
1759837280.2034564,1,0.0,0.0,0.0,0.0,-1.7350000143029403,-0.349999964242649,-0.7175900811077973,0.0,0.0,0.0,0.0,0.0
1759837280.214852,1,0.0,0.0,0.0,0.0,-1.7350000143042843,-0.34999996423928936,-0.717594618411642,0.0,0.0,0.0,0.0,0.0
1759837280.2256014,1,0.0,0.0,0.0,0.0,-1.7350000143047974,-0.34999996423800617,-0.7176066003345731,0.0,0.0,0.0,0.0,0.0
1759837280.2362149,1,0.0,0.0,0.0,0.0,-1.7350000143049935,-0.34999996423751606,-0.71761893072917,0.0,0.0,0.0,0.0,0.0
1759837280.2469988,1,-0.2395185377597809,-0.16497957372665406,1.7422973870779865,0.0,-1.7350000143050683,-0.3499999642373288,-0.7176294993999939,0.0,0.0,0.0,0.0,0.0
1759837280.2582965,1,-0.42924629454085095,-0.29566342279577285,-3.1393495087706142,0.0,-1.735000014305097,-0.3499999642372573,-0.7176379668779838,0.0,0.0,0.0,0.0,0.0
1759837280.2683156,1,-0.5801359891830553,-0.3995957435866688,-0.7833661634257509,0.0,-1.7350000143051079,-0.34999996423723,-0.7176466936447952,0.0,0.0,0.0,0.0,0.0
1759837280.2798145,1,-0.7002394959221866,-0.48232264034474265,1.114210405614138,0.0,-1.735000014305112,-0.3499999642372196,-0.7176522019471943,0.0,0.0,0.0,0.0,0.0
1759837280.2912974,1,-0.7960989877492113,-0.5483503401094152,2.6512658108258025,0.0,-1.7350000143051136,-0.3499999642372156,-0.7176571353123897,0.0,0.0,0.0,0.0,0.0
1759837280.302304,1,-0.8772589028810089,-0.6042530202416908,-2.4156470387032387,0.0,-1.7350000143051143,-0.3499999642372141,-0.7176618911050276,0.0,0.0,0.0,0.0,0.0
1759837280.3136778,1,-0.9415644218920232,-0.6485464482741736,-0.19754072702519984,0.0,-1.7350000143051145,-0.34999996423721347,-0.7176656707258715,0.0,0.0,0.0,0.0,0.0
1759837280.3246834,1,-0.9926728097904477,-0.6837497362042088,1.5864996898556243,0.0,-1.7350000143051147,-0.34999996423721325,-0.7176691852928344,0.0,0.0,0.0,0.0,0.0
1759837280.3355567,1,-1.0334040643885714,-0.7118052891639122,3.0294343604619387,0.0,-1.7350000143051147,-0.3499999642372132,-0.7176722487528817,0.0,0.0,0.0,0.0,0.0
1759837280.3466783,1,-1.0659400595705653,-0.7342159746419661,-2.079283267829794,0.0,-1.7350000143051147,-0.34999996423721313,-0.717674706708527,0.0,0.0,0.0,0.0,0.0
1759837280.3575163,1,-1.0935254832469774,-0.7532167229004075,0.07577004323898807,0.0,-1.7350000143051147,-0.34999996423721313,-0.7176769895473925,0.0,0.0,0.0,0.0,0.0
1759837280.3682282,1,-1.1153999449771552,-0.7682837795278329,1.8050237500021382,0.0,-1.7350000143051147,-0.34999996423721313,-0.717679015906036,0.0,0.0,0.0,0.0,0.0
1759837280.3788562,1,-1.132791563323257,-0.7802630685131147,-3.082874171177449,0.0,-1.7350000143051147,-0.34999996423721313,-0.7176807920449875,0.0,0.0,0.0,0.0,0.0
1759837280.389552,1,-1.1466529531368357,-0.7898107478037953,-0.7438918313033837,0.0,-1.7350000143051147,-0.34999996423721313,-0.7176822950508814,0.0,0.0,0.0,0.0,0.0
1759837280.4009972,1,-1.157719904054967,-0.7974336268594376,1.1460311446189533,0.0,-1.7350000143051147,-0.34999996423721313,-0.7176833247734251,0.0,0.0,0.0,0.0,0.0
1759837280.4117756,1,-1.1671086514971998,-0.8039005649316809,2.6608917227333055,0.0,-1.7350000143051147,-0.34999996423721313,-0.717684569757152,0.0,0.0,0.0,0.0,0.0
1759837280.4225173,1,-1.174551604503337,-0.8090272462554103,-2.4009913491496464,0.0,-1.7350000143051147,-0.34999996423721313,-0.7176857076224898,0.0,0.0,0.0,0.0,0.0
1759837280.4338589,1,-1.1804634804745364,-0.813099326799888,-0.18920760497279573,0.0,-1.7350000143051147,-0.34999996423721313,-0.7176865232698582,0.0,0.0,0.0,0.0,0.0
1759837280.4451551,1,-1.1851720693563137,-0.8163425871914854,1.59432908663106,0.0,-1.7350000143051147,-0.34999996423721313,-0.7176873240507771,0.0,0.0,0.0,0.0,0.0
1759837280.45546,1,-1.188936209045184,-0.8189353141141099,3.040367913841931,0.0,-1.7350000143051147,-0.34999996423721313,-0.7176883896060211,0.0,0.0,0.0,0.0,0.0
1759837280.4666698,1,-1.1921243334571363,-0.8211311961068076,2.2945131712242994,0.0,-1.7350000143051147,-0.34999996423721313,-0.7176890557502542,0.0,0.0,0.0,0.0,0.0
1759837280.4773982,1,-1.1946520921700372,-0.8228722385262109,1.7031495415171145,0.0,-1.7350000143051147,-0.34999996423721313,-0.7176898101955125,0.0,-0.3858159399032593,0.03897730264663697,1.1706658849802658,0.0
1759837280.4886377,1,-1.1966603358595527,-0.824255454983581,1.2333253167969314,0.0,-1.7350000143051147,-0.34999996423721313,-0.717690366647453,0.0,-0.6917803879119248,0.06988755713776881,2.1133187588195814,0.0
1759837280.4999516,1,-1.1982599612507356,-0.8253572277307146,0.8590964504601876,0.0,-1.7350000143051147,-0.34999996423721313,-0.7176908868083824,0.0,-0.935049146844498,0.09446393945044418,2.877347877217501,0.0
1759837280.5111842,1,-1.1995376192804224,-0.8262372392665557,0.5601911450986248,0.0,-1.7350000143051147,-0.34999996423721313,-0.7176914199297819,0.0,-1.1290033282416228,0.11405828495569216,-2.7820883003841033,0.0
1759837280.522054,1,-1.2005612038581708,-0.826942252826834,0.3207257688662265,0.0,-1.7350000143051147,-0.34999996423721313,-0.7176920150294155,0.0,-1.2841086205373993,0.1297278965363424,-1.0819407338483884,0.0
1759837280.5333047,1,-1.2014306646752675,-0.8275411106833408,0.11731730979841111,0.0,-1.7350000143051147,-0.34999996423721313,-0.7176924777280007,0.0,-1.4084125762103137,0.14228578334022143,0.29555277077510245,0.0
1759837280.543728,1,-1.2021223738723452,-0.8280175386936004,-0.04450654601429388,0.0,-1.7350000143051147,-0.34999996423721313,-0.7176930873430969,0.0,-1.514159889365152,0.1529689734384282,1.4096404105323723,0.0
1759837280.5573533,1,-1.2026721909790172,-0.8283962357981712,-0.17313505719980257,0.0,-1.7350000143051147,-0.34999996423721313,-0.7176930025567305,0.0,-1.5980719001980774,0.16144623812257503,2.3112229499960333,0.0
1759837280.565062,1,-1.2031133650322223,-0.8287001029105859,-0.2763467633268767,0.0,-1.7350000143051147,-0.34999996423721313,-0.717694162549133,0.0,-1.665285798767978,0.16823656531143164,3.0434576602982255,0.0
1759837280.5763788,1,-1.2034666536289076,-0.8289434372248864,-0.3589978588621138,0.0,-1.7350000143051147,-0.34999996423721313,-0.7176944421462927,0.0,-1.7190182676552566,0.17366492242465925,-2.6394687835465973,0.0
1759837280.5871272,1,-1.2037504871912093,-0.8291389330487146,-0.4254001008081781,0.0,-1.7350000143051147,-0.34999996423721313,-0.7176947854626619,0.0,-1.7621135814520323,0.17801865412617968,-0.9714439267548911,0.0
1759837280.5979187,1,-1.2039790818141842,-0.8292963819909002,-0.47887931355267893,0.0,-1.7350000143051147,-0.34999996423721313,-0.717695108509318,0.0,-1.796762889512853,0.181519122684119,0.38421108305437834,0.0
1759837280.6082017,1,-1.2041746561251347,-0.8294310875582366,-0.5246334964226547,0.0,-1.7350000143051147,-0.34999996423721313,-0.7176954978803423,0.0,-1.8247071550036478,0.18434221001831724,1.491545080719112,0.0
1759837280.618368,1,-1.204331084075488,-0.8295388303169718,-0.5612294737350568,0.0,-1.7350000143051147,-0.34999996423721313,-0.717695864728416,0.0,-1.848675480433584,0.18676362545918773,2.379729372528684,0.0
1759837280.6296015,1,-1.2044563587047712,-0.8296251156267778,-0.590537199628776,0.0,-1.7350000143051147,-0.34999996423721313,-0.7176960284576221,0.0,-1.8678310554884208,0.1886988297083174,3.1043282043675537,0.0
1759837280.6404383,1,-1.2045569911096126,-0.8296944281306576,-0.6140799309382842,0.0,-1.7350000143051147,-0.34999996423721313,-0.7176962653114831,0.0,-1.883187145729284,0.19025018856854817,-2.583574948164611,0.0
1759837280.6511445,1,-1.2046380446032814,-0.8297502552829874,-0.6330422187435895,0.0,-1.7350000143051147,-0.34999996423721313,-0.7176965229327763,0.0,-1.895530360768853,0.19149716978023795,-0.9299143202420035,0.0
1759837280.6618764,1,-1.2047034891553288,-0.8297953314766335,-0.6483528287499322,0.0,-1.7350000143051147,-0.34999996423721313,-0.7176967663777702,0.0,-1.9054763388413365,0.19250196859063756,0.41718057343807696,0.0
1759837280.6725957,1,-1.2047596209978777,-0.8298339933625397,-0.6614847507100373,0.0,-1.7350000143051147,-0.34999996423721313,-0.7176970004442609,0.0,-1.9135107613392133,0.19331365127375638,1.5201262643414666,0.0
1759837280.6837838,1,-1.2048045862020378,-0.8298649640115341,-0.672004262009472,0.0,-1.7350000143051147,-0.34999996423721313,-0.7176971661052178,0.0,-1.9204169532374191,0.19401135373731876,2.4068146582095054,0.0
1759837280.6950674,1,-1.2048406967383787,-0.829889835837803,-0.6804522431131562,0.0,-1.7350000143051147,-0.34999996423721313,-0.7176973292057447,0.0,-1.9259492732331671,0.19457025991124818,3.1320947206502665,0.0
1759837280.7063541,1,-1.2048697723681085,-0.8299098622368705,-0.6872544231809805,0.0,-1.7350000143051147,-0.34999996423721313,-0.7176975039942235,0.0,-1.9303927042714115,0.19501916038024006,-2.5533939299048583,0.0
1759837280.71666,1,-1.204893270379573,-0.8299260469441062,-0.6927517316382724,0.0,-1.7350000143051147,-0.34999996423721313,-0.7176977933539064,0.0,-1.9339747863821541,0.1953810425216843,-0.9096566121646255,0.0
1759837280.7271266,1,-1.2049123027127562,-0.829939155829556,-0.6972043044157171,0.0,-1.7350000143051147,-0.34999996423721313,-0.7176980335004437,0.0,-1.9368689074763437,0.19567342296043064,0.43278960207256684,0.0
1759837280.7385101,1,-1.2049286806971367,-0.8299504364812279,-0.7010358980884414,0.0,-1.7350000143051147,-0.34999996423721313,-0.7176981520661769,0.0,-1.9392104605214142,0.19590997985780442,1.5347673553149825,0.0
1759837280.7499788,1,-1.2049418339210802,-0.8299594960171404,-0.7041130661005065,0.0,-1.7350000143051147,-0.34999996423721313,-0.717698271968672,0.0,-1.9411097165746363,0.196101853418053,2.444756047722994,0.0
1759837280.761722,1,-1.204952422300877,-0.8299667889673277,-0.7065901944265885,0.0,-1.7350000143051147,-0.34999996423721313,-0.7176983814515303,0.0,-1.9427491373543915,0.19626748765195481,1.9137828095436191,0.0
1759837280.7730157,1,-1.2049609733791908,-0.8299726786869437,-0.7085907005206981,0.0,-1.7350000143051147,-0.34999996423721313,-0.7176985500006552,0.0,-1.9440698516774622,0.19640092228192066,1.4860317589954508,0.0
1759837280.784401,1,-1.2049678964233541,-0.8299774470667334,-0.7102103315812537,0.0,-1.7350000143051147,-0.34999996423721313,-0.7176987099866246,0.0,-1.9451364906415052,0.1965086871277984,1.1405702693644617,0.0
1759837280.7946799,1,-1.2049735231220207,-0.8299813225636349,-0.7115266854443466,0.0,-1.7350000143051147,-0.34999996423721313,-0.7176989596255225,0.0,-1.9460012685444126,0.1965960575132492,0.8604872491398925,0.0
1759837280.8060532,1,-1.2049781012444238,-0.8299844758334721,-0.7125977271809352,0.0,-1.7350000143051147,-0.34999996423721313,-0.7176990869943296,0.0,-1.9467031759332563,0.19666697273773384,0.6331544961587089,0.0
1759837280.817261,1,-1.2049820723459304,-0.8299872110059945,-0.7135267577046464,0.0,-1.7350000143051147,-0.34999996423721313,-0.7176992232322856,0.0,-1.9472744768555543,0.19672469250788727,0.4481223772338813,0.0
1759837280.8275533,1,-1.204985284067411,-0.8299894231409218,-0.7142781329299251,0.0,-1.7350000143051147,-0.34999996423721313,-0.7176994266965551,0.0,-1.947741158986334,0.19677184241483117,0.29697404165057606,0.0
1759837280.838824,1,-1.2049878849531213,-0.829991214550967,-0.7148866044609983,0.0,-1.7350000143051147,-0.34999996423721313,-0.7176995338076395,0.0,-1.9481484700270308,0.19681299393189056,0.16505472911300692,0.0
1759837280.8492491,1,-1.204989998663124,-0.8299926704093755,-0.7153811022993173,0.0,-1.7350000143051147,-0.34999996423721313,-0.7176996983449744,0.0,-1.948478465406111,0.19684633408011853,0.0581763015743854,0.0
1759837280.860123,1,-1.2049917196728714,-0.8299938557879323,-0.7157837287707065,0.0,-1.7350000143051147,-0.34999996423721313,-0.7176998165308178,0.0,-1.9487463280652346,0.1968733968250116,-0.028578670217245628,0.0
1759837280.8710678,1,-1.204993124299891,-0.8299948232518013,-0.716112338193892,0.0,-1.7350000143051147,-0.34999996423721313,-0.7176999229514021,0.0,-1.948964280942359,0.19689541707647784,-0.09916893378250817,0.0
1759837280.8823516,1,-1.204994348866213,-0.8299956666954025,-0.7163988228101718,0.0,-1.7350000143051147,-0.34999996423721313,-0.7177000055775515,0.0,-1.949141996306646,0.19691337204482992,-0.15672712971061692,0.0
1759837280.893103,1,-1.2049953409020553,-0.8299963499791647,-0.7166309074287173,0.0,-1.7350000143051147,-0.34999996423721313,-0.7177001252616968,0.0,-1.9492873647374744,0.1969280589324009,-0.20380884747284367,0.0
1759837280.9043922,1,-1.2049961460589655,-0.829996904546469,-0.7168192721292671,0.0,-1.7350000143051147,-0.34999996423721313,-0.7177002069615508,0.0,-1.9494143454738393,0.1969408880713552,-0.2449351852664151,0.0
1759837280.9153438,1,-1.2049968014829475,-0.8299973559823397,-0.7169726071382567,0.0,-1.7350000143051147,-0.34999996423721313,-0.71770030981099,0.0,-1.9495174082519797,0.1969513007271614,-0.2783150092388905,0.0
1759837280.9266615,1,-1.2049973361231892,-0.8299977242260866,-0.7170976850550327,0.0,-1.7350000143051147,-0.34999996423721313,-0.7177003893658345,0.0,-1.9496012328959116,0.19695976971258064,-0.3054640140442642,0.0
1759837280.937697,1,-1.2049977735021944,-0.8299980254792868,-0.7172000089179622,0.0,-1.7350000143051147,-0.34999996423721313,-0.7177004854668283,0.0,-1.9496696086797463,0.19696667786618752,-0.3276094643179602,0.0
1759837280.9491248,1,-1.2049981554397176,-0.8299982885461001,-0.7172893623672901,0.0,-1.7350000143051147,-0.34999996423721313,-0.7177005586530871,0.0,-1.9497254966612083,0.1969723243500604,-0.34571038316605657,0.0
1759837280.962004,1,-1.2049984649794974,-0.8299985017475755,-0.7173617785226717,0.0,-1.7350000143051147,-0.34999996423721313,-0.7177005635312419,0.0,-1.9497712156515552,0.19697694343872538,-0.3605177838349669,0.0
1759837280.972786,1,-1.204998717187907,-0.8299986754609673,-0.7174207821292163,0.0,-1.7350000143051147,-0.34999996423721313,-0.7177006915999957,0.0,-1.949811311800883,0.19698099443957784,-0.3735040668625745,0.0
1759837280.9834585,1,-1.2049989232150886,-0.8299988173661503,-0.7174689817383443,0.0,-1.7350000143051147,-0.34999996423721313,-0.7177008150291222,0.0,-1.9498439691745673,0.19698429388480768,-0.38408108996099105,0.0
1759837280.9941697,1,-1.2049990919174125,-0.8299989335631198,-0.7175084492785129,0.0,-1.7350000143051147,-0.34999996423721313,-0.7177009199218336,0.0,-1.9498706314539644,0.19698698763267067,-0.39271643056634536,0.0
1759837281.0053225,1,-1.2049992303178834,-0.8299990288891054,-0.7175408277663592,0.0,-1.7350000143051147,-0.34999996423721313,-0.7177009932464955,0.0,-1.9498924407891527,0.19698919107706422,-0.3997800065990891,0.0
1759837281.016095,1,-1.2049993441961397,-0.8299991073249442,-0.7175674693356769,0.0,-1.7350000143051147,-0.34999996423721313,-0.7177010783300108,0.0,-1.9499103335439267,0.19699099882085153,-0.40557508621478305,0.0
1759837281.0269043,1,-1.2049994446492098,-0.8299991765139277,-0.7175909701119959,0.0,-1.7350000143051147,-0.34999996423721313,-0.717701155366214,0.0,-1.9499250480119856,0.19699248545544487,-0.41034078691214904,0.0
1759837281.0382261,1,-1.2049995266048468,-0.8299992329624486,-0.7176101434542517,0.0,-1.7350000143051147,-0.34999996423721313,-0.7177012069840636,0.0,-1.949937170410772,0.19699371020766274,-0.4142669719511611,0.0
1759837281.0496523,1,-1.2049995936322817,-0.8299992791288834,-0.7176258243762869,0.0,-1.7350000143051147,-0.34999996423721313,-0.7177012562077802,0.0,-1.9499478970532895,0.19699479394360028,-0.41774110146248494,0.0
1759837281.0599606,1,-1.2049996486655365,-0.8299993170340958,-0.7176386992860401,0.0,-1.7350000143051147,-0.34999996423721313,-0.7177013481517989,0.0,-1.9499566765213212,0.19699568095228007,-0.42058458290895334,0.0
1759837281.0704045,1,-1.2049996939485872,-0.8299993482236676,-0.7176492931568093,0.0,-1.7350000143051147,-0.34999996423721313,-0.7177014250843428,0.0,-1.9499638779295627,0.1969964085261597,-0.42291696462613126,0.0
1759837281.0804877,1,-1.2049997313128358,-0.8299993739590122,-0.7176580344411515,0.0,-1.7350000143051147,-0.34999996423721313,-0.7177015044720267,0.0,-1.9499698014441031,0.19699700699166964,-0.4248354639740605,0.0
1759837281.091308,1,-1.2049997621843793,-0.8299993952223814,-0.7176652567713128,0.0,-1.7350000143051147,-0.34999996423721313,-0.7177015494764856,0.0,-1.9499746804968214,0.19699749993293839,-0.42641568453308404,0.0
1759837281.1016142,1,-1.2049997895461706,-0.8299994140683412,-0.7176716580025984,0.0,-1.7350000143051147,-0.34999996423721313,-0.7177016089557373,0.0,-1.9499787115368372,0.19699790719764618,-0.42772125196085053,0.0
1759837281.111959,1,-1.204999811995301,-0.8299994295306116,-0.7176769099276599,0.0,-1.7350000143051147,-0.34999996423721313,-0.7177016627728676,0.0,-1.949982049450457,0.1969982444342922,-0.4288023306108552,0.0
1759837281.123001,1,-1.2049998304412874,-0.8299994422356395,-0.7176812253259327,0.0,-1.7350000143051147,-0.34999996423721313,-0.7177016918590713,0.0,-1.949985011352509,0.19699854368167477,-0.4297616271765465,0.0
1759837281.1338563,1,-1.2049998456389406,-0.8299994527033153,-0.7176847807836816,0.0,-1.7350000143051147,-0.34999996423721313,-0.717701729061881,0.0,-1.9499874440757043,0.19699878946497076,-0.4305495340572331,0.0
1759837281.1451113,1,-1.2049998581843808,-0.8299994613442284,-0.7176877157619906,0.0,-1.7350000143051147,-0.34999996423721313,-0.7177017570536233,0.0,-1.9499894460543252,0.19699899172920898,-0.4311979320061591,0.0
1759837281.156438,1,-1.2049998685653298,-0.8299994684943066,-0.717690144362338,0.0,-1.7350000143051147,-0.34999996423721313,-0.7177017870280515,0.0,-1.9499910975422046,0.19699915858260808,-0.4317328135191232,0.0
1759837281.1672156,1,-1.2049998771827142,-0.8299994744296957,-0.7176921603805582,0.0,-1.7350000143051147,-0.34999996423721313,-0.7177018346269701,0.0,-1.9499924642641586,0.1969992966654887,-0.43217546545484176,0.0
1759837281.1778975,1,-1.2049998848816292,-0.8299994797324715,-0.717693961524925,0.0,-1.7350000143051147,-0.34999996423721313,-0.717701882572177,0.0,-1.949993598158848,0.19699941122532627,-0.4325427096318458,0.0
1759837281.1891878,1,-1.2049998912188213,-0.8299994840973344,-0.7176954440971841,0.0,-1.7350000143051147,-0.34999996423721313,-0.7177019124854418,0.0,-1.9499945403632186,0.1969995064182755,-0.43284786942472103,0.0
1759837281.2006023,1,-1.2049998964474475,-0.8299994876986513,-0.7176966673229058,0.0,-1.7350000143051147,-0.34999996423721313,-0.7177019408814669,0.0,-1.9499953802704957,0.19699959127592773,-0.43311989738252404,0.0
1759837281.2118819,1,-1.2049999007730645,-0.8299994906780033,-0.7176976792915601,0.0,-1.7350000143051147,-0.34999996423721313,-0.7177019748355331,0.0,-1.9499960734676176,0.19699966131113508,-0.4333444090668193,0.0
1759837281.223162,1,-1.2049999043605204,-0.8299994931489325,-0.7176985185690337,0.0,-1.7350000143051147,-0.34999996423721313,-0.7177020095742499,0.0,-1.9499966470100392,0.19699971925736878,-0.43353016715933873,0.0
1759837281.2334876,1,-1.2049999073468318,-0.8299994952058121,-0.7176992172100883,0.0,-1.7350000143051147,-0.34999996423721313,-0.7177020636965779,0.0,-1.9499971233120224,0.19699976737919025,-0.43368443115880234,0.0
1759837281.2442884,1,-1.2049999100155844,-0.8299994970439667,-0.7176998415589089,0.0,-1.7350000143051147,-0.34999996423721313,-0.7177021018767319,0.0,-1.9499975195179249,0.19699980740873113,-0.43381275375521056,0.0
1759837281.2555275,1,-1.204999912218198,-0.8299994985610591,-0.7177003568555274,0.0,-1.7350000143051147,-0.34999996423721313,-0.7177021281333501,0.0,-1.9499978496860133,0.19699984076632857,-0.4339196881196053,0.0
1759837281.2663376,1,-1.2049999140416034,-0.8299994998169646,-0.7177007834372376,0.0,-1.7350000143051147,-0.34999996423721313,-0.7177021627745575,0.0,-1.9499981469822223,0.19699987080280879,-0.4340159759870927,0.0
1759837281.2776039,1,-1.2049999155538131,-0.8299995008585281,-0.7177011372154006,0.0,-1.7350000143051147,-0.34999996423721313,-0.7177021876292784,0.0,-1.9499983927758138,0.19699989563586795,-0.43409558326107744,0.0
1759837281.2890763,1,-1.2049999168107,-0.8299995017242332,-0.717701431261363,0.0,-1.7350000143051147,-0.34999996423721313,-0.71770220944639,0.0,-1.9499985964407598,0.19699991621257876,-0.43416154597006096,0.0
1759837281.300475,1,-1.2049999178580848,-0.8299995024456395,-0.7177016762947208,0.0,-1.7350000143051147,-0.34999996423721313,-0.7177022342806012,0.0,-1.949998765638442,0.19699993330698726,-0.4342163454714128,0.0
1759837281.31098,1,-1.204999918734088,-0.8299995030490034,-0.7177018812337372,0.0,-1.7350000143051147,-0.34999996423721313,-0.7177022742117671,0.0,-1.9499989067166181,0.19699994756042108,-0.4342620376676296,0.0
1759837281.321895,1,-1.2049999195207328,-0.8299995035908201,-0.7177020652675475,0.0,-1.7350000143051147,-0.34999996423721313,-0.7177023036013885,0.0,-1.9499990245544223,0.1969999594658298,-0.43430020280573306,0.0
1759837281.3331213,1,-1.2049999201735204,-0.8299995040404401,-0.7177022179858024,0.0,-1.7350000143051147,-0.34999996423721313,-0.7177023259445647,0.0,-1.9499991231716338,0.1969999694293404,-0.4343321428060116,0.0
1759837281.344146,1,-1.2049999207167033,-0.8299995044145678,-0.7177023450622536,0.0,-1.7350000143051147,-0.34999996423721313,-0.7177023511437071,0.0,-1.9499992121236738,0.19699997841635775,-0.43436095246448037,0.0
1759837281.3554008,1,-1.2049999211696343,-0.8299995047265327,-0.7177024510244838,0.0,-1.7350000143051147,-0.34999996423721313,-0.7177023724069258,0.0,-1.949999286042093,0.19699998588449583,-0.4343848930555227,0.0
1759837281.3662705,1,-1.2049999215484255,-0.8299995049874325,-0.7177025396418669,0.0,-1.7350000143051147,-0.34999996423721313,-0.717702398839224,0.0,-1.9499993476497632,0.19699999210885227,-0.43440484645899835,0.0
1759837281.3766692,1,-1.2049999218661605,-0.8299995052062785,-0.7177026139752647,0.0,-1.7350000143051147,-0.34999996423721313,-0.7177024297731585,0.0,-1.9499993991508284,0.19699999731211648,-0.4344215265497387,0.0
1759837281.387611,1,-1.2049999221520995,-0.8299995054032245,-0.7177026808700773,0.0,-1.7350000143051147,-0.34999996423721313,-0.7177024503095133,0.0,-1.9499994422690519,0.19700000166844403,-0.43443549161780187,0.0
1759837281.3989677,1,-1.204999922390071,-0.8299995055671321,-0.7177027365429859,0.0,-1.7350000143051147,-0.34999996423721313,-0.7177024647124011,0.0,-1.949999478433436,0.19700000532221013,-0.4344472044863963,0.0
1759837281.4102242,1,-1.204999922588637,-0.8299995057038984,-0.7177027829970809,0.0,-1.7350000143051147,-0.34999996423721313,-0.7177024814077893,0.0,-1.949999508843219,0.1970000083945764,-0.4344570535630627,0.0
1759837281.4216359,1,-1.2049999227546915,-0.8299995058182716,-0.7177028218451725,0.0,-1.7350000143051147,-0.34999996423721313,-0.7177024970498653,0.0,-1.949999536456216,0.19700001118437732,-0.43446599682068543,0.0
1759837281.432543,1,-1.204999922893994,-0.8299995059142189,-0.7177028544347002,0.0,-1.7350000143051147,-0.34999996423721313,-0.7177025189018629,0.0,-1.9499995595265047,0.1970000135152186,-0.4344734687925634,0.0
1759837281.4435954,1,-1.2049999230111044,-0.8299995059948808,-0.7177028818323884,0.0,-1.7350000143051147,-0.34999996423721313,-0.7177025379871012,0.0,-1.949999578843161,0.19700001546682222,-0.43447972504330734,0.0
1759837281.4536,1,-1.2049999231099353,-0.8299995060629525,-0.7177029049536442,0.0,-1.7350000143051147,-0.34999996423721313,-0.7177025666266239,0.0,-1.9499995950786757,0.19700001710713147,-0.4344849833784009,0.0
1759837281.4644861,1,-1.2049999232000859,-0.8299995061250456,-0.7177029260442063,0.0,-1.7350000143051147,-0.34999996423721313,-0.7177025825775446,0.0,-1.9499996087372418,0.197000018487086,-0.4344894070950812,0.0
1759837281.4757855,1,-1.2049999232754598,-0.8299995061769607,-0.7177029436777567,0.0,-1.7350000143051147,-0.34999996423721313,-0.7177025934519499,0.0,-1.949999620247814,0.1970000196500241,-0.43449313512266036,0.0
1759837281.4860358,1,-1.2049999233387225,-0.8299995062205341,-0.7177029584779312,0.0,-1.7350000143051147,-0.34999996423721313,-0.7177026148056137,0.0,-1.9499996307433984,0.19700002071041572,-0.4344965344173972,0.0
1759837281.497292,1,-1.2049999233918638,-0.8299995062571361,-0.7177029709102103,0.0,-1.7350000143051147,-0.34999996423721313,-0.7177026251758036,0.0,-1.949999639527453,0.19700002159788776,-0.43449937938431143,0.0
1759837281.508605,1,-1.2049999234366062,-0.8299995062879534,-0.7177029813776256,0.0,-1.7350000143051147,-0.34999996423721313,-0.7177026354611584,0.0,-1.9499996468962817,0.19700002234237649,-0.4345017659898718,0.0
1759837281.5188868,1,-1.204999923474423,-0.8299995063140005,-0.7177029902247971,0.0,-1.7350000143051147,-0.34999996423721313,-0.7177026551932659,0.0,-1.9499996531017225,0.19700002296932562,-0.4345037757991116,0.0
1759837281.52938,1,-1.2049999235064464,-0.8299995063360571,-0.7177029977165506,0.0,-1.7350000143051147,-0.34999996423721313,-0.7177026712388184,0.0,-1.949999658337397,0.19700002349829715,-0.43450547152183694,0.0
1759837281.5407383,1,-1.2049999235358844,-0.8299995063563331,-0.7177030046035076,0.0,-1.7350000143051147,-0.34999996423721313,-0.7177026789325804,0.0,-1.949999662759226,0.19700002394504412,-0.434506903657401,0.0
1759837281.5509524,1,-1.2049999235606332,-0.8299995063733794,-0.7177030103934583,0.0,-1.7350000143051147,-0.34999996423721313,-0.7177026959964685,0.0,-1.9499996665088513,0.1970000243238769,-0.43450811808063666,0.0
1759837281.5657804,1,-1.2049999235813516,-0.8299995063876495,-0.7177030152404495,0.0,-1.7350000143051147,-0.34999996423721313,-0.7177026785665248,0.0,-1.9499996699615438,0.1970000246727099,-0.43450923633375754,0.0
1759837281.5760193,1,-1.2049999235988627,-0.8299995063997107,-0.7177030193371465,0.0,-1.7350000143051147,-0.34999996423721313,-0.7177027011702055,0.0,-1.94999967286682,0.19700002496623625,-0.43451017729041486,0.0
1759837281.5867858,1,-1.204999923613684,-0.8299995064099192,-0.7177030228045759,0.0,-1.7350000143051147,-0.34999996423721313,-0.717702718698991,0.0,-1.9499996753150324,0.19700002521358442,-0.434510970213834,0.0
1759837281.597514,1,-1.2049999236262576,-0.8299995064185797,-0.7177030257461996,0.0,-1.7350000143051147,-0.34999996423721313,-0.7177027339318691,0.0,-1.9499996773829205,0.19700002542250764,-0.4345116399584267,0.0
1759837281.6083305,1,-1.2049999236378248,-0.8299995064265469,-0.717703028452325,0.0,-1.7350000143051147,-0.34999996423721313,-0.717702746769703,0.0,-1.9499996791333032,0.1970000255993526,-0.43451220686983205,0.0
1759837281.6195302,1,-1.2049999236475624,-0.8299995064332538,-0.7177030307304211,0.0,-1.7350000143051147,-0.34999996423721313,-0.717702756102792,0.0,-1.9499996806174575,0.19700002574929992,-0.4345126875555533,0.0
1759837281.6308389,1,-1.204999923655778,-0.8299995064389125,-0.7177030326524416,0.0,-1.7350000143051147,-0.34999996423721313,-0.7177027646290348,0.0,-1.9499996819803938,0.1970000258870003,-0.4345131289813501,0.0
1759837281.6421332,1,-1.2049999236627262,-0.8299995064436981,-0.7177030342779328,0.0,-1.7350000143051147,-0.34999996423721313,-0.7177027734057972,0.0,-1.9499996831282758,0.1970000260029733,-0.4345135007557292,0.0
1759837281.6529803,1,-1.20499992366862,-0.8299995064477576,-0.7177030356567945,0.0,-1.7350000143051147,-0.34999996423721313,-0.7177027846349198,0.0,-1.9499996840979639,0.197000026100943,-0.4345138148168871,0.0
1759837281.6638916,1,-1.2049999236736304,-0.8299995064512086,-0.7177030368289806,0.0,-1.7350000143051147,-0.34999996423721313,-0.7177027947250068,0.0,-1.949999684918918,0.1970000261838858,-0.43451408070635456,0.0
1759837281.6751099,1,-1.20499992367823,-0.8299995064543767,-0.7177030379050502,0.0,-1.7350000143051147,-0.34999996423721313,-0.717702802539252,0.0,-1.9499996856152249,0.19700002625423518,-0.4345143062252625,0.0
1759837281.685861,1,-1.2049999236821174,-0.8299995064570541,-0.7177030388144736,0.0,-1.7350000143051147,-0.34999996423721313,-0.7177028124948316,0.0,-1.9499996862075997,0.19700002631408406,-0.4345144980827125,0.0
1759837281.6973174,1,-1.2049999236854068,-0.8299995064593196,-0.7177030395840125,0.0,-1.7350000143051147,-0.34999996423721313,-0.7177028184412251,0.0,-1.949999686712135,0.19700002636505834,-0.43451466149083456,0.0
1759837281.708224,1,-1.2049999236881992,-0.829999506461243,-0.717703040237267,0.0,-1.7350000143051147,-0.34999996423721313,-0.7177028271196413,0.0,-1.9499996871794913,0.19700002641227637,-0.4345148128575577,0.0
1759837281.7190425,1,-1.204999923690575,-0.8299995064628795,-0.7177030407931403,0.0,-1.7350000143051147,-0.34999996423721313,-0.7177028357727622,0.0,-1.949999687575301,0.1970000264522659,-0.4345149410518185,0.0
1759837281.729876,1,-1.2049999236926012,-0.8299995064642751,-0.7177030412671962,0.0,-1.7350000143051147,-0.34999996423721313,-0.717702843702309,0.0,-1.9499996879112695,0.1970000264862095,-0.4345150498648048,0.0
1759837281.74118,1,-1.204999923694332,-0.8299995064654672,-0.7177030416720805,0.0,-1.7350000143051147,-0.34999996423721313,-0.717702849175719,0.0,-1.9499996881968855,0.19700002651506593,-0.43451514236971905,0.0
1759837281.7520642,1,-1.2049999236959483,-0.8299995064665805,-0.7177030420502309,0.0,-1.7350000143051147,-0.34999996423721313,-0.7177028564359613,0.0,-1.9499996884404163,0.1970000265396704,-0.4345152212441429,0.0
1759837281.7660124,1,-1.204999923697314,-0.829999506467521,-0.7177030423696434,0.0,-1.7350000143051147,-0.34999996423721313,-0.717702851918963,0.0,-1.949999688647537,0.19700002656059626,-0.43451528832617814,0.0
1759837281.7774134,1,-1.204999923698475,-0.8299995064683207,-0.7177030426412409,0.0,-1.7350000143051147,-0.34999996423721313,-0.7177028598494708,0.0,-1.9499996888410593,0.19700002658014823,-0.43451535100391336,0.0
1759837281.7883143,1,-1.2049999236994653,-0.8299995064690027,-0.7177030428728991,0.0,-1.7350000143051147,-0.34999996423721313,-0.7177028696701413,0.0,-1.9499996890053404,0.1970000265967459,-0.4345154042110315,0.0
1759837281.7994738,1,-1.2049999237003115,-0.8299995064695854,-0.7177030430708533,0.0,-1.7350000143051147,-0.34999996423721313,-0.7177028774162864,0.0,-1.9499996891450604,0.19700002661086213,-0.43451544946335047,0.0
1759837281.810621,1,-1.204999923701098,-0.8299995064701271,-0.7177030432548354,0.0,-1.7350000143051147,-0.34999996423721313,-0.7177028843717235,0.0,-1.9499996892641667,0.1970000266228957,-0.4345154880393457,0.0
1759837281.8213458,1,-1.204999923701766,-0.8299995064705873,-0.717703043411138,0.0,-1.7350000143051147,-0.34999996423721313,-0.7177028920500561,0.0,-1.949999689365999,0.19700002663318403,-0.4345155210206567,0.0
1759837281.8320389,1,-1.2049999237023348,-0.8299995064709791,-0.7177030435442283,0.0,-1.7350000143051147,-0.34999996423721313,-0.7177028989490779,0.0,-1.9499996894532574,0.19700002664199992,-0.43451554928182123,0.0
1759837281.8434,1,-1.2049999237028197,-0.8299995064713132,-0.7177030436576878,0.0,-1.7350000143051147,-0.34999996423721313,-0.7177029031119844,0.0,-1.9499996895281093,0.1970000266495624,-0.4345155735247859,0.0
1759837281.8547132,1,-1.204999923703234,-0.8299995064715986,-0.7177030437546432,0.0,-1.7350000143051147,-0.34999996423721313,-0.7177029074041847,0.0,-1.9499996895982112,0.19700002665664493,-0.4345155962292846,0.0
1759837281.8662047,1,-1.2049999237035889,-0.8299995064718431,-0.7177030438376614,0.0,-1.7350000143051147,-0.34999996423721313,-0.7177029112845403,0.0,-1.9499996896579495,0.1970000266626804,-0.434515615577186,0.0
1759837281.87698,1,-1.204999923703894,-0.8299995064720531,-0.717703043908992,0.0,-1.7350000143051147,-0.34999996423721313,-0.717702917184967,0.0,-1.9499996897090321,0.1970000266678414,-0.4345156321217572,0.0
1759837281.8882964,1,-1.204999923704179,-0.8299995064722494,-0.7177030439756831,0.0,-1.7350000143051147,-0.34999996423721313,-0.7177029212349026,0.0,-1.9499996897527718,0.1970000266722605,-0.4345156462880913,0.0
1759837281.8995144,1,-1.2049999237044224,-0.8299995064724169,-0.7177030440325914,0.0,-1.7350000143051147,-0.34999996423721313,-0.717702925416809,0.0,-1.9499996897903151,0.1970000266760536,-0.4345156584475622,0.0
1759837281.9099715,1,-1.2049999237046307,-0.8299995064725604,-0.7177030440813212,0.0,-1.7350000143051147,-0.34999996423721313,-0.7177029312942533,0.0,-1.9499996898226524,0.1970000266793207,-0.4345156689209236,0.0
1759837281.9211984,1,-1.2049999237048092,-0.8299995064726834,-0.7177030441230855,0.0,-1.7350000143051147,-0.34999996423721313,-0.7177029347513137,0.0,-1.949999689853169,0.19700002668240385,-0.43451567880458514,0.0
1759837281.932544,1,-1.2049999237049625,-0.829999506472789,-0.7177030441589536,0.0,-1.7350000143051147,-0.34999996423721313,-0.7177029378412705,0.0,-1.9499996898792322,0.19700002668503705,-0.4345156872458886,0.0
1759837281.9437363,1,-1.2049999237050943,-0.8299995064728799,-0.7177030441898351,0.0,-1.7350000143051147,-0.34999996423721313,-0.7177029413612352,0.0,-1.9499996899015484,0.19700002668729172,-0.43451569447364796,0.0
1759837281.954612,1,-1.2049999237052187,-0.8299995064729655,-0.7177030442188854,0.0,-1.7350000143051147,-0.34999996423721313,-0.7177029454946151,0.0,-1.9499996899207093,0.1970000266892276,-0.43451570067944023,0.0
1759837281.9721472,1,-1.204999923705324,-0.829999506473038,-0.7177030442434936,0.0,-1.7350000143051147,-0.34999996423721313,-0.7177029364560372,0.0,-1.949999689937017,0.19700002669087516,-0.4345157059610984,0.0
1759837281.9827104,1,-1.2049999237054143,-0.8299995064731002,-0.7177030442646452,0.0,-1.7350000143051147,-0.34999996423721313,-0.7177029443034169,0.0,-1.9499996899511054,0.19700002669229855,-0.434515710524094,0.0
1759837281.9940147,1,-1.204999923705492,-0.8299995064731537,-0.717703044282842,0.0,-1.7350000143051147,-0.34999996423721313,-0.7177029502809322,0.0,-1.9499996899644352,0.19700002669364527,-0.4345157148412736,0.0
1759837282.005255,1,-1.204999923705559,-0.8299995064731999,-0.7177030442985335,0.0,-1.7350000143051147,-0.34999996423721313,-0.7177029553756888,0.0,-1.949999689975863,0.19700002669479985,-0.43451571854248455,0.0
1759837282.01654,1,-1.204999923705617,-0.8299995064732398,-0.7177030443120933,0.0,-1.7350000143051147,-0.34999996423721313,-0.7177029596715272,0.0,-1.9499996899856815,0.19700002669579186,-0.43451572172252484,0.0
1759837282.0273895,1,-1.204999923705672,-0.8299995064732779,-0.7177030443250032,0.0,-1.7350000143051147,-0.34999996423721313,-0.7177029641473194,0.0,-1.9499996899941425,0.1970000266966467,-0.4345157244628826,0.0
1759837282.0385294,1,-1.2049999237057194,-0.8299995064733104,-0.7177030443360866,0.0,-1.7350000143051147,-0.34999996423721313,-0.7177029675756721,0.0,-1.9499996900014458,0.1970000266973846,-0.4345157268282635,0.0
1759837282.0489316,1,-1.2049999237057603,-0.8299995064733385,-0.7177030443456345,0.0,-1.7350000143051147,-0.34999996423721313,-0.717702971747288,0.0,-1.9499996900077714,0.1970000266980237,-0.4345157288770246,0.0
1759837282.0602686,1,-1.2049999237057956,-0.8299995064733628,-0.7177030443538639,0.0,-1.7350000143051147,-0.34999996423721313,-0.7177029739863627,0.0,-1.9499996900137915,0.1970000266986319,-0.4345157308267873,0.0
1759837282.071627,1,-1.204999923705826,-0.8299995064733838,-0.7177030443609723,0.0,-1.7350000143051147,-0.34999996423721313,-0.7177029761012451,0.0,-1.949999690018962,0.1970000266991543,-0.4345157325014585,0.0
1759837282.0822713,1,-1.2049999237058524,-0.8299995064734019,-0.7177030443671338,0.0,-1.7350000143051147,-0.34999996423721313,-0.7177029792037466,0.0,-1.9499996900234184,0.19700002669960454,-0.43451573394479914,0.0
1759837282.09351,1,-1.2049999237058753,-0.8299995064734177,-0.7177030443724798,0.0,-1.7350000143051147,-0.34999996423721313,-0.717702981240631,0.0,-1.9499996900272636,0.197000026699993,-0.4345157351901485,0.0
1759837282.1037972,1,-1.2049999237058973,-0.8299995064734327,-0.717703044377601,0.0,-1.7350000143051147,-0.34999996423721313,-0.7177029844127887,0.0,-1.949999690030594,0.19700002670032948,-0.4345157362687875,0.0
1759837282.1153102,1,-1.2049999237059161,-0.8299995064734457,-0.7177030443820134,0.0,-1.7350000143051147,-0.34999996423721313,-0.7177029857162598,0.0,-1.9499996900334782,0.19700002670062086,-0.43451573720291675,0.0
1759837282.126163,1,-1.2049999237059323,-0.8299995064734569,-0.7177030443858279,0.0,-1.7350000143051147,-0.34999996423721313,-0.7177029878847243,0.0,-1.9499996900359844,0.19700002670087408,-0.43451573801463206,0.0
1759837282.1365173,1,-1.2049999237059463,-0.8299995064734667,-0.7177030443891353,0.0,-1.7350000143051147,-0.34999996423721313,-0.7177029905398697,0.0,-1.9499996900383905,0.19700002670111716,-0.43451573879390365,0.0
1759837282.1477787,1,-1.2049999237059585,-0.8299995064734751,-0.7177030443920043,0.0,-1.7350000143051147,-0.34999996423721313,-0.7177029918919544,0.0,-1.949999690040466,0.19700002670132682,-0.434515739466044,0.0
1759837282.1582003,1,-1.2049999237059692,-0.8299995064734825,-0.7177030443945022,0.0,-1.7350000143051147,-0.34999996423721313,-0.7177029941677038,0.0,-1.9499996900422625,0.19700002670150835,-0.4345157400478951,0.0
1759837282.1694572,1,-1.2049999237059796,-0.8299995064734895,-0.7177030443968987,0.0,-1.7350000143051147,-0.34999996423721313,-0.7177029953911251,0.0,-1.9499996900438186,0.19700002670166555,-0.43451574055188125,0.0
1759837282.1807063,1,-1.2049999237059885,-0.8299995064734956,-0.7177030443989686,0.0,-1.7350000143051147,-0.34999996423721313,-0.7177029966723758,0.0,-1.9499996900451693,0.19700002670180203,-0.4345157409893723,0.0
1759837282.1920843,1,-1.2049999237059963,-0.8299995064735008,-0.71770304440076,0.0,-1.7350000143051147,-0.34999996423721313,-0.7177029979142908,0.0,-1.949999690046344,0.19700002670192074,-0.4345157413698644,0.0
1759837282.202876,1,-1.2049999237060027,-0.8299995064735054,-0.7177030444023154,0.0,-1.7350000143051147,-0.34999996423721313,-0.7177029997845992,0.0,-1.9499996900473895,0.19700002670202635,-0.43451574170842716,0.0
1759837282.2137682,1,-1.2049999237060085,-0.8299995064735094,-0.7177030444036683,0.0,-1.7350000143051147,-0.34999996423721313,-0.7177030014502215,0.0,-1.9499996900483199,0.19700002670212036,-0.4345157420097481,0.0
1759837282.2240834,1,-1.2049999237060136,-0.829999506473513,-0.717703044404862,0.0,-1.7350000143051147,-0.34999996423721313,-0.7177030035043098,0.0,-1.9499996900491479,0.197000026702204,-0.43451574227792367,0.0
1759837282.2356036,1,-1.2049999237060183,-0.8299995064735162,-0.7177030444059244,0.0,-1.7350000143051147,-0.34999996423721313,-0.7177030043090884,0.0,-1.9499996900498848,0.19700002670227848,-0.43451574251659997,0.0
1759837282.2469618,1,-1.2049999237060223,-0.829999506473519,-0.7177030444069145,0.0,-1.7350000143051147,-0.34999996423721313,-0.7177030053374871,0.0,-1.9499996900498848,0.19700002670227848,-0.43451574251659997,0.0
1759837282.2576542,1,-1.204999923706026,-0.8299995064735216,-0.7177030444077743,0.0,-1.7350000143051147,-0.34999996423721313,-0.7177030069758015,0.0,-1.9499996900498848,0.19700002670227848,-0.43451574251659997,0.0
1759837282.2678444,1,-1.2049999237060292,-0.8299995064735238,-0.7177030444085232,0.0,-1.7350000143051147,-0.34999996423721313,-0.7177030088768213,0.0,-1.9499996900498848,0.19700002670227848,-0.43451574251659997,0.0
1759837282.2783475,1,-1.204999923706032,-0.8299995064735258,-0.7177030444091829,0.0,-1.7350000143051147,-0.34999996423721313,-0.7177030102969546,0.0,-1.9499996900505685,0.19700002670234754,-0.43451574273801497,0.0
1759837282.289252,1,-1.2049999237060345,-0.8299995064735275,-0.7177030444097701,0.0,-1.7350000143051147,-0.34999996423721313,-0.7177030112825022,0.0,-1.9499996900511622,0.19700002670240754,-0.4345157429303145,0.0
1759837282.299594,1,-1.2049999237060367,-0.8299995064735289,-0.7177030444102926,0.0,-1.7350000143051147,-0.34999996423721313,-0.717703012642307,0.0,-1.9499996900516796,0.19700002670245978,-0.43451574309784635,0.0
1759837282.3106108,1,-1.2049999237060387,-0.8299995064735303,-0.7177030444107577,0.0,-1.7350000143051147,-0.34999996423721313,-0.7177030134450213,0.0,-1.9499996900521381,0.1970000267025061,-0.43451574324633113,0.0
1759837282.3216496,1,-1.2049999237060405,-0.8299995064735315,-0.7177030444111715,0.0,-1.7350000143051147,-0.34999996423721313,-0.7177030142555907,0.0,-1.949999690052546,0.19700002670254732,-0.4345157433784826,0.0
1759837282.3330102,1,-1.2049999237060405,-0.8299995064735315,-0.7177030444111715,0.0,-1.7350000143051147,-0.34999996423721313,-0.7177030149133792,0.0,-1.9499996900529093,0.197000026702584,-0.43451574349609745,0.0
1759837282.3445446,1,-1.2049999237060405,-0.8299995064735315,-0.7177030444111715,0.0,-1.7350000143051147,-0.34999996423721313,-0.7177030155569799,0.0,-1.9499996900532324,0.19700002670261668,-0.4345157436007746,0.0
1759837282.3557708,1,-1.2049999237060405,-0.8299995064735315,-0.7177030444111715,0.0,-1.7350000143051147,-0.34999996423721313,-0.7177030164785645,0.0,-1.9499996900532324,0.19700002670261668,-0.4345157436007746,0.0
1759837282.3713593,1,-1.2049999237060405,-0.8299995064735315,-0.7177030444111715,0.0,-1.7350000143051147,-0.34999996423721313,-0.7177030150390511,0.0,-1.9499996900532324,0.19700002670261668,-0.4345157436007746,0.0
1759837282.3826494,1,-1.204999923706042,-0.8299995064735326,-0.7177030444115399,0.0,-1.7350000143051147,-0.34999996423721313,-0.7177030166143066,0.0,-1.9499996900532324,0.19700002670261668,-0.4345157436007746,0.0
1759837282.393552,1,-1.2049999237060436,-0.8299995064735336,-0.7177030444118677,0.0,-1.7350000143051147,-0.34999996423721313,-0.7177030183501126,0.0,-1.9499996900532324,0.19700002670261668,-0.4345157436007746,0.0
1759837282.403894,1,-1.204999923706045,-0.8299995064735345,-0.7177030444121595,0.0,-1.7350000143051147,-0.34999996423721313,-0.7177030200861694,0.0,-1.9499996900532324,0.19700002670261668,-0.4345157436007746,0.0
1759837282.4151351,1,-1.2049999237060458,-0.8299995064735353,-0.7177030444124193,0.0,-1.7350000143051147,-0.34999996423721313,-0.7177030210883402,0.0,-1.9499996900532324,0.19700002670261668,-0.4345157436007746,0.0
1759837282.4253812,1,-1.2049999237060467,-0.8299995064735359,-0.7177030444126503,0.0,-1.7350000143051147,-0.34999996423721313,-0.7177030224261678,0.0,-1.9499996900532324,0.19700002670261668,-0.4345157436007746,0.0
1759837282.436851,1,-1.2049999237060467,-0.8299995064735359,-0.7177030444126503,0.0,-1.7350000143051147,-0.34999996423721313,-0.7177030230321186,0.0,-1.9499996900532324,0.19700002670261668,-0.4345157436007746,0.0
1759837282.447612,1,-1.2049999237060467,-0.8299995064735359,-0.7177030444126503,0.0,-1.7350000143051147,-0.34999996423721313,-0.717703023928733,0.0,-1.9499996900532324,0.19700002670261668,-0.4345157436007746,0.0
1759837282.4650314,1,-1.2049999237060467,-0.8299995064735359,-0.7177030444126503,0.0,-1.7350000143051147,-0.34999996423721313,-0.7177030220820786,0.0012114198204182002,-1.9499996900532324,0.19700002670261668,-0.4345157436007746,0.0
1759837282.4762518,1,-1.2049999237060467,-0.8299995064735359,-0.7177030444126503,0.0,-1.7350000143051147,-0.34999996423721313,-0.7177030234317385,0.0012114198204182002,-1.9499996900532324,0.19700002670261668,-0.4345157436007746,0.0
1759837282.4887269,1,-1.2049999237060467,-0.8299995064735359,-0.7177030444126503,0.0,-1.7350000143051147,-0.34999996423721313,-0.717703024293872,0.0012114198204182002,-1.9499996900532324,0.19700002670261668,-0.4345157436007746,0.0
1759837282.4999526,1,-1.2049999237060467,-0.8299995064735359,-0.7177030444126503,0.0,-1.7350000143051147,-0.34999996423721313,-0.7177030255351085,0.0012114198204182002,-1.9499996900532324,0.19700002670261668,-0.4345157436007746,0.0
1759837282.5129895,1,-1.2049999237060467,-0.8299995064735359,-0.7177030444126503,0.0,-1.7350000143051147,-0.34999996423721313,-0.7177030259909216,0.0012114198204182002,-1.9499996900532324,0.19700002670261668,-0.4345157436007746,0.0
1759837282.5237868,1,-1.2049999237060467,-0.8299995064735359,-0.7177030444126503,0.0,-1.7350000143051147,-0.34999996423721313,-0.717703027214327,0.0012114198204182002,-1.9499996900532324,0.19700002670261668,-0.4345157436007746,0.0
1759837282.5361233,1,-1.2049999237060467,-0.8299995064735359,-0.7177030444126503,0.0,-1.7350000143051147,-0.34999996423721313,-0.7177030277838838,0.0012114198204182002,-1.9499996900532324,0.19700002670261668,-0.4345157436007746,0.0
1759837282.5470104,1,-1.2049999237060467,-0.8299995064735359,-0.7177030444126503,0.0,-1.7350000143051147,-0.34999996423721313,-0.717703028765392,0.0012114198204182002,-1.9499996900532324,0.19700002670261668,-0.4345157436007746,0.0
1759837282.5599132,1,-1.2049999237060467,-0.8299995064735359,-0.7177030444126503,0.0,-1.7350000143051147,-0.34999996423721313,-0.7177030290310392,0.0012114198204182002,-1.9499996900532324,0.19700002670261668,-0.4345157436007746,0.0
1759837282.575496,1,-1.2049999237060467,-0.8299995064735359,-0.7177030444126503,0.0,-1.7350000143051147,-0.34999996423721313,-0.717703028622692,0.0012114198204182002,-1.9499996900532324,0.19700002670261668,-0.4345157436007746,0.0
1759837282.585738,1,-1.2049999237060467,-0.8299995064735359,-0.7177030444126503,0.0,-1.7350000143051147,-0.34999996423721313,-0.7177030299564588,0.0012114198204182002,-1.9499996900532324,0.19700002670261668,-0.4345157436007746,0.0
1759837282.596767,1,-1.2049999237060467,-0.8299995064735359,-0.7177030444126503,0.0,-1.7350000143051147,-0.34999996423721313,-0.7177030309015482,0.0012114198204182002,-1.9499996900532324,0.19700002670261668,-0.4345157436007746,0.0
1759837282.608285,1,-1.2049999237060467,-0.8299995064735359,-0.7177030444126503,0.0,-1.7350000143051147,-0.34999996423721313,-0.7177030315433973,0.0012114198204182002,-1.9499996900532324,0.19700002670261668,-0.4345157436007746,0.0
1759837282.6195283,1,-1.2049999237060467,-0.8299995064735359,-0.7177030444126503,0.0,-1.7350000143051147,-0.34999996423721313,-0.7177030321668562,0.0012114198204182002,-1.9499996900532324,0.19700002670261668,-0.4345157436007746,0.0
1759837282.629882,1,-1.2049999237060467,-0.8299995064735359,-0.7177030444126503,0.0,-1.7350000143051147,-0.34999996423721313,-0.7177030329234686,0.0012114198204182002,-1.9499996900532324,0.19700002670261668,-0.4345157436007746,0.0
1759837282.6399412,1,-1.2049999237060467,-0.8299995064735359,-0.7177030444126503,0.0,-1.7350000143051147,-0.34999996423721313,-0.7177030336242005,0.0012114198204182002,-1.9499996900532324,0.19700002670261668,-0.4345157436007746,0.0
1759837282.6501203,1,-1.2049999237060467,-0.8299995064735359,-0.7177030444126503,0.0,-1.7350000143051147,-0.34999996423721313,-0.7177030341738107,0.0012114198204182002,-1.9499996900532324,0.19700002670261668,-0.4345157436007746,0.0
1759837282.661145,1,-1.2049999237060467,-0.8299995064735359,-0.7177030444126503,0.0,-1.7350000143051147,-0.34999996423721313,-0.717703034455905,0.0012114198204182002,-1.9499996900532324,0.19700002670261668,-0.4345157436007746,0.0
1759837282.672095,1,-1.2049999237060467,-0.8299995064735359,-0.7177030444126503,0.0,-1.7350000143051147,-0.34999996423721313,-0.7177030347448898,0.0012114198204182002,-1.9499996900532324,0.19700002670261668,-0.4345157436007746,0.0
1759837282.6843102,1,-1.2049999237060467,-0.8299995064735359,-0.7177030444126503,0.0,-1.7350000143051147,-0.34999996423721313,-0.7177030347865436,0.0012114198204182002,-1.9499996900532324,0.19700002670261668,-0.4345157436007746,0.0
1759837282.6956205,1,-1.2049999237060467,-0.8299995064735359,-0.7177030444126503,0.0,-1.7350000143051147,-0.34999996423721313,-0.7177030350768518,0.0012114198204182002,-1.9499996900532324,0.19700002670261668,-0.4345157436007746,0.0
1759837282.7061846,1,-1.2049999237060467,-0.8299995064735359,-0.7177030444126503,0.0,-1.7350000143051147,-0.34999996423721313,-0.7177030355212963,0.0012114198204182002,-1.9499996900532324,0.19700002670261668,-0.4345157436007746,0.0
1759837282.716416,1,-1.2049999237060467,-0.8299995064735359,-0.7177030444126503,0.0,-1.7350000143051147,-0.34999996423721313,-0.7177030359786762,0.0012114198204182002,-1.9499996900532324,0.19700002670261668,-0.4345157436007746,0.0
1759837282.7271345,1,-1.2049999237060467,-0.8299995064735359,-0.7177030444126503,0.0,-1.7350000143051147,-0.34999996423721313,-0.7177030362865846,0.0012114198204182002,-1.9499996900532324,0.19700002670261668,-0.4345157436007746,0.0
1759837282.737819,1,-1.2049999237060467,-0.8299995064735359,-0.7177030444126503,0.0,-1.7350000143051147,-0.34999996423721313,-0.7177030365721517,0.0012114198204182002,-1.9499996900532324,0.19700002670261668,-0.4345157436007746,0.0
1759837282.7481225,1,-1.2049999237060467,-0.8299995064735359,-0.7177030444126503,0.0,-1.7350000143051147,-0.34999996423721313,-0.7177030369025665,0.0012114198204182002,-1.9499996900532324,0.19700002670261668,-0.4345157436007746,0.0
1759837282.7582939,1,-1.2049999237060467,-0.8299995064735359,-0.7177030444126503,0.0,-1.7350000143051147,-0.34999996423721313,-0.7177030372213355,0.0012114198204182002,-1.9499996900532324,0.19700002670261668,-0.4345157436007746,0.0
1759837282.7703936,1,-1.2049999237060467,-0.8299995064735359,-0.7177030444126503,0.0,-1.7350000143051147,-0.34999996423721313,-0.7177030372111926,0.0012114198204182002,-1.9499996900532324,0.19700002670261668,-0.4345157436007746,0.0
1759837282.7803352,1,-1.2049999237060467,-0.8299995064735359,-0.7177030444126503,0.0,-1.7350000143051147,-0.34999996423721313,-0.717703037578179,0.0012114198204182002,-1.9499996900532324,0.19700002670261668,-0.4345157436007746,0.0
1759837282.7905838,1,-1.2049999237060467,-0.8299995064735359,-0.7177030444126503,0.0,-1.7350000143051147,-0.34999996423721313,-0.7177030378689491,0.0012114198204182002,-1.9499996900532324,0.19700002670261668,-0.4345157436007746,0.0
1759837282.8008485,1,-1.2049999237060467,-0.8299995064735359,-0.7177030444126503,0.0,-1.7350000143051147,-0.34999996423721313,-0.7177030381218295,0.0012114198204182002,-1.9499996900532324,0.19700002670261668,-0.4345157436007746,0.0
1759837282.8111796,1,-1.2049999237060467,-0.8299995064735359,-0.7177030444126503,0.0,-1.7350000143051147,-0.34999996423721313,-0.7177030383415843,0.0012114198204182002,-1.9499996900532324,0.19700002670261668,-0.4345157436007746,0.0
1759837282.8219235,1,-1.2049999237060467,-0.8299995064735359,-0.7177030444126503,0.0,-1.7350000143051147,-0.34999996423721313,-0.7177030384923597,0.0012114198204182002,-1.9499996900532324,0.19700002670261668,-0.4345157436007746,0.0
1759837282.8321245,1,-1.2049999237060467,-0.8299995064735359,-0.7177030444126503,0.0,-1.7350000143051147,-0.34999996423721313,-0.7177030387159942,0.0012114198204182002,-1.9499996900532324,0.19700002670261668,-0.4345157436007746,0.0
1759837282.8425517,1,-1.2049999237060467,-0.8299995064735359,-0.7177030444126503,0.0,-1.7350000143051147,-0.34999996423721313,-0.7177030388977244,0.0012114198204182002,-1.9499996900532324,0.19700002670261668,-0.4345157436007746,0.0
1759837282.8532906,1,-1.2049999237060467,-0.8299995064735359,-0.7177030444126503,0.0,-1.7350000143051147,-0.34999996423721313,-0.7177030390342534,0.0012114198204182002,-1.9499996900532324,0.19700002670261668,-0.4345157436007746,0.0
1759837282.863795,1,-1.2049999237060467,-0.8299995064735359,-0.7177030444126503,0.0,-1.7350000143051147,-0.34999996423721313,-0.7177030392031938,0.0012114198204182002,-1.9499996900532324,0.19700002670261668,-0.4345157436007746,0.0
1759837282.8745625,1,-1.2049999237060467,-0.8299995064735359,-0.7177030444126503,0.0,-1.7350000143051147,-0.34999996423721313,-0.7177030393407318,0.0012114198204182002,-1.9499996900532324,0.19700002670261668,-0.4345157436007746,0.0
1759837282.8858166,1,-1.2049999237060467,-0.8299995064735359,-0.7177030444126503,0.0,-1.7350000143051147,-0.34999996423721313,-0.7177030394303028,0.0012114198204182002,-1.9499996900532324,0.19700002670261668,-0.4345157436007746,0.0
1759837282.8960721,1,-1.2049999237060467,-0.8299995064735359,-0.7177030444126503,0.0,-1.7350000143051147,-0.34999996423721313,-0.7177030396420747,0.0012114198204182002,-1.9499996900532324,0.19700002670261668,-0.4345157436007746,0.0
1759837282.9063027,1,-1.2049999237060467,-0.8299995064735359,-0.7177030444126503,0.0,-1.7350000143051147,-0.34999996423721313,-0.7177030398412292,0.0012114198204182002,-1.9499996900532324,0.19700002670261668,-0.4345157436007746,0.0
1759837282.916984,1,-1.2049999237060467,-0.8299995064735359,-0.7177030444126503,0.0,-1.7350000143051147,-0.34999996423721313,-0.7177030399759445,0.0012114198204182002,-1.9499996900532324,0.19700002670261668,-0.4345157436007746,0.0
1759837282.927136,1,-1.2049999237060467,-0.8299995064735359,-0.7177030444126503,0.0,-1.7350000143051147,-0.34999996423721313,-0.7177030401567954,0.0012114198204182002,-1.9499996900532324,0.19700002670261668,-0.4345157436007746,0.0
1759837282.9378498,1,-1.2049999237060467,-0.8299995064735359,-0.7177030444126503,0.0,-1.7350000143051147,-0.34999996423721313,-0.7177030402716191,0.0012114198204182002,-1.9499996900532324,0.19700002670261668,-0.4345157436007746,0.0
1759837282.948131,1,-1.2049999237060467,-0.8299995064735359,-0.7177030444126503,0.0,-1.7350000143051147,-0.34999996423721313,-0.717703040424329,0.0,-1.9499996900532324,0.19700002670261668,-0.4345157436007746,0.0
1759837282.9599261,1,-1.2049999237060467,-0.8299995064735359,-0.7177030444126503,0.0,-1.7350000143051147,-0.34999996423721313,-0.7177030404401457,0.0,-1.9499996900532324,0.19700002670261668,-0.4345157436007746,0.0
1759837282.973116,1,-1.2049999237060467,-0.8299995064735359,-0.7177030444126503,0.0,-1.7350000143051147,-0.34999996423721313,-0.7177030403734079,0.0,-1.9499996900532324,0.19700002670261668,-0.4345157436007746,0.0
1759837282.9818308,1,-1.2049999237060467,-0.8299995064735359,-0.7177030444126503,0.0,-1.7350000143051147,-0.34999996423721313,-0.7177030407217764,0.0,-1.9499996900532324,0.19700002670261668,-0.4345157436007746,0.0
1759837282.992151,1,-1.2049999237060467,-0.8299995064735359,-0.7177030444126503,0.0,-1.7350000143051147,-0.34999996423721313,-0.7177030408929177,0.0,-1.9499996900532324,0.19700002670261668,-0.4345157436007746,0.0
1759837283.0024188,1,-1.2049999237060467,-0.8299995064735359,-0.7177030444126503,0.0,-1.7350000143051147,-0.34999996423721313,-0.7177030410375114,0.0,-1.9499996900532324,0.19700002670261668,-0.4345157436007746,0.0
1759837283.0135632,1,-1.2049999237060467,-0.8299995064735359,-0.7177030444126503,0.0,-1.7350000143051147,-0.34999996423721313,-0.7177030411042349,0.0,-1.9499996900532324,0.19700002670261668,-0.4345157436007746,0.0
1759837283.0246706,1,-1.2049999237060467,-0.8299995064735359,-0.7177030444126503,0.0,-1.7350000143051147,-0.34999996423721313,-0.717703041181455,0.0,-1.9499996900532324,0.19700002670261668,-0.4345157436007746,0.0
1759837283.0360096,1,-1.2049999237060467,-0.8299995064735359,-0.7177030444126503,0.0,-1.7350000143051147,-0.34999996423721313,-0.7177030412524078,0.0,-1.9499996900532324,0.19700002670261668,-0.4345157436007746,0.0
1759837283.0472336,1,-1.2049999237060467,-0.8299995064735359,-0.7177030444126503,0.0,-1.7350000143051147,-0.34999996423721313,-0.7177030413409788,0.0,-1.9499996900532324,0.19700002670261668,-0.4345157436007746,0.0
1759837283.0580928,1,-1.2049999237060467,-0.8299995064735359,-0.7177030444126503,0.0,-1.7350000143051147,-0.34999996423721313,-0.7177030414569714,0.0,-1.9499996900532324,0.19700002670261668,-0.4345157436007746,0.0
1759837283.069525,1,-1.2049999237060467,-0.8299995064735359,-0.7177030444126503,0.0,-1.7350000143051147,-0.34999996423721313,-0.7177030415337402,0.0,-1.9499996900532324,0.19700002670261668,-0.4345157436007746,0.0
1759837283.0800016,1,-1.2049999237060467,-0.8299995064735359,-0.7177030444126503,0.0,-1.7350000143051147,-0.34999996423721313,-0.7177030416693153,0.0,-1.9499996900532324,0.19700002670261668,-0.4345157436007746,0.0
1759837283.0909305,1,-1.2049999237060467,-0.8299995064735359,-0.7177030444126503,0.0,-1.7350000143051147,-0.34999996423721313,-0.7177030417671375,0.0,-1.9499996900532324,0.19700002670261668,-0.4345157436007746,0.0
1759837283.101185,1,-1.2049999237060467,-0.8299995064735359,-0.7177030444126503,0.0,-1.7350000143051147,-0.34999996423721313,-0.7177030418947883,0.0,-1.9499996900532324,0.19700002670261668,-0.4345157436007746,0.0
1759837283.1124353,1,-1.2049999237060467,-0.8299995064735359,-0.7177030444126503,0.0,-1.7350000143051147,-0.34999996423721313,-0.7177030419561934,0.0,-1.9499996900532324,0.19700002670261668,-0.4345157436007746,0.0
1759837283.1227582,1,-1.2049999237060467,-0.8299995064735359,-0.7177030444126503,0.0,-1.7350000143051147,-0.34999996423721313,-0.7177030420661641,0.0,-1.9499996900532324,0.19700002670261668,-0.4345157436007746,0.0
1759837283.133673,1,-1.2049999237060467,-0.8299995064735359,-0.7177030444126503,0.0,-1.7350000143051147,-0.34999996423721313,-0.7177030421378738,0.0,-1.9499996900532324,0.19700002670261668,-0.4345157436007746,0.0
1759837283.1438773,1,-1.2049999237060467,-0.8299995064735359,-0.7177030444126503,0.0,-1.7350000143051147,-0.34999996423721313,-0.717703042240764,0.0,-1.9499996900532324,0.19700002670261668,-0.4345157436007746,0.0
1759837283.1549573,1,-1.2049999237060467,-0.8299995064735359,-0.7177030444126503,0.0,-1.7350000143051147,-0.34999996423721313,-0.7177030422936799,0.0,-1.9499996900532324,0.19700002670261668,-0.4345157436007746,0.0
1759837283.1661382,1,-1.2049999237060467,-0.8299995064735359,-0.7177030444126503,0.0,-1.7350000143051147,-0.34999996423721313,-0.7177030423440556,0.0,-1.9499996900532324,0.19700002670261668,-0.4345157436007746,0.0
1759837283.1822572,1,-1.2049999237060467,-0.8299995064735359,-0.7177030444126503,0.0,-1.7350000143051147,-0.34999996423721313,-0.7177030421947244,0.0,-1.9499996900532324,0.19700002670261668,-0.4345157436007746,0.0
1759837283.1935937,1,-1.2049999237060467,-0.8299995064735359,-0.7177030444126503,0.0,-1.7350000143051147,-0.34999996423721313,-0.7177030423068373,0.0,-1.9499996900532324,0.19700002670261668,-0.4345157436007746,0.0
1759837283.2037857,1,-1.2049999237060467,-0.8299995064735359,-0.7177030444126503,0.0,-1.7350000143051147,-0.34999996423721313,-0.7177030424644092,0.0,-1.9499996900532324,0.19700002670261668,-0.4345157436007746,0.0
1759837283.2142446,1,-1.2049999237060467,-0.8299995064735359,-0.7177030444126503,0.0,-1.7350000143051147,-0.34999996423721313,-0.7177030425837856,0.0,-1.9499996900532324,0.19700002670261668,-0.4345157436007746,0.0
