timestamp,vehicle_id,x,y,theta,velocity,gps_available,dt,gps_x,gps_y,gps_theta,gps_velocity,control_steering,control_acceleration
1759837279.9616058,1,-1.735,-0.35,-0.7801621756414647,0.0,False,0.01,nan,nan,nan,nan,0.0,0.0
1759837279.972695,1,-1.735,-0.35,-0.7801621756414647,0.0,False,0.011089324951171875,nan,nan,nan,nan,0.0,0.0
1759837279.9840586,1,-1.735,-0.35,-0.7801621756414647,0.0,False,0.011363506317138672,nan,nan,nan,nan,0.0,0.0
1759837279.9956021,1,-1.735,-0.35,-0.7801621756414647,0.0,False,0.011543512344360352,nan,nan,nan,nan,0.0,0.0
1759837280.0069816,1,-1.735,-0.35,-0.7801621756414647,0.0,False,0.011379480361938477,nan,nan,nan,nan,0.0,0.0
1759837280.0177643,1,-1.735,-0.35,-0.7801621756414647,0.0,False,0.010782718658447266,nan,nan,nan,nan,0.0,0.0
1759837280.0291905,1,-1.735,-0.35,-0.7801621756414647,0.0,False,0.011426210403442383,nan,nan,nan,nan,0.0,0.0
1759837280.0406706,1,-1.735,-0.35,-0.7801621756414647,0.0,False,0.011480093002319336,nan,nan,nan,nan,0.0,0.0
1759837280.051725,1,-1.735,-0.35,-0.7801621756414647,0.0,False,0.011054277420043945,nan,nan,nan,nan,0.0,0.0
1759837280.063099,1,-1.735,-0.35,-0.7801621756414647,0.0,False,0.01137399673461914,nan,nan,nan,nan,0.0,0.0
1759837280.073979,1,-1.735,-0.35,-0.7801621756414647,0.0,False,0.010879993438720703,nan,nan,nan,nan,0.0,0.0
1759837280.084537,1,-1.735,-0.35,-0.7801621756414647,0.0,False,0.010558128356933594,nan,nan,nan,nan,0.0,0.0
1759837280.0957537,1,-1.735,-0.35,-0.7801621756414647,0.0,False,0.01121664047241211,nan,nan,nan,nan,0.0,0.0
1759837280.1065598,1,-1.735,-0.35,-0.7801621756414647,0.0,False,0.010806083679199219,nan,nan,nan,nan,0.0,0.0
1759837280.118096,1,-1.735,-0.35,-0.7801621756414647,0.0,False,0.011536359786987305,nan,nan,nan,nan,0.0,0.0
1759837280.128201,1,-1.735,-0.35,-0.7801621756414647,0.0,False,0.010104894638061523,nan,nan,nan,nan,0.0,0.0
1759837280.1389945,1,-1.735,-0.35,-0.7801621756414647,0.0,False,0.010793447494506836,nan,nan,nan,nan,0.0,0.0
1759837280.1498334,1,-1.735,-0.35,-0.7801621756414647,0.0,False,0.010838985443115234,nan,nan,nan,nan,0.0,0.0
1759837280.160723,1,-1.7350000141859054,-0.34999996453523635,-0.7229992833198722,0.0,True,0.010889530181884766,-1.7350000143051147,-0.34999996423721313,-0.7177030444145203,0.0,0.0,0.0
1759837280.1722016,1,-1.7350000142652677,-0.34999996433683095,-0.7181126931689725,0.0,True,0.011478662490844727,-1.7350000143051147,-0.34999996423721313,-0.7177030444145203,0.0,0.0,0.0
1759837280.1823354,1,-1.735000014290167,-0.34999996427458285,-0.7176576140486652,0.0,True,0.010133743286132812,-1.7350000143051147,-0.34999996423721313,-0.7177030444145203,0.0,0.0,0.0
1759837280.1932306,1,-1.73500001429942,-0.3499999642514499,-0.7175959161541687,0.0,True,0.010895252227783203,-1.7350000143051147,-0.34999996423721313,-0.7177030444145203,0.0,0.0,0.0
1759837280.2034564,1,-1.7350000143029403,-0.349999964242649,-0.7175900811077973,0.0,True,0.010225772857666016,-1.7350000143051147,-0.34999996423721313,-0.7177030444145203,0.0,0.0,0.0
1759837280.214852,1,-1.7350000143042843,-0.34999996423928936,-0.717594618411642,0.0,True,0.011395692825317383,-1.7350000143051147,-0.34999996423721313,-0.7177030444145203,0.0,0.0,0.0
1759837280.2256014,1,-1.7350000143047974,-0.34999996423800617,-0.7176066003345731,0.0,True,0.010749340057373047,-1.7350000143051147,-0.34999996423721313,-0.7177030444145203,0.0,0.0,0.0
1759837280.2362149,1,-1.7350000143049935,-0.34999996423751606,-0.71761893072917,0.0,True,0.010613441467285156,-1.7350000143051147,-0.34999996423721313,-0.7177030444145203,0.0,0.0,0.0
1759837280.2469988,1,-1.7350000143050683,-0.3499999642373288,-0.7176294993999939,0.0,True,0.010783910751342773,-1.7350000143051147,-0.34999996423721313,-0.7177030444145203,0.0,0.0,0.0
1759837280.2582965,1,-1.735000014305097,-0.3499999642372573,-0.7176379668779838,0.0,True,0.01129770278930664,-1.7350000143051147,-0.34999996423721313,-0.7177030444145203,0.0,0.0,0.0
1759837280.2683156,1,-1.7350000143051079,-0.34999996423723,-0.7176466936447952,0.0,True,0.010019063949584961,-1.7350000143051147,-0.34999996423721313,-0.7177030444145203,0.0,0.0,0.0
1759837280.2798145,1,-1.735000014305112,-0.3499999642372196,-0.7176522019471943,0.0,True,0.01149892807006836,-1.7350000143051147,-0.34999996423721313,-0.7177030444145203,0.0,0.0,0.0
1759837280.2912974,1,-1.7350000143051136,-0.3499999642372156,-0.7176571353123897,0.0,True,0.011482954025268555,-1.7350000143051147,-0.34999996423721313,-0.7177030444145203,0.0,0.0,0.0
1759837280.302304,1,-1.7350000143051143,-0.3499999642372141,-0.7176618911050276,0.0,True,0.011006593704223633,-1.7350000143051147,-0.34999996423721313,-0.7177030444145203,0.0,0.0,0.0
1759837280.3136778,1,-1.7350000143051145,-0.34999996423721347,-0.7176656707258715,0.0,True,0.011373758316040039,-1.7350000143051147,-0.34999996423721313,-0.7177030444145203,0.0,0.0,0.0
1759837280.3246834,1,-1.7350000143051147,-0.34999996423721325,-0.7176691852928343,0.0,True,0.011005640029907227,-1.7350000143051147,-0.34999996423721313,-0.7177030444145203,0.0,0.0,0.0
1759837280.3355567,1,-1.7350000143051147,-0.3499999642372132,-0.7176722487528817,0.0,True,0.01087331771850586,-1.7350000143051147,-0.34999996423721313,-0.7177030444145203,0.0,0.0,0.0
1759837280.3466783,1,-1.7350000143051147,-0.34999996423721313,-0.717674706708527,0.0,True,0.011121511459350586,-1.7350000143051147,-0.34999996423721313,-0.7177030444145203,0.0,0.0,0.0
1759837280.3575163,1,-1.7350000143051147,-0.34999996423721313,-0.7176769895473925,0.0,True,0.010838031768798828,-1.7350000143051147,-0.34999996423721313,-0.7177030444145203,0.0,0.0,0.0
1759837280.3682282,1,-1.7350000143051147,-0.34999996423721313,-0.717679015906036,0.0,True,0.010711908340454102,-1.7350000143051147,-0.34999996423721313,-0.7177030444145203,0.0,0.0,0.0
1759837280.3788562,1,-1.7350000143051147,-0.34999996423721313,-0.7176807920449875,0.0,True,0.010627985000610352,-1.7350000143051147,-0.34999996423721313,-0.7177030444145203,0.0,0.0,0.0
1759837280.389552,1,-1.7350000143051147,-0.34999996423721313,-0.7176822950508814,0.0,True,0.010695934295654297,-1.7350000143051147,-0.34999996423721313,-0.7177030444145203,0.0,0.0,0.0
1759837280.4009972,1,-1.7350000143051147,-0.34999996423721313,-0.7176833247734251,0.0,True,0.011445045471191406,-1.7350000143051147,-0.34999996423721313,-0.7177030444145203,0.0,0.0,0.0
1759837280.4117756,1,-1.7350000143051147,-0.34999996423721313,-0.7176845697571519,0.0,True,0.010778427124023438,-1.7350000143051147,-0.34999996423721313,-0.7177030444145203,0.0,0.0,0.0
1759837280.4225173,1,-1.7350000143051147,-0.34999996423721313,-0.7176857076224898,0.0,True,0.010741710662841797,-1.7350000143051147,-0.34999996423721313,-0.7177030444145203,0.0,0.0,0.0
1759837280.4338589,1,-1.7350000143051147,-0.34999996423721313,-0.7176865232698582,0.0,True,0.011341571807861328,-1.7350000143051147,-0.34999996423721313,-0.7177030444145203,0.0,0.0,0.0
1759837280.4451551,1,-1.7350000143051147,-0.34999996423721313,-0.7176873240507771,0.0,True,0.011296272277832031,-1.7350000143051147,-0.34999996423721313,-0.7177030444145203,0.0,0.0,0.0
1759837280.45546,1,-1.7350000143051147,-0.34999996423721313,-0.7176883896060211,0.0,True,0.010304927825927734,-1.7350000143051147,-0.34999996423721313,-0.7177030444145203,0.0,0.0,0.0
1759837280.4666698,1,-1.7350000143051147,-0.34999996423721313,-0.7176890557502542,0.0,True,0.011209726333618164,-1.7350000143051147,-0.34999996423721313,-0.7177030444145203,0.0,0.0,0.0
1759837280.4773982,1,-1.7350000143051147,-0.34999996423721313,-0.7176898101955125,0.0,True,0.01072835922241211,-1.7350000143051147,-0.34999996423721313,-0.7177030444145203,0.0,0.0,0.0
1759837280.4886377,1,-1.7350000143051147,-0.34999996423721313,-0.717690366647453,0.0,True,0.01123952865600586,-1.7350000143051147,-0.34999996423721313,-0.7177030444145203,0.0,0.0,0.0
1759837280.4999516,1,-1.7350000143051147,-0.34999996423721313,-0.7176908868083824,0.0,True,0.011313915252685547,-1.7350000143051147,-0.34999996423721313,-0.7177030444145203,0.0,0.0,0.0
1759837280.5111842,1,-1.7350000143051147,-0.34999996423721313,-0.7176914199297819,0.0,True,0.011232614517211914,-1.7350000143051147,-0.34999996423721313,-0.7177030444145203,0.0,0.0,0.0
1759837280.522054,1,-1.7350000143051147,-0.34999996423721313,-0.7176920150294155,0.0,True,0.010869741439819336,-1.7350000143051147,-0.34999996423721313,-0.7177030444145203,0.0,0.0,0.0
1759837280.5333047,1,-1.7350000143051147,-0.34999996423721313,-0.7176924777280007,0.0,True,0.011250734329223633,-1.7350000143051147,-0.34999996423721313,-0.7177030444145203,0.0,0.0,0.0
1759837280.543728,1,-1.7350000143051147,-0.34999996423721313,-0.7176930873430969,0.0,True,0.010423421859741211,-1.7350000143051147,-0.34999996423721313,-0.7177030444145203,0.0,0.0,0.0
1759837280.5573533,1,-1.7350000143051147,-0.34999996423721313,-0.7176930025567305,0.0,True,0.013625144958496094,-1.7350000143051147,-0.34999996423721313,-0.7177030444145203,0.0,0.0,0.0
1759837280.565062,1,-1.7350000143051147,-0.34999996423721313,-0.7176941625491331,0.0,True,0.00770878791809082,-1.7350000143051147,-0.34999996423721313,-0.7177030444145203,0.0,0.0,0.0
1759837280.5763788,1,-1.7350000143051147,-0.34999996423721313,-0.7176944421462927,0.0,True,0.011316776275634766,-1.7350000143051147,-0.34999996423721313,-0.7177030444145203,0.0,0.0,0.0
1759837280.5871272,1,-1.7350000143051147,-0.34999996423721313,-0.7176947854626619,0.0,True,0.01074838638305664,-1.7350000143051147,-0.34999996423721313,-0.7177030444145203,0.0,0.0,0.0
1759837280.5979187,1,-1.7350000143051147,-0.34999996423721313,-0.717695108509318,0.0,True,0.010791540145874023,-1.7350000143051147,-0.34999996423721313,-0.7177030444145203,0.0,0.0,0.0
1759837280.6082017,1,-1.7350000143051147,-0.34999996423721313,-0.7176954978803423,0.0,True,0.01028299331665039,-1.7350000143051147,-0.34999996423721313,-0.7177030444145203,0.0,0.0,0.0
1759837280.618368,1,-1.7350000143051147,-0.34999996423721313,-0.717695864728416,0.0,True,0.010166168212890625,-1.7350000143051147,-0.34999996423721313,-0.7177030444145203,0.0,0.0,0.0
1759837280.6296015,1,-1.7350000143051147,-0.34999996423721313,-0.7176960284576221,0.0,True,0.01123356819152832,-1.7350000143051147,-0.34999996423721313,-0.7177030444145203,0.0,0.0,0.0
1759837280.6404383,1,-1.7350000143051147,-0.34999996423721313,-0.7176962653114831,0.0,True,0.01083683967590332,-1.7350000143051147,-0.34999996423721313,-0.7177030444145203,0.0,0.0,0.0
1759837280.6511445,1,-1.7350000143051147,-0.34999996423721313,-0.7176965229327763,0.0,True,0.010706186294555664,-1.7350000143051147,-0.34999996423721313,-0.7177030444145203,0.0,0.0,0.0
1759837280.6618764,1,-1.7350000143051147,-0.34999996423721313,-0.7176967663777702,0.0,True,0.010731935501098633,-1.7350000143051147,-0.34999996423721313,-0.7177030444145203,0.0,0.0,0.0
1759837280.6725957,1,-1.7350000143051147,-0.34999996423721313,-0.7176970004442609,0.0,True,0.01071929931640625,-1.7350000143051147,-0.34999996423721313,-0.7177030444145203,0.0,0.0,0.0
1759837280.6837838,1,-1.7350000143051147,-0.34999996423721313,-0.7176971661052178,0.0,True,0.011188030242919922,-1.7350000143051147,-0.34999996423721313,-0.7177030444145203,0.0,0.0,0.0
1759837280.6950674,1,-1.7350000143051147,-0.34999996423721313,-0.7176973292057447,0.0,True,0.011283636093139648,-1.7350000143051147,-0.34999996423721313,-0.7177030444145203,0.0,0.0,0.0
1759837280.7063541,1,-1.7350000143051147,-0.34999996423721313,-0.7176975039942235,0.0,True,0.011286735534667969,-1.7350000143051147,-0.34999996423721313,-0.7177030444145203,0.0,0.0,0.0
1759837280.71666,1,-1.7350000143051147,-0.34999996423721313,-0.7176977933539064,0.0,True,0.01030588150024414,-1.7350000143051147,-0.34999996423721313,-0.7177030444145203,0.0,0.0,0.0
1759837280.7271266,1,-1.7350000143051147,-0.34999996423721313,-0.7176980335004437,0.0,True,0.010466575622558594,-1.7350000143051147,-0.34999996423721313,-0.7177030444145203,0.0,0.0,0.0
1759837280.7385101,1,-1.7350000143051147,-0.34999996423721313,-0.7176981520661769,0.0,True,0.011383533477783203,-1.7350000143051147,-0.34999996423721313,-0.7177030444145203,0.0,0.0,0.0
1759837280.7499788,1,-1.7350000143051147,-0.34999996423721313,-0.717698271968672,0.0,True,0.011468648910522461,-1.7350000143051147,-0.34999996423721313,-0.7177030444145203,0.0,0.0,0.0
1759837280.761722,1,-1.7350000143051147,-0.34999996423721313,-0.7176983814515303,0.0,True,0.011743307113647461,-1.7350000143051147,-0.34999996423721313,-0.7177030444145203,0.0,0.0,0.0
1759837280.7730157,1,-1.7350000143051147,-0.34999996423721313,-0.7176985500006552,0.0,True,0.011293649673461914,-1.7350000143051147,-0.34999996423721313,-0.7177030444145203,0.0,0.0,0.0
1759837280.784401,1,-1.7350000143051147,-0.34999996423721313,-0.7176987099866246,0.0,True,0.011385202407836914,-1.7350000143051147,-0.34999996423721313,-0.7177030444145203,0.0,0.0,0.0
1759837280.7946799,1,-1.7350000143051147,-0.34999996423721313,-0.7176989596255225,0.0,True,0.010278940200805664,-1.7350000143051147,-0.34999996423721313,-0.7177030444145203,0.0,0.0,0.0
1759837280.8060532,1,-1.7350000143051147,-0.34999996423721313,-0.7176990869943296,0.0,True,0.011373281478881836,-1.7350000143051147,-0.34999996423721313,-0.7177030444145203,0.0,0.0,0.0
1759837280.817261,1,-1.7350000143051147,-0.34999996423721313,-0.7176992232322856,0.0,True,0.011207818984985352,-1.7350000143051147,-0.34999996423721313,-0.7177030444145203,0.0,0.0,0.0
1759837280.8275533,1,-1.7350000143051147,-0.34999996423721313,-0.7176994266965551,0.0,True,0.010292291641235352,-1.7350000143051147,-0.34999996423721313,-0.7177030444145203,0.0,0.0,0.0
1759837280.838824,1,-1.7350000143051147,-0.34999996423721313,-0.7176995338076395,0.0,True,0.011270761489868164,-1.7350000143051147,-0.34999996423721313,-0.7177030444145203,0.0,0.0,0.0
1759837280.8492491,1,-1.7350000143051147,-0.34999996423721313,-0.7176996983449744,0.0,True,0.010425090789794922,-1.7350000143051147,-0.34999996423721313,-0.7177030444145203,0.0,0.0,0.0
1759837280.860123,1,-1.7350000143051147,-0.34999996423721313,-0.7176998165308177,0.0,True,0.010873794555664062,-1.7350000143051147,-0.34999996423721313,-0.7177030444145203,0.0,0.0,0.0
1759837280.8710678,1,-1.7350000143051147,-0.34999996423721313,-0.7176999229514021,0.0,True,0.010944843292236328,-1.7350000143051147,-0.34999996423721313,-0.7177030444145203,0.0,0.0,0.0
1759837280.8823516,1,-1.7350000143051147,-0.34999996423721313,-0.7177000055775515,0.0,True,0.01128387451171875,-1.7350000143051147,-0.34999996423721313,-0.7177030444145203,0.0,0.0,0.0
1759837280.893103,1,-1.7350000143051147,-0.34999996423721313,-0.7177001252616968,0.0,True,0.01075124740600586,-1.7350000143051147,-0.34999996423721313,-0.7177030444145203,0.0,0.0,0.0
1759837280.9043922,1,-1.7350000143051147,-0.34999996423721313,-0.7177002069615508,0.0,True,0.011289358139038086,-1.7350000143051147,-0.34999996423721313,-0.7177030444145203,0.0,0.0,0.0
1759837280.9153438,1,-1.7350000143051147,-0.34999996423721313,-0.71770030981099,0.0,True,0.010951519012451172,-1.7350000143051147,-0.34999996423721313,-0.7177030444145203,0.0,0.0,0.0
1759837280.9266615,1,-1.7350000143051147,-0.34999996423721313,-0.7177003893658345,0.0,True,0.011317729949951172,-1.7350000143051147,-0.34999996423721313,-0.7177030444145203,0.0,0.0,0.0
1759837280.937697,1,-1.7350000143051147,-0.34999996423721313,-0.7177004854668283,0.0,True,0.011035442352294922,-1.7350000143051147,-0.34999996423721313,-0.7177030444145203,0.0,0.0,0.0
1759837280.9491248,1,-1.7350000143051147,-0.34999996423721313,-0.7177005586530871,0.0,True,0.011427879333496094,-1.7350000143051147,-0.34999996423721313,-0.7177030444145203,0.0,0.0,0.0
1759837280.962004,1,-1.7350000143051147,-0.34999996423721313,-0.7177005635312419,0.0,True,0.012879133224487305,-1.7350000143051147,-0.34999996423721313,-0.7177030444145203,0.0,0.0,0.0
1759837280.972786,1,-1.7350000143051147,-0.34999996423721313,-0.7177006915999957,0.0,True,0.010782003402709961,-1.7350000143051147,-0.34999996423721313,-0.7177030444145203,0.0,0.0,0.0
1759837280.9834585,1,-1.7350000143051147,-0.34999996423721313,-0.7177008150291222,0.0,True,0.010672569274902344,-1.7350000143051147,-0.34999996423721313,-0.7177030444145203,0.0,0.0,0.0
1759837280.9941697,1,-1.7350000143051147,-0.34999996423721313,-0.7177009199218336,0.0,True,0.010711193084716797,-1.7350000143051147,-0.34999996423721313,-0.7177030444145203,0.0,0.0,0.0
1759837281.0053225,1,-1.7350000143051147,-0.34999996423721313,-0.7177009932464955,0.0,True,0.01115274429321289,-1.7350000143051147,-0.34999996423721313,-0.7177030444145203,0.0,0.0,0.0
1759837281.016095,1,-1.7350000143051147,-0.34999996423721313,-0.7177010783300108,0.0,True,0.010772466659545898,-1.7350000143051147,-0.34999996423721313,-0.7177030444145203,0.0,0.0,0.0
1759837281.0269043,1,-1.7350000143051147,-0.34999996423721313,-0.717701155366214,0.0,True,0.01080942153930664,-1.7350000143051147,-0.34999996423721313,-0.7177030444145203,0.0,0.0,0.0
1759837281.0382261,1,-1.7350000143051147,-0.34999996423721313,-0.7177012069840636,0.0,True,0.011321783065795898,-1.7350000143051147,-0.34999996423721313,-0.7177030444145203,0.0,0.0,0.0
1759837281.0496523,1,-1.7350000143051147,-0.34999996423721313,-0.7177012562077802,0.0,True,0.011426210403442383,-1.7350000143051147,-0.34999996423721313,-0.7177030444145203,0.0,0.0,0.0
1759837281.0599606,1,-1.7350000143051147,-0.34999996423721313,-0.7177013481517989,0.0,True,0.010308265686035156,-1.7350000143051147,-0.34999996423721313,-0.7177030444145203,0.0,0.0,0.0
1759837281.0704045,1,-1.7350000143051147,-0.34999996423721313,-0.7177014250843428,0.0,True,0.010443925857543945,-1.7350000143051147,-0.34999996423721313,-0.7177030444145203,0.0,0.0,0.0
1759837281.0804877,1,-1.7350000143051147,-0.34999996423721313,-0.7177015044720267,0.0,True,0.010083198547363281,-1.7350000143051147,-0.34999996423721313,-0.7177030444145203,0.0,0.0,0.0
1759837281.091308,1,-1.7350000143051147,-0.34999996423721313,-0.7177015494764856,0.0,True,0.010820388793945312,-1.7350000143051147,-0.34999996423721313,-0.7177030444145203,0.0,0.0,0.0
1759837281.1016142,1,-1.7350000143051147,-0.34999996423721313,-0.7177016089557373,0.0,True,0.010306119918823242,-1.7350000143051147,-0.34999996423721313,-0.7177030444145203,0.0,0.0,0.0
1759837281.111959,1,-1.7350000143051147,-0.34999996423721313,-0.7177016627728676,0.0,True,0.010344743728637695,-1.7350000143051147,-0.34999996423721313,-0.7177030444145203,0.0,0.0,0.0
1759837281.123001,1,-1.7350000143051147,-0.34999996423721313,-0.7177016918590713,0.0,True,0.011042118072509766,-1.7350000143051147,-0.34999996423721313,-0.7177030444145203,0.0,0.0,0.0
1759837281.1338563,1,-1.7350000143051147,-0.34999996423721313,-0.717701729061881,0.0,True,0.01085519790649414,-1.7350000143051147,-0.34999996423721313,-0.7177030444145203,0.0,0.0,0.0
1759837281.1451113,1,-1.7350000143051147,-0.34999996423721313,-0.7177017570536233,0.0,True,0.011255025863647461,-1.7350000143051147,-0.34999996423721313,-0.7177030444145203,0.0,0.0,0.0
1759837281.156438,1,-1.7350000143051147,-0.34999996423721313,-0.7177017870280515,0.0,True,0.011326789855957031,-1.7350000143051147,-0.34999996423721313,-0.7177030444145203,0.0,0.0,0.0
1759837281.1672156,1,-1.7350000143051147,-0.34999996423721313,-0.7177018346269701,0.0,True,0.010777473449707031,-1.7350000143051147,-0.34999996423721313,-0.7177030444145203,0.0,0.0,0.0
1759837281.1778975,1,-1.7350000143051147,-0.34999996423721313,-0.717701882572177,0.0,True,0.010681867599487305,-1.7350000143051147,-0.34999996423721313,-0.7177030444145203,0.0,0.0,0.0
1759837281.1891878,1,-1.7350000143051147,-0.34999996423721313,-0.7177019124854418,0.0,True,0.011290311813354492,-1.7350000143051147,-0.34999996423721313,-0.7177030444145203,0.0,0.0,0.0
1759837281.2006023,1,-1.7350000143051147,-0.34999996423721313,-0.7177019408814669,0.0,True,0.011414527893066406,-1.7350000143051147,-0.34999996423721313,-0.7177030444145203,0.0,0.0,0.0
1759837281.2118819,1,-1.7350000143051147,-0.34999996423721313,-0.7177019748355331,0.0,True,0.011279582977294922,-1.7350000143051147,-0.34999996423721313,-0.7177030444145203,0.0,0.0,0.0
1759837281.223162,1,-1.7350000143051147,-0.34999996423721313,-0.7177020095742499,0.0,True,0.011280059814453125,-1.7350000143051147,-0.34999996423721313,-0.7177030444145203,0.0,0.0,0.0
1759837281.2334876,1,-1.7350000143051147,-0.34999996423721313,-0.7177020636965779,0.0,True,0.01032567024230957,-1.7350000143051147,-0.34999996423721313,-0.7177030444145203,0.0,0.0,0.0
1759837281.2442884,1,-1.7350000143051147,-0.34999996423721313,-0.717702101876732,0.0,True,0.010800838470458984,-1.7350000143051147,-0.34999996423721313,-0.7177030444145203,0.0,0.0,0.0
1759837281.2555275,1,-1.7350000143051147,-0.34999996423721313,-0.7177021281333502,0.0,True,0.011239051818847656,-1.7350000143051147,-0.34999996423721313,-0.7177030444145203,0.0,0.0,0.0
1759837281.2663376,1,-1.7350000143051147,-0.34999996423721313,-0.7177021627745575,0.0,True,0.010810136795043945,-1.7350000143051147,-0.34999996423721313,-0.7177030444145203,0.0,0.0,0.0
1759837281.2776039,1,-1.7350000143051147,-0.34999996423721313,-0.7177021876292784,0.0,True,0.011266231536865234,-1.7350000143051147,-0.34999996423721313,-0.7177030444145203,0.0,0.0,0.0
1759837281.2890763,1,-1.7350000143051147,-0.34999996423721313,-0.7177022094463901,0.0,True,0.011472463607788086,-1.7350000143051147,-0.34999996423721313,-0.7177030444145203,0.0,0.0,0.0
1759837281.300475,1,-1.7350000143051147,-0.34999996423721313,-0.7177022342806012,0.0,True,0.011398553848266602,-1.7350000143051147,-0.34999996423721313,-0.7177030444145203,0.0,0.0,0.0
1759837281.31098,1,-1.7350000143051147,-0.34999996423721313,-0.7177022742117671,0.0,True,0.010505199432373047,-1.7350000143051147,-0.34999996423721313,-0.7177030444145203,0.0,0.0,0.0
1759837281.321895,1,-1.7350000143051147,-0.34999996423721313,-0.7177023036013885,0.0,True,0.010914802551269531,-1.7350000143051147,-0.34999996423721313,-0.7177030444145203,0.0,0.0,0.0
1759837281.3331213,1,-1.7350000143051147,-0.34999996423721313,-0.7177023259445647,0.0,True,0.011226415634155273,-1.7350000143051147,-0.34999996423721313,-0.7177030444145203,0.0,0.0,0.0
1759837281.344146,1,-1.7350000143051147,-0.34999996423721313,-0.7177023511437071,0.0,True,0.011024713516235352,-1.7350000143051147,-0.34999996423721313,-0.7177030444145203,0.0,0.0,0.0
1759837281.3554008,1,-1.7350000143051147,-0.34999996423721313,-0.7177023724069258,0.0,True,0.01125478744506836,-1.7350000143051147,-0.34999996423721313,-0.7177030444145203,0.0,0.0,0.0
1759837281.3662705,1,-1.7350000143051147,-0.34999996423721313,-0.7177023988392239,0.0,True,0.010869741439819336,-1.7350000143051147,-0.34999996423721313,-0.7177030444145203,0.0,0.0,0.0
1759837281.3766692,1,-1.7350000143051147,-0.34999996423721313,-0.7177024297731585,0.0,True,0.010398626327514648,-1.7350000143051147,-0.34999996423721313,-0.7177030444145203,0.0,0.0,0.0
1759837281.387611,1,-1.7350000143051147,-0.34999996423721313,-0.7177024503095133,0.0,True,0.010941743850708008,-1.7350000143051147,-0.34999996423721313,-0.7177030444145203,0.0,0.0,0.0
1759837281.3989677,1,-1.7350000143051147,-0.34999996423721313,-0.7177024647124011,0.0,True,0.011356830596923828,-1.7350000143051147,-0.34999996423721313,-0.7177030444145203,0.0,0.0,0.0
1759837281.4102242,1,-1.7350000143051147,-0.34999996423721313,-0.7177024814077893,0.0,True,0.01125645637512207,-1.7350000143051147,-0.34999996423721313,-0.7177030444145203,0.0,0.0,0.0
1759837281.4216359,1,-1.7350000143051147,-0.34999996423721313,-0.7177024970498653,0.0,True,0.011411666870117188,-1.7350000143051147,-0.34999996423721313,-0.7177030444145203,0.0,0.0,0.0
1759837281.432543,1,-1.7350000143051147,-0.34999996423721313,-0.7177025189018629,0.0,True,0.010907173156738281,-1.7350000143051147,-0.34999996423721313,-0.7177030444145203,0.0,0.0,0.0
1759837281.4435954,1,-1.7350000143051147,-0.34999996423721313,-0.7177025379871012,0.0,True,0.011052370071411133,-1.7350000143051147,-0.34999996423721313,-0.7177030444145203,0.0,0.0,0.0
1759837281.4536,1,-1.7350000143051147,-0.34999996423721313,-0.7177025666266239,0.0,True,0.010004520416259766,-1.7350000143051147,-0.34999996423721313,-0.7177030444145203,0.0,0.0,0.0
1759837281.4644861,1,-1.7350000143051147,-0.34999996423721313,-0.7177025825775445,0.0,True,0.010886192321777344,-1.7350000143051147,-0.34999996423721313,-0.7177030444145203,0.0,0.0,0.0
1759837281.4757855,1,-1.7350000143051147,-0.34999996423721313,-0.7177025934519499,0.0,True,0.011299371719360352,-1.7350000143051147,-0.34999996423721313,-0.7177030444145203,0.0,0.0,0.0
1759837281.4860358,1,-1.7350000143051147,-0.34999996423721313,-0.7177026148056136,0.0,True,0.010250329971313477,-1.7350000143051147,-0.34999996423721313,-0.7177030444145203,0.0,0.0,0.0
1759837281.497292,1,-1.7350000143051147,-0.34999996423721313,-0.7177026251758036,0.0,True,0.011256217956542969,-1.7350000143051147,-0.34999996423721313,-0.7177030444145203,0.0,0.0,0.0
1759837281.508605,1,-1.7350000143051147,-0.34999996423721313,-0.7177026354611584,0.0,True,0.01131296157836914,-1.7350000143051147,-0.34999996423721313,-0.7177030444145203,0.0,0.0,0.0
1759837281.5188868,1,-1.7350000143051147,-0.34999996423721313,-0.7177026551932659,0.0,True,0.010281801223754883,-1.7350000143051147,-0.34999996423721313,-0.7177030444145203,0.0,0.0,0.0
1759837281.52938,1,-1.7350000143051147,-0.34999996423721313,-0.7177026712388184,0.0,True,0.010493278503417969,-1.7350000143051147,-0.34999996423721313,-0.7177030444145203,0.0,0.0,0.0
1759837281.5407383,1,-1.7350000143051147,-0.34999996423721313,-0.7177026789325804,0.0,True,0.011358261108398438,-1.7350000143051147,-0.34999996423721313,-0.7177030444145203,0.0,0.0,0.0
1759837281.5509524,1,-1.7350000143051147,-0.34999996423721313,-0.7177026959964685,0.0,True,0.010214090347290039,-1.7350000143051147,-0.34999996423721313,-0.7177030444145203,0.0,0.0,0.0
1759837281.5657804,1,-1.7350000143051147,-0.34999996423721313,-0.7177026785665248,0.0,True,0.014827966690063477,-1.7350000143051147,-0.34999996423721313,-0.7177030444145203,0.0,0.0,0.0
1759837281.5760193,1,-1.7350000143051147,-0.34999996423721313,-0.7177027011702055,0.0,True,0.010238885879516602,-1.7350000143051147,-0.34999996423721313,-0.7177030444145203,0.0,0.0,0.0
1759837281.5867858,1,-1.7350000143051147,-0.34999996423721313,-0.717702718698991,0.0,True,0.01076650619506836,-1.7350000143051147,-0.34999996423721313,-0.7177030444145203,0.0,0.0,0.0
1759837281.597514,1,-1.7350000143051147,-0.34999996423721313,-0.7177027339318691,0.0,True,0.010728120803833008,-1.7350000143051147,-0.34999996423721313,-0.7177030444145203,0.0,0.0,0.0
1759837281.6083305,1,-1.7350000143051147,-0.34999996423721313,-0.717702746769703,0.0,True,0.010816574096679688,-1.7350000143051147,-0.34999996423721313,-0.7177030444145203,0.0,0.0,0.0
1759837281.6195302,1,-1.7350000143051147,-0.34999996423721313,-0.717702756102792,0.0,True,0.011199712753295898,-1.7350000143051147,-0.34999996423721313,-0.7177030444145203,0.0,0.0,0.0
1759837281.6308389,1,-1.7350000143051147,-0.34999996423721313,-0.7177027646290348,0.0,True,0.011308670043945312,-1.7350000143051147,-0.34999996423721313,-0.7177030444145203,0.0,0.0,0.0
1759837281.6421332,1,-1.7350000143051147,-0.34999996423721313,-0.7177027734057972,0.0,True,0.011294364929199219,-1.7350000143051147,-0.34999996423721313,-0.7177030444145203,0.0,0.0,0.0
1759837281.6529803,1,-1.7350000143051147,-0.34999996423721313,-0.7177027846349198,0.0,True,0.010847091674804688,-1.7350000143051147,-0.34999996423721313,-0.7177030444145203,0.0,0.0,0.0
1759837281.6638916,1,-1.7350000143051147,-0.34999996423721313,-0.7177027947250068,0.0,True,0.010911226272583008,-1.7350000143051147,-0.34999996423721313,-0.7177030444145203,0.0,0.0,0.0
1759837281.6751099,1,-1.7350000143051147,-0.34999996423721313,-0.717702802539252,0.0,True,0.01121830940246582,-1.7350000143051147,-0.34999996423721313,-0.7177030444145203,0.0,0.0,0.0
1759837281.685861,1,-1.7350000143051147,-0.34999996423721313,-0.7177028124948315,0.0,True,0.01075124740600586,-1.7350000143051147,-0.34999996423721313,-0.7177030444145203,0.0,0.0,0.0
1759837281.6973174,1,-1.7350000143051147,-0.34999996423721313,-0.7177028184412251,0.0,True,0.01145625114440918,-1.7350000143051147,-0.34999996423721313,-0.7177030444145203,0.0,0.0,0.0
1759837281.708224,1,-1.7350000143051147,-0.34999996423721313,-0.7177028271196413,0.0,True,0.010906696319580078,-1.7350000143051147,-0.34999996423721313,-0.7177030444145203,0.0,0.0,0.0
1759837281.7190425,1,-1.7350000143051147,-0.34999996423721313,-0.7177028357727622,0.0,True,0.0108184814453125,-1.7350000143051147,-0.34999996423721313,-0.7177030444145203,0.0,0.0,0.0
1759837281.729876,1,-1.7350000143051147,-0.34999996423721313,-0.717702843702309,0.0,True,0.010833501815795898,-1.7350000143051147,-0.34999996423721313,-0.7177030444145203,0.0,0.0,0.0
1759837281.74118,1,-1.7350000143051147,-0.34999996423721313,-0.7177028491757191,0.0,True,0.011303901672363281,-1.7350000143051147,-0.34999996423721313,-0.7177030444145203,0.0,0.0,0.0
1759837281.7520642,1,-1.7350000143051147,-0.34999996423721313,-0.7177028564359613,0.0,True,0.010884284973144531,-1.7350000143051147,-0.34999996423721313,-0.7177030444145203,0.0,0.0,0.0
1759837281.7660124,1,-1.7350000143051147,-0.34999996423721313,-0.717702851918963,0.0,True,0.013948202133178711,-1.7350000143051147,-0.34999996423721313,-0.7177030444145203,0.0,0.0,0.0
1759837281.7774134,1,-1.7350000143051147,-0.34999996423721313,-0.7177028598494708,0.0,True,0.011400938034057617,-1.7350000143051147,-0.34999996423721313,-0.7177030444145203,0.0,0.0,0.0
1759837281.7883143,1,-1.7350000143051147,-0.34999996423721313,-0.7177028696701413,0.0,True,0.01090097427368164,-1.7350000143051147,-0.34999996423721313,-0.7177030444145203,0.0,0.0,0.0
1759837281.7994738,1,-1.7350000143051147,-0.34999996423721313,-0.7177028774162864,0.0,True,0.011159420013427734,-1.7350000143051147,-0.34999996423721313,-0.7177030444145203,0.0,0.0,0.0
1759837281.810621,1,-1.7350000143051147,-0.34999996423721313,-0.7177028843717235,0.0,True,0.011147260665893555,-1.7350000143051147,-0.34999996423721313,-0.7177030444145203,0.0,0.0,0.0
1759837281.8213458,1,-1.7350000143051147,-0.34999996423721313,-0.7177028920500561,0.0,True,0.010724782943725586,-1.7350000143051147,-0.34999996423721313,-0.7177030444145203,0.0,0.0,0.0
1759837281.8320389,1,-1.7350000143051147,-0.34999996423721313,-0.7177028989490779,0.0,True,0.010693073272705078,-1.7350000143051147,-0.34999996423721313,-0.7177030444145203,0.0,0.0,0.0
1759837281.8434,1,-1.7350000143051147,-0.34999996423721313,-0.7177029031119844,0.0,True,0.011361122131347656,-1.7350000143051147,-0.34999996423721313,-0.7177030444145203,0.0,0.0,0.0
1759837281.8547132,1,-1.7350000143051147,-0.34999996423721313,-0.7177029074041847,0.0,True,0.011313199996948242,-1.7350000143051147,-0.34999996423721313,-0.7177030444145203,0.0,0.0,0.0
1759837281.8662047,1,-1.7350000143051147,-0.34999996423721313,-0.7177029112845403,0.0,True,0.011491537094116211,-1.7350000143051147,-0.34999996423721313,-0.7177030444145203,0.0,0.0,0.0
1759837281.87698,1,-1.7350000143051147,-0.34999996423721313,-0.7177029171849671,0.0,True,0.010775327682495117,-1.7350000143051147,-0.34999996423721313,-0.7177030444145203,0.0,0.0,0.0
1759837281.8882964,1,-1.7350000143051147,-0.34999996423721313,-0.7177029212349026,0.0,True,0.011316299438476562,-1.7350000143051147,-0.34999996423721313,-0.7177030444145203,0.0,0.0,0.0
1759837281.8995144,1,-1.7350000143051147,-0.34999996423721313,-0.717702925416809,0.0,True,0.011218070983886719,-1.7350000143051147,-0.34999996423721313,-0.7177030444145203,0.0,0.0,0.0
1759837281.9099715,1,-1.7350000143051147,-0.34999996423721313,-0.7177029312942533,0.0,True,0.010457038879394531,-1.7350000143051147,-0.34999996423721313,-0.7177030444145203,0.0,0.0,0.0
1759837281.9211984,1,-1.7350000143051147,-0.34999996423721313,-0.7177029347513137,0.0,True,0.011226892471313477,-1.7350000143051147,-0.34999996423721313,-0.7177030444145203,0.0,0.0,0.0
1759837281.932544,1,-1.7350000143051147,-0.34999996423721313,-0.7177029378412705,0.0,True,0.011345624923706055,-1.7350000143051147,-0.34999996423721313,-0.7177030444145203,0.0,0.0,0.0
1759837281.9437363,1,-1.7350000143051147,-0.34999996423721313,-0.7177029413612352,0.0,True,0.01119232177734375,-1.7350000143051147,-0.34999996423721313,-0.7177030444145203,0.0,0.0,0.0
1759837281.954612,1,-1.7350000143051147,-0.34999996423721313,-0.7177029454946151,0.0,True,0.010875701904296875,-1.7350000143051147,-0.34999996423721313,-0.7177030444145203,0.0,0.0,0.0
1759837281.9721472,1,-1.7350000143051147,-0.34999996423721313,-0.7177029364560372,0.0,True,0.01753520965576172,-1.7350000143051147,-0.34999996423721313,-0.7177030444145203,0.0,0.0,0.0
1759837281.9827104,1,-1.7350000143051147,-0.34999996423721313,-0.7177029443034169,0.0,True,0.010563135147094727,-1.7350000143051147,-0.34999996423721313,-0.7177030444145203,0.0,0.0,0.0
1759837281.9940147,1,-1.7350000143051147,-0.34999996423721313,-0.7177029502809322,0.0,True,0.011304378509521484,-1.7350000143051147,-0.34999996423721313,-0.7177030444145203,0.0,0.0,0.0
1759837282.005255,1,-1.7350000143051147,-0.34999996423721313,-0.7177029553756888,0.0,True,0.011240243911743164,-1.7350000143051147,-0.34999996423721313,-0.7177030444145203,0.0,0.0,0.0
1759837282.01654,1,-1.7350000143051147,-0.34999996423721313,-0.7177029596715272,0.0,True,0.011285066604614258,-1.7350000143051147,-0.34999996423721313,-0.7177030444145203,0.0,0.0,0.0
1759837282.0273895,1,-1.7350000143051147,-0.34999996423721313,-0.7177029641473194,0.0,True,0.010849475860595703,-1.7350000143051147,-0.34999996423721313,-0.7177030444145203,0.0,0.0,0.0
1759837282.0385294,1,-1.7350000143051147,-0.34999996423721313,-0.7177029675756721,0.0,True,0.011139869689941406,-1.7350000143051147,-0.34999996423721313,-0.7177030444145203,0.0,0.0,0.0
1759837282.0489316,1,-1.7350000143051147,-0.34999996423721313,-0.717702971747288,0.0,True,0.010402202606201172,-1.7350000143051147,-0.34999996423721313,-0.7177030444145203,0.0,0.0,0.0
1759837282.0602686,1,-1.7350000143051147,-0.34999996423721313,-0.7177029739863627,0.0,True,0.011337041854858398,-1.7350000143051147,-0.34999996423721313,-0.7177030444145203,0.0,0.0,0.0
1759837282.071627,1,-1.7350000143051147,-0.34999996423721313,-0.7177029761012452,0.0,True,0.011358261108398438,-1.7350000143051147,-0.34999996423721313,-0.7177030444145203,0.0,0.0,0.0
1759837282.0822713,1,-1.7350000143051147,-0.34999996423721313,-0.7177029792037466,0.0,True,0.01064443588256836,-1.7350000143051147,-0.34999996423721313,-0.7177030444145203,0.0,0.0,0.0
1759837282.09351,1,-1.7350000143051147,-0.34999996423721313,-0.717702981240631,0.0,True,0.011238574981689453,-1.7350000143051147,-0.34999996423721313,-0.7177030444145203,0.0,0.0,0.0
1759837282.1037972,1,-1.7350000143051147,-0.34999996423721313,-0.7177029844127887,0.0,True,0.010287284851074219,-1.7350000143051147,-0.34999996423721313,-0.7177030444145203,0.0,0.0,0.0
1759837282.1153102,1,-1.7350000143051147,-0.34999996423721313,-0.7177029857162598,0.0,True,0.011512994766235352,-1.7350000143051147,-0.34999996423721313,-0.7177030444145203,0.0,0.0,0.0
1759837282.126163,1,-1.7350000143051147,-0.34999996423721313,-0.7177029878847243,0.0,True,0.010852813720703125,-1.7350000143051147,-0.34999996423721313,-0.7177030444145203,0.0,0.0,0.0
1759837282.1365173,1,-1.7350000143051147,-0.34999996423721313,-0.7177029905398697,0.0,True,0.010354280471801758,-1.7350000143051147,-0.34999996423721313,-0.7177030444145203,0.0,0.0,0.0
1759837282.1477787,1,-1.7350000143051147,-0.34999996423721313,-0.7177029918919544,0.0,True,0.011261463165283203,-1.7350000143051147,-0.34999996423721313,-0.7177030444145203,0.0,0.0,0.0
1759837282.1582003,1,-1.7350000143051147,-0.34999996423721313,-0.7177029941677038,0.0,True,0.010421514511108398,-1.7350000143051147,-0.34999996423721313,-0.7177030444145203,0.0,0.0,0.0
1759837282.1694572,1,-1.7350000143051147,-0.34999996423721313,-0.7177029953911251,0.0,True,0.011256933212280273,-1.7350000143051147,-0.34999996423721313,-0.7177030444145203,0.0,0.0,0.0
1759837282.1807063,1,-1.7350000143051147,-0.34999996423721313,-0.7177029966723758,0.0,True,0.011249065399169922,-1.7350000143051147,-0.34999996423721313,-0.7177030444145203,0.0,0.0,0.0
1759837282.1920843,1,-1.7350000143051147,-0.34999996423721313,-0.7177029979142908,0.0,True,0.011378049850463867,-1.7350000143051147,-0.34999996423721313,-0.7177030444145203,0.0,0.0,0.0
1759837282.202876,1,-1.7350000143051147,-0.34999996423721313,-0.7177029997845992,0.0,True,0.010791778564453125,-1.7350000143051147,-0.34999996423721313,-0.7177030444145203,0.0,0.0,0.0
1759837282.2137682,1,-1.7350000143051147,-0.34999996423721313,-0.7177030014502215,0.0,True,0.010892152786254883,-1.7350000143051147,-0.34999996423721313,-0.7177030444145203,0.0,0.0,0.0
1759837282.2240834,1,-1.7350000143051147,-0.34999996423721313,-0.7177030035043099,0.0,True,0.010315179824829102,-1.7350000143051147,-0.34999996423721313,-0.7177030444145203,0.0,0.0,0.0
1759837282.2356036,1,-1.7350000143051147,-0.34999996423721313,-0.7177030043090884,0.0,True,0.011520147323608398,-1.7350000143051147,-0.34999996423721313,-0.7177030444145203,0.0,0.0,0.0
1759837282.2469618,1,-1.7350000143051147,-0.34999996423721313,-0.7177030053374871,0.0,True,0.011358261108398438,-1.7350000143051147,-0.34999996423721313,-0.7177030444145203,0.0,0.0,0.0
1759837282.2576542,1,-1.7350000143051147,-0.34999996423721313,-0.7177030069758015,0.0,True,0.010692358016967773,-1.7350000143051147,-0.34999996423721313,-0.7177030444145203,0.0,0.0,0.0
1759837282.2678444,1,-1.7350000143051147,-0.34999996423721313,-0.7177030088768213,0.0,True,0.010190248489379883,-1.7350000143051147,-0.34999996423721313,-0.7177030444145203,0.0,0.0,0.0
1759837282.2783475,1,-1.7350000143051147,-0.34999996423721313,-0.7177030102969546,0.0,True,0.010503053665161133,-1.7350000143051147,-0.34999996423721313,-0.7177030444145203,0.0,0.0,0.0
1759837282.289252,1,-1.7350000143051147,-0.34999996423721313,-0.7177030112825022,0.0,True,0.010904550552368164,-1.7350000143051147,-0.34999996423721313,-0.7177030444145203,0.0,0.0,0.0
1759837282.299594,1,-1.7350000143051147,-0.34999996423721313,-0.717703012642307,0.0,True,0.010341882705688477,-1.7350000143051147,-0.34999996423721313,-0.7177030444145203,0.0,0.0,0.0
1759837282.3106108,1,-1.7350000143051147,-0.34999996423721313,-0.7177030134450213,0.0,True,0.011016845703125,-1.7350000143051147,-0.34999996423721313,-0.7177030444145203,0.0,0.0,0.0
1759837282.3216496,1,-1.7350000143051147,-0.34999996423721313,-0.7177030142555907,0.0,True,0.011038780212402344,-1.7350000143051147,-0.34999996423721313,-0.7177030444145203,0.0,0.0,0.0
1759837282.3330102,1,-1.7350000143051147,-0.34999996423721313,-0.7177030149133792,0.0,True,0.011360645294189453,-1.7350000143051147,-0.34999996423721313,-0.7177030444145203,0.0,0.0,0.0
1759837282.3445446,1,-1.7350000143051147,-0.34999996423721313,-0.7177030155569799,0.0,True,0.011534452438354492,-1.7350000143051147,-0.34999996423721313,-0.7177030444145203,0.0,0.0,0.0
1759837282.3557708,1,-1.7350000143051147,-0.34999996423721313,-0.7177030164785645,0.0,True,0.011226177215576172,-1.7350000143051147,-0.34999996423721313,-0.7177030444145203,0.0,0.0,0.0
1759837282.3713593,1,-1.7350000143051147,-0.34999996423721313,-0.7177030150390511,0.0,True,0.015588521957397461,-1.7350000143051147,-0.34999996423721313,-0.7177030444145203,0.0,0.0,0.0
1759837282.3826494,1,-1.7350000143051147,-0.34999996423721313,-0.7177030166143066,0.0,True,0.01129007339477539,-1.7350000143051147,-0.34999996423721313,-0.7177030444145203,0.0,0.0,0.0
1759837282.393552,1,-1.7350000143051147,-0.34999996423721313,-0.7177030183501127,0.0,True,0.010902643203735352,-1.7350000143051147,-0.34999996423721313,-0.7177030444145203,0.0,0.0,0.0
1759837282.403894,1,-1.7350000143051147,-0.34999996423721313,-0.7177030200861694,0.0,True,0.010341882705688477,-1.7350000143051147,-0.34999996423721313,-0.7177030444145203,0.0,0.0,0.0
1759837282.4151351,1,-1.7350000143051147,-0.34999996423721313,-0.7177030210883402,0.0,True,0.01124119758605957,-1.7350000143051147,-0.34999996423721313,-0.7177030444145203,0.0,0.0,0.0
1759837282.4253812,1,-1.7350000143051147,-0.34999996423721313,-0.7177030224261678,0.0,True,0.010246038436889648,-1.7350000143051147,-0.34999996423721313,-0.7177030444145203,0.0,0.0,0.0
1759837282.436851,1,-1.7350000143051147,-0.34999996423721313,-0.7177030230321186,0.0,True,0.011469841003417969,-1.7350000143051147,-0.34999996423721313,-0.7177030444145203,0.0,0.0,0.0
1759837282.447612,1,-1.7350000143051147,-0.34999996423721313,-0.717703023928733,0.0,True,0.010761022567749023,-1.7350000143051147,-0.34999996423721313,-0.7177030444145203,0.0,0.0,0.0
1759837282.4650314,1,-1.7350000143051147,-0.34999996423721313,-0.7177030220820786,0.0,True,0.01741933822631836,-1.7350000143051147,-0.34999996423721313,-0.7177030444145203,0.0,0.12114198204182003,0.0
1759837282.4762518,1,-1.7350000143051147,-0.34999996423721313,-0.7177030234317385,0.0,True,0.011220455169677734,-1.7350000143051147,-0.34999996423721313,-0.7177030444145203,0.0,0.12114198204182003,0.0
1759837282.4887269,1,-1.7350000143051147,-0.34999996423721313,-0.717703024293872,0.0,True,0.012475013732910156,-1.7350000143051147,-0.34999996423721313,-0.7177030444145203,0.0,0.12114198204182003,0.0
1759837282.4999526,1,-1.7350000143051147,-0.34999996423721313,-0.7177030255351085,0.0,True,0.011225700378417969,-1.7350000143051147,-0.34999996423721313,-0.7177030444145203,0.0,0.12114198204182003,0.0
1759837282.5129895,1,-1.7350000143051147,-0.34999996423721313,-0.7177030259909216,0.0,True,0.013036966323852539,-1.7350000143051147,-0.34999996423721313,-0.7177030444145203,0.0,0.12114198204182003,0.0
1759837282.5237868,1,-1.7350000143051147,-0.34999996423721313,-0.717703027214327,0.0,True,0.010797262191772461,-1.7350000143051147,-0.34999996423721313,-0.7177030444145203,0.0,0.12114198204182003,0.0
1759837282.5361233,1,-1.7350000143051147,-0.34999996423721313,-0.7177030277838838,0.0,True,0.012336492538452148,-1.7350000143051147,-0.34999996423721313,-0.7177030444145203,0.0,0.12114198204182003,0.0
1759837282.5470104,1,-1.7350000143051147,-0.34999996423721313,-0.717703028765392,0.0,True,0.01088714599609375,-1.7350000143051147,-0.34999996423721313,-0.7177030444145203,0.0,0.12114198204182003,0.0
1759837282.5599132,1,-1.7350000143051147,-0.34999996423721313,-0.7177030290310391,0.0,True,0.01290273666381836,-1.7350000143051147,-0.34999996423721313,-0.7177030444145203,0.0,0.12114198204182003,0.0
1759837282.575496,1,-1.7350000143051147,-0.34999996423721313,-0.717703028622692,0.0,True,0.015582799911499023,-1.7350000143051147,-0.34999996423721313,-0.7177030444145203,0.0,0.12114198204182003,0.0
1759837282.585738,1,-1.7350000143051147,-0.34999996423721313,-0.7177030299564588,0.0,True,0.010241985321044922,-1.7350000143051147,-0.34999996423721313,-0.7177030444145203,0.0,0.12114198204182003,0.0
1759837282.596767,1,-1.7350000143051147,-0.34999996423721313,-0.7177030309015482,0.0,True,0.01102900505065918,-1.7350000143051147,-0.34999996423721313,-0.7177030444145203,0.0,0.12114198204182003,0.0
1759837282.608285,1,-1.7350000143051147,-0.34999996423721313,-0.7177030315433974,0.0,True,0.011518001556396484,-1.7350000143051147,-0.34999996423721313,-0.7177030444145203,0.0,0.12114198204182003,0.0
1759837282.6195283,1,-1.7350000143051147,-0.34999996423721313,-0.717703032166856,0.0,True,0.011243343353271484,-1.7350000143051147,-0.34999996423721313,-0.7177030444145203,0.0,0.12114198204182003,0.0
1759837282.629882,1,-1.7350000143051147,-0.34999996423721313,-0.7177030329234686,0.0,True,0.010353803634643555,-1.7350000143051147,-0.34999996423721313,-0.7177030444145203,0.0,0.12114198204182003,0.0
1759837282.6399412,1,-1.7350000143051147,-0.34999996423721313,-0.7177030336242005,0.0,True,0.010059118270874023,-1.7350000143051147,-0.34999996423721313,-0.7177030444145203,0.0,0.12114198204182003,0.0
1759837282.6501203,1,-1.7350000143051147,-0.34999996423721313,-0.7177030341738107,0.0,True,0.01017904281616211,-1.7350000143051147,-0.34999996423721313,-0.7177030444145203,0.0,0.12114198204182003,0.0
1759837282.661145,1,-1.7350000143051147,-0.34999996423721313,-0.717703034455905,0.0,True,0.011024713516235352,-1.7350000143051147,-0.34999996423721313,-0.7177030444145203,0.0,0.12114198204182003,0.0
1759837282.672095,1,-1.7350000143051147,-0.34999996423721313,-0.7177030347448898,0.0,True,0.010950088500976562,-1.7350000143051147,-0.34999996423721313,-0.7177030444145203,0.0,0.12114198204182003,0.0
1759837282.6843102,1,-1.7350000143051147,-0.34999996423721313,-0.7177030347865436,0.0,True,0.012215137481689453,-1.7350000143051147,-0.34999996423721313,-0.7177030444145203,0.0,0.12114198204182003,0.0
1759837282.6956205,1,-1.7350000143051147,-0.34999996423721313,-0.7177030350768518,0.0,True,0.011310338973999023,-1.7350000143051147,-0.34999996423721313,-0.7177030444145203,0.0,0.12114198204182003,0.0
1759837282.7061846,1,-1.7350000143051147,-0.34999996423721313,-0.7177030355212963,0.0,True,0.010564088821411133,-1.7350000143051147,-0.34999996423721313,-0.7177030444145203,0.0,0.12114198204182003,0.0
1759837282.716416,1,-1.7350000143051147,-0.34999996423721313,-0.7177030359786762,0.0,True,0.010231256484985352,-1.7350000143051147,-0.34999996423721313,-0.7177030444145203,0.0,0.12114198204182003,0.0
1759837282.7271345,1,-1.7350000143051147,-0.34999996423721313,-0.7177030362865846,0.0,True,0.010718584060668945,-1.7350000143051147,-0.34999996423721313,-0.7177030444145203,0.0,0.12114198204182003,0.0
1759837282.737819,1,-1.7350000143051147,-0.34999996423721313,-0.7177030365721517,0.0,True,0.010684490203857422,-1.7350000143051147,-0.34999996423721313,-0.7177030444145203,0.0,0.12114198204182003,0.0
1759837282.7481225,1,-1.7350000143051147,-0.34999996423721313,-0.7177030369025665,0.0,True,0.010303497314453125,-1.7350000143051147,-0.34999996423721313,-0.7177030444145203,0.0,0.12114198204182003,0.0
1759837282.7582939,1,-1.7350000143051147,-0.34999996423721313,-0.7177030372213355,0.0,True,0.01017141342163086,-1.7350000143051147,-0.34999996423721313,-0.7177030444145203,0.0,0.12114198204182003,0.0
1759837282.7703936,1,-1.7350000143051147,-0.34999996423721313,-0.7177030372111926,0.0,True,0.012099742889404297,-1.7350000143051147,-0.34999996423721313,-0.7177030444145203,0.0,0.12114198204182003,0.0
1759837282.7803352,1,-1.7350000143051147,-0.34999996423721313,-0.717703037578179,0.0,True,0.009941577911376953,-1.7350000143051147,-0.34999996423721313,-0.7177030444145203,0.0,0.12114198204182003,0.0
1759837282.7905838,1,-1.7350000143051147,-0.34999996423721313,-0.7177030378689491,0.0,True,0.010248661041259766,-1.7350000143051147,-0.34999996423721313,-0.7177030444145203,0.0,0.12114198204182003,0.0
1759837282.8008485,1,-1.7350000143051147,-0.34999996423721313,-0.7177030381218295,0.0,True,0.01026463508605957,-1.7350000143051147,-0.34999996423721313,-0.7177030444145203,0.0,0.12114198204182003,0.0
1759837282.8111796,1,-1.7350000143051147,-0.34999996423721313,-0.7177030383415843,0.0,True,0.010331153869628906,-1.7350000143051147,-0.34999996423721313,-0.7177030444145203,0.0,0.12114198204182003,0.0
1759837282.8219235,1,-1.7350000143051147,-0.34999996423721313,-0.7177030384923597,0.0,True,0.010743856430053711,-1.7350000143051147,-0.34999996423721313,-0.7177030444145203,0.0,0.12114198204182003,0.0
1759837282.8321245,1,-1.7350000143051147,-0.34999996423721313,-0.7177030387159942,0.0,True,0.010200977325439453,-1.7350000143051147,-0.34999996423721313,-0.7177030444145203,0.0,0.12114198204182003,0.0
1759837282.8425517,1,-1.7350000143051147,-0.34999996423721313,-0.7177030388977244,0.0,True,0.010427236557006836,-1.7350000143051147,-0.34999996423721313,-0.7177030444145203,0.0,0.12114198204182003,0.0
1759837282.8532906,1,-1.7350000143051147,-0.34999996423721313,-0.7177030390342534,0.0,True,0.010738849639892578,-1.7350000143051147,-0.34999996423721313,-0.7177030444145203,0.0,0.12114198204182003,0.0
1759837282.863795,1,-1.7350000143051147,-0.34999996423721313,-0.7177030392031938,0.0,True,0.010504484176635742,-1.7350000143051147,-0.34999996423721313,-0.7177030444145203,0.0,0.12114198204182003,0.0
1759837282.8745625,1,-1.7350000143051147,-0.34999996423721313,-0.7177030393407318,0.0,True,0.010767459869384766,-1.7350000143051147,-0.34999996423721313,-0.7177030444145203,0.0,0.12114198204182003,0.0
1759837282.8858166,1,-1.7350000143051147,-0.34999996423721313,-0.7177030394303028,0.0,True,0.011254072189331055,-1.7350000143051147,-0.34999996423721313,-0.7177030444145203,0.0,0.12114198204182003,0.0
1759837282.8960721,1,-1.7350000143051147,-0.34999996423721313,-0.7177030396420747,0.0,True,0.010255575180053711,-1.7350000143051147,-0.34999996423721313,-0.7177030444145203,0.0,0.12114198204182003,0.0
1759837282.9063027,1,-1.7350000143051147,-0.34999996423721313,-0.7177030398412292,0.0,True,0.010230541229248047,-1.7350000143051147,-0.34999996423721313,-0.7177030444145203,0.0,0.12114198204182003,0.0
1759837282.916984,1,-1.7350000143051147,-0.34999996423721313,-0.7177030399759445,0.0,True,0.010681390762329102,-1.7350000143051147,-0.34999996423721313,-0.7177030444145203,0.0,0.12114198204182003,0.0
1759837282.927136,1,-1.7350000143051147,-0.34999996423721313,-0.7177030401567954,0.0,True,0.010151863098144531,-1.7350000143051147,-0.34999996423721313,-0.7177030444145203,0.0,0.12114198204182003,0.0
1759837282.9378498,1,-1.7350000143051147,-0.34999996423721313,-0.7177030402716191,0.0,True,0.010713815689086914,-1.7350000143051147,-0.34999996423721313,-0.7177030444145203,0.0,0.12114198204182003,0.0
1759837282.948131,1,-1.7350000143051147,-0.34999996423721313,-0.717703040424329,0.0,True,0.01028132438659668,-1.7350000143051147,-0.34999996423721313,-0.7177030444145203,0.0,0.0,0.0
1759837282.9599261,1,-1.7350000143051147,-0.34999996423721313,-0.7177030404401457,0.0,True,0.0117950439453125,-1.7350000143051147,-0.34999996423721313,-0.7177030444145203,0.0,0.0,0.0
1759837282.973116,1,-1.7350000143051147,-0.34999996423721313,-0.7177030403734079,0.0,True,0.01318979263305664,-1.7350000143051147,-0.34999996423721313,-0.7177030444145203,0.0,0.0,0.0
1759837282.9818308,1,-1.7350000143051147,-0.34999996423721313,-0.7177030407217764,0.0,True,0.008714914321899414,-1.7350000143051147,-0.34999996423721313,-0.7177030444145203,0.0,0.0,0.0
1759837282.992151,1,-1.7350000143051147,-0.34999996423721313,-0.7177030408929177,0.0,True,0.010320186614990234,-1.7350000143051147,-0.34999996423721313,-0.7177030444145203,0.0,0.0,0.0
1759837283.0024188,1,-1.7350000143051147,-0.34999996423721313,-0.7177030410375114,0.0,True,0.01026773452758789,-1.7350000143051147,-0.34999996423721313,-0.7177030444145203,0.0,0.0,0.0
1759837283.0135632,1,-1.7350000143051147,-0.34999996423721313,-0.7177030411042349,0.0,True,0.011144399642944336,-1.7350000143051147,-0.34999996423721313,-0.7177030444145203,0.0,0.0,0.0
1759837283.0246706,1,-1.7350000143051147,-0.34999996423721313,-0.7177030411814549,0.0,True,0.011107444763183594,-1.7350000143051147,-0.34999996423721313,-0.7177030444145203,0.0,0.0,0.0
1759837283.0360096,1,-1.7350000143051147,-0.34999996423721313,-0.7177030412524079,0.0,True,0.011338949203491211,-1.7350000143051147,-0.34999996423721313,-0.7177030444145203,0.0,0.0,0.0
1759837283.0472336,1,-1.7350000143051147,-0.34999996423721313,-0.7177030413409788,0.0,True,0.011224031448364258,-1.7350000143051147,-0.34999996423721313,-0.7177030444145203,0.0,0.0,0.0
1759837283.0580928,1,-1.7350000143051147,-0.34999996423721313,-0.7177030414569714,0.0,True,0.010859251022338867,-1.7350000143051147,-0.34999996423721313,-0.7177030444145203,0.0,0.0,0.0
1759837283.069525,1,-1.7350000143051147,-0.34999996423721313,-0.7177030415337402,0.0,True,0.011432170867919922,-1.7350000143051147,-0.34999996423721313,-0.7177030444145203,0.0,0.0,0.0
1759837283.0800016,1,-1.7350000143051147,-0.34999996423721313,-0.7177030416693153,0.0,True,0.01047658920288086,-1.7350000143051147,-0.34999996423721313,-0.7177030444145203,0.0,0.0,0.0
1759837283.0909305,1,-1.7350000143051147,-0.34999996423721313,-0.7177030417671375,0.0,True,0.010928869247436523,-1.7350000143051147,-0.34999996423721313,-0.7177030444145203,0.0,0.0,0.0
1759837283.101185,1,-1.7350000143051147,-0.34999996423721313,-0.7177030418947883,0.0,True,0.010254621505737305,-1.7350000143051147,-0.34999996423721313,-0.7177030444145203,0.0,0.0,0.0
1759837283.1124353,1,-1.7350000143051147,-0.34999996423721313,-0.7177030419561934,0.0,True,0.01125025749206543,-1.7350000143051147,-0.34999996423721313,-0.7177030444145203,0.0,0.0,0.0
1759837283.1227582,1,-1.7350000143051147,-0.34999996423721313,-0.7177030420661641,0.0,True,0.010322809219360352,-1.7350000143051147,-0.34999996423721313,-0.7177030444145203,0.0,0.0,0.0
1759837283.133673,1,-1.7350000143051147,-0.34999996423721313,-0.7177030421378738,0.0,True,0.010914802551269531,-1.7350000143051147,-0.34999996423721313,-0.7177030444145203,0.0,0.0,0.0
1759837283.1438773,1,-1.7350000143051147,-0.34999996423721313,-0.717703042240764,0.0,True,0.010204315185546875,-1.7350000143051147,-0.34999996423721313,-0.7177030444145203,0.0,0.0,0.0
1759837283.1549573,1,-1.7350000143051147,-0.34999996423721313,-0.7177030422936799,0.0,True,0.011080026626586914,-1.7350000143051147,-0.34999996423721313,-0.7177030444145203,0.0,0.0,0.0
1759837283.1661382,1,-1.7350000143051147,-0.34999996423721313,-0.7177030423440556,0.0,True,0.011180877685546875,-1.7350000143051147,-0.34999996423721313,-0.7177030444145203,0.0,0.0,0.0
1759837283.1822572,1,-1.7350000143051147,-0.34999996423721313,-0.7177030421947244,0.0,True,0.016119003295898438,-1.7350000143051147,-0.34999996423721313,-0.7177030444145203,0.0,0.0,0.0
1759837283.1935937,1,-1.7350000143051147,-0.34999996423721313,-0.7177030423068373,0.0,True,0.011336565017700195,-1.7350000143051147,-0.34999996423721313,-0.7177030444145203,0.0,0.0,0.0
1759837283.2037857,1,-1.7350000143051147,-0.34999996423721313,-0.7177030424644091,0.0,True,0.010191917419433594,-1.7350000143051147,-0.34999996423721313,-0.7177030444145203,0.0,0.0,0.0
1759837283.2142446,1,-1.7350000143051147,-0.34999996423721313,-0.7177030425837856,0.0,True,0.010458946228027344,-1.7350000143051147,-0.34999996423721313,-0.7177030444145203,0.0,0.0,0.0
1759837283.2254126,1,-1.7350000143051147,-0.34999996423721313,-0.7177030426559945,0.0,True,0.01116800308227539,-1.7350000143051147,-0.34999996423721313,-0.7177030444145203,0.0,0.0,0.0
1759837283.2356977,1,-1.7350000143051147,-0.34999996423721313,-0.7177030427514417,0.0,True,0.010285139083862305,-1.7350000143051147,-0.34999996423721313,-0.7177030444145203,0.0,0.0,0.0
1759837283.2464502,1,-1.7350000143051147,-0.34999996423721313,-0.7177030428183215,0.0,True,0.010752439498901367,-1.7350000143051147,-0.34999996423721313,-0.7177030444145203,0.0,0.0,0.0
1759837283.257048,1,-1.7350000143051147,-0.34999996423721313,-0.7177030428832119,0.0,True,0.010597705841064453,-1.7350000143051147,-0.34999996423721313,-0.7177030444145203,0.0,0.0,0.0
1759837283.2677321,1,-1.7350000143051147,-0.34999996423721313,-0.7177030429396218,0.0,True,0.01068425178527832,-1.7350000143051147,-0.34999996423721313,-0.7177030444145203,0.0,0.0,0.0
1759837283.2789247,1,-1.7350000143051147,-0.34999996423721313,-0.717703042976698,0.0,True,0.011192560195922852,-1.7350000143051147,-0.34999996423721313,-0.7177030444145203,0.0,0.0,0.0
1759837283.2898033,1,-1.7350000143051147,-0.34999996423721313,-0.7177030430247342,0.0,True,0.010878562927246094,-1.7350000143051147,-0.34999996423721313,-0.7177030444145203,0.0,0.0,0.0
1759837283.3024876,1,-1.7350000143051147,-0.34999996423721313,-0.717703043021304,0.0,True,0.012684345245361328,-1.7350000143051147,-0.34999996423721313,-0.7177030444145203,0.0,0.0,0.0
1759837283.3139966,1,-1.7350000143051147,-0.34999996423721313,-0.7177030430641622,0.0,True,0.011508941650390625,-1.7350000143051147,-0.34999996423721313,-0.7177030444145203,0.0,0.0,0.0
1759837283.3286545,1,-1.7350000143051147,-0.34999996423721313,-0.7177030430297151,0.0,True,0.014657974243164062,-1.7350000143051147,-0.34999996423721313,-0.7177030444145203,0.0,0.0,0.0
1759837283.3399925,1,-1.7350000143051147,-0.34999996423721313,-0.7177030431034446,0.0,True,0.011337995529174805,-1.7350000143051147,-0.34999996423721313,-0.7177030444145203,0.0,0.0,0.0
1759837283.3513522,1,-1.7350000143051147,-0.34999996423721313,-0.717703043173433,0.0,True,0.011359691619873047,-1.7350000143051147,-0.34999996423721313,-0.7177030444145203,0.0,0.0,0.0
1759837283.3617532,1,-1.7350000143051147,-0.34999996423721313,-0.7177030432562965,0.0,True,0.010401010513305664,-1.7350000143051147,-0.34999996423721313,-0.7177030444145203,0.0,0.0,0.0
1759837283.373172,1,-1.7350000143051147,-0.34999996423721313,-0.7177030433024907,0.0,True,0.011418819427490234,-1.7350000143051147,-0.34999996423721313,-0.7177030444145203,0.0,0.0,0.0
1759837283.3854775,1,-1.7350000143051147,-0.34999996423721313,-0.7177030433249705,0.0,True,0.012305498123168945,-1.7350000143051147,-0.34999996423721313,-0.7177030444145203,0.0,0.0,0.0
1759837283.3968472,1,-1.7350000143051147,-0.34999996423721313,-0.71770304337063,0.0,True,0.011369705200195312,-1.7350000143051147,-0.34999996423721313,-0.7177030444145203,0.0,0.0,0.0
1759837283.4071107,1,-1.7350000143051147,-0.34999996423721313,-0.7177030434360354,0.0,True,0.010263442993164062,-1.7350000143051147,-0.34999996423721313,-0.7177030444145203,0.0,0.0,0.0
1759837283.4178963,1,-1.7350000143051147,-0.34999996423721313,-0.7177030434812472,0.0,True,0.010785579681396484,-1.7350000143051147,-0.34999996423721313,-0.7177030444145203,0.0,0.0,0.0
1759837283.4288442,1,-1.7350000143051147,-0.34999996423721313,-0.7177030435172611,0.0,True,0.010947942733764648,-1.7350000143051147,-0.34999996423721313,-0.7177030444145203,0.0,0.0,0.0
1759837283.439701,1,-1.7350000143051147,-0.34999996423721313,-0.7177030435519463,0.0,True,0.010856866836547852,-1.7350000143051147,-0.34999996423721313,-0.7177030444145203,0.0,0.0,0.0
1759837283.45059,1,-1.7350000143051147,-0.34999996423721313,-0.7177030435835441,0.0,True,0.010888814926147461,-1.7350000143051147,-0.34999996423721313,-0.7177030444145203,0.0,0.0,0.0
1759837283.4620965,1,-1.7350000143051147,-0.34999996423721313,-0.7177030436028566,0.0,True,0.01150655746459961,-1.7350000143051147,-0.34999996423721313,-0.7177030444145203,0.0,0.0,0.0
1759837283.4739966,1,-1.7350000143051147,-0.34999996423721313,-0.717703043617508,0.0,True,0.011900186538696289,-1.7350000143051147,-0.34999996423721313,-0.7177030444145203,0.0,0.0,0.0
1759837283.4849186,1,-1.7350000143051147,-0.34999996423721313,-0.7177030436510883,0.0,True,0.010921955108642578,-1.7350000143051147,-0.34999996423721313,-0.7177030444145203,0.0,0.0,0.0
1759837283.4958642,1,-1.7350000143051147,-0.34999996423721313,-0.7177030436824285,0.0,True,0.010945558547973633,-1.7350000143051147,-0.34999996423721313,-0.7177030444145203,0.0,0.0,0.0
1759837283.5065405,1,-1.7350000143051147,-0.34999996423721313,-0.7177030437149856,0.0,True,0.010676383972167969,-1.7350000143051147,-0.34999996423721313,-0.7177030444145203,0.0,0.0,0.0
1759837283.517571,1,-1.7350000143051147,-0.34999996423721313,-0.7177030437391956,0.0,True,0.011030435562133789,-1.7350000143051147,-0.34999996423721313,-0.7177030444145203,0.0,0.0,0.0
1759837283.5289154,1,-1.7350000143051147,-0.34999996423721313,-0.7177030437578047,0.0,True,0.011344432830810547,-1.7350000143051147,-0.34999996423721313,-0.7177030444145203,0.0,0.0,0.0
1759837283.5395977,1,-1.7350000143051147,-0.34999996423721313,-0.7177030437856295,0.0,True,0.010682344436645508,-1.7350000143051147,-0.34999996423721313,-0.7177030444145203,0.0,0.0,0.0
1759837283.550374,1,-1.7350000143051147,-0.34999996423721313,-0.7177030438101326,0.0,True,0.010776281356811523,-1.7350000143051147,-0.34999996423721313,-0.7177030444145203,0.0,0.0,0.0
1759837283.5648148,1,-1.7350000143051147,-0.34999996423721313,-0.7177030437882443,0.0,True,0.014440774917602539,-1.7350000143051147,-0.34999996423721313,-0.7177030444145203,0.0,0.0,0.0
1759837283.5760772,1,-1.7350000143051147,-0.34999996423721313,-0.7177030438160656,0.0,True,0.01126241683959961,-1.7350000143051147,-0.34999996423721313,-0.7177030444145203,0.0,0.0,0.0
1759837283.5898664,1,-1.7350000143051147,-0.34999996423721313,-0.7177030438161722,0.0,True,0.013789176940917969,-1.7350000143051147,-0.34999996423721313,-0.7177030444145203,0.0,0.0,0.0
